     2.11           OBSERVATION DATA    G (GPS)             RINEX VERSION / TYPE
teqc  2019Feb25                         20250821 03:54:14UTCPGM / RUN BY / DATE
Linux 2.6.32-573.12.1.x86_64|x86_64|gcc -static|Linux 64|=+ COMMENT
BIT 2 OF LLI FLAGS DATA COLLECTED UNDER A/S CONDITION       COMMENT
35183560                                                    MARKER NAME
3560                                                        MARKER NUMBER
-Unknown-           -Unknown-                               OBSERVER / AGENCY
0220413518          TRIMBLE R7          2.32                REC # / TYPE / VERS
-Unknown-           TRM39105.00     NONE                    ANT # / TYPE
 -2371482.5903 -4596804.1784  3721000.1385                  APPROX POSITION XYZ
        0.0000        0.0000        0.0000                  ANTENNA: DELTA H/E/N
     1     1                                                WAVELENGTH FACT L1/2
     7    L1    L2    C1    P1    P2    S1    S2            # / TYPES OF OBSERV
    18                                                      LEAP SECONDS
 SNR is mapped to RINEX snr flag value [0-9]                COMMENT
  L1 & L2: min(max(int(snr_dBHz/6), 0), 9)                  COMMENT
  2025     8     7    21    57   30.0000000     GPS         TIME OF FIRST OBS
                                                            END OF HEADER
 25  8  7 21 57 30.0000000  0  4G03G31G28G32
   -160896.65656    -81948.14156  22510136.8984                   22510141.3754
        41.0004         38.0004
    -87907.29758    -41870.19558  20402350.1024                   20402349.9344
        49.7504         48.0004
     -7817.87558     -4447.71156  20890213.6564                   20890213.7624
        48.0004         38.0004
     47190.29357     26193.59456  22756944.6484                   22756947.8524
        46.2504         41.7504
 25  8  7 21 58  0.0000000  0  6G03G10G02G31G28G32
   -276797.37147   -172260.34446  22488081.7734                   22488085.9574
        42.5004         37.5004
     71041.52057     43914.67656  23385379.3594                   23385385.1334
        43.2504         36.0004
      1485.61357       977.73856  21474711.6414                   21474710.2774
        47.7504         37.2504
   -164308.55948   -101403.61747  20387811.5314                   20387811.0554
        50.2504         47.2504
    -13644.61748     -8988.04746  20889105.2664                   20889104.9804
        48.0004         37.7504
     84262.12547     55080.71546  22763999.5314                   22764002.0124
        45.5004         40.5004
 25  8  7 21 58 30.0000000  0  6G03G10G02G31G28G32
   -392427.33647   -262361.55546  22466077.9534                   22466082.3674
        42.7504         37.7504
    115770.61346     78768.36345  23393890.8204                   23393896.4844
        41.5004         33.2504
      3054.50848      2200.21146  21475010.4694                   21475008.8014
        48.0004         37.2504
   -239930.69948   -160329.91847  20373420.8984                   20373420.1024
        49.2504         47.5004
    -18720.36747    -12943.18746  20888139.0394                   20888138.9104
        47.0004         37.0004
    121582.38747     84161.39546  22771101.3524                   22771103.8204
        45.0004         40.0004
 25  8  7 21 59  0.0000000  0  6G03G10G02G31G28G32
   -507745.05547   -352219.44546  22444133.7424                   22444137.6724
        42.2504         38.0004
    160975.27047    113992.66846  23402494.2894                   23402498.8874
        45.2504         37.2504
      5340.08648      3981.12546  21475445.5784                   21475443.6024
        48.2504         37.2504
   -314731.87548   -218616.51647  20359186.8524                   20359186.0744
        49.2504         47.5004
    -23006.41448    -16282.96946  20887323.5394                   20887323.0594
        48.0004         38.2504
    159190.37547    113466.28146  22778258.0004                   22778260.3834
        45.7504         40.2504
 25  8  7 21 59 30.0000000  0  6G03G10G02G31G28G32
   -622738.52747   -441824.66846  22422251.1644                   22422254.8984
        42.2504         37.2504
    206665.41846    149595.11345  23411187.1644                   23411194.1294
        40.2504         34.0004
      8351.75447      6327.82846  21476018.6254                   21476016.8554
        47.5004         37.5004
   -388700.42248   -276254.30947  20345111.0634                   20345110.3444
        49.5004         47.5004
    -26493.65647    -19000.30546  20886660.1024                   20886659.9844
        47.0004         38.0004
    197095.72747    143002.87946  22785470.8134                   22785473.7344
        45.2504         40.7504
 25  8  7 22  0  0.0000000  0  6G03G10G02G31G28G32
   -737398.70747   -531170.18746  22400432.3524                   22400435.9734
        42.7504         37.5004
    252848.03147    185581.54345  23419976.9384                   23419981.2584
        44.0004         35.5004
     12095.91047      9245.30946  21476731.1724                   21476729.3554
        47.5004         36.7504
   -461827.44548   -333236.37147  20331194.9454                   20331194.6764
        50.0004         47.5004
    -29175.97347    -21090.42246  20886149.7664                   20886149.0354
        46.5004         37.2504
    235305.23047    172776.47746  22792741.8444                   22792744.0904
        45.2504         40.5004
 25  8  7 22  0 30.0000000  0  6G03G10G02G31G28G32
   -851720.52747   -620252.05146  22378677.1334                   22378680.9024
        42.5004         37.5004
    299526.60247    221954.18446  23428859.5004                   23428865.2664
        43.0004         36.0004
     16574.58248     12735.13346  21477583.4454                   21477581.8014
        48.0004         36.5004
   -534107.96948   -389558.82047  20317440.7274                   20317440.1724
        50.0004         47.5004
    -31051.12547    -22551.57846  20885792.6484                   20885792.2894
        46.7504         37.7504
    273821.68847    202789.26246  22800071.4614                   22800073.9844
        44.5004         40.5004
 25  8  7 22  1  0.0000000  0  7G03G10G04G02G31G28G32
   -965700.68447   -709067.67646  22356987.2894                   22356991.2544
        42.2504         38.0004
    346702.10546    258714.24645  23437836.7814                   23437840.4304
        41.5004         33.0004
   -275712.69556   -174016.71553  23813528.0474                   23813535.2664
        39.7504         22.0004
     21788.32447     16797.74246  21478575.8444                   21478573.8834
        47.7504         36.7504
   -605539.18448   -445219.47347  20303847.6484                   20303847.1484
        49.5004         47.5004
    -32118.83647    -23383.56246  20885589.5634                   20885589.2034
        46.0004         38.0004
    312646.03147    233041.95346  22807459.5944                   22807462.0004
        44.5004         40.5004
 25  8  7 22  1 30.0000000  0  7G03G10G04G02G31G28G32
  -1079351.17247   -797626.41446  22335360.2274                   22335363.6644
        42.7504         38.0004
    394360.76247    295850.66046  23446905.9304                   23446912.2154
        42.0004         37.0004
   -380788.48046   -255893.66443  23793532.8204                   23793539.8134
        40.0004         22.5004
     27722.32448     21421.59846  21479705.0784                   21479703.0784
        48.5004         36.5004
   -676133.43048   -500227.93747  20290414.2734                   20290413.4844
        49.7504         47.5004
    -32394.07847    -23598.03146  20885537.0474                   20885536.7464
        47.7504         37.2504
    351763.99647    263523.44146  22814903.7344                   22814906.1484
        44.5004         40.7504
 25  8  7 22  2  0.0000000  0  7G03G10G04G02G31G28G32
  -1192677.25447   -885932.37146  22313795.2034                   22313798.6914
        42.2504         37.5004
    442495.21147    333357.89545  23456065.8524                   23456069.8324
        42.0004         32.7504
   -485492.55546   -337480.98443  23773607.3984                   23773615.1094
        40.7504         22.5004
     34368.59047     26600.45746  21480969.8754                   21480967.9654
        47.5004         36.7504
   -745896.37548   -554588.64147  20277138.6024                   20277138.1134
        50.5004         47.5004
    -31885.09047    -23201.41446  20885633.5944                   20885633.5204
        47.5004         37.7504
    391168.03547    294227.84446  22822401.8204                   22822404.4964
        44.5004         40.2504
 25  8  7 22  2 30.0000000  0  7G03G10G04G02G31G28G32
  -1305685.44947   -973990.62546  22292289.9384                   22292293.6844
        42.0004         37.7504
    491097.03947    371229.26646  23465314.9774                   23465320.4384
        42.5004         36.5004
   -589832.98446   -418784.91443  23753751.9304                   23753759.6564
        40.5004         22.7504
     41717.45748     32326.80546  21482367.7814                   21482366.5474
        48.2504         36.7504
   -814834.79748   -608306.85247  20264020.1644                   20264019.4654
        49.2504         47.5004
    -30601.47747    -22201.18746  20885878.2504                   20885878.1054
        46.0004         37.5004
    430849.30947    325148.27346  22829952.8914                   22829955.2854
        45.0004         40.0004
 25  8  7 22  3  0.0000000  0  7G03G10G04G02G31G28G32
  -1418383.13347  -1061806.91446  22270845.0634                   22270848.2114
        42.5004         38.0004
    540156.68446    409457.40645  23474649.9614                   23474655.5664
        41.2504         33.0004
   -693818.64846   -499812.45343  23733964.3754                   23733971.3674
        40.5004         22.7504
     49758.82848     38592.76246  21483898.3204                   21483897.1024
        48.0004         37.2504
   -882956.55948   -661388.70747  20251057.0314                   20251056.2154
        50.0004         47.5004
    -28553.65247    -20605.47346  20886267.8204                   20886267.5984
        46.5004         37.2504
    470798.14847    356277.20346  22837555.2664                   22837557.6134
        45.0004         40.0004
 25  8  7 22  3 30.0000000  0  7G03G10G04G02G31G28G32
  -1530778.77746  -1149387.85246  22249455.9924                   22249459.7274
        41.5004         38.0004
    589663.77747    448034.22745  23484071.0704                   23484076.1764
        42.2504         34.5004
   -797459.51646   -580571.28543  23714241.9774                   23714248.5984
        40.7504         22.2504
     58481.14847     45389.32846  21485558.2894                   21485556.2704
        47.7504         37.0004
   -950270.26648   -713840.91447  20238247.5784                   20238247.2854
        50.0004         47.7504
    -25753.24247    -18423.32846  20886800.9614                   20886800.3364
        47.2504         37.5004
    511003.75847    387606.21146  22845206.0554                   22845208.5554
        44.2504         40.0004
 25  8  7 22  4  0.0000000  0  7G03G10G04G02G31G28G32
  -1642880.54747  -1236739.79346  22228124.3914                   22228127.5744
        42.0004         38.2504
    639607.94947    486951.60545  23493575.2194                   23493581.0704
        42.0004         34.2504
   -900765.27046   -661069.02344  23694583.4844                   23694589.9964
        41.0004         24.2504
     67873.28948     52707.83246  21487345.4144                   21487343.8134
        48.2504         37.2504
  -1016784.91448   -765670.47347  20225590.2734                   20225589.3324
        50.0004         47.5004
    -22211.51647    -15663.53546  20887474.9534                   20887474.5084
        47.0004         38.0004
    551455.68447    419127.15246  22852903.6644                   22852906.2704
        45.0004         39.7504
 25  8  7 22  4 30.0000000  0  7G03G10G04G02G31G28G32
  -1754695.36347  -1323868.13346  22206846.0554                   22206849.8204
        42.0004         38.5004
    689980.15646    526202.50445  23503160.3914                   23503166.1524
        41.2504         34.2504
  -1003744.48046   -741312.30943  23674986.6564                   23674993.4454
        40.5004         23.2504
     77925.29748     60540.52746  21489258.1024                   21489256.6994
        48.0004         37.0004
  -1082507.94148   -816883.18447  20213083.4614                   20213082.1844
        50.0004         47.7504
    -17938.57847    -12333.97346  20888287.7034                   20888287.2424
        47.0004         37.2504
    592144.59847    450832.76646  22860646.9844                   22860649.1914
        44.7504         39.7504
 25  8  7 22  5  0.0000000  0  7G03G10G04G02G31G28G32
  -1866229.00847  -1410777.37946  22185622.4614                   22185625.6094
        42.5004         38.5004
    740772.68046    565780.97345  23512826.4224                   23512831.8404
        41.5004         33.2504
  -1106404.33646   -821306.75043  23655451.5864                   23655457.1174
        41.0004         22.5004
     88628.49647     68880.64146  21491295.5314                   21491294.1254
        47.2504         37.2504
  -1147445.44148   -867483.80148  20200726.3444                   20200725.6174
        50.0004         48.0004
    -12943.32047     -8441.55946  20889238.3914                   20889237.9884
        45.7504         37.7504
    633062.55947    482716.85246  22868433.1724                   22868435.5234
        43.5004         39.5004
 25  8  7 22  5 30.0000000  0  7G03G10G04G02G31G28G32
  -1977488.70347  -1497473.15646  22164449.9924                   22164453.4734
        42.5004         38.7504
    791976.00447    605679.48045  23522570.3364                   23522576.5004
        42.0004         34.5004
  -1208753.69146   -901059.25843  23635975.3134                   23635980.9224
        41.0004         23.0004
     99972.23847     77719.86746  21493453.9144                   21493452.3324
        47.7504         37.0004
  -1211605.50048   -917478.61347  20188516.9614                   20188516.1524
        49.2504         47.7504
     -7236.28147     -3994.50446  20890324.2974                   20890324.1764
        46.2504         37.0004
    674199.91847    514771.89546  22876261.7664                   22876263.7234
        44.0004         39.2504
 25  8  7 22  6  0.0000000  0  7G03G10G04G02G31G28G32
  -2088479.44147  -1583959.34846  22143328.9064                   22143332.6134
        42.5004         38.7504
    843583.04346    645892.58645  23532391.3914                   23532396.0984
        41.7504         33.0004
  -1310799.14846   -980574.98043  23616555.5864                   23616562.2664
        41.0004         22.7504
    111948.54348     87052.02046  21495732.5314                   21495731.2774
        48.0004         37.0004
  -1274993.66048   -966871.94548  20176454.7194                   20176453.7424
        49.2504         48.0004
      -825.64147      1000.80946  20891544.3364                   20891544.1684
        46.5004         37.2504
    715549.40647    546992.25046  22884130.2114                   22884132.2734
        44.2504         39.2504
 25  8  7 22  6 30.0000000  0  7G03G10G04G02G31G28G32
  -2199208.60547  -1670241.73046  22122258.5004                   22122261.2234
        42.5004         39.7504
    895584.27346    686412.89845  23542285.6954                   23542292.0314
        40.7504         32.2504
  -1412549.66846  -1059860.87143  23597193.5784                   23597199.3094
        40.7504         23.2504
    124547.03547     96868.98046  21498129.9694                   21498129.0664
        47.7504         37.2504
  -1337617.88748  -1015670.01247  20164537.5314                   20164536.7194
        49.5004         47.7504
      6277.97347      6536.09446  20892895.8204                   20892895.6604
        46.5004         37.2504
    757101.34447    579370.33646  22892036.7344                   22892039.4884
        43.5004         39.7504
 25  8  7 22  7  0.0000000  0  7G03G10G04G02G31G28G32
   -734257.09447   -528720.98046  22401028.5634                   22401032.1334
        42.7504         39.5004
   2523391.10547   1954833.62145  23852048.4534                   23852054.5474
        43.0004         35.2504
     61411.95746     88680.88743  23877678.2814                   23877684.7074
        40.7504         22.7504
   1713179.46948   1334764.34446  21800437.1804                   21800435.3444
        48.2504         37.2504
    175938.64848    163724.73447  20452557.6484                   20452556.7504
        49.2504         47.7504
   1589486.35247   1240204.96546  21194170.6724                   21194170.1214
        46.5004         37.0004
   2374267.38347   1839499.67646  23199773.8834                   23199776.2544
        43.2504         39.5004
 25  8  7 22  7 30.0000000  0  7G03G10G04G02G31G28G32
   -844478.22747   -614607.48446  22380054.6804                   22380057.8524
        43.0004         39.5004
   2576158.97746   1995951.29345  23862089.5004                   23862094.4924
        40.2504         30.5004
    -39768.58646      9839.11343  23858424.2034                   23858430.1524
        40.7504         23.0004
   1726997.83647   1345531.85546  21803066.6644                   21803064.8164
        47.5004         36.7504
    114824.98048    116103.73047  20440927.8444                   20440927.0704
        49.5004         47.7504
   1597950.78147   1246800.62546  21195781.4384                   21195780.8634
        46.5004         37.0004
   2416202.09447   1872176.02746  23207753.3444                   23207756.0004
        43.5004         39.2504
 25  8  7 22  8  0.0000000  0  7G03G10G04G02G31G28G32
   -954450.68047   -700300.21946  22359127.2584                   22359130.5594
        43.7504         39.5004
   2629301.48847   2037360.88745  23872202.9844                   23872208.1254
        43.2504         35.5004
   -140672.00846    -68786.69543  23839223.3914                   23839228.9694
        41.5004         22.7504
   1741415.82848   1356766.60246  21805810.5474                   21805809.3054
        48.0004         37.0004
     54460.15648     69066.25047  20429441.3284                   20429440.0044
        48.5004         47.7504
   1607085.27747   1253918.42646  21197519.5634                   21197519.1134
        46.5004         36.7504
   2458319.34447   1904994.62146  23215768.4384                   23215770.4844
        43.7504         39.5004
 25  8  7 22  8 30.0000000  0  8G03G01G10G04G02G31G28G32
  -1064176.00847   -785800.37946  22338247.5944                   22338250.4774
        44.0004         40.2504
   1481502.91457   1163288.17255  21318939.4614                   21318939.7854
        45.7504         35.0004
   2682814.70746   2079059.30545  23882384.8204                   23882392.3364
        40.2504         33.5004
   -241301.41446   -147198.99243  23820073.9534                   23820079.4534
        40.5004         22.7504
   1756428.76247   1368464.94146  21808667.4534                   21808665.7624
        47.5004         36.7504
     -5158.27348     22610.36747  20418095.9454                   20418094.8554
        48.0004         47.7504
   1616884.92247   1261554.51246  21199384.1954                   21199383.5594
        46.5004         37.0004
   2500615.31347   1937952.47746  23223817.0554                   23223819.2464
        43.2504         39.5004
 25  8  7 22  9  0.0000000  0  9G03G01G10G04G02G25G31G28G32
  -1173654.53147   -871108.23446  22317414.0784                   22317417.2704
        43.2504         40.0004
   1434300.41047   1126507.00845  21309956.7664                   21309957.1914
        46.2504         35.5004
   2736696.41447   2121044.83245  23892639.5164                   23892644.3134
        42.5004         33.2504
   -341658.78546   -225399.32043  23800976.1884                   23800982.1604
        40.7504         22.7504
   1772033.05548   1380624.08245  21811636.6644                   21811635.0164
        48.0004         35.7504
   1066983.02755    839471.37954  24454890.7974                   24454894.7704
        35.2504         24.5004
    -64031.39848    -23264.74647  20406892.6174                   20406892.0354
        48.0004         47.7504
   1627345.92247   1269705.94546  21201374.8834                   21201374.9144
        46.5004         37.5004
   2543087.31347   1971047.50846  23231899.1094                   23231901.4344
        43.5004         38.7504
 25  8  7 22  9 30.0000000  0 10G03G01G10G04G26G02G25G31G28G32
  -1282888.94947   -956225.87146  22296627.5084                   22296630.5124
        43.5004         40.2504
   1387806.45747   1090277.96145  21301109.5704                   21301109.5124
        46.0004         35.5004
   2790941.30146   2163313.52045  23902962.3204                   23902968.0084
        41.5004         35.0004
   -441748.55546   -303391.11743  23781929.5164                   23781935.5204
        40.7504         22.5004
   -802104.60956   -579590.03554  24186743.1484                   24186752.7424
        37.0004         28.2504
   1788222.85947   1393239.46546  21814717.6954                   21814716.0704
        47.7504         36.2504
   1052454.10545    828150.14844  24452126.2034                   24452129.5554
        35.0004         25.0004
   -122162.56648    -68561.71948  20395830.5084                   20395829.9614
        48.5004         48.0004
   1638462.26247   1278368.03946  21203490.0474                   21203490.1604
        46.5004         37.2504
   2585730.34047   2004275.80146  23240013.5704                   23240016.0514
        43.7504         39.0004
 25  8  7 22 10  0.0000000  0 10G03G01G10G04G26G02G25G31G28G32
  -1391883.86747  -1041156.88746  22275885.9614                   22275889.5944
        43.2504         40.5004
   1342015.45747   1054596.66445  21292395.9454                   21292396.2074
        46.7504         34.7504
   2845542.76246   2205859.78545  23913352.2664                   23913359.0124
        40.5004         34.0004
   -541577.00446   -381179.31643  23762932.6414                   23762938.0354
        40.2504         23.2504
   -919222.79746   -670850.68445  24164456.2344                   24164466.2074
        38.5004         30.2504
   1804989.85248   1406304.60246  21817907.7664                   21817906.3554
        48.5004         37.5004
   1038596.25045    817351.82444  24449488.4064                   24449493.1954
        35.5004         26.0004
   -179557.80148   -113285.23048  20384908.8754                   20384907.7424
        48.7504         48.0004
   1650225.80547   1287534.44146  21205728.8594                   21205728.2074
        46.5004         36.5004
   2628537.46947   2037631.96146  23248159.5784                   23248162.1254
        43.0004         39.0004
 25  8  7 22 10 30.0000000  0 10G03G01G10G04G26G02G25G31G28G32
  -1500645.91047  -1125906.44546  22255188.9924                   22255193.0044
        44.0004         39.7504
   1296919.83647   1019457.23045  21283814.4384                   21283814.9104
        45.2504         35.7504
   2900491.55147   2248676.92245  23923809.6804                   23923814.3284
        43.5004         34.0004
   -641152.38346   -458770.30944  23743983.3204                   23743989.9964
        40.5004         24.2504
  -1036189.42246   -761993.22344  24142197.4224                   24142207.2194
        36.7504         27.7504
   1822324.49248   1419812.07446  21821206.9384                   21821205.6254
        48.0004         36.2504
   1025401.16845    807069.93844  24446977.5004                   24446981.9454
        35.5004         26.0004
   -236224.32848   -157440.92248  20374125.6724                   20374124.4804
        49.5004         48.0004
   1662626.45347   1297197.29746  21208088.5704                   21208088.2034
        46.5004         37.0004
   2671499.73047   2071109.00846  23256335.1804                   23256337.5434
        43.7504         38.5004
 25  8  7 22 11  0.0000000  0 10G03G01G10G04G26G02G25G31G28G32
  -1609176.91447  -1210475.96946  22234536.5474                   22234539.8834
        44.5004         40.5004
   1252516.75847    984857.43045  21275365.0084                   21275365.2464
        46.0004         34.7504
   2955783.71146   2291761.55944  23934330.2894                   23934336.6884
        38.2504         29.5004
   -740478.39846   -536166.99244  23725083.0164                   23725088.4964
        40.5004         25.5004
  -1153005.19946   -853018.21944  24119968.5704                   24119977.4734
        38.2504         29.7504
   1840221.33248   1433757.60546  21824612.5784                   21824611.0984
        48.0004         36.0004
   1012865.57045    797301.93044  24444592.0864                   24444596.3954
        35.5004         26.7504
   -292165.13748   -201031.11348  20363480.3054                   20363479.1024
        48.2504         48.0004
   1675658.81347   1307352.37946  21210568.5474                   21210567.8634
        47.0004         36.5004
   2714612.96947   2104703.70346  23264538.8834                   23264541.9304
        42.7504         38.5004
 25  8  7 22 11 30.0000000  0 10G03G01G10G04G26G02G25G31G28G32
  -1717478.91447  -1294867.04746  22213927.2344                   22213930.7304
        44.5004         40.5004
   1208803.20747    950794.92645  21267046.2114                   21267046.5004
        46.0004         35.5004
   3011414.75447   2335110.19546  23944917.5084                   23944923.4654
        43.2504         36.2504
   -839558.68446   -613372.21944  23706227.6724                   23706233.6844
        40.0004         25.5004
  -1269670.57446   -943926.04744  24097767.7584                   24097776.4104
        38.7504         29.7504
   1858675.12147   1448137.13746  21828124.3054                   21828122.9344
        47.7504         36.0004
   1000985.79745    788044.94944  24442331.1954                   24442335.7584
        35.7504         25.7504
   -347383.30948   -244058.21948  20352972.3984                   20352971.5164
        50.2504         48.0004
   1689317.35947   1317995.41046  21213167.7424                   21213167.0704
        47.0004         36.2504
   2757872.80147   2138412.61746  23272771.5164                   23272773.9454
        43.5004         38.5004
 25  8  7 22 12  0.0000000  0 10G03G01G10G04G26G02G25G31G28G32
  -1825556.46147  -1379083.23046  22193360.7664                   22193363.8674
        44.2504         40.7504
   1165773.53547    917265.31345  21258858.1644                   21258858.4574
        46.5004         35.2504
   3067377.76246   2378717.55545  23955566.3914                   23955572.4494
        39.5004         31.0004
   -938399.52346   -690390.84844  23687419.0394                   23687424.9414
        39.0004         25.2504
  -1386188.87546  -1034719.27745  24075595.1174                   24075603.5634
        39.2504         31.0004
   1877677.70347   1462944.28946  21831740.5474                   21831738.6684
        47.5004         36.2504
    989755.64845    779294.18044  24440194.4534                   24440198.8134
        35.0004         25.0004
   -401884.37548   -286526.53548  20342601.2974                   20342600.4064
        49.0004         48.0004
   1703594.00447   1329120.06646  21215884.6334                   21215884.1094
        47.0004         36.7504
   2801272.42647   2172230.47346  23281030.1094                   23281032.8914
        42.5004         39.0004
 25  8  7 22 12 30.0000000  0 10G03G01G10G04G26G02G25G31G28G32
  -1933411.77047  -1463126.23846  22172836.5234                   22172839.6214
        44.2504         40.7504
   1123424.38347    884265.97345  21250799.1954                   21250799.4884
        46.2504         35.0004
   3123668.28546   2422580.14145  23966279.0704                   23966284.5044
        41.7504         33.0004
  -1037004.93446   -767226.04744  23668655.1174                   23668660.6884
        40.0004         24.0004
  -1502561.09446  -1125398.67644  24053449.7114                   24053457.8834
        37.7504         29.5004
   1897223.53947   1478174.76646  21835460.0004                   21835458.2584
        47.2504         36.5004
    979171.31646    771046.60944  24438180.4534                   24438184.8984
        36.0004         26.0004
   -455671.35248   -328438.43048  20332366.1024                   20332365.4024
        49.2504         48.0004
   1718482.87947   1340721.79345  21218717.4924                   21218717.1564
        46.7504         35.7504
   2844807.16447   2206153.60546  23289314.7894                   23289316.7424
        43.7504         38.2504
 25  8  7 22 13  0.0000000  0 10G03G01G10G04G26G02G25G31G28G32
  -2041047.63347  -1546998.25046  22152353.9224                   22152357.2234
        44.2504         40.5004
   1081751.89547    851793.91045  21242869.1174                   21242869.3634
        46.5004         35.5004
   3180280.87546   2466693.67245  23977052.1334                   23977058.5084
        41.5004         35.2504
  -1135379.40246   -843881.27744  23649935.2734                   23649940.2424
        39.7504         24.7504
  -1618788.62146  -1215965.30945  24031331.6254                   24031340.9884
        38.0004         31.0004
   1917306.35948   1493823.66846  21839281.5164                   21839279.9264
        48.0004         36.5004
    969228.23445    763298.75044  24436287.9064                   24436292.7664
        35.5004         24.2504
   -508748.44948   -369797.16048  20322265.5394                   20322264.5864
        48.7504         48.0004
   1733977.61347   1352795.60546  21221666.5474                   21221665.8594
        47.0004         36.0004
   2888471.96547   2240178.08246  23297623.8984                   23297626.2344
        44.2504         38.5004
 25  8  7 22 13 30.0000000  0 10G03G01G10G04G26G02G25G31G28G32
  -2148465.40247  -1630700.32846  22131913.3524                   22131916.3754
        44.5004         40.5004
   1040753.55547    819847.16045  21235067.5164                   21235067.7384
        47.0004         35.5004
   3237212.04346   2511055.33645  23987884.9844                   23987891.6684
        39.5004         30.7504
  -1233526.16846   -920359.10244  23631257.5784                   23631263.5004
        40.0004         25.0004
  -1734871.52046  -1306419.23845  24009242.7274                   24009251.3954
        38.7504         31.7504
   1937921.39847   1509887.28146  21843204.5394                   21843202.8094
        47.2504         36.2504
    959923.34045    756048.17244  24434518.2584                   24434522.2114
        35.0004         24.0004
   -561118.21548   -410604.73448  20312299.8204                   20312298.9774
        49.0004         48.0004
   1750073.23847   1365337.64846  21224729.0164                   21224728.9574
        46.7504         36.7504
   2932263.14547   2274301.03146  23305956.9224                   23305959.3324
        43.5004         38.2504
 25  8  7 22 14  0.0000000  0 10G03G01G10G04G26G02G25G31G28G32
  -2255667.18047  -1714234.09846  22111513.2194                   22111516.2624
        45.0004         40.5004
   1000426.05547    788423.13345  21227393.2814                   21227394.1024
        46.2504         35.5004
   3294457.04347   2555661.71945  23998779.2814                   23998784.2894
        42.5004         31.7504
  -1331448.98846   -996662.39843  23612623.3054                   23612628.6844
        40.7504         22.7504
  -1850810.55946  -1396761.12545  23987180.0004                   23987187.7894
        40.0004         31.0004
   1959062.75447   1526361.01646  21847227.8674                   21847226.1884
        47.0004         36.0004
    951252.85946    749291.92244  24432867.7974                   24432872.2154
        36.2504         24.5004
   -612783.77748   -450863.58248  20302468.3674                   20302467.2704
        49.0004         48.0004
   1766763.94547   1378343.38346  21227904.8674                   21227904.6374
        47.0004         36.7504
   2976176.25447   2308519.00446  23314313.1644                   23314315.6254
        44.2504         38.5004
 25  8  7 22 14 30.0000000  0 10G03G01G10G04G26G02G25G31G28G32
  -2362654.85247  -1797601.03146  22091153.6954                   22091157.0984
        44.7504         41.0004
    960766.29747    757519.42646  21219846.8364                   21219846.8014
        46.2504         36.0004
   3352011.59446   2600509.25445  24009731.5314                   24009738.0434
        40.2504         32.5004
  -1429151.59046  -1072794.09844  23594031.7584                   23594036.8984
        39.7504         25.2504
  -1966606.39846  -1486991.37145  23965144.2734                   23965153.2704
        38.2504         30.0004
   1980725.35947   1543240.91446  21851349.8674                   21851348.6844
        47.7504         36.0004
    943212.94545    743027.04343  24431337.9064                   24431342.2734
        35.5004         23.5004
   -663748.57448   -490576.37548  20292770.2974                   20292768.9694
        49.5004         48.2504
   1784044.18047   1391808.50046  21231193.2344                   21231193.0004
        46.0004         36.2504
   3020207.02747   2342828.64846  23322692.2424                   23322694.8874
        43.5004         38.5004
 25  8  7 22 15  0.0000000  0 10G03G01G10G04G26G02G25G31G28G32
  -2469428.26647  -1880801.00446  22070835.7974                   22070838.3634
        44.5004         41.2504
    921773.12147    727135.14145  21212426.0704                   21212426.7774
        46.2504         35.7504
   3409873.42646   2645596.10945  24020742.7894                   24020748.8874
        40.5004         34.0004
  -1526635.67646  -1148755.53944  23575480.7814                   23575485.9224
        40.0004         24.0004
  -2082257.55946  -1577108.85945  23943137.4384                   23943145.1724
        41.0004         32.5004
   2002905.29747   1560523.92245  21855570.6804                   21855569.0744
        46.7504         35.0004
    935802.17245    737252.41044  24429927.2194                   24429931.5204
        34.7504         24.0004
   -714013.69948   -529743.96548  20283204.8674                   20283203.6484
        49.0004         48.2504
   1801910.41447   1405730.23046  21234593.4224                   21234593.1414
        47.0004         36.5004
   3064353.34047   2377228.33246  23331092.6254                   23331095.7664
        44.0004         37.2504
 25  8  7 22 15 30.0000000  0 10G03G01G10G04G26G02G25G31G28G32
  -2575988.68447  -1963835.01646  22050557.8524                   22050561.0234
        45.0004         41.0004
    883444.01647    697268.30945  21205132.5084                   21205133.0434
        46.7504         35.5004
   3468038.68846   2690919.50845  24031811.0084                   24031816.2854
        41.5004         30.0004
  -1623904.30146  -1224549.09444  23556970.7814                   23556976.0474
        40.0004         25.2504
  -2197763.97346  -1667113.61745  23921155.7894                   23921164.4924
        39.7504         32.5004
   2025598.19147   1578206.64546  21859888.7034                   21859887.5944
        47.2504         36.0004
    929017.12545    731965.36344  24428636.3284                   24428640.7464
        34.2504         25.5004
   -763581.55548   -568368.24248  20273772.4454                   20273771.3014
        48.7504         48.0004
   1820357.56647   1420104.62546  21238103.6644                   21238103.5434
        47.2504         36.5004
   3108611.46547   2411715.13746  23339515.2424                   23339517.5944
        43.7504         37.5004
 25  8  7 22 16  0.0000000  0 10G03G01G10G04G26G02G25G31G28G32
  -2682335.37947  -2046702.48846  22030320.5394                   22030323.5044
        44.0004         40.5004
    845778.38747    667918.46945  21197965.0944                   21197965.2704
        46.0004         35.5004
   3526505.69546   2736478.09045  24042937.5004                   24042943.5474
        41.5004         33.2504
  -1720958.50346  -1300175.54144  23538501.5234                   23538507.2194
        39.7504         25.0004
  -2313123.59846  -1757003.93745  23899203.2504                   23899211.7544
        39.0004         30.7504
   2048800.96147   1596286.67245  21864304.5864                   21864302.9344
        47.7504         35.5004
    922856.83645    727165.14144  24427464.2894                   24427468.5664
        34.7504         26.5004
   -812452.52748   -606449.48048  20264472.3674                   20264471.4024
        48.5004         48.2504
   1839382.73047   1434929.42646  21241724.4064                   21241723.8284
        47.0004         36.2504
   3152979.98447   2446287.96946  23347958.2344                   23347960.7664
        42.7504         38.2504
 25  8  7 22 16 30.0000000  0 10G03G01G10G04G26G02G25G31G28G32
  -2788468.54347  -2129403.57046  22010124.3444                   22010127.2734
        45.0004         40.7504
    808774.65247    639084.38745  21190923.4384                   21190923.6414
        46.7504         35.5004
   3585271.69546   2782269.51645  24054119.3674                   24054126.8094
        40.5004         32.0004
  -1817800.38746  -1375636.53944  23520073.8594                   23520079.3874
        40.5004         24.5004
  -2428335.40646  -1846779.12545  23877278.8134                   23877287.5554
        38.0004         31.7504
   2072509.59047   1614760.86745  21868816.1254                   21868814.5314
        47.7504         35.5004
    917319.08245    722850.00444  24426410.0864                   24426414.6024
        35.0004         25.2504
   -860628.45748   -643989.13348  20255304.7734                   20255303.5044
        49.5004         48.2504
   1858981.84847   1450201.45746  21245453.7194                   21245453.5204
        47.5004         36.2504
   3197456.25847   2480944.77346  23356421.9144                   23356424.3054
        43.0004         37.5004
 25  8  7 22 17  0.0000000  0 10G03G01G10G04G26G02G25G31G28G32
  -2894385.58247  -2211936.24246  21989969.0554                   21989971.7384
        45.2504         41.0004
    772433.95747    610766.96945  21184008.0084                   21184008.4844
        47.0004         35.0004
   3644336.75847   2828294.00445  24065360.0004                   24065366.2734
        42.0004         32.5004
  -1914429.25846  -1450931.56644  23501685.5784                   23501690.6644
        40.0004         26.0004
  -2543395.58046  -1936436.12845  23855383.3204                   23855392.4574
        38.2504         31.2504
   2096723.18447   1633628.54345  21873423.9384                   21873422.3554
        47.5004         35.5004
    912404.50045    719020.45344  24425474.6954                   24425479.2584
        34.2504         25.5004
   -908108.16048   -680986.26648  20246270.0234                   20246268.3164
        48.7504         48.0004
   1879153.71147   1465919.78546  21249292.3284                   21249292.1054
        47.7504         36.0004
   3242040.50447   2515685.71146  23364905.7274                   23364907.8914
        43.0004         37.5004
 25  8  7 22 17 30.0000000  0 10G03G01G10G04G26G02G25G31G28G32
  -3000087.71547  -2294301.45746  21969853.9454                   21969857.0664
        45.2504         41.0004
    736753.74648    582964.20345  21177217.9844                   21177218.8634
        48.0004         35.5004
   3703697.01246   2874548.60245  24076655.7194                   24076661.7894
        41.2504         30.2504
  -2010848.16046  -1526062.99244  23483337.8984                   23483342.5664
        39.7504         25.0004
  -2658303.93446  -2025974.84445  23833517.6954                   23833525.5084
        38.7504         31.5004
   2121437.05548   1652886.05945  21878127.0704                   21878125.3594
        48.0004         35.5004
    908109.90645    715674.03144  24424657.6254                   24424662.2384
        33.7504         25.7504
   -954894.25048   -717442.92248  20237366.9384                   20237365.7234
        49.5004         48.2504
   1899893.25847   1482080.47746  21253238.9454                   21253238.6054
        47.7504         36.0004
   3286729.17247   2550508.00846  23373410.1564                   23373412.5744
        43.2504         37.7504
 25  8  7 22 18  0.0000000  0 10G03G01G10G04G26G02G25G31G28G32
  -3105577.28947  -2376501.04346  21949780.2664                   21949782.7584
        45.2504         40.5004
    701730.12547    555673.07046  21170553.2974                   21170553.9734
        46.5004         36.0004
   3763347.62946   2921029.39545  24088006.5784                   24088014.7464
        39.5004         32.5004
  -2107061.31646  -1601034.07044  23465028.5314                   23465033.5274
        39.0004         24.5004
  -2773061.59046  -2115396.14145  23811679.7504                   23811687.3914
        39.0004         30.5004
   2146645.00848   1672528.56346  21882923.5704                   21882922.0164
        48.0004         36.2504
    904430.87945    712807.25444  24423958.0164                   24423961.9534
        33.5004         25.5004
  -1000990.57848   -753362.10248  20228594.8134                   20228594.0044
        49.5004         48.2504
   1921194.32047   1498678.71146  21257292.6024                   21257291.7704
        47.0004         36.2504
   3331517.57047   2585408.02346  23381932.9144                   23381935.5664
        44.2504         38.0004
 25  8  7 22 18 30.0000000  0 10G03G01G10G04G26G02G25G31G28G32
  -3210852.55547  -2458533.63746  21929746.9224                   21929749.8754
        46.0004         40.7504
    667363.40647    528893.80945  21164013.5944                   21164013.7074
        46.5004         35.5004
   3823287.75846   2967735.70345  24099414.3364                   24099420.5394
        41.5004         34.7504
  -2203068.87146  -1675844.96944  23446759.0084                   23446763.8404
        39.2504         26.0004
  -2887665.58246  -2204697.71545  23789870.9534                   23789879.1414
        39.5004         32.2504
   2172344.92248   1692554.40645  21887814.7114                   21887812.9924
        48.0004         35.5004
    901367.09845    710419.87143  24423374.8754                   24423379.0434
        34.5004         23.5004
  -1046396.85548   -788743.57448  20219954.0864                   20219953.0434
        49.7504         48.0004
   1943054.82448   1515712.86746  21261452.5004                   21261451.6724
        48.0004         36.0004
   3376405.14147   2620385.30946  23390475.0634                   23390477.2344
        44.5004         37.0004
 25  8  7 22 19  0.0000000  0 10G03G01G10G04G26G02G25G31G28G32
  -3315915.72747  -2540400.95746  21909753.9144                   21909756.5984
        45.7504         41.0004
    633649.86347    502623.51245  21157598.2034                   21157598.7154
        47.0004         35.2504
   3883512.51246   3014663.88344  24110874.1254                   24110880.0554
        39.0004         29.2504
  -2298874.89146  -1750498.80144  23428527.6414                   23428532.0044
        39.2504         25.7504
  -3002116.69546  -2293880.17245  23768091.2584                   23768099.1024
        38.5004         31.2504
   2198530.52747   1712958.71945  21892796.8754                   21892796.1254
        47.5004         35.5004
    898914.30945    708508.61744  24422907.8364                   24422912.3284
        33.0004         24.7504
  -1091116.97348   -823590.38348  20211444.1414                   20211443.0474
        49.7504         48.5004
   1965468.59448   1533178.14545  21265718.0234                   21265717.2344
        48.0004         35.7504
   3421387.29747   2655436.30946  23399034.1484                   23399037.2734
        44.2504         37.2504
 25  8  7 22 19 30.0000000  0 10G03G01G10G04G26G02G25G31G28G32
  -3420764.31247  -2622101.07446  21889801.7814                   21889804.6414
        44.2504         40.7504
    600590.35947    476862.85545  21151307.1334                   21151307.0704
        47.5004         35.5004
   3944021.82446   3061813.83245  24122388.6724                   24122395.5084
        40.0004         32.0004
  -2394478.88346  -1824995.24244  23410334.1564                   23410339.0944
        38.7504         25.2504
  -3116411.28946  -2382940.64845  23746341.3444                   23746350.2424
        38.2504         31.7504
   2225201.07047   1733740.90645  21897872.8674                   21897871.1454
        45.7504         35.7504
    897072.85945    707073.75044  24422558.1334                   24422561.9144
        33.5004         24.2504
  -1135149.99248   -857901.78948  20203065.3204                   20203063.7974
        48.7504         48.2504
   1988434.18047   1551073.39846  21270087.5554                   21270087.1884
        46.5004         36.2504
   3466464.14847   2690561.08646  23407612.6884                   23407614.6684
        43.7504         37.5004
 25  8  7 22 20  0.0000000  0 10G03G01G10G04G26G02G25G31G28G32
  -3525396.97347  -2703632.92646  21869890.5164                   21869893.4494
        45.5004         40.7504
    568184.68047    451611.67245  21145140.5944                   21145140.8674
        47.0004         35.5004
   4004814.34446   3109184.36745  24133957.3594                   24133964.4614
        40.7504         33.2504
  -2489881.43046  -1899334.69944  23392180.2034                   23392184.3364
        39.0004         24.5004
  -3230546.78546  -2471877.14145  23724622.2814                   23724630.4264
        38.2504         31.7504
   2252353.98047   1754898.96145  21903039.2664                   21903037.9264
        47.2504         35.2504
    895841.85945    706114.50444  24422323.6024                   24422327.4264
        32.7504         25.2504
  -1178496.14148   -891677.96948  20194816.5704                   20194815.9574
        48.7504         48.2504
   2011949.02048   1569396.64545  21274562.3054                   21274561.9924
        48.0004         35.7504
   3511634.72747   2725758.89146  23416207.3754                   23416210.4534
        43.0004         37.2504
 25  8  7 22 20 30.0000000  0 10G03G01G10G04G26G02G25G31G28G32
  -3629812.96547  -2784995.94946  21850021.5164                   21850024.0044
        44.2504         41.2504
    536431.91047    426869.24645  21139098.0864                   21139098.3134
        47.5004         35.0004
   4065888.14146   3156774.12145  24145579.7734                   24145586.1054
        40.5004         32.2504
  -2585083.65646  -1973518.07044  23374063.3444                   23374067.8014
        39.7504         24.2504
  -3344521.03146  -2560688.00045  23702933.1174                   23702941.1334
        40.0004         32.5004
   2279986.07847   1776430.40645  21908297.7814                   21908296.5204
        47.0004         34.5004
    895219.88745    705629.87944  24422205.2114                   24422208.9694
        33.5004         25.0004
  -1221156.34048   -924919.64548  20186698.4454                   20186697.2234
        49.5004         48.5004
   2036009.92248   1588145.39846  21279141.5084                   21279140.9774
        48.5004         36.2504
   3556897.43847   2761028.50046  23424821.2734                   23424823.8164
        42.5004         37.0004
 25  8  7 22 21  0.0000000  0 10G03G01G10G04G26G02G25G31G28G32
  -3734012.71547  -2866190.46946  21830192.8914                   21830195.2234
        44.5004         41.0004
    505330.00047    402633.98045  21133180.0474                   21133180.1414
        46.7504         35.7504
   4127240.16046   3204580.65244  24157254.3364                   24157260.7384
        37.5004         29.2504
  -2680087.94546  -2047547.21144  23355983.7734                   23355988.9494
        40.0004         25.2504
  -3458333.23046  -2649372.62945  23681275.5634                   23681283.1644
        39.5004         32.5004
   2308093.04347   1798331.87145  21913646.1804                   21913645.1254
        45.5004         35.0004
    895204.27345    705617.71544  24422202.0164                   24422206.1214
        33.0004         25.5004
  -1263132.88348   -957628.60948  20178710.8984                   20178709.3594
        49.5004         48.5004
   2060612.41847   1607316.16845  21283822.8524                   21283822.5314
        46.7504         35.7504
   3602249.46147   2796367.69146  23433451.4924                   23433454.2544
        43.5004         37.0004
 25  8  7 22 21 30.0000000  0 10G03G01G10G04G26G02G25G31G28G32
  -3837994.73847  -2947215.34046  21810405.0554                   21810408.1374
        45.0004         41.0004
    474878.68447    378905.68045  21127384.8444                   21127385.3094
        47.0004         34.5004
   4188869.15246   3252603.03145  24168982.4844                   24168989.6454
        39.2504         31.5004
  -2774894.85546  -2121422.55944  23337942.7274                   23337947.3914
        40.0004         25.0004
  -3571980.80946  -2737928.94145  23659648.2664                   23659656.2464
        38.2504         30.0004
   2336672.48047   1820601.50845  21919085.2194                   21919083.6374
        45.5004         35.0004
    895794.24245    706077.43044  24422314.0704                   24422318.7114
        33.0004         24.0004
  -1304425.92248   -989804.96948  20170852.5784                   20170851.4964
        49.7504         48.5004
   2085754.00847   1626907.01246  21288607.0164                   21288606.8634
        46.0004         36.5004
   3647689.90647   2831775.78946  23442098.6094                   23442101.3634
        43.0004         37.0004
 25  8  7 22 22  0.0000000  0 10G03G01G10G04G26G02G25G31G28G32
  -3941761.47747  -3028072.44946  21790659.4064                   21790661.8554
        44.7504         41.0004
    445073.81648    355681.10245  21121713.7034                   21121713.4614
        48.0004         35.7504
   4250769.93846   3300837.21545  24180762.0784                   24180768.8284
        39.7504         32.5004
  -2869508.72746  -2195147.48844  23319938.5314                   23319943.1374
        40.7504         24.5004
  -3685464.78146  -2826357.78945  23638053.3984                   23638061.1054
        38.7504         32.5004
   2365717.94547   1843234.27745  21924612.2034                   21924610.5474
        47.5004         35.5004
    896985.08645    707005.36743  24422540.4224                   24422544.9494
        33.5004         23.7504
  -1345039.36348  -1021451.78148  20163124.1484                   20163123.0594
        50.0004         48.2504
   2111428.28948   1646912.93845  21293492.5704                   21293492.1374
        48.5004         35.5004
   3693214.00447   2867249.05946  23450761.4694                   23450764.0904
        42.7504         36.5004
 25  8  7 22 22 30.0000000  0 10G03G01G10G04G26G02G25G31G28G32
  -4045309.40647  -3108759.06646  21770954.6024                   21770957.5234
        45.5004         41.2504
    415917.20347    332961.65645  21116165.0314                   21116165.3404
        47.7504         35.7504
   4312943.44546   3349283.84045  24192593.9614                   24192601.0204
        39.5004         32.7504
  -2963927.95746  -2268720.74644  23301970.5004                   23301975.7034
        40.0004         25.0004
  -3798780.37946  -2914655.44145  23616490.1644                   23616497.3554
        39.0004         33.0004
   2395229.22747   1866230.02745  21930227.7194                   21930226.2464
        46.5004         35.2504
    898778.04745    708402.47344  24422882.4224                   24422886.2344
        32.5004         26.0004
  -1384971.85248  -1052567.97348  20155525.5004                   20155523.8714
        50.0004         48.5004
   2137634.73047   1667333.53146  21298479.9144                   21298479.3244
        47.0004         36.2504
   3738822.99647   2902788.48046  23459440.6254                   23459443.6134
        44.0004         36.5004
 25  8  7 22 23  0.0000000  0 10G03G01G10G04G26G02G25G31G28G32
  -4148637.18747  -3189274.14146  21751291.6804                   21751294.5944
        46.0004         41.5004
    387408.30947    310746.92245  21110739.8984                   21110740.4144
        47.5004         35.5004
   4375388.11346   3397941.78944  24204476.4144                   24204483.1994
        38.5004         29.5004
  -3058153.29746  -2342142.92644  23284039.8594                   23284044.7704
        40.7504         25.0004
  -3911925.13746  -3002819.93045  23594959.4614                   23594967.0084
        38.0004         32.7504
   2425203.53947   1889586.56645  21935931.9304                   21935930.9734
        46.2504         35.2504
    901171.98845    710267.87144  24423337.9144                   24423341.7464
        32.7504         26.0004
  -1424223.82048  -1083153.89548  20148055.7734                   20148054.8014
        51.0004         48.5004
   2164370.48447   1688166.57845  21303567.6724                   21303566.5124
        46.0004         35.7504
   3784515.74647   2938393.16846  23468136.0864                   23468138.5904
        44.0004         36.0004
 25  8  7 22 23 30.0000000  0 10G03G01G10G04G26G02G25G31G28G32
  -4251744.41047  -3269617.34846  21731670.7974                   21731673.6524
        46.0004         41.5004
    359545.75047    289035.83246  21105438.0004                   21105438.5204
        47.0004         36.0004
   4438101.69146   3446809.33645  24216410.4844                   24216417.3674
        39.5004         30.0004
  -3152186.25446  -2415415.21144  23266146.0864                   23266151.1334
        40.7504         24.7504
  -4024897.20746  -3090849.90245  23573461.0554                   23573468.5554
        38.7504         32.2504
   2455637.37547   1913301.18845  21941723.0234                   21941721.9964
        46.5004         34.2504
    904164.90645    712600.00844  24423906.6484                   24423911.5784
        33.0004         25.7504
  -1462796.73048  -1113210.68048  20140715.8914                   20140714.7774
        50.2504         48.5004
   2191632.03947   1709409.34445  21308754.8364                   21308754.1954
        47.7504         35.5004
   3830290.42247   2974061.68446  23476846.6174                   23476849.2034
        43.5004         36.0004
 25  8  7 22 24  0.0000000  0 10G03G01G10G04G26G02G25G31G28G32
  -4354630.28547  -3349788.07046  21712092.8054                   21712095.4184
        46.0004         41.0004
    332328.47748    267827.56645  21100258.7814                   21100258.7274
        48.0004         35.5004
   4501082.12146   3495884.79345  24228395.4924                   24228402.7584
        39.0004         30.7504
  -3246028.09846  -2488538.57844  23248288.6174                   23248293.0784
        40.0004         25.7504
  -4137694.68446  -3178743.84845  23551995.7344                   23552003.8014
        38.7504         32.2504
   2486527.44147   1937371.30945  21947601.7194                   21947600.2274
        46.2504         35.0004
    907755.27345    715397.69144  24424590.2584                   24424594.8594
        33.0004         25.0004
  -1500691.79748  -1142739.27348  20133504.5784                   20133503.1724
        49.7504         48.5004
   2219416.00447   1731059.17645  21314042.1724                   21314041.6684
        47.2504         35.5004
   3876145.44147   3009792.81345  23485572.2814                   23485575.0744
        43.7504         35.7504
 25  8  7 22 24 30.0000000  0 10G03G01G10G04G26G02G25G31G28G32
  -4457292.72347  -3429784.69546  21692556.3524                   21692559.1684
        45.7504         41.0004
    305756.60247    247122.20345  21095202.7194                   21095202.4454
        46.5004         35.7504
   4564328.80146   3545167.68045  24240431.0164                   24240438.4964
        38.0004         31.0004
  -3339678.72346  -2561512.93044  23230467.1484                   23230471.8674
        39.5004         24.0004
  -4250314.36346  -3266499.19545  23530564.6954                   23530573.0744
        37.2504         32.2504
   2517872.05547   1961795.62145  21953566.4534                   21953564.8634
        45.5004         34.7504
    911942.75445    718660.67644  24425386.3594                   24425391.1054
        32.7504         25.2504
  -1537908.81648  -1171739.52348  20126422.4454                   20126421.1094
        49.5004         48.7504
   2247720.32847   1753114.48845  21319428.1724                   21319427.8054
        47.2504         35.5004
   3922080.47747   3045586.29746  23494313.5634                   23494316.0044
        43.7504         37.2504
 25  8  7 22 25  0.0000000  0 10G03G01G10G04G26G02G25G31G28G32
  -4559731.88347  -3509607.33246  21673062.6954                   21673065.4844
        46.5004         41.7504
    279828.13747    226918.19946  21090268.4454                   21090268.5514
        46.2504         36.2504
   4627838.66446   3594655.63744  24252517.1484                   24252524.2504
        37.2504         29.7504
  -3433140.32046  -2634339.98044  23212681.6804                   23212686.6954
        40.0004         26.2504
  -4362754.98846  -3354115.03945  23509168.1024                   23509175.8484
        38.5004         33.5004
   2549667.00847   1986570.85545  21959616.8444                   21959615.2734
        46.2504         35.2504
    916724.57845    722386.75444  24426298.3754                   24426301.2234
        33.0004         24.5004
  -1574449.80548  -1200213.00448  20119468.6884                   20119467.5434
        50.0004         48.5004
   2276540.73048   1775571.94545  21324912.6804                   21324912.1484
        48.0004         35.7504
   3968093.02047   3081440.18045  23503069.6644                   23503072.2774
        44.0004         35.7504
 25  8  7 22 25 30.0000000  0 10G03G01G10G04G26G02G25G31G28G32
  -4661946.33647  -3589254.87947  21653611.9304                   21653614.6564
        45.7504         42.0004
    254542.42647    207215.03546  21085456.5704                   21085456.8094
        47.0004         36.0004
   4691610.30546   3644347.63345  24264652.0394                   24264659.5434
        39.0004         30.5004
  -3526413.49646  -2707020.22344  23194932.5394                   23194936.9184
        40.7504         25.0004
  -4475014.02046  -3441589.39545  23487806.0314                   23487813.8014
        37.7504         32.0004
   2581909.69947   2011694.96145  21965752.3834                   21965750.8014
        46.0004         34.7504
    922099.76255    726575.20754  24427320.7584                   24427324.3404
        34.0004         26.0004
  -1610315.69548  -1228160.42648  20112643.6644                   20112642.2464
        50.5004         48.5004
   2305874.49247   1798429.41046  21330494.7504                   21330494.0634
        47.2504         36.5004
   4014182.10547   3117353.69545  23511839.9694                   23511842.7894
        43.2504         35.5004
 25  8  7 22 26  0.0000000  0 10G03G01G10G04G26G02G25G31G28G32
  -4763934.38747  -3668726.01646  21634203.9224                   21634206.5784
        45.7504         41.5004
    229899.23448    188012.54346  21080767.2194                   21080767.4304
        48.5004         36.7504
   4755642.59046   3694242.74644  24276837.5864                   24276844.7074
        37.7504         29.5004
  -3619498.59446  -2779553.91844  23177218.6414                   23177223.4414
        41.0004         26.0004
  -4587088.52746  -3528919.97745  23466478.8594                   23466486.1804
        37.5004         32.2504
   2614597.57847   2037165.98045  21971972.8284                   21971971.0904
        46.2504         35.5004
    928067.35945    731225.25844  24428456.0634                   24428460.1644
        33.7504         26.2504
  -1645506.49248  -1255581.80148  20105947.0474                   20105945.5004
        50.0004         48.5004
   2335719.12547   1821684.96945  21336174.0084                   21336173.3014
        47.2504         35.5004
   4060347.19947   3153326.46146  23520624.9304                   23520627.5314
        43.7504         36.0004
 25  8  7 22 26 30.0000000  0 10G03G01G10G04G26G02G25G31G28G32
  -4865696.04347  -3748020.74647  21614839.4844                   21614842.0864
        46.7504         42.0004
    205896.52048    169309.12146  21076199.5084                   21076200.2544
        48.0004         36.5004
   4819932.76246   3744338.75444  24289071.5554                   24289078.5904
        36.2504         29.2504
  -3712397.69946  -2851942.68744  23159541.3524                   23159545.3204
        40.5004         25.7504
  -4698977.24646  -3616105.75045  23445186.7584                   23445194.3364
        38.2504         32.5004
   2647726.46947   2062980.63345  21978277.1804                   21978275.5234
        46.0004         35.0004
    934624.73845    736334.88744  24429703.2974                   24429707.3754
        33.5004         25.2504
  -1680024.17648  -1282478.67648  20099378.4534                   20099377.3524
        49.5004         48.5004
   2366070.43047   1845335.33245  21341949.2584                   21341949.1454
        46.7504         35.2504
   4106585.82447   3189356.51645  23529423.9304                   23529426.6954
        43.5004         35.7504
 25  8  7 22 27  0.0000000  0 10G03G01G10G04G26G02G25G31G28G32
  -4967229.80147  -3827137.89847  21595518.2504                   21595520.7384
        46.5004         42.0004
    182533.71147    151104.32846  21071753.8134                   21071754.2814
        47.2504         36.0004
   4884479.27346   3794634.50845  24301354.8134                   24301361.9064
        37.5004         31.2504
  -3805111.35546  -2924186.93744  23141897.9224                   23141901.7544
        41.5004         27.0004
  -4810677.44146  -3703144.67245  23423931.5864                   23423938.4104
        39.0004         32.5004
   2681293.96947   2089137.07045  21984664.9384                   21984663.3874
        46.0004         34.5004
    941771.09445    741903.46144  24431062.9224                   24431067.3204
        33.7504         26.7504
  -1713869.60948  -1308851.71948  20092938.1174                   20092936.7384
        49.5004         48.5004
   2396925.70347   1869378.40645  21347821.2814                   21347820.3284
        47.2504         35.7504
   4152897.17247   3225443.23846  23538236.4534                   23538239.5664
        43.0004         36.0004
 25  8  7 22 27 30.0000000  0 10G03G01G10G04G26G02G25G31G28G32
  -5068534.83247  -3906076.82447  21576240.4384                   21576243.0514
        46.0004         42.5004
    159809.50048    133397.13745  21067429.6954                   21067429.6644
        48.0004         35.5004
   4949280.14146   3845128.46545  24313685.7274                   24313693.1724
        39.2504         32.7504
  -3897640.79747  -2996287.65644  23124289.9384                   23124294.1174
        42.5004         25.2504
  -4922187.18446  -3790035.15245  23402710.7974                   23402718.2814
        37.7504         31.5004
   2715296.65647   2115632.60545  21991135.0784                   21991134.1414
        45.7504         35.0004
    949504.10245    747929.15644  24432535.1174                   24432538.8634
        33.2504         26.2504
  -1747044.07448  -1334701.93048  20086624.9924                   20086623.8324
        49.0004         48.5004
   2428281.49248   1893811.49646  21353787.9144                   21353787.3524
        48.0004         36.0004
   4199279.69147   3261585.41445  23547062.8594                   23547065.7504
        43.0004         35.7504
 25  8  7 22 28  0.0000000  0 10G03G01G10G04G26G02G25G31G28G32
  -5169611.51247  -3984837.80946  21557006.5784                   21557009.0204
        46.5004         41.7504
    137721.46947    116185.68045  21063226.1954                   21063226.7464
        46.5004         35.5004
   5014332.04746   3895818.05544  24326065.2664                   24326072.1294
        37.5004         28.5004
  -3989988.53147  -3068246.77744  23106716.8984                   23106721.0354
        42.5004         24.7504
  -5033505.46946  -3876776.45745  23381528.2814                   23381534.7424
        39.0004         33.0004
   2749730.09047   2142463.78145  21997688.0864                   21997686.5164
        46.5004         35.0004
    957821.07845    754409.89544  24434118.2664                   24434122.1564
        33.5004         27.0004
  -1779550.19948  -1360031.35248  20080439.6024                   20080437.9384
        49.2504         48.5004
   2460133.23847   1918631.03145  21359849.4844                   21359848.6414
        46.0004         34.7504
   4245730.64547   3297780.91446  23555902.6094                   23555905.1134
        42.7504         36.0004
 25  8  7 22 28 30.0000000  0 10G03G01G10G04G26G02G25G31G28G32
  -5270456.31247  -4063418.11747  21537816.1644                   21537818.4414
        46.5004         42.5004
    116270.88348     99470.93845  21059144.4454                   21059144.4734
        48.2504         35.7504
   5079635.60246   3946703.75044  24338491.2584                   24338499.5984
        36.5004         28.0004
  -4082153.12947  -3140063.20744  23089178.0864                   23089182.5434
        42.2504         25.5004
  -5144627.72346  -3963365.03145  23360381.2424                   23360389.0704
        38.7504         33.2504
   2784593.68447   2169630.16045  22004322.0084                   22004320.7304
        45.0004         35.0004
    966722.72745    761346.20744  24435810.7814                   24435815.4774
        34.2504         25.5004
  -1811386.63748  -1384838.94148  20074381.2504                   20074379.7894
        49.7504         48.7504
   2492480.10947   1943836.39145  21366004.5164                   21366003.8794
        45.2504         35.2504
   4292251.13747   3334030.60245  23564755.3444                   23564757.6254
        43.0004         35.7504
 25  8  7 22 29  0.0000000  0 10G03G01G10G04G26G02G25G31G28G32
  -5371067.14547  -4141816.10947  21518670.6334                   21518673.0084
        46.5004         43.0004
     95457.68048     83252.84445  21055183.6414                   21055184.1524
        48.2504         35.5004
   5145190.04346   3997784.88744  24350966.3984                   24350974.1024
        37.0004         29.0004
  -4174134.55946  -3211736.91044  23071674.3364                   23071678.6054
        41.5004         27.0004
  -5255550.64546  -4049798.25845  23339273.4924                   23339280.6024
        38.5004         32.5004
   2819884.94947   2197129.77345  22011037.8054                   22011036.7274
        46.2504         34.7504
    976208.44145    768737.64144  24437616.5554                   24437621.5744
        34.0004         26.0004
  -1842553.70348  -1409124.94548  20068449.9774                   20068448.7704
        49.7504         48.7504
   2525319.96147   1969425.87545  21372253.4844                   21372253.1374
        46.5004         35.5004
   4338841.01647   3370334.34446  23573620.9614                   23573623.6214
        43.0004         36.0004
 25  8  7 22 29 30.0000000  0 10G03G01G10G04G26G02G25G31G28G32
  -5471443.02347  -4220031.02747  21499569.6724                   21499572.0824
        46.5004         42.0004
     75280.59447     67530.42245  21051343.9614                   21051344.6524
        46.7504         35.5004
   5210993.27746   4049059.90245  24363490.0234                   24363496.7734
        40.0004         33.2504
  -4265934.01646  -3283268.82444  23054205.3284                   23054209.7074
        40.2504         26.2504
  -5366272.06646  -4136074.46945  23318204.1484                   23318210.6174
        39.5004         33.0004
   2855600.96547   2224960.35245  22017834.7814                   22017833.4064
        47.5004         34.5004
    986276.34845    776582.75044  24439532.8524                   24439537.0274
        34.7504         25.5004
  -1873052.56648  -1432890.27748  20062646.3674                   20062644.8634
        49.0004         48.7504
   2558649.47347   1995396.91445  21378596.2424                   21378595.4454
        46.7504         35.0004
   4385498.80547   3406691.01645  23582499.1564                   23582502.5554
        42.2504         35.5004
 25  8  7 22 30  0.0000000  0 10G03G01G10G04G26G02G25G31G28G32
  -5571582.00047  -4298061.34447  21480514.0784                   21480516.1254
        46.5004         43.0004
     55739.34047     52303.47345  21047625.4774                   21047625.8054
        47.2504         35.5004
   5277044.32446   4100528.01245  24376057.6724                   24376065.7194
        39.7504         33.0004
  -4357551.62546  -3354659.02344  23036771.0234                   23036775.3874
        41.5004         26.7504
  -5476788.81246  -4222191.18745  23297173.0394                   23297180.3524
        38.0004         32.5004
   2891739.41447   2253120.11745  22024711.0864                   22024710.1644
        46.5004         35.2504
    996925.68445    784880.89544  24441559.3914                   24441563.4414
        34.5004         27.2504
  -1902883.45348  -1456135.10248  20056969.6724                   20056968.4264
        49.0004         48.7504
   2592466.24247   2021747.64545  21385031.2114                   21385031.0434
        46.5004         35.5004
   4432224.12547   3443100.29345  23591391.1724                   23591393.9694
        42.2504         35.5004
 25  8  7 22 30 30.0000000  0 10G03G01G10G04G26G02G25G31G28G32
  -5671482.95347  -4375906.18747  21461503.1724                   21461505.5124
        47.2504         43.0004
     36832.73447     37571.03945  21044027.7974                   21044028.0274
        47.7504         35.5004
   5343341.33246   4152187.78144  24388674.6484                   24388682.1094
        37.0004         28.7504
  -4448988.34847  -3425908.27744  23019371.5864                   23019375.3984
        42.5004         27.0004
  -5587098.57446  -4308146.60945  23276181.5634                   23276188.4224
        38.0004         32.5004
   2928297.04347   2281606.50445  22031667.9454                   22031667.0514
        45.7504         35.5004
   1008154.68445    793630.73444  24443695.8594                   24443700.2664
        34.2504         26.0004
  -1932047.82048  -1478860.55548  20051420.1414                   20051418.9574
        50.0004         49.0004
   2626767.12547   2048475.59845  21391558.6094                   21391558.0634
        45.2504         35.5004
   4479015.77347   3479561.25445  23600295.8204                   23600298.3324
        42.2504         35.5004
 25  8  7 22 31  0.0000000  0 10G03G01G10G04G26G02G25G31G28G32
  -5771143.70747  -4453563.86747  21442538.1414                   21442540.3834
        46.5004         42.7504
     18560.60547     23333.01246  21040550.8444                   21040551.2194
        46.7504         36.0004
   5409883.50845   4204038.58644  24401336.8364                   24401344.1994
        35.5004         25.2504
  -4540244.20746  -3497016.63344  23002005.4694                   23002009.7074
        41.2504         25.5004
  -5697198.01246  -4393938.14145  23255230.5004                   23255237.0824
        38.5004         33.5004
   2965271.85247   2310417.97345  22038704.7894                   22038702.7734
        46.2504         34.7504
   1019962.68845    802831.75044  24445942.7974                   24445947.2464
        34.0004         26.0004
  -1960545.82848  -1501066.78148  20045997.0474                   20045995.4654
        49.0004         49.0004
   2661549.87547   2075579.03545  21398177.7504                   21398176.9414
        45.5004         34.7504
   4525873.50847   3516073.71545  23609211.9694                   23609214.8954
        42.5004         35.5004
 25  8  7 22 31 30.0000000  0 10G03G01G10G04G26G02G25G31G28G32
  -5870562.72747  -4531033.18047  21423619.2504                   21423621.9694
        47.2504         43.0004
       922.14147      9588.74246  21037194.3054                   21037194.7034
        47.0004         36.0004
   5476669.28546   4256079.25044  24414046.0474                   24414053.7664
        37.5004         26.7504
  -4631319.78147  -3567984.49244  22984674.5474                   22984678.5784
        43.0004         26.0004
  -5807084.41446  -4479563.68445  23234318.5234                   23234325.8484
        38.0004         31.7504
   3002661.09447   2339552.36745  22045819.2974                   22045818.0784
        47.0004         34.7504
   1032348.40245    812482.92244  24448299.4924                   24448304.1844
        35.0004         26.2504
  -1988378.16448  -1522754.28948  20040700.7424                   20040698.9774
        50.0004         49.0004
   2696811.71547   2103055.78545  21404887.7664                   21404887.1994
        47.0004         35.5004
   4572796.53147   3552637.05146  23618140.9304                   23618144.0474
        42.2504         36.0004
 25  8  7 22 32  0.0000000  0 10G03G01G10G04G26G02G25G31G28G32
  -5969740.74247  -4608314.69147  21404746.5084                   21404748.9264
        47.5004         42.5004
    -16085.84047     -3664.23845  21033957.7584                   21033958.5204
        47.7504         35.2504
   5543694.94146   4308306.80945  24426800.5944                   24426808.5784
        38.7504         32.0004
  -4722218.03547  -3638814.18044  22967377.3054                   22967381.1684
        42.5004         25.7504
  -5916757.41846  -4565022.91845  23213449.9384                   23213455.2774
        39.5004         33.0004
   3040459.77347   2369005.81345  22053012.6484                   22053011.0314
        46.2504         34.7504
   1045308.14545    822581.39144  24450766.7274                   24450770.4774
        34.7504         25.5004
  -2015548.36748  -1543925.85248  20035530.0704                   20035528.7424
        49.2504         48.7504
   2732547.46947   2130901.81645  21411687.8444                   21411687.2074
        46.5004         35.5004
   4619781.71147   3589248.82045  23627082.7274                   23627085.7344
        42.2504         34.5004
 25  8  7 22 32 30.0000000  0 10G03G01G10G04G26G02G25G31G28G32
  -6068674.70347  -4685406.03547  21385919.8204                   21385922.1094
        47.5004         42.7504
    -32462.67248    -16425.41846  21030841.4844                   21030841.6374
        48.2504         36.0004
   5610960.47346   4360721.26645  24439600.8204                   24439609.2934
        38.2504         33.0004
  -4812937.97347  -3709504.91444  22950113.8204                   22950117.6884
        43.2504         26.0004
  -6026212.69546  -4650312.53145  23192620.0234                   23192627.0084
        38.7504         33.0004
   3078666.50047   2398777.20345  22060283.2894                   22060282.0664
        46.7504         34.7504
   1058841.90645    833127.16844  24453340.8204                   24453345.7344
        34.0004         27.2504
  -2042055.53948  -1564580.77048  20030486.3204                   20030484.6724
        48.7504         49.0004
   2768755.80547   2159116.09445  21418577.9144                   21418576.9924
        46.5004         35.5004
   4666829.78147   3625909.59045  23636035.1484                   23636038.5084
        42.2504         35.2504
 25  8  7 22 33  0.0000000  0 10G03G01G10G04G26G02G25G31G28G32
  -6167363.37147  -4762306.24247  21367140.3054                   21367141.9924
        47.7504         42.7504
    -48209.56647    -28695.73845  21027845.1484                   21027845.1454
        47.7504         35.7504
   5678464.05545   4413321.19144  24452446.6644                   24452455.0044
        33.7504         28.7504
  -4903480.59047  -3780057.48444  22932883.4924                   22932887.5394
        42.7504         25.2504
  -6135447.92246  -4735430.62545  23171833.0164                   23171839.9344
        38.5004         32.5004
   3117278.14847   2428864.13345  22067630.1644                   22067629.4534
        47.0004         35.2504
   1072948.04745    844118.93844  24456027.4774                   24456030.2114
        35.5004         27.0004
  -2067901.31248  -1584720.30548  20025567.9064                   20025566.4384
        50.0004         49.0004
   2805433.54347   2187696.14145  21425557.8134                   21425557.1054
        46.5004         35.0004
   4713939.56646   3662618.44946  23644999.7584                   23645002.9414
        41.0004         36.2504
 25  8  7 22 33 30.0000000  0 10G03G01G10G04G26G02G25G31G28G32
  -6265805.85247  -4839014.60947  21348407.1254                   21348409.5354
        47.0004         42.7504
    -63328.14547    -40476.45745  21024967.8754                   21024968.1054
        47.5004         35.5004
   5746203.62145   4466104.95344  24465337.3594                   24465345.4384
        35.0004         26.7504
  -4993847.14147  -3850472.85244  22915687.8204                   22915691.6524
        43.5004         26.0004
  -6244461.03946  -4820375.68445  23151089.1024                   23151094.9064
        39.5004         33.2504
   3156291.26247   2459263.87945  22075054.2344                   22075053.4454
        46.0004         35.0004
   1087624.44545    855555.08644  24458818.9774                   24458823.5314
        35.2504         27.5004
  -2093087.11747  -1604345.58648  20020775.2034                   20020773.8554
        47.7504         49.0004
   2842577.18047   2216639.23045  21432625.7344                   21432625.1334
        45.7504         35.2504
   4761109.64846   3699374.29745  23653975.5084                   23653979.3244
        40.7504         35.2504
 25  8  7 22 34  0.0000000  0 10G03G01G10G04G26G02G25G31G28G32
  -6363999.08247  -4915528.75847  21329721.1484                   21329723.5664
        47.5004         42.7504
    -77817.89547    -51767.18746  21022210.6414                   21022210.8284
        47.5004         36.0004
   5814179.02346   4519072.55144  24478272.7734                   24478280.8794
        36.5004         27.5004
  -5084036.77747  -3920750.36744  22898525.6094                   22898528.7664
        43.5004         26.5004
  -6353247.82446  -4905144.36345  23130386.5554                   23130393.8674
        38.0004         33.2504
   3195704.63747   2489975.52045  22082554.6094                   22082553.9804
        46.5004         34.7504
   1102871.12546    867435.59044  24461719.9144                   24461723.8524
        36.5004         27.5004
  -2117612.59448  -1623456.32048  20016107.9224                   20016106.5044
        48.7504         48.7504
   2880185.34047   2245944.28945  21439782.5004                   21439782.0314
        45.7504         35.2504
   4808340.69547   3736177.65645  23662964.0784                   23662967.2464
        42.0004         35.5004
 25  8  7 22 34 30.0000000  0 10G03G01G10G04G26G02G25G31G28G32
  -6461941.37947  -4991847.37147  21311083.7814                   21311085.8164
        47.5004         43.2504
    -91679.66847    -62568.58245  21019572.8134                   21019573.0634
        47.5004         35.2504
   5882388.86746   4572222.85544  24491252.5084                   24491261.0824
        37.5004         29.5004
  -5174049.96547  -3990890.39544  22881395.8364                   22881399.3244
        43.0004         26.0004
  -6461805.52346  -4989734.50845  23109729.3204                   23109735.4964
        39.5004         34.0004
   3235515.23847   2520996.68845  22090129.9224                   22090129.0944
        45.2504         35.0004
   1118686.64146    879759.35544  24464729.3054                   24464733.6294
        36.7504         28.5004
  -2141478.77348  -1642053.32448  20011566.5004                   20011564.8754
        49.5004         48.7504
   2918255.21547   2275609.11745  21447026.9844                   21447025.9184
        46.2504         35.0004
   4855632.04346   3773028.00445  23671963.2974                   23671966.5704
        41.7504         35.5004
 25  8  7 22 35  0.0000000  0 10G03G01G10G04G26G02G25G31G28G32
  -6559632.17647  -5067970.00447  21292493.7584                   21292495.6024
        47.0004         43.5004
   -104915.46147    -72882.20745  21017054.1484                   21017054.1484
        47.7504         35.0004
   5950830.51246   4625553.81344  24504277.8444                   24504285.2504
        37.2504         28.7504
  -5263888.35547  -4060894.20744  22864300.1094                   22864304.0314
        43.0004         25.0004
  -6570132.32046  -5074144.77745  23089114.7424                   23089121.0634
        39.5004         33.0004
   3275719.53547   2552324.63345  22097780.8524                   22097780.2074
        45.2504         34.0004
   1135068.50445    892524.45344  24467846.1174                   24467851.4304
        35.5004         26.5004
  -2164687.48448  -1660138.00848  20007150.1334                   20007148.2114
        48.7504         49.0004
   2956782.93447   2305630.69945  21454358.2034                   21454357.6094
        45.5004         35.0004
   4902981.91846   3809923.96545  23680973.8204                   23680976.7274
        41.0004         35.5004
 25  8  7 22 35 30.0000000  0 10G03G01G10G04G26G02G25G31G28G32
  -6657070.84847  -5143896.18747  21273951.6024                   21273953.5864
        47.7504         43.5004
   -117527.30148    -82709.62946  21014654.3054                   21014654.9184
        48.2504         36.0004
   6019501.62945   4679063.54345  24517345.1334                   24517353.6334
        35.5004         30.0004
  -5353553.53547  -4130763.05144  22847237.1484                   22847241.0004
        42.7504         26.0004
  -6678226.51646  -5158373.77945  23068545.8594                   23068551.6294
        39.5004         33.5004
   3316313.76247   2583956.41445  22105505.7114                   22105505.0664
        44.5004         34.7504
   1152014.10946    905728.79744  24471071.2664                   24471076.2544
        36.5004         28.0004
  -2187240.80148  -1677711.98848  20002858.3674                   20002857.0554
        49.0004         49.0004
   2995764.59447   2336006.01245  21461776.3054                   21461775.9454
        46.2504         35.5004
   4950388.56647   3846864.16845  23689995.0474                   23689997.6484
        42.0004         34.5004
 25  8  7 22 36  0.0000000  0 10G03G01G10G04G26G02G25G31G28G32
  -6754254.93047  -5219623.97347  21255458.3054                   21255460.4224
        47.7504         43.2504
   -129515.35947    -92050.98446  21012372.7974                   21012373.4654
        47.5004         36.0004
   6088401.44545   4732751.42244  24530455.8674                   24530464.9414
        34.0004         28.5004
  -5443045.26647  -4200496.74644  22830207.5004                   22830211.0044
        43.0004         24.7504
  -6786084.55946  -5242418.75845  23048020.1954                   23048026.2504
        38.7504         33.5004
   3357295.72747   2615890.31645  22113304.6254                   22113303.5274
        46.2504         34.2504
   1169523.00846    919372.09044  24474403.3054                   24474407.9344
        36.7504         28.5004
  -2209139.18448  -1694775.64148  19998691.2814                   19998689.6764
        48.2504         49.0004
   3035198.20747   2366733.50045  21469280.2034                   21469280.0314
        46.0004         35.5004
   4997852.13346   3883848.71945  23699026.8984                   23699030.0984
        41.5004         34.5004
 25  8  7 22 36 30.0000000  0 10G03G01G10G04G26G02G25G31G28G32
  -6851180.70347  -5295150.49247  21237013.5474                   21237015.8164
        47.7504         43.0004
   -140878.61748   -100905.49645  21010210.5634                   21010211.0744
        48.0004         35.5004
   6157530.54745   4786617.94944  24543611.4454                   24543619.8484
        34.0004         26.7504
  -5532362.01647  -4270094.08244  22813211.4844                   22813214.7854
        43.0004         26.5004
  -6893701.60546  -5326275.93745  23027541.6024                   23027547.5084
        39.7504         34.5004
   3398664.56347   2648125.68845  22121177.2734                   22121175.9844
        46.2504         34.5004
   1187595.53545    933454.57844  24477841.9844                   24477846.8754
        35.5004         28.0004
  -2230381.67248  -1711328.20748  19994648.6804                   19994647.1024
        49.0004         48.7504
   3075082.94547   2397812.50445  21476870.0704                   21476869.8204
        45.7504         35.0004
   5045373.78946   3920878.53145  23708070.0784                   23708073.0824
        41.5004         35.5004
 25  8  7 22 37  0.0000000  0 10G03G01G10G04G26G02G25G31G28G32
  -6947847.69947  -5370475.35947  21218618.5864                   21218620.6294
        47.5004         43.5004
   -151619.29347   -109274.87145  21008167.2894                   21008167.3324
        47.0004         34.7504
   6226886.27345   4840661.05944  24556809.9924                   24556817.8204
        35.2504         28.2504
  -5621505.63347  -4339556.52344  22796247.2814                   22796250.7734
        42.7504         25.2504
  -7001075.96546  -5409944.03145  23007108.0704                   23007114.4224
        40.0004         34.7504
   3440416.64147   2680659.69545  22129122.5394                   22129121.1764
        45.7504         34.7504
   1206228.93846    947974.09444  24481388.4144                   24481392.4414
        36.0004         27.7504
  -2250970.57047  -1727371.48448  19990730.5784                   19990729.0314
        47.7504         48.7504
   3115414.74247   2429239.86345  21484544.9614                   21484544.6254
        45.5004         34.5004
   5092951.85246   3957952.30145  23717123.7344                   23717127.0164
        40.7504         35.5004
 25  8  7 22 37 30.0000000  0 10G03G01G10G04G26G02G25G31G28G32
  -7044251.90247  -5445595.45747  21200273.3134                   21200275.2234
        47.2504         43.2504
   -161736.14547   -117158.14545  21006241.3134                   21006242.0744
        46.7504         35.2504
   6296469.31646   4894881.32044  24570051.0474                   24570059.5204
        37.0004         28.5004
  -5710474.23047  -4408882.57444  22779316.7584                   22779320.6294
        42.2504         25.0004
  -7108202.60946  -5493419.09845  22986722.1954                   22986728.6054
        39.5004         33.7504
   3482551.27347   2713491.78945  22137139.7734                   22137139.8094
        45.5004         34.2504
   1225424.12146    962931.35544  24485041.7344                   24485045.2194
        37.0004         28.0004
  -2270904.66448  -1742904.52348  19986937.1484                   19986935.8594
        49.2504         48.5004
   3156193.16047   2461015.23045  21492305.1174                   21492304.5234
        45.7504         34.7504
   5140587.88346   3995071.25045  23726189.2194                   23726191.8714
        40.7504         34.5004
 25  8  7 22 38  0.0000000  0 10G03G01G10G04G26G02G25G31G28G32
  -7140394.02347  -5520511.34047  21181977.9694                   21181980.1254
        47.0004         43.7504
   -171232.60547   -124558.00445  21004434.4924                   21004435.0234
        46.2504         35.5004
   6366275.78146   4949275.71144  24583335.0314                   24583343.6804
        37.2504         27.5004
  -5799270.82047  -4478074.59844  22762419.9844                   22762423.3484
        43.0004         25.0004
  -7215081.11746  -5576700.78545  22966384.1414                   22966389.8324
        39.5004         35.0004
   3525063.13747   2746617.81645  22145230.2114                   22145228.9964
        45.5004         35.0004
   1245177.02746    978323.20344  24488799.7274                   24488803.7584
        36.5004         28.0004
  -2290187.56648  -1757930.14548  19983268.0554                   19983266.1994
        48.5004         48.7504
   3197412.87547   2493134.47345  21500148.8524                   21500148.2664
        45.5004         35.0004
   5188278.84846   4032232.99645  23735264.0554                   23735267.1914
        41.5004         34.0004
 25  8  7 22 38 30.0000000  0 10G03G01G10G04G26G02G25G31G28G32
  -7236272.83647  -5595222.03947  21163732.7114                   21163734.7504
        47.5004         44.0004
   -180110.31647   -131475.71546  21002744.8134                   21002745.3914
        47.0004         36.2504
   6436303.78146   5003842.74244  24596660.6564                   24596670.0004
        37.0004         26.0004
  -5887896.42247  -4547133.40644  22745554.4694                   22745557.6524
        43.0004         25.2504
  -7321709.19146  -5659787.36345  22946093.4144                   22946099.6524
        40.2504         35.7504
   3567949.11747   2780035.37945  22153391.3134                   22153390.0784
        47.0004         34.5004
   1265485.63745    994148.05944  24492664.9064                   24492669.1414
        35.0004         28.0004
  -2308820.74248  -1772449.47748  19979722.1254                   19979720.8094
        48.5004         48.5004
   3239070.54347   2525594.98445  21508076.1254                   21508075.5044
        45.5004         34.7504
   5236023.55146   4069436.61345  23744349.9384                   23744352.9574
        41.2504         34.0004
 25  8  7 22 39  0.0000000  0 10G03G01G10G04G26G02G25G31G28G32
  -7331884.87547  -5669724.86747  21145538.3204                   21145540.0744
        47.5004         44.2504
   -188368.64547   -137910.79345  21001173.2894                   21001174.1374
        46.7504         35.5004
   6506553.48046   5058582.52044  24610028.9534                   24610037.6804
        36.0004         24.7504
  -5976349.80547  -4616058.00844  22728722.4304                   22728725.7934
        43.0004         25.7504
  -7428082.18046  -5742675.17245  22925850.7664                   22925856.2934
        39.7504         34.0004
   3611208.03147   2813743.54345  22161622.2034                   22161622.1454
        44.0004         34.0004
   1286350.07045   1010406.03545  24496634.7974                   24496639.4104
        35.5004         30.0004
  -2326803.68048  -1786462.13748  19976300.2114                   19976298.6454
        49.7504         48.5004
   3281165.09047   2558395.90245  21516086.1254                   21516085.7854
        45.0004         34.5004
   5283823.20347   4106683.04345  23753445.2274                   23753449.0434
        42.0004         34.2504
 25  8  7 22 39 30.0000000  0 10G03G01G10G04G26G02G25G31G28G32
  -5851806.57447  -4516417.03947  21427187.8054                   21427190.1334
        47.0004         44.0004
   1379410.18847   1083735.04346  21299512.2194                   21299512.6334
        46.5004         36.0004
   8152439.68045   6341091.03944  24923231.3914                   24923240.0824
        34.7504         24.0004
  -4489209.91447  -3457247.58244  23011715.6094                   23011719.2304
        42.7504         25.7504
  -5958775.25446  -4597760.46545  23205450.7274                   23205456.6054
        40.5004         35.5004
   5230254.20347   4075337.87145  22469717.2584                   22469716.5664
        45.7504         34.0004
   2883186.64145   2254694.25044  24800502.7424                   24800507.3874
        34.7504         27.7504
   -768718.45748   -572369.73848  20272793.7974                   20272792.3634
        49.5004         48.5004
   4899110.91447   3819132.89145  21823971.0704                   21823970.7384
        45.5004         34.0004
   6907094.14847   5371569.44145  24062344.1174                   24062347.0784
        42.2504         34.0004
 25  8  7 22 40  0.0000000  0 10G03G01G10G04G26G02G25G31G28G32
  -5946882.02048  -4590501.75047  21409095.9614                   21409097.7664
        48.0004         44.2504
   1372385.00847   1078260.85945  21298175.2194                   21298175.5434
        47.0004         35.5004
   8223126.13345   6396171.13344  24936682.2894                   24936691.6724
        34.0004         25.2504
  -4577322.72347  -3525906.79744  22994948.6414                   22994951.1724
        42.2504         26.0004
  -6064631.96147  -4680245.98845  23185307.1334                   23185312.6954
        42.0004         35.5004
   5274248.37547   4109618.94945  22478089.0554                   22478088.2854
        46.2504         33.5004
   2905155.66045   2271812.93444  24804683.6254                   24804687.4884
        35.7504         28.5004
   -785406.89548   -585373.69548  20269617.9614                   20269616.7304
        49.0004         48.5004
   4942068.45347   3852606.27045  21832145.6094                   21832145.2624
        46.5004         34.0004
   6954999.44546   5408898.18045  24071460.4304                   24071462.8984
        41.0004         34.2504
 25  8  7 22 40 30.0000000  0 10G03G01G10G04G26G02G25G31G28G32
  -6041686.75447  -4664375.50847  21391054.6094                   21391056.7034
        47.5004         44.0004
   1365974.45347   1073265.60245  21296955.5004                   21296955.6374
        46.2504         35.2504
   8294028.51245   6451419.43844  24950174.6884                   24950184.0744
        34.0004         24.7504
  -4665266.09047  -3594434.00044  22978213.1724                   22978216.1094
        42.5004         25.2504
  -6170226.51246  -4762527.25445  23165212.0004                   23165218.5474
        41.5004         35.2504
   5318605.66447   4144182.97745  22486530.2344                   22486528.8524
        46.2504         33.2504
   2927674.27745   2289359.85544  24808969.4064                   24808973.0904
        35.5004         28.2504
   -801450.14848   -597874.91048  20266565.1174                   20266563.9384
        49.2504         48.7504
   4985453.09847   3886412.45345  21840401.5634                   21840401.3204
        46.0004         34.0004
   7002956.52346   5446267.27045  24080586.0084                   24080588.9304
        40.5004         34.0004
 25  8  7 22 41  0.0000000  0 10G03G01G10G04G26G02G25G31G28G32
  -6136219.05947  -4738036.99647  21373065.3444                   21373067.6954
        47.0004         44.0004
   1360177.31347   1068748.33245  21295852.2814                   21295852.6054
        47.7504         35.7504
   8365145.36745   6506834.82844  24963708.6484                   24963717.3204
        35.0004         27.7504
  -4753040.67247  -3662829.65644  22961510.4614                   22961513.6454
        43.2504         26.7504
  -6275556.05146  -4844602.01245  23145168.8364                   23145174.2894
        41.0004         35.2504
   5363323.02347   4179027.57445  22495039.4064                   22495038.6484
        45.7504         33.0004
   2950740.94545   2307333.84844  24813358.6094                   24813362.5864
        34.5004         26.7504
   -816849.54748   -609874.42248  20263634.4614                   20263633.0474
        50.0004         48.5004
   5029261.85247   3920549.12545  21848738.1564                   21848737.9804
        47.0004         34.0004
   7050964.70746   5483676.16445  24089721.8834                   24089724.8484
        41.5004         34.2504
 25  8  7 22 41 30.0000000  0 10G03G01G10G04G26G02G25G31G28G32
  -6230476.70348  -4811484.46147  21355129.2424                   21355131.1094
        48.2504         44.0004
   1354992.71948   1064708.36346  21294865.5944                   21294866.3794
        48.0004         36.0004
   8436475.28546   6562416.25445  24977281.8134                   24977291.6764
        37.0004         31.0004
  -4840646.57847  -3731093.90644  22944839.4774                   22944842.8054
        42.7504         26.0004
  -6380617.36747  -4926467.81645  23125176.0864                   23125181.2234
        42.2504         35.0004
   5408398.50447   4214151.22345  22503617.1804                   22503616.2814
        46.5004         33.0004
   2974354.27746   2325733.81644  24817851.6174                   24817856.4884
        36.2504         27.5004
   -831605.84848   -621372.82048  20260826.7814                   20260825.1294
        49.0004         48.5004
   5073492.33647   3955014.41845  21857154.8134                   21857154.1484
        46.0004         33.5004
   7099023.87546   5521124.79345  24098867.1024                   24098870.3554
        41.7504         34.2504
 25  8  7 22 42  0.0000000  0 10G03G01G10G04G26G02G25G31G28G32
  -6324458.96548  -4884717.34447  21337244.9144                   21337246.7304
        48.0004         44.0004
   1350418.52047   1061144.02745  21293995.6174                   21293995.1884
        47.5004         35.5004
   8508016.06646   6618161.98445  24990896.1954                   24990905.5554
        37.7504         30.0004
  -4928085.24647  -3799227.83244  22928200.2584                   22928203.3914
        42.7504         26.0004
  -6485408.52347  -5008123.04746  23105234.9694                   23105241.2894
        42.5004         37.0004
   5453827.93847   4249550.68045  22512261.9924                   22512261.5594
        46.0004         33.2504
   2998511.61345   2344557.67244  24822448.8364                   24822452.8134
        35.2504         28.7504
   -845721.39148   -632371.92648  20258140.4534                   20258139.2584
        48.5004         48.5004
   5118140.73847   3989805.35245  21865651.3134                   21865650.6414
        45.7504         33.5004
   7147132.44546   5558611.91845  24108021.7424                   24108025.1484
        41.2504         34.2504
 25  8  7 22 42 30.0000000  0 10G03G01G10G04G26G02G25G31G28G32
  -6418161.85548  -4957732.53547  21319413.9844                   21319415.7734
        48.2504         44.0004
   1346455.48847   1058055.92245  21293240.8204                   21293241.4884
        47.7504         35.7504
   8579768.08946   6674072.32245  25004550.5864                   25004559.8444
        38.0004         30.5004
  -5015355.05547  -3867230.18744  22911592.8364                   22911596.6054
        43.2504         26.5004
  -6589924.66446  -5089564.03145  23085345.9534                   23085351.6094
        41.0004         35.2504
   5499610.52347   4285225.31645  22520974.3364                   22520973.4844
        45.2504         33.0004
   3023213.30946   2363805.69145  24827149.8754                   24827154.0904
        37.0004         30.7504
   -859195.44148   -642871.16848  20255576.5634                   20255575.1884
        48.5004         48.2504
   5163206.27047   4024921.33245  21874226.8674                   21874226.5744
        45.5004         34.0004
   7195291.96146   5596138.73845  24117186.7194                   24117189.8484
        41.5004         34.0004
 25  8  7 22 43  0.0000000  0 10G03G01G10G04G26G02G25G31G28G32
  -6511583.91847  -5030528.89847  21301636.1174                   21301638.0514
        47.5004         44.5004
   1343102.10547   1055442.86745  21292603.2504                   21292603.3674
        47.7504         35.2504
   8651729.52046   6730145.83645  25018244.6724                   25018253.7624
        38.2504         30.2504
  -5102456.89547  -3935101.63744  22895018.5164                   22895021.1724
        43.2504         26.0004
  -6694163.23047  -5170788.74645  23065510.3054                   23065514.6604
        42.0004         35.5004
   5545743.20747   4321172.74645  22529752.7114                   22529752.9804
        45.2504         32.5004
   3048457.29746   2383476.27344  24831952.8834                   24831957.5704
        37.0004         29.7504
   -872029.63348   -652871.82048  20253134.2114                   20253132.6174
        49.0004         48.2504
   5208685.77047   4060359.88745  21882881.2504                   21882880.7154
        45.7504         34.0004
   7243501.62947   5633704.64845  24126360.3524                   24126363.3984
        42.0004         33.5004
 25  8  7 22 43 30.0000000  0 10G03G01G10G04G26G02G25G31G28G32
  -6604724.31647  -5103105.78547  21283911.8754                   21283914.2194
        47.7504         44.5004
   1340356.07447   1053303.07445  21292080.3594                   21292080.6024
        47.5004         35.5004
   8723898.03146   6786380.71145  25031977.8674                   25031987.9264
        38.2504         31.0004
  -5189392.16847  -4002843.32044  22878475.2894                   22878477.9024
        43.2504         26.5004
  -6798122.28546  -5251795.66446  23045726.7194                   23045732.3324
        41.5004         36.0004
   5592222.00447   4357389.88345  22538597.7894                   22538597.7274
        44.5004         33.0004
   3074241.02346   2403567.43444  24836859.8284                   24836863.7584
        37.0004         28.0004
   -884226.45748   -662375.83248  20250812.9384                   20250811.8134
        48.7504         48.5004
   5254575.44947   4096118.05945  21891614.1804                   21891613.9024
        46.5004         33.7504
   7291759.91847   5671308.43045  24135544.0784                   24135547.1684
        42.5004         33.7504
 25  8  7 22 44  0.0000000  0 10G03G01G10G04G26G02G25G31G28G32
  -6697579.54347  -5175460.45747  21266242.4064                   21266244.4304
        47.0004         44.5004
   1338217.71547   1051636.79345  21291673.4774                   21291673.7974
        46.7504         35.5004
   8796273.72746   6842777.02045  25045750.8674                   25045760.4494
        38.0004         30.7504
  -5276159.66047  -4070454.25844  22861963.3674                   22861967.0354
        42.5004         27.0004
  -6901797.30947  -5332581.24645  23025997.8594                   23026003.6094
        42.0004         35.5004
   5639045.78947   4393875.83645  22547507.7894                   22547507.6094
        45.0004         32.7504
   3100564.32845   2424079.05944  24841868.8674                   24841872.8714
        35.7504         27.7504
   -895785.37548   -671382.77048  20248613.9224                   20248612.0984
        48.0004         48.2504
   5300874.07047   4132194.88745  21900424.4454                   21900423.7464
        46.0004         33.7504
   7340067.89847   5708950.95345  24144736.6094                   24144739.9574
        42.0004         34.0004
 25  8  7 22 44 30.0000000  0 10G03G01G10G04G26G02G25G31G28G32
  -6790148.92247  -5247592.39147  21248626.8444                   21248628.9344
        47.7504         44.5004
   1336684.56347   1050442.09445  21291381.8204                   21291382.2274
        47.0004         35.2504
   8868853.78146   6899332.55944  25059562.9304                   25059572.4384
        38.2504         29.7504
  -5362761.09047  -4137935.78544  22845484.3984                   22845486.7384
        43.5004         26.7504
  -7005186.64146  -5413144.21545  23006323.7274                   23006329.2854
        41.5004         35.2504
   5686211.12547   4430627.94145  22556483.5394                   22556482.9884
        43.7504         32.0004
   3127424.28946   2445008.84444  24846980.5084                   24846984.3634
        36.0004         28.5004
   -906708.97748   -679894.65648  20246534.6414                   20246533.5004
        48.7504         48.0004
   5347577.70347   4168587.31345  21909311.7194                   21909311.3914
        45.5004         33.7504
   7388423.94546   5746630.91445  24153938.9144                   24153942.0044
        40.7504         34.0004
 25  8  7 22 45  0.0000000  0 10G03G01G10G04G26G02G25G31G28G32
  -6882430.84447  -5319500.33247  21231065.7814                   21231068.0314
        47.2504         44.5004
   1335755.06647   1049717.78146  21291205.1724                   21291205.2664
        47.0004         36.0004
   8941636.70346   6956046.16844  25073413.1724                   25073422.5784
        37.7504         28.7504
  -5449197.08247  -4205288.40644  22829035.2894                   22829038.5904
        42.5004         27.0004
  -7108287.58646  -5493482.49245  22986704.6254                   22986709.9494
        41.7504         35.5004
   5733714.15247   4467643.16845  22565523.2814                   22565522.4414
        45.0004         31.7504
   3154818.91046   2466355.25044  24852192.9304                   24852197.3014
        36.5004         27.7504
   -916998.93748   -687912.78948  20244576.7194                   20244575.4774
        48.5004         48.0004
   5394683.25047   4205292.91845  21918275.7344                   21918275.1254
        46.7504         33.2504
   7436827.34447   5784347.78145  24163149.4694                   24163152.9614
        42.0004         33.2504
 25  8  7 22 45 30.0000000  0 11G03G01G16G10G04G26G02G25G31G28G32
  -6974423.98447  -5391183.24647  21213560.2814                   21213562.4024
        47.5004         44.7504
   1335427.23047   1049462.28545  21291143.1094                   21291142.9614
        46.5004         35.5004
   2909442.54355   2424792.34453  25258061.8364                   25258071.9344
        35.7504         18.2504
   9014620.27346   7012916.14144  25087301.8204                   25087311.1294
        36.7504         27.2504
  -5535468.69147  -4272512.93044  22812618.0394                   22812621.8444
        42.5004         26.2504
  -7211097.88347  -5573594.26245  22967139.7584                   22967144.8714
        42.0004         35.0004
   5781551.68747   4504919.06445  22574626.2424                   22574625.9734
        44.2504         32.2504
   3182745.78546   2488116.40244  24857507.7974                   24857511.7424
        37.0004         29.0004
   -926657.34448   -695438.81248  20242738.7034                   20242737.3324
        48.5004         48.0004
   5442187.28147   4242309.02345  21927315.4384                   21927314.8284
        45.5004         33.2504
   7485277.03147   5822100.71545  24172368.7344                   24172371.8634
        42.0004         33.0004
 25  8  7 22 46  0.0000000  0 11G03G01G16G10G04G26G02G25G31G28G32
  -7066131.61747  -5462643.69147  21196109.0864                   21196110.6024
        47.5004         45.0004
   1335694.64147   1049670.63345  21291193.6174                   21291193.9414
        46.5004         35.7504
   2787411.30546   2329703.38343  25234839.8284                   25234850.4884
        36.5004         18.2504
   9087797.88746   7069937.32044  25101226.9844                   25101236.6374
        36.2504         24.7504
  -5621581.44947  -4339613.68044  22796231.9304                   22796234.4574
        42.0004         28.0004
  -7313619.66047  -5653481.26245  22947630.9774                   22947635.2584
        42.5004         35.5004
   5829715.65247   4542449.30545  22583792.2034                   22583791.1174
        45.0004         32.5004
   3211198.10246   2510287.00844  24862922.0784                   24862926.3364
        37.5004         28.7504
   -935690.80948   -702477.85948  20241019.8834                   20241018.5274
        48.7504         48.0004
   5490081.92247   4279629.50445  21936429.5234                   21936429.3164
        46.0004         33.5004
   7533767.42646   5859885.37945  24181596.5314                   24181600.0394
        41.5004         33.0004
 25  8  7 22 46 30.0000000  0 11G03G01G16G10G04G26G02G25G31G28G32
  -7157552.10947  -5533880.39147  21178712.2894                   21178714.2544
        47.5004         45.0004
   1336555.52747   1050341.42245  21291357.3134                   21291357.4064
        46.7504         35.5004
   2665236.82845   2234502.81342  25211590.4384                   25211602.2074
        33.5004         15.5004
   9161167.65646   7127108.21943  25115189.8054                   25115199.1254
        36.0004         23.2504
  -5707536.18047  -4406591.27744  22779875.1564                   22779877.7624
        42.5004         27.7504
  -7415850.40247  -5733141.45346  22928176.1484                   22928182.1214
        43.0004         36.5004
   5878202.93047   4580231.48845  22593018.2274                   22593018.5554
        44.2504         32.5004
   3240173.70746   2532865.37144  24868435.5004                   24868440.3674
        37.2504         29.5004
   -944101.03148   -709031.27048  20239419.3594                   20239417.7974
        48.7504         48.2504
   5538364.01247   4317251.89545  21945617.0554                   21945616.6054
        46.2504         33.2504
   7582297.77746   5897701.16845  24190831.9844                   24190835.3134
        41.0004         33.0004
 25  8  7 22 47  0.0000000  0 10G03G01G16G10G04G26G02G31G28G32
  -7248681.21947  -5604890.03147  21161370.7424                   21161372.8794
        47.5004         45.0004
   1338010.90647   1051475.44945  21291634.2504                   21291634.7304
        46.0004         35.7504
   2542924.01615                  25188316.391
        30.500
   9234730.32445   7184429.43843  25129188.2114                   25129198.2194
        35.5004         22.2504
  -5793330.87547  -4473444.18744  22763548.9384                   22763551.5554
        42.0004         26.5004
  -7517784.84047  -5812570.75846  22908779.4614                   22908783.9494
        43.0004         36.2504
   5927013.22747   4618265.37945  22602306.5474                   22602306.7854
        44.5004         32.2504
   -951887.14848   -715098.35548  20237937.7344                   20237936.3794
        49.5004         48.0004
   5587033.09047   4355175.83245  21954878.5084                   21954878.2154
        46.0004         33.2504
   7630870.06647   5935549.64845  24200074.2274                   24200077.7774
        42.0004         33.0004
 25  8  7 22 47 30.0000000  0 10G03G01G16G10G04G26G02G31G28G32
  -7339514.83648  -5675669.41847  21144085.8984                   21144087.6094
        48.0004         45.2504
   1340061.53147   1053073.30945  21292024.5084                   21292025.2384
        46.5004         34.7504
   2420477.50415                  25165014.289
        34.000
   9308486.76645   7241901.59043  25143223.1954                   25143233.8984
        34.2504         21.0004
  -5878963.74647  -4540170.98844  22747253.0554                   22747256.1604
        42.2504         27.2504
  -7619417.87147  -5891765.21146  22889438.8134                   22889444.3404
        43.2504         36.0004
   5976145.76247   4656550.35545  22611656.7194                   22611656.3754
        44.5004         31.0004
   -959048.28948   -720678.45748  20236574.7034                   20236573.6334
        49.5004         48.0004
   5636088.56347   4393400.84445  21964213.8364                   21964213.2544
        46.0004         33.0004
   7679486.02347   5973432.14545  24209325.6564                   24209329.3674
        42.5004         32.7504
 25  8  7 22 48  0.0000000  0 10G03G01G16G10G04G26G02G31G28G32
  -7430045.74648  -5746212.93747  21126858.0864                   21126859.9574
        48.5004         45.5004
   1342711.21547   1055137.96545  21292528.5004                   21292529.3284
        46.0004         35.0004
   2297904.74646   2092029.05152  25141689.2504                   25141698.1484
        37.0004         16.7504
   9382440.76245   7299527.71943  25157296.3364                   25157307.0474
        30.5004         18.5004
  -5964429.96547  -4606767.93444  22730989.2734                   22730992.2974
        42.0004         27.7504
  -7720741.23447  -5970718.35246  22870158.4064                   22870162.4694
        43.5004         36.2504
   6025602.92647   4695088.28945  22621068.1954                   22621068.2034
        45.0004         32.0004
   -965580.57848   -725768.53548  20235331.8984                   20235330.3284
        49.2504         48.0004
   5685532.89547   4431928.88345  21973622.5004                   21973621.9734
        46.2504         33.2504
   7728150.52347   6011352.47745  24218586.9384                   24218589.9964
        42.0004         32.5004
 25  8  7 22 48 30.0000000  0 10G03G01G16G10G04G26G02G31G28G32
  -7520268.42647  -5816516.27747  21109689.5164                   21109691.4454
        47.7504         45.2504
   1345962.11347   1057671.10945  21293147.3524                   21293148.0004
        46.5004         35.5004
   2175211.54346   1996424.19543  25118341.1954                   25118351.4574
        36.5004         18.2504
   9456594.36755   7357309.38352  25171407.6334                   25171418.3954
        30.7504         16.2504
  -6049726.35246  -4673232.53944  22714758.1724                   22714760.5704
        41.5004         28.0004
  -7821748.52047  -6049425.22745  22850936.4304                   22850941.2114
        42.5004         35.5004
   6075385.65647   4733879.90245  22630541.8594                   22630541.3364
        45.7504         32.0004
   -971482.17648   -730367.17648  20234209.0234                   20234207.7114
        50.2504         48.0004
   5735366.89147   4470760.54345  21983105.4304                   21983105.3094
        46.2504         32.7504
   7776866.75446   6049313.10945  24227857.3054                   24227860.9024
        41.0004         33.0004
 25  8  7 22 49  0.0000000  0 10G03G01G16G10G04G26G02G31G28G32
  -7610179.54348  -5886576.83647  21092580.0784                   21092581.4804
        48.7504         45.2504
   1349814.11347   1060672.64145  21293880.1954                   21293880.8954
        46.5004         35.5004
   2052401.84845   1900728.64842  25094971.3524                   25094981.8794
        32.7504         16.7504
   9530947.50454   7415246.60252  25185558.1644                   25185568.0474
        29.2504         14.7504
  -6134851.88747  -4739564.00444  22698559.0394                   22698562.1214
        42.0004         28.0004
  -7922435.37147  -6127882.40246  22831777.2734                   22831781.6524
        44.0004         37.0004
   6125492.39547   4772923.99245  22640077.7034                   22640076.8484
        46.5004         32.5004
   -976753.29748   -734474.53547  20233205.9454                   20233204.5004
        50.2504         47.7504
   5785589.12547   4509894.72345  21992662.8754                   21992662.4654
        45.5004         33.2504
   7825635.71546   6087314.83245  24237137.5234                   24237141.4264
        40.7504         32.5004
 25  8  7 22 49 30.0000000  0 10G03G01G16G10G04G26G02G31G28G32
  -7699783.02748  -5956397.68447  21075528.8444                   21075530.5274
        48.5004         45.5004
   1354259.82447   1064136.80145  21294726.3674                   21294726.8094
        46.0004         35.5004
   1929471.78945   1804939.29742  25071578.1484                   25071589.5664
        31.0004         15.5004
   9605492.57054   7473333.34852  25199743.0004                   25199754.0554
        29.2504         13.7504
  -6219812.88747  -4805767.26244  22682391.5084                   22682394.1254
        42.0004         27.7504
  -8022804.78947  -6206092.22746  22812676.6804                   22812681.6954
        43.0004         36.5004
   6175914.33247   4812213.69945  22649672.1094                   22649671.3674
        46.0004         31.2504
   -981401.43748   -738096.45347  20232321.5234                   20232319.6884
        49.5004         47.7504
   5836190.93447   4549324.68845  22002291.9304                   22002291.7424
        45.7504         33.0004
   7874451.14547   6125352.75445  24246426.3984                   24246430.0554
        42.2504         32.5004
 25  8  7 22 50  0.0000000  0  9G03G01G16G04G26G02G31G28G32
  -7789078.11748  -6025978.21947  21058536.6564                   21058537.8164
        48.5004         45.5004
   1359296.59847   1068061.53545  21295684.8914                   21295685.4304
        47.0004         35.5004
   1806422.59455   1709057.15652  25048161.8524                   25048174.3594
        31.7504         14.7504
  -6304610.91846  -4871843.53544  22666254.8204                   22666257.5314
        41.7504         29.0004
  -8122854.98047  -6284053.30546  22793637.6724                   22793642.3954
        44.0004         36.2504
   6226647.33647   4851745.80145  22659326.0234                   22659326.0084
        45.2504         31.2504
   -985428.88748   -741234.71947  20231555.1024                   20231553.4534
        49.7504         47.5004
   5887168.36747   4589047.33645  22011992.7194                   22011991.8554
        46.5004         33.2504
   7923311.48447   6163425.68445  24255724.6724                   24255727.8364
        42.2504         32.2504
 25  8  7 22 50 30.0000000  0  9G03G01G16G04G26G02G31G28G32
  -7878062.06248  -6095316.31247  21041603.4304                   21041605.1884
        48.7504         45.7504
   1364923.55547   1072446.14846  21296755.5164                   21296756.3014
        45.5004         36.0004
   1683257.70745   1613084.85543  25024725.2194                   25024735.7584
        34.5004         18.2504
  -6389245.63347  -4937792.54744  22650149.2274                   22650152.1294
        42.0004         27.7504
  -8222582.36347  -6361762.82846  22774659.8674                   22774664.8524
        42.5004         36.5004
   6277689.49247   4891518.78945  22669038.9064                   22669038.6024
        45.5004         32.0004
   -988836.96148   -743890.35947  20230906.2584                   20230904.6094
        49.0004         47.7504
   5938519.33647   4629061.05945  22021764.4694                   22021763.9144
        46.7504         32.5004
   7972217.17647   6201533.94545  24265031.2114                   24265034.5864
        42.0004         32.5004
 25  8  7 22 51  0.0000000  0  9G03G01G16G04G26G02G31G28G32
  -7966730.70748  -6164408.71547  21024730.1484                   21024731.9024
        48.2504         45.5004
   1371141.39147   1077291.18445  21297938.5944                   21297939.0864
        46.2504         35.0004
   1559981.61345   1517025.75042  25001265.5164                   25001277.3244
        34.2504         13.7504
  -6473715.20747  -5003612.87944  22634074.4534                   22634077.8674
        42.2504         27.5004
  -8321981.68447  -6439216.72746  22755744.8364                   22755749.8364
        44.0004         37.0004
   6329040.15247   4931532.16445  22678811.0554                   22678810.7274
        46.0004         31.2504
   -991624.88748   -746062.75847  20230375.6884                   20230374.1334
        48.7504         47.5004
   5990243.22747   4669365.37145  22031606.7424                   22031606.5314
        46.2504         33.0004
   8021170.00047   6239678.92645  24274346.3054                   24274349.9844
        42.2504         32.0004
 25  8  7 22 51 30.0000000  0  9G03G01G16G04G26G02G31G28G32
  -8055079.52048  -6233251.90247  21007918.3134                   21007919.6214
        48.0004         45.5004
   1377951.13347   1082597.44945  21299234.8364                   21299235.3984
        46.7504         35.2504
   1436599.32845   1420884.09042  24977786.5784                   24977798.0394
        35.0004         16.2504
  -6558017.49247  -5069302.85544  22618032.8594                   22618035.4694
        42.5004         28.2504
  -8421047.57447  -6516410.80946  22736893.4774                   22736897.7154
        43.5004         36.0004
   6380698.53147   4971785.34045  22688641.7894                   22688641.2464
        46.5004         31.2504
   -993791.84848   -747751.29747  20229963.3284                   20229962.0394
        49.5004         47.5004
   6042339.88747   4709960.14145  22041520.6174                   22041520.3094
        45.5004         32.5004
   8070172.21546   6277862.40645  24283671.7114                   24283675.3444
        40.0004         32.0004
 25  8  7 22 52  0.0000000  0  9G03G01G16G04G26G02G31G28G32
  -8143109.66048  -6301846.77747  20991166.3284                   20991167.9224
        48.2504         45.5004
   1385347.94547   1088361.16445  21300642.6484                   21300643.0164
        46.7504         35.0004
   1313109.77045   1324658.70742  24954286.5634                   24954299.3094
        33.2504         14.7504
  -6642155.93047  -5134865.16844  22602021.9454                   22602024.3554
        42.2504         28.0004
  -8519780.25847  -6593345.22746  22718105.0004                   22718109.6844
        43.7504         37.5004
   6432659.09847   5012273.98045  22698529.1254                   22698528.9534
        46.5004         31.2504
   -995342.47348   -748959.57047  20229668.6484                   20229666.6484
        49.0004         47.5004
   6094803.30947   4750840.71945  22051504.1804                   22051504.2304
        46.0004         33.5004
   8119220.34846   6316081.66045  24293005.4844                   24293008.6954
        40.2504         32.0004
 25  8  7 22 52 30.0000000  0  9G03G01G16G04G26G02G31G28G32
  -8230821.66848  -6370193.75847  20974475.6334                   20974476.8984
        48.2504         46.0004
   1393327.73047   1094579.14545  21302160.8204                   21302161.4734
        47.0004         35.5004
   1189512.99245   1228349.85542  24930766.9534                   24930778.4024
        33.7504         14.7504
  -6726133.47346  -5200302.09844  22586041.1804                   22586043.8874
        41.5004         28.5004
  -8618179.34047  -6670019.71946  22699379.7194                   22699384.9304
        43.2504         37.2504
   6484916.35547   5052993.79745  22708473.6414                   22708473.1954
        46.0004         31.5004
   -996281.02348   -749690.90247  20229489.7974                   20229488.3094
        48.2504         47.5004
   6147628.20747   4792002.95345  22061556.5314                   22061555.7304
        46.0004         32.5004
   8168311.51247   6354334.45345  24302347.0784                   24302350.2384
        42.0004         32.5004
 25  8  7 22 53  0.0000000  0  9G03G01G16G04G26G02G31G28G32
  -8318215.64147  -6438292.91847  20957844.7894                   20957846.2464
        47.5004         45.7504
   1401886.71547   1101248.44545  21303789.7424                   21303790.1054
        46.2504         35.0004
   1065809.88345   1131958.11342  24907227.2734                   24907238.2814
        33.0004         16.2504
  -6809952.59447  -5265615.59444  22570090.7424                   22570093.5824
        42.0004         29.0004
  -8716243.97747  -6746433.56646  22680718.8054                   22680723.5864
        43.2504         36.7504
   6537465.10247   5093940.75445  22718473.3524                   22718473.1374
        45.2504         31.5004
   -996611.37548   -749948.31647  20229427.1254                   20229425.1174
        48.5004         47.2504
   6200809.73047   4833443.07845  22071676.5164                   22071676.5824
        46.5004         32.7504
   8217443.30146   6392618.90245  24311696.7814                   24311700.0164
        40.7504         31.7504
 25  8  7 22 53 30.0000000  0  9G03G01G16G04G26G02G31G28G32
  -8405291.46947  -6506144.17247  20941274.6884                   20941276.6294
        47.5004         46.0004
   1411021.40647   1108366.35945  21305528.3594                   21305528.4964
        46.5004         35.0004
    942000.320 5                  24883666.891
        33.250
  -6893615.50847  -5330807.35944  22554170.5164                   22554172.9264
        42.0004         29.0004
  -8813973.19947  -6822586.07846  22662121.7504                   22662125.6524
        43.5004         37.2504
   6590300.91047   5135111.39145  22728527.8284                   22728527.8524
        46.0004         31.7504
   -996336.93748   -749734.46147  20229479.2274                   20229477.3484
        48.7504         47.5004
   6254343.17647   4875157.42645  22081863.7504                   22081863.6484
        46.2504         33.2504
   8266613.54746   6430933.30145  24321053.3834                   24321056.7234
        41.7504         32.0004
 25  8  7 22 54  0.0000000  0  9G03G01G16G04G26G02G31G28G32
  -8492043.85548  -6573743.41047  20924766.5474                   20924768.0274
        48.0004         46.2504
   1420733.36747   1115934.08245  21307375.8984                   21307376.5044
        46.2504         35.0004
    818090.57845   1007774.83652  24860087.1804                   24860096.7544
        34.5004         15.5004
  -6977119.33247  -5395875.16844  22538279.6254                   22538282.6214
        43.2504         29.2504
  -8911360.77747  -6898472.35546  22643588.6414                   22643594.1054
        42.7504         37.2504
   6643424.07447   5176505.93845  22738636.9534                   22738636.8364
        46.5004         31.7504
   -995456.18048   -749048.15247  20229646.4844                   20229644.9574
        48.2504         47.5004
   6308229.03947   4917146.39145  22092118.0634                   22092117.8754
        45.5004         32.0004
   8315825.24246   6469280.01245  24330418.3834                   24330421.5784
        41.7504         31.0004
 25  8  7 22 54 30.0000000  0  9G03G01G16G04G26G02G31G28G32
  -8578473.16447  -6641090.89147  20908319.5394                   20908321.0084
        47.7504         46.2504
   1431018.57047   1123948.49245  21309333.2034                   21309333.7734
        46.5004         34.5004
    694080.59846    911144.06343  24836489.3204                   24836498.6914
        36.0004         18.2504
  -7060466.78547  -5460821.12944  22522419.3984                   22522422.0594
        43.2504         29.0004
  -9008406.18447  -6974092.01246  22625121.9534                   22625125.7624
        43.7504         36.5004
   6696829.14547   5218120.16045  22748799.5164                   22748799.2154
        46.5004         31.7504
   -993973.43747   -747892.76647  20229929.1564                   20229927.5784
        47.5004         47.2504
   6362462.19547   4959405.96945  22102438.3754                   22102437.6884
        46.5004         32.2504
   8365075.66846   6507656.89845  24339790.5784                   24339793.7584
        41.5004         31.7504
 25  8  7 22 55  0.0000000  0  9G03G01G16G04G26G02G31G28G32
  -8664578.31247  -6708185.78147  20891934.0704                   20891935.7274
        47.5004         46.2504
   1441874.29347   1132407.45745  21311399.2664                   21311399.7304
        46.5004         34.7504
    569972.01246    814436.39542  24812871.9534                   24812881.2814
        36.5004         16.2504
  -7143659.16447  -5525646.25044  22506588.7424                   22506590.8164
        42.2504         29.5004
  -9105107.48447  -7049443.55546  22606720.4144                   22606724.6454
        42.7504         36.0004
   6750512.28147   5259951.05145  22759015.0474                   22759014.8834
        45.5004         31.0004
   -991891.31247   -746270.32447  20230325.1804                   20230323.3914
        47.7504         47.0004
   6417038.94147   5001933.27345  22112824.1024                   22112823.3134
        46.5004         32.7504
   8414363.60946   6546063.02345  24349170.0864                   24349172.9024
        41.0004         31.2504
 25  8  7 22 55 30.0000000  0  9G03G01G16G04G26G02G31G28G32
  -8750354.15647  -6775024.06647  20875611.6254                   20875613.2194
        47.7504         46.2504
   1453301.97347   1141312.11345  21313573.7584                   21313574.2774
        47.5004         35.2504
    445770.37545    717656.34442  24789236.8054                   24789245.3634
        35.0004         15.5004
  -7226693.75847  -5590348.42645  22490787.3524                   22490789.8914
        42.0004         30.0004
  -9201458.65247  -7124522.21546  22588385.7584                   22588389.9534
        44.0004         37.7504
   6804473.89547   5301998.93845  22769283.6024                   22769283.8634
        45.0004         31.5004
   -989208.20748   -744179.58247  20230835.6334                   20230834.1804
        48.2504         47.2504
   6471959.55547   5044728.53945  22123274.6724                   22123274.6484
        46.5004         32.7504
   8463691.94146   6584500.60245  24358556.3204                   24358559.7344
        41.7504         32.2504
 25  8  7 22 56  0.0000000  0  9G03G01G16G04G26G02G31G28G32
  -8835799.35247  -6841604.71547  20859352.2974                   20859353.5084
        47.0004         46.2504
   1465299.14147   1150660.52045  21315856.7274                   21315857.1214
        47.5004         35.2504
    321477.80946    620805.45743  24765584.0554                   24765592.9964
        36.0004         18.2504
  -7309571.48047  -5654928.36745  22475016.4774                   22475018.4924
        43.5004         30.0004
  -9297457.43447  -7199326.33246  22570117.1334                   22570121.4774
        43.0004         36.5004
   6858710.65247   5344261.21145  22779605.4224                   22779605.2734
        46.0004         31.2504
   -985926.88348   -741622.69547  20231459.9064                   20231458.3204
        48.2504         47.0004
   6527220.65647   5087789.10545  22133790.8524                   22133790.5824
        45.7504         32.0004
   8513059.71147   6622968.91445  24367950.7814                   24367954.4844
        42.0004         32.0004
 25  8  7 22 56 30.0000000  0  9G03G01G16G04G26G02G31G28G32
  -8920913.79747  -6907927.62947  20843155.1094                   20843156.4224
        47.7504         46.5004
   1477862.09847   1160449.80545  21318247.4844                   21318248.0204
        46.7504         35.0004
    197094.70346    523884.02042  24741913.4844                   24741923.4494
        38.0004         13.7504
  -7392294.68747  -5719387.91444  22459274.5944                   22459277.0984
        43.2504         29.7504
  -9393102.88747  -7273855.11746  22551916.0944                   22551920.5704
        43.7504         37.2504
   6913217.28547   5386733.78545  22789977.6024                   22789977.6174
        44.7504         31.5004
   -982050.87548   -738602.41847  20232197.7274                   20232196.0514
        48.0004         47.2504
   6582817.55147   5131111.33645  22144370.8594                   22144370.4534
        45.0004         32.2504
   8562464.67646   6661466.19945  24377352.2344                   24377355.6334
        41.7504         31.7504
 25  8  7 22 57  0.0000000  0  9G03G01G16G04G26G02G31G28G32
  -9005694.52348  -6973990.50047  20827021.6804                   20827023.0634
        48.2504         46.5004
   1490989.96547   1170679.27345  21320745.5004                   21320746.4224
        47.7504         35.2504
     72624.36345    426894.39542  24718227.1884                   24718238.1484
        32.7504         13.7504
  -7474862.75847  -5783726.57445  22443562.2974                   22443564.4964
        42.7504         30.2504
  -9488391.25047  -7348105.65646  22533782.9454                   22533787.5474
        43.5004         36.7504
   6967991.73047   5429415.05145  22800402.0634                   22800400.7544
        46.0004         31.0004
   -977581.19148   -735119.53947  20233047.9694                   20233046.6334
        48.5004         47.0004
   6638748.40247   5174693.78545  22155014.0164                   22155013.1954
        46.0004         32.5004
   8611907.54346   6699993.01645  24386760.8834                   24386764.5744
        41.5004         31.0004
 25  8  7 22 57 30.0000000  0  9G03G01G16G04G26G02G31G28G32
  -9090143.21147  -7039794.64547  20810951.5634                   20810953.1954
        47.7504         46.5004
   1504677.25047   1181344.66045  21323350.2114                   21323350.5124
        47.7504         35.0004
                                  24694524.195
        30.500
  -7557279.66047  -5847947.43744  22427879.0314                   22427880.8404
        42.5004         29.2504
  -9583323.27047  -7422078.53146  22515717.7274                   22515721.9694
        43.0004         37.0004
   7023027.75447   5472300.13745  22810873.9844                   22810873.8134
        46.7504         31.0004
   -972523.67248   -731178.59847  20234010.0234                   20234009.4304
        48.0004         47.0004
   6695006.68847   5218531.39145  22165719.8524                   22165719.1174
        45.7504         31.5004
   8661384.35247   6738546.27745  24396176.1254                   24396179.3914
        42.0004         31.0004
 25  8  7 22 58  0.0000000  0  9G03G01G16G04G26G02G31G28G32
  -9174255.33248  -7105336.52747  20794945.7734                   20794947.0744
        49.0004         46.5004
   1518924.59847   1192446.46145  21326061.3524                   21326061.9344
        47.7504         35.0004
   -176575.44115                  24670805.234
        33.500
  -7639543.37947  -5912048.93744  22412224.7814                   22412226.3754
        43.5004         29.5004
  -9677893.61747  -7495769.58646  22497722.4534                   22497726.9024
        43.5004         38.0004
   7078324.82047   5515388.64545  22821396.2274                   22821396.8714
        44.7504         31.0004
   -966877.28948   -726778.81247  20235085.2114                   20235082.9614
        48.0004         47.2504
   6751592.17647   5262623.94945  22176487.0314                   22176486.8914
        45.7504         31.7504
   8710897.39546   6777127.77045  24405598.5944                   24405601.6524
        41.2504         30.5004
 25  8  7 22 58 30.0000000  0  9G03G01G16G04G26G02G31G28G32
  -9258027.61748  -7170613.59047  20779004.4384                   20779005.6884
        48.7504         46.7504
   1533731.29747   1203984.10945  21328878.8754                   21328879.3674
        47.7504         34.0004
   -301295.937 5                  24647070.828
        34.000
  -7721652.93047  -5976030.31245  22396599.1954                   22396601.4844
        43.5004         31.0004
  -9772098.19147  -7569175.62546  22479795.5394                   22479799.3874
        44.2504         37.2504
   7133881.23847   5558679.22345  22831968.4774                   22831969.0234
        46.5004         30.0004
   -960642.70348   -721920.69147  20236271.0784                   20236269.9384
        48.2504         47.0004
   6808503.31647   5306970.26645  22187316.9144                   22187316.8714
        46.2504         32.0004
   8760447.58246   6815738.21945  24415027.2504                   24415030.8364
        41.7504         30.0004
 25  8  7 22 59  0.0000000  0  9G03G01G16G04G26G02G31G28G32
  -9341458.62948  -7235624.73847  20763127.8054                   20763129.3444
        48.0004         46.7504
   1549094.94147   1215955.74645  21331802.6254                   21331803.0864
        47.0004         34.7504
   -426093.82445    372456.59852  24623323.3834                   24623331.1414
        35.7504         16.7504
  -7803609.28547  -6039892.30145  22381003.2584                   22381005.7344
        42.0004         31.0004
  -9865934.71547  -7642294.85946  22461938.8524                   22461943.1484
        44.2504         37.5004
   7189693.52047   5602169.18045  22842589.7274                   22842589.7934
        45.7504         30.5004
   -953822.60248   -716606.31647  20237569.3914                   20237567.5314
        48.0004         47.2504
   6865736.76247   5351567.72345  22198208.2584                   22198207.9694
        46.0004         31.2504
   8810034.13346   6854376.98845  24424463.5004                   24424466.8094
        41.2504         30.5004
 25  8  7 22 59 30.0000000  0  9G03G01G16G04G26G02G31G28G32
  -9424546.39848  -7300368.41447  20747316.5004                   20747318.1914
        48.5004         47.0004
   1565013.53547   1228359.81645  21334832.0234                   21334832.5354
        47.5004         34.2504
   -550966.46946    275153.63342  24599560.9144                   24599569.0314
        36.2504         16.2504
  -7885412.77747  -6103635.19545  22365436.6724                   22365438.8754
        43.2504         30.7504
  -9959400.35247  -7715125.11746  22444152.4534                   22444157.1414
        43.7504         37.2504
   7245758.71147   5645856.22745  22853258.1024                   22853258.5704
        45.7504         30.2504
   -946418.82048   -710837.13347  20238977.9774                   20238976.6214
        48.0004         47.0004
   6923289.69147   5396414.13745  22209160.3134                   22209159.9534
        45.0004         31.7504
   8859656.77746   6893043.90244  24433906.5004                   24433909.8164
        41.5004         29.7504
 25  8  7 23  0  0.0000000  0  9G03G01G16G04G26G02G31G28G32
  -9507286.72348  -7364841.35247  20731571.7274                   20731573.1484
        48.5004         47.0004
   1581487.26647   1241196.44145  21337966.9844                   21337967.6094
        47.2504         34.7504
   -675909.15645    177796.25042  24575783.9384                   24575794.1564
        32.7504         16.2504
  -7967061.71147  -6167257.64144  22349899.3204                   22349901.4184
        44.0004         29.7504
 -10052490.27347  -7787662.59046  22426438.5474                   22426442.5234
        43.0004         37.5004
   7302075.84847   5689739.57044  22863974.9534                   22863975.0864
        45.2504         29.0004
   -938431.41848   -704613.17647  20240498.0164                   20240496.2894
        48.5004         47.2504
   6981161.45747   5441508.99645  22220173.2194                   22220172.6294
        45.5004         31.2504
   8909317.38746   6931740.37544  24443356.3834                   24443360.3834
        41.0004         29.2504
 25  8  7 23  0 30.0000000  0  9G03G01G16G04G26G02G31G28G32
  -9589676.33248  -7429041.00447  20715893.3364                   20715895.4384
        49.2504         46.7504
   1598515.50847   1254465.17245  21341207.4924                   21341207.9494
        47.7504         34.5004
   -800917.680 5                  24551995.328
        33.500
  -8048555.02347  -6230758.84045  22334391.3594                   22334393.5004
        43.7504         30.7504
 -10145200.16847  -7859903.95346  22408795.7194                   22408800.1174
        43.5004         37.0004
   7358643.32847   5733817.99645  22874739.8674                   22874740.0634
        45.2504         30.5004
   -929860.89148   -697934.84047  20242129.1414                   20242127.5984
        49.0004         47.0004
   7039350.60547   5486851.14545  22231246.1804                   22231245.5314
        45.5004         31.7504
   8959017.06646   6970467.31644  24452814.1644                   24452817.5594
        41.5004         29.7504
 25  8  7 23  1  0.0000000  0  9G03G01G16G04G26G02G31G28G32
  -9671712.99648  -7492965.63747  20700282.2114                   20700283.7664
        48.5004         46.7504
   1616096.41447   1268164.53945  21344552.6094                   21344553.4144
        47.5004         34.5004
   -925989.355 5                  24528195.070
        34.250
  -8129892.89547  -6294138.91844  22318913.2664                   22318915.6254
        44.2504         29.7504
 -10237527.13747  -7931846.94546  22391226.1724                   22391230.8094
        43.0004         37.0004
   7415458.53147   5778089.43444  22885551.7664                   22885551.9924
        44.0004         29.7504
   -920709.16047   -690803.61747  20243870.6024                   20243869.1524
        47.7504         47.0004
   7097854.52747   5532438.58245  22242379.2194                   22242378.5744
        44.7504         31.5004
   9008755.67246   7009224.59444  24462279.5084                   24462282.8674
        41.5004         28.5004
 25  8  7 23  1 30.0000000  0  9G03G01G16G04G26G02G31G28G32
  -9753396.75048  -7556615.27747  20684738.4534                   20684739.8714
        48.7504         47.0004
   1634225.96947   1282291.42645  21348002.9144                   21348003.7504
        47.7504         34.7504
  -1051123.543 5                  24504382.734
        35.250
  -8211077.78947  -6357399.77744  22303464.0234                   22303466.4344
        43.5004         28.5004
 -10329470.40647  -8003490.93446  22373730.1644                   22373734.9304
        43.2504         37.7504
   7472516.48047   5822550.03544  22896409.4224                   22896409.4574
        45.0004         29.2504
   -910980.24648   -683222.64847  20245721.9224                   20245720.4494
        48.0004         47.0004
   7156668.39847   5578267.54745  22253570.8834                   22253570.0204
        46.0004         32.0004
   9058530.98846   7048010.48044  24471751.0474                   24471754.9144
        40.5004         29.0004
 25  8  7 23  2  0.0000000  0  9G03G01G16G04G26G02G31G28G32
  -9834727.18048  -7619989.60247  20669261.8984                   20669263.2154
        48.0004         47.0004
   1652900.48047   1296842.95345  21351556.3914                   21351557.2154
        47.2504         34.5004
  -1176319.12146    137473.93852  24480558.9224                   24480566.7234
        37.0004         17.7504
  -8292111.62547  -6420542.93445  22288044.1484                   22288045.9264
        44.0004         30.2504
 -10421028.78947  -8074835.02346  22356307.6334                   22356311.0234
        43.5004         37.2504
   7529812.51647   5867196.16845  22907312.1094                   22907312.6024
        44.5004         30.5004
   -900677.54347   -675194.55947  20247682.5234                   20247680.9614
        47.2504         47.2504
   7215787.78547   5624334.56645  22264821.2194                   22264820.5124
        45.2504         30.7504
   9108341.10246   7086823.48844  24481229.6174                   24481233.2894
        41.5004         28.2504
 25  8  7 23  2 30.0000000  0  9G03G01G16G04G26G02G31G28G32
  -9915703.08248  -7683087.66447  20653852.7274                   20653854.0514
        48.2504         47.0004
   1672117.16047   1311816.95745  21355213.2974                   21355213.7934
        47.7504         35.2504
  -1301574.66045     39872.52342  24456722.9614                   24456731.8054
        35.2504         14.7504
  -8372995.54347  -6483569.26645  22272652.0864                   22272654.3284
        43.2504         30.2504
 -10512200.34047  -8145877.68746  22338957.8444                   22338962.3324
        42.7504         37.7504
   7587342.85247   5912024.86344  22918259.9614                   22918260.5864
        44.0004         29.0004
   -889804.26647   -666721.87547  20249751.5474                   20249749.7194
        47.7504         47.2504
   7275209.20347   5670636.93845  22276128.6724                   22276128.1914
        45.5004         31.5004
   9158185.10547   7125662.90244  24490714.7814                   24490718.2854
        42.5004         28.0004
 25  8  7 23  3  0.0000000  0  9G03G01G16G04G26G02G31G28G32
  -9996319.66848  -7745905.74647  20638511.6024                   20638513.1604
        48.0004         47.0004
   1691876.60948   1327213.89845  21358973.5704                   21358974.0824
        48.5004         34.7504
  -1426884.51246    -57771.08642  24432876.7034                   24432885.4844
        36.5004         16.2504
  -8453727.10947  -6546476.90645  22257289.1564                   22257291.8324
        43.5004         30.7504
 -10602979.47347  -8216614.57046  22321683.3364                   22321687.3594
        43.5004         38.0004
   7645107.22347   5957035.90644  22929252.3284                   22929253.5634
        44.5004         29.5004
   -878359.70347   -657804.02747  20251929.5004                   20251928.2704
        47.2504         47.2504
   7334932.59847   5717174.61345  22287493.4454                   22287493.0314
        45.5004         31.0004
   9208065.41046   7164530.61344  24500206.3364                   24500210.3134
        41.5004         28.2504
 25  8  7 23  3 30.0000000  0  9G03G01G16G04G26G02G31G28G32
 -10076574.51647  -7808441.95347  20623239.7504                   20623241.3324
        47.5004         47.0004
   1712177.20347   1343032.50045  21362836.6804                   21362837.4384
        47.5004         35.0004
  -1552244.83246   -155454.11742  24409021.8364                   24409029.5274
        39.0004         17.2504
  -8534306.22747  -6609265.74244  22241955.7664                   22241957.9734
        42.7504         29.2504
 -10693362.98847  -8287043.18046  22304483.1254                   22304487.8404
        43.0004         37.7504
   7703103.25047   6002227.45345  22940289.2584                   22940289.3594
        44.5004         30.2504
   -866345.46547   -648442.28547  20254215.8914                   20254214.0354
        47.0004         47.2504
   7394955.59447   5763945.75045  22298915.8134                   22298915.1484
        45.0004         30.0004
   9257982.28546   7203426.79744  24509705.6564                   24509709.3324
        41.2504         27.7504
 25  8  7 23  4  0.0000000  0  9G03G01G16G04G26G02G31G28G32
 -10156466.73048  -7870695.58247  20608036.8444                   20608038.1484
        48.5004         47.0004
   1733015.63747   1359270.21145  21366802.0864                   21366802.8164
        47.7504         34.7504
  -1677655.062 5                  24385156.250
        32.250
  -8614734.43447  -6671936.99645  22226650.4844                   22226652.9144
        43.5004         30.0004
 -10783349.32047  -8357162.30946  22287359.2814                   22287364.0744
        43.0004         38.0004
   7761326.67247   6047596.18844  22951368.8054                   22951369.2584
        43.7504         29.7504
   -853764.71148   -638639.09447  20256609.3834                   20256608.2664
        48.0004         47.2504
   7455274.29347   5810947.30145  22310393.9924                   22310393.8404
        45.5004         30.5004
   9307934.37146   7242350.43844  24519211.5474                   24519214.9064
        41.2504         27.7504
 25  8  7 23  4 30.0000000  0  9G03G01G16G04G26G02G31G28G32
 -10235993.05947  -7932664.10547  20592903.4844                   20592905.0044
        47.7504         47.2504
   1754391.12548   1375926.39845  21370869.6954                   21370869.9614
        48.2504         34.5004
  -1803111.246 5                  24361282.188
        33.750
  -8695010.75447  -6734489.89544  22211375.1094                   22211376.6174
        43.2504         29.7504
 -10872934.37147  -8426968.73846  22270311.9844                   22270316.3284
        43.2504         38.2504
   7819775.94147   6093140.93044  22962491.0634                   22962491.8284
        43.5004         29.2504
   -840618.31648   -628395.14547  20259111.3524                   20259109.6374
        48.5004         47.2504
   7515887.24647   5858178.14545  22321928.3914                   22321928.0594
        45.0004         30.0004
   9357922.69146   7281302.32044  24528723.9924                   24528727.7934
        40.5004         27.5004
 25  8  7 23  5  0.0000000  0  9G03G01G16G04G26G02G31G28G32
 -10315152.50847  -7994346.75447  20577839.8364                   20577841.1954
        47.5004         47.5004
   1776300.36348   1392998.49645  21375038.5234                   21375039.5704
        48.2504         34.5004
  -1928611.195 6                  24337399.977
        36.000
  -8775136.57047  -6796925.51244  22196127.1174                   22196129.0784
        43.5004         29.7504
 -10962116.48847  -8496461.19946  22253341.6174                   22253344.9574
        43.7504         38.7504
   7878446.73047   6138858.25445  22973656.5784                   22973657.2034
        44.0004         30.5004
   -826909.48048   -617712.93447  20261720.2194                   20261718.6414
        48.5004         47.5004
   7576790.54747   5905635.22345  22333517.3204                   22333516.9924
        45.5004         30.5004
   9407946.02346   7320281.44544  24538242.6564                   24538247.0664
        39.0004         26.7504
 25  8  7 23  5 30.0000000  0  9G03G01G16G04G26G02G31G28G32
 -10393941.12147  -8055740.43447  20562846.4614                   20562848.0354
        47.5004         47.2504
   1798743.24248   1410486.43045  21379309.4224                   21379310.6484
        48.5004         34.7504
  -2054150.227 6                  24313511.477
        37.000
  -8855110.19947  -6859242.53145  22180908.6024                   22180910.8554
        42.5004         30.0004
 -11050891.14847  -8565636.15646  22236448.0004                   22236451.8634
        42.7504         38.7504
   7937338.26247   6184747.59445  22984862.8204                   22984863.7774
        44.0004         30.0004
   -812638.45748   -606592.64847  20264435.8594                   20264434.0904
        48.0004         47.0004
   7637983.46947   5953317.98045  22345162.4224                   22345162.1914
        45.0004         31.0004
   9458006.09446   7359289.21944  24547769.0634                   24547773.1174
        39.7504         27.0004
 25  8  7 23  6  0.0000000  0  9G03G01G16G04G26G02G31G28G32
 -10472354.29747  -8116841.57847  20547925.3754                   20547926.3244
        47.2504         47.5004
   1821720.09848   1428390.43445  21383682.0004                   21383683.0354
        48.7504         34.5004
  -2179723.062 6                  24289614.141
        37.500
  -8934929.50447  -6921439.30545  22165719.1724                   22165721.2384
        42.5004         31.0004
 -11139252.71547  -8634489.24646  22219633.2034                   22219637.8244
        43.2504         39.2504
   7996450.07447   6230808.57445  22996111.7114                   22996112.0124
        44.7504         30.7504
   -797805.07448   -595034.16847  20267258.5004                   20267256.9304
        48.0004         47.0004
   7699465.82847   6001226.27745  22356861.7274                   22356861.8484
        45.0004         30.5004
   9508105.28546   7398327.48044  24557303.2584                   24557306.5864
        40.5004         26.0004
 25  8  7 23  6 30.0000000  0  9G03G01G16G04G26G02G31G28G32
 -10550396.40648  -8177653.57047  20533074.2114                   20533075.8404
        48.5004         47.5004
   1845222.30148   1446703.80145  21388154.2344                   21388154.8914
        48.0004         34.5004
  -2305333.45346   -328246.30152  24265712.0554                   24265718.6054
        36.5004         16.2504
  -9014601.12947  -6983521.00445  22150558.4614                   22150560.2154
        43.7504         30.7504
 -11227205.01647  -8703023.39846  22202896.4924                   22202900.3954
        43.5004         39.0004
   8055772.69547   6277033.82845  23007400.6884                   23007401.0744
        44.0004         31.0004
   -782417.52748   -583043.87147  20270186.6804                   20270185.1374
        48.5004         47.0004
   7761228.42647   6049352.94145  22368615.0314                   22368614.6524
        44.5004         31.2504
   9558237.09446   7437391.14844  24566842.8834                   24566846.4414
        40.0004         27.0004
 25  8  7 23  7  0.0000000  0  9G03G01G16G04G26G02G31G28G32
 -10628063.27048  -8238173.16847  20518294.5704                   20518295.7934
        48.7504         47.7504
   1869249.82047   1465426.52045  21392726.1724                   21392727.3834
        47.7504         34.5004
  -2430976.45346   -426149.53142  24241803.7274                   24241810.0394
        38.7504         14.7504
  -9094123.25047  -7045486.20745  22135425.7194                   22135427.5944
        43.7504         30.2504
 -11314743.19547  -8771234.87946  22186238.5864                   22186242.3164
        42.5004         38.2504
   8115305.32447   6323422.72745  23018728.6024                   23018730.0434
        42.5004         30.2504
   -766475.84048   -570621.77347  20273220.3284                   20273218.7774
        48.7504         47.0004
   7823270.75847   6097697.57045  22380421.5554                   22380421.3954
        43.5004         30.0004
   9608403.45346   7476481.73444  24576389.0164                   24576392.3364
        39.2504         26.5004
 25  8  7 23  7 30.0000000  0  9G03G01G16G04G26G02G31G28G32
 -10705350.84447  -8298397.21947  20503587.3284                   20503588.6684
        47.7504         47.5004
   1893802.48447   1484558.41445  21397398.9774                   21397399.5274
        47.7504         35.0004
  -2556647.21146   -524074.39543  24217888.1094                   24217895.4774
        38.2504         18.2504
  -9173494.05947  -7107333.50844  22120321.7584                   22120323.7424
        42.5004         29.7504
 -11401862.45347  -8839119.90646  22169660.3754                   22169664.2034
        43.0004         38.5004
   8175047.25047   6369974.69544  23030097.5474                   23030099.1484
        43.7504         29.5004
   -749980.42648   -557768.19947  20276359.1484                   20276357.7934
        49.0004         47.0004
   7885592.10547   6146259.62545  22392281.1484                   22392280.7424
        44.5004         30.0004
   9658606.26246   7515600.74244  24585942.3754                   24585946.0904
        40.0004         27.5004
 25  8  7 23  8  0.0000000  0  9G03G01G16G04G26G02G31G28G32
 -10782258.78948  -8358325.46547  20488952.2814                   20488953.5274
        48.7504         47.7504
   1918876.25848   1504096.38345  21402170.4064                   21402170.9924
        48.2504         34.2504
  -2682344.67646   -622020.05142  24193968.4384                   24193975.5824
        38.5004         16.7504
  -9252715.62547  -7169064.48844  22105245.9224                   22105248.3674
        43.2504         29.7504
 -11488561.81247  -8906677.76246  22153161.5394                   22153165.7154
        43.0004         38.7504
   8234993.73047   6416686.06344  23041505.5474                   23041506.3164
        44.2504         29.7504
   -732935.23848   -544486.23847  20279602.6414                   20279601.0824
        48.7504         46.7504
   7948188.00447   6195035.61345  22404192.4384                   22404192.3204
        43.7504         30.5004
   9708843.57846   7554746.63344  24595502.0554                   24595505.8284
        38.7504         26.5004
 25  8  7 23  8 30.0000000  0  9G03G01G16G04G26G02G31G28G32
 -10858784.51648  -8417955.87548  20474389.7584                   20474391.4844
        49.5004         48.0004
   1944469.47347   1524039.10545  21407040.4924                   21407041.2234
        47.5004         34.7504
  -2808065.49246   -719984.01642  24170043.4844                   24170051.0944
        38.2504         15.5004
  -9331787.69147  -7230678.98844  22090199.4064                   22090201.6094
        44.0004         29.5004
 -11574838.02747  -8973905.87546  22136743.6804                   22136747.5354
        43.0004         38.2504
   8295142.19547   6463554.81344  23052951.3834                   23052952.8094
        43.7504         29.2504
   -715341.80148   -530777.06647  20282950.6644                   20282949.1764
        49.2504         46.7504
   8011056.30547   6244023.85245  22416155.9534                   22416156.0124
        44.5004         30.0004
   9759115.87946   7593919.77744  24605068.6414                   24605072.2664
        37.0004         25.2504
 25  8  7 23  9  0.0000000  0  9G03G01G16G04G26G02G31G28G32
 -10934926.36348  -8477287.16847  20459900.2734                   20459901.8484
        49.7504         47.7504
   1970579.58247   1544384.60545  21412009.0554                   21412010.0004
        47.7504         34.2504
  -2933807.21546   -817964.22343  24146115.5864                   24146123.7704
        37.5004         19.2504
  -9410710.84447  -7292177.44545  22075181.1174                   22075182.6484
        43.7504         30.0004
 -11660688.70747  -9040802.42246  22120406.8834                   22120410.5634
        43.0004         38.5004
   8355489.38747   6510578.41445  23064435.1484                   23064436.6174
        43.2504         30.0004
   -697202.90248   -516642.86747  20286402.1644                   20286401.0314
        49.7504         46.7504
   8074193.98047   6293221.99645  22428170.6724                   22428170.0904
        43.7504         30.5004
   9809422.63746   7633119.77044  24614641.8284                   24614645.8984
        38.0004         26.0004
 25  8  7 23  9 30.0000000  0  9G03G01G16G04G26G02G31G28G32
 -11010682.18448  -8536317.65647  20445484.5784                   20445486.2304
        48.7504         47.7504
   1997204.31647   1565131.10945  21417075.8364                   21417076.6884
        47.5004         34.5004
  -3059566.71945   -915958.15643  24122182.7584                   24122192.1564
        34.2504         18.5004
  -9489485.28947  -7353560.02744  22060190.4614                   22060192.6564
        42.7504         29.2504
 -11746111.15647  -9107365.26246  22104151.5554                   22104155.7814
        43.2504         39.2504
   8416032.60947   6557754.74244  23075956.6804                   23075957.6564
        43.7504         29.7504
   -678520.25048   -502084.96547  20289957.7194                   20289956.2194
        48.7504         46.7504
   8137598.43047   6342628.02045  22440235.9924                   22440235.9224
        44.0004         30.0004
   9859763.84046   7672346.59444  24624221.3444                   24624226.0044
        38.0004         25.7504
 25  8  7 23 10  0.0000000  0  9G03G01G16G04G26G02G31G28G32
 -11086050.57048  -8595046.24647  20431142.3914                   20431143.7424
        49.5004         47.7504
   2024340.72347   1586276.32045  21422239.5634                   21422240.2544
        47.0004         34.2504
  -3185341.97346  -1013964.46942  24098250.6564                   24098257.2934
        40.2504         17.2504
  -9568111.87947  -7414827.38744  22045228.1484                   22045230.2424
        44.5004         29.2504
 -11831103.25047  -9173592.77046  22087977.7894                   22087981.5864
        42.7504         39.0004
   8476768.08647   6605080.89844  23087514.1724                   23087515.5084
        43.0004         29.7504
   -659297.13348   -487105.91047  20293615.4064                   20293613.9774
        49.2504         46.5004
   8201266.28147   6392239.29344  22452351.3284                   22452351.6954
        43.2504         29.7504
   9910138.67246   7711599.63744  24633807.6884                   24633811.8554
        38.7504         26.5004
 25  8  7 23 10 30.0000000  0  9G03G01G16G04G26G02G31G28G32
 -11161029.38348  -8653471.27347  20416874.5474                   20416875.8714
        50.0004         47.7504
   2051986.59847   1607818.51245  21427500.5084                   21427501.3484
        47.0004         34.5004
  -3311129.62546  -1111980.48843  24074313.4304                   24074319.7854
        39.7504         19.7504
  -9646590.87947  -7475979.75845  22030293.9534                   22030295.6844
        44.0004         30.2504
 -11915662.21947  -9239482.76246  22071886.8834                   22071890.3914
        43.0004         39.5004
   8537693.22747   6652554.83244  23099108.0314                   23099109.4414
        43.0004         29.0004
   -639535.66048   -471707.35947  20297376.0944                   20297374.3794
        49.5004         46.5004
   8265194.96947   6442053.80545  22464517.0634                   22464516.8324
        44.0004         30.5004
   9960547.19546   7750878.92244  24643400.1334                   24643403.9654
        36.5004         26.5004
 25  8  7 23 11  0.0000000  0  9G03G01G16G04G26G02G31G28G32
 -11235616.12148  -8711590.79347  20402681.0314                   20402682.5704
        50.0004         47.7504
   2080140.07847   1629756.24245  21432857.7504                   21432858.6414
        47.0004         34.5004
  -3436927.10946  -1210004.05142  24050373.5004                   24050380.9654
        37.7504         17.7504
  -9724922.01647  -7537016.90645  22015388.5164                   22015390.0864
        45.2504         30.0004
 -11999784.98847  -9305032.85946  22055878.5784                   22055882.2034
        43.5004         38.7504
   8598805.16447   6700174.33244  23110737.9774                   23110738.5514
        43.0004         28.7504
   -619237.49248   -455890.60947  20301238.5164                   20301237.2814
        49.0004         46.5004
   8329382.32847   6492069.90245  22476731.5944                   22476731.4774
        43.5004         30.2504
  10010989.64546   7790184.63344  24652999.3674                   24653002.7304
        37.5004         26.5004
 25  8  7 23 11 30.0000000  0  9G03G01G16G04G26G02G31G28G32
 -11309809.26648  -8769403.61748  20388562.6484                   20388563.8754
        50.0004         48.0004
   2108798.34047   1652087.30945  21438311.4614                   21438312.1134
        47.0004         34.5004
  -3562731.43446  -1308033.09842  24026433.5474                   24026440.0864
        37.0004         17.2504
  -9803106.03547  -7597939.41445  22000509.9224                   22000511.9344
        44.0004         30.0004
 -12083469.34447  -9370241.33646  22039954.3524                   22039957.5394
        43.5004         39.2504
   8660100.64147   6747936.86744  23122401.4534                   23122402.7384
        42.7504         28.5004
   -598405.45748   -439657.85547  20305202.8834                   20305201.4414
        49.2504         46.5004
   8393825.10247   6542285.00045  22488995.1334                   22488994.4884
        43.7504         30.0004
  10061465.49646   7829516.36744  24662604.1804                   24662608.2234
        36.0004         25.7504
 25  8  7 23 12  0.0000000  0  9G03G01G16G04G26G02G31G28G32
 -11383606.80148  -8826908.16848  20374518.8284                   20374520.7274
        50.2504         48.2504
   2137958.91047   1674809.78145  21443860.6094                   21443861.2034
        47.0004         34.7504
  -3688539.98046  -1406065.23843  24002493.2504                   24002500.2384
        38.2504         19.2504
  -9881143.27347  -7658747.54344  21985660.5864                   21985661.8634
        45.2504         29.2504
 -12166712.79747  -9435106.25446  22024113.1414                   22024117.3914
        43.5004         39.7504
   8721576.61347   6795840.02744  23134098.9844                   23134101.8594
        42.0004         29.5004
   -577041.93048   -423010.95347  20309268.2194                   20309266.5514
        49.0004         46.5004
   8458520.60947   6592697.03544  22501305.1094                   22501305.6764
        43.5004         29.0004
  10111974.55946   7868873.99244  24672216.3984                   24672220.1954
        37.5004         28.0004
 25  8  7 23 12 30.0000000  0  9G03G01G16G04G26G02G31G28G32
 -11457006.32448  -8884102.58648  20360551.6254                   20360553.1644
        50.2504         48.2504
   2167619.82847   1697922.14145  21449505.2974                   21449505.9264
        47.0004         34.5004
  -3814349.17646  -1504098.07042  23978551.5004                   23978558.5314
        37.0004         17.2504
  -9959033.59047  -7719441.20345  21970838.0784                   21970839.6134
        45.7504         30.0004
 -12249512.20747  -9499625.16846  22008356.8054                   22008360.0634
        43.2504         39.2504
   8783230.25847   6843881.58244  23145832.9774                   23145834.0554
        42.0004         28.0004
   -555149.18448   -405951.66847  20313434.3284                   20313432.7074
        49.0004         46.5004
   8523466.57447   6643304.24244  22513664.6484                   22513664.5204
        43.2504         29.5004
  10162517.14146   7908257.73044  24681834.1254                   24681838.0084
        36.2504         26.5004
 25  8  7 23 13  0.0000000  0  9G03G01G16G04G26G02G31G28G32
 -11530004.81248  -8940984.50048  20346660.8674                   20346661.8984
        50.0004         48.0004
   2197779.68847   1721423.28545  21455244.2974                   21455245.1254
        47.2504         34.0004
  -3940155.39146  -1602128.50843  23954612.0474                   23954617.8134
        37.2504         18.5004
 -10036776.17647  -7780019.76245  21956043.9064                   21956045.2504
        44.5004         30.0004
 -12331863.99247  -9563795.28146  21992686.1414                   21992689.6914
        43.7504         40.0004
   8845059.91847   6892060.32844  23157600.0394                   23157600.0434
        43.2504         28.0004
   -532727.96948   -388480.59447  20317701.0164                   20317699.1684
        49.2504         46.2504
   8588661.40647   6694105.37944  22526071.0554                   22526070.7774
        42.2504         28.5004
  10213094.17646   7947668.30944  24691458.1254                   24691462.7304
        36.5004         25.0004
 25  8  7 23 13 30.0000000  0  9G03G01G16G04G26G02G31G28G32
 -11602601.59448  -8997553.39548  20332845.9534                   20332847.0634
        50.0004         48.2504
   2228434.70747   1745310.27045  21461077.5704                   21461078.4774
        46.7504         34.0004
  -4065956.63746  -1700155.14543  23930673.1334                   23930678.4884
        39.5004         20.0004
 -10114372.64147  -7840484.43445  21941277.4844                   21941279.2894
        45.7504         30.0004
 -12413766.94147  -9627615.65646  21977100.0634                   21977103.6564
        43.7504         40.0004
   8907061.31347   6940372.92644  23169397.5474                   23169398.4064
        43.0004         27.7504
   -509782.37148   -370600.91847  20322067.5164                   20322065.7854
        49.0004         46.5004
   8654101.01247   6745097.23444  22538523.3984                   22538523.6524
        43.0004         29.7504
  10263704.20345   7987104.61744  24701088.7584                   24701093.8914
        35.2504         25.5004
 25  8  7 23 14  0.0000000  0  9G03G01G16G04G26G02G31G28G32
 -11674793.34848  -9053806.67248  20319108.2274                   20319109.6954
        50.5004         48.2504
   2259583.73047   1769582.19545  21467005.1804                   21467005.8834
        47.0004         34.0004
  -4191749.17246  -1798174.96943  23906735.2424                   23906740.6914
        39.7504         19.7504
 -10191821.92647  -7900834.43445  21926539.8054                   21926541.1374
        45.0004         30.0004
 -12495217.14547  -9691083.25046  21961600.5234                   21961604.2584
        44.5004         40.5004
   8969232.96946   6988818.14144  23181228.2584                   23181229.8444
        41.7504         27.7504
   -486313.23848   -352313.28947  20326533.7584                   20326532.1994
        49.2504         46.5004
   8719784.05947   6796278.78544  22551022.4534                   22551022.5984
        42.0004         29.7504
  10314348.44545   8026567.56644  24710726.5864                   24710731.3984
        35.2504         27.0004
 25  8  7 23 14 30.0000000  0  9G03G01G16G04G26G02G31G28G32
 -11746578.41848  -9109743.06248  20305447.9224                   20305449.4414
        50.2504         48.5004
   2291223.96547   1794236.87145  21473026.4064                   21473027.0084
        46.7504         33.5004
  -4317530.46546  -1896186.14842  23882798.5314                   23882805.1134
        38.5004         16.7504
 -10269124.62947  -7961070.21944  21911829.3364                   21911830.7584
        45.0004         29.7504
 -12576212.40247  -9754196.33646  21946187.3134                   21946191.2814
        43.0004         39.5004
   9031571.29747   7037393.24244  23193091.0164                   23193092.2234
        43.0004         29.0004
   -462323.71548   -333620.15247  20331098.2664                   20331097.0664
        49.5004         46.2504
   8785707.55547   6847647.69544  22563567.0474                   22563567.5474
        43.0004         29.0004
  10365026.43045   8066056.80944  24720370.7114                   24720375.2034
        35.7504         26.7504
 25  8  7 23 15  0.0000000  0  9G03G01G16G04G26G02G31G28G32
 -10242532.23448  -7937758.98848  20591658.4064                   20591659.5824
        50.2504         48.5004
   3898772.07847   3046871.72745  21778932.0864                   21778933.4064
        46.5004         34.2504
  -2867872.73446   -766582.39843  24158659.6644                   24158665.0394
        40.0004         20.7504
  -8770858.24247  -6793589.82444  22196940.2734                   22196941.5124
        45.5004         29.7504
 -11081327.28147  -8589350.68446  22230654.7194                   22230658.2344
        44.0004         40.0004
  10669491.35547   8313694.35244  23504776.8134                   23504778.6954
        42.2504         28.2504
   1137603.47748    913076.34847  20635554.7034                   20635552.5904
        49.7504         46.0004
  10427286.81347   8126800.32844  22875949.4694                   22875949.8054
        42.5004         29.2504
  11991156.56346   9333171.10544  25029812.7814                   25029816.9694
        36.5004         27.5004
 25  8  7 23 15 30.0000000  0  9G03G01G16G04G26G02G31G28G32
 -10313497.60948  -7993056.64848  20578154.1024                   20578155.4614
        50.2504         48.5004
   3931387.60947   3072286.37945  21785138.8134                   21785139.9224
        46.7504         33.5004
  -2993621.81246   -864568.45743  24134729.7584                   24134735.1604
        38.5004         19.0004
  -8847868.17247  -6853597.47745  22182285.2814                   22182286.8554
        45.7504         30.5004
 -11161404.62547  -8651748.51646  22215416.2114                   22215419.8484
        44.2504         40.5004
  10732154.35947   8362522.43844  23516701.7504                   23516703.1524
        43.0004         28.5004
   1162627.47748    932575.55547  20640315.8834                   20640314.8484
        49.7504         46.0004
  10493683.58247   8178538.01644  22888584.4534                   22888584.7854
        43.5004         29.5004
  12041902.10245   9372712.98844  25039469.1484                   25039473.8094
        34.5004         26.5004
 25  8  7 23 16  0.0000000  0  9G03G01G16G04G26G02G31G28G32
 -10384049.96948  -8048032.47748  20564728.3984                   20564729.8204
        51.0004         48.5004
   3964487.23847   3098078.25445  21791437.6954                   21791438.4144
        47.0004         33.5004
  -3119349.83646   -962538.00843  24110804.4384                   24110810.3284
        39.0004         20.2504
  -8924731.90247  -6913491.21145  22167658.8054                   22167660.2624
        43.7504         30.0004
 -11241018.96147  -8713785.55546  22200266.4844                   22200269.9264
        43.0004         40.2504
  10794975.52347   8411473.75844  23528656.6954                   23528658.1054
        43.0004         27.7504
   1188165.31648    952475.16447  20645175.9454                   20645174.5434
        49.5004         46.0004
  10560313.19147   8230457.14844  22901263.5314                   22901264.0824
        42.7504         29.2504
  12092681.33646   9412281.11344  25049132.2894                   25049137.2344
        36.2504         27.2504
 25  8  7 23 16 30.0000000  0  9G03G01G16G04G26G02G31G28G32
 -10454189.05948  -8102686.28148  20551381.3754                   20551382.8284
        50.2504         48.7504
   3998066.64147   3124243.98445  21797827.3594                   21797828.5634
        46.0004         34.0004
  -3245056.16046  -1060490.75043  24086883.1724                   24086887.4184
        39.0004         18.5004
  -9001451.35947  -6973272.52745  22153059.5634                   22153060.3164
        44.5004         30.2504
 -11320169.62947  -8775461.30546  22185204.0704                   22185207.8094
        43.0004         39.7504
  10857950.27047   8460544.75844  23540640.0784                   23540642.2304
        42.5004         28.5004
   1214212.62548    972771.75447  20650132.7034                   20650131.0124
        49.5004         46.0004
  10627171.27347   8282554.30944  22913986.2424                   22913986.7774
        42.5004         29.0004
  12143492.68446   9451874.27344  25058801.5234                   25058805.9144
        36.2504         28.0004
 25  8  7 23 17  0.0000000  0  9G03G01G16G04G26G02G31G28G32
 -10523911.82848  -8157015.67248  20538113.7424                   20538114.8674
        50.2504         48.5004
   4032124.40247   3150782.44945  21804308.3444                   21804309.5784
        46.0004         33.5004
  -3370736.41846  -1158423.12543  24062966.3834                   24062972.0004
        37.0004         19.0004
  -9078025.72747  -7032940.77345  22138487.4694                   22138488.9384
        44.5004         30.0004
 -11398852.94947  -8836772.88346  22170231.2194                   22170235.0704
        43.5004         40.2504
  10921076.48047   8509733.77044  23552653.5784                   23552655.2274
        42.7504         28.2504
   1240768.21548    993464.40647  20655186.1564                   20655184.5474
        49.5004         46.0004
  10694256.29746   8334828.29344  22926752.2034                   22926752.4494
        41.5004         29.7504
  12194336.89146   9491493.02044  25068476.6174                   25068481.5044
        36.5004         27.2504
 25  8  7 23 17 30.0000000  0  9G03G01G16G04G26G02G31G28G32
 -10593216.54748  -8211019.32048  20524925.4614                   20524926.5314
        50.5004         48.7504
   4066657.70747   3177691.48045  21810879.8594                   21810881.5394
        45.5004         34.0004
  -3496387.91046  -1256333.07443  24039054.9774                   24039061.2384
        37.0004         19.7504
  -9154455.42647  -7092496.30945  22123943.6024                   22123944.8284
        45.0004         31.0004
 -11477066.77347  -8897718.62946  22155347.1884                   22155350.6024
        44.2504         39.5004
  10984351.12947   8559038.43044  23564695.3284                   23564695.8714
        43.7504         29.5004
   1267829.32848   1014550.97747  20660335.6334                   20660333.8524
        49.5004         46.0004
  10761565.45746   8387276.95744  22939560.5944                   22939560.9924
        41.5004         29.5004
  12245213.84646   9531137.29144  25078158.1414                   25078163.3754
        38.0004         28.5004
 25  8  7 23 18  0.0000000  0  9G03G01G16G04G26G02G31G28G32
 -10662100.86348  -8264695.38348  20511817.2274                   20511818.3554
        50.2504         48.7504
   4101664.37147   3204969.35545  21817541.6334                   21817542.7344
        46.5004         33.5004
  -3622007.09046  -1354217.87943  24015152.2894                   24015156.1884
        40.0004         20.2504
  -9230740.29747  -7151938.98045  22109426.9064                   22109428.4224
        45.2504         31.7504
 -11554808.19147  -8958296.26646  22140553.8134                   22140557.6564
        43.7504         40.2504
  11047771.48047   8608456.64544  23576762.9224                   23576764.4144
        43.2504         29.2504
   1295393.96548   1036029.89847  20665581.1724                   20665579.5044
        49.2504         46.2504
  10829096.37547   8439898.38344  22952411.6884                   22952411.7034
        42.7504         28.2504
  12296123.81346   9570807.28544  25087846.4064                   25087850.8284
        37.0004         27.5004
 25  8  7 23 18 30.0000000  0  9G03G01G16G04G26G02G31G28G32
 -10730563.16048  -8318042.59848  20498789.1094                   20498790.4454
        50.7504         48.7504
   4137141.40647   3232613.75445  21824292.4454                   21824293.6994
        45.5004         33.0004
  -3747591.27346  -1452075.29743  23991251.7034                   23991258.4454
        36.7504         20.5004
  -9306880.94947  -7211269.27745  22094937.5554                   22094938.9654
        45.0004         31.5004
 -11632075.11347  -9018504.17246  22125850.0394                   22125853.9384
        45.0004         40.5004
  11111334.18447   8657985.76644  23588858.9774                   23588860.6294
        42.5004         27.0004
   1323459.05548   1057898.78947  20670921.5474                   20670920.1804
        49.0004         46.0004
  10896846.12947   8492690.35544  22965303.9064                   22965304.0044
        42.2504         29.5004
  12347066.26246   9610502.60244  25097540.9694                   25097544.9454
        36.7504         29.2504
 25  8  7 23 19  0.0000000  0  9G03G01G16G04G26G02G31G28G32
 -10798604.93448  -8371062.13748  20485841.0474                   20485842.6954
        50.2504         49.0004
   4173082.74647   3260619.95345  21831132.1174                   21831133.5004
        46.0004         33.0004
  -3873141.09446  -1549906.07843  23967361.3834                   23967365.9224
        38.5004         19.5004
  -9382881.07447  -7270490.06245  22080475.1644                   22080476.5514
        45.7504         31.5004
 -11708868.57047  -9078343.12946  22111237.0164                   22111240.0634
        45.5004         40.5004
  11175033.03947   8707621.00444  23600979.2424                   23600981.7154
        42.0004         28.2504
   1352018.52348   1080152.90647  20676356.1414                   20676355.1684
        49.2504         46.0004
  10964808.69947   8545648.15244  22978236.3364                   22978236.7344
        42.5004         28.7504
  12398037.68046   9650220.48444  25107239.9064                   25107244.8284
        37.0004         28.0004
 25  8  7 23 19 30.0000000  0 10G03G01G16G09G04G26G02G31G28G32
 -10866223.47348  -8423751.89148  20472973.8834                   20472974.8834
        50.5004         48.7504
   4209486.57447   3288986.52745  21838059.3524                   21838060.4804
        46.2504         33.5004
  -3998652.83246  -1647707.05943  23943477.5084                   23943482.8914
        40.0004         20.5004
   4526678.05156   3550488.62155  25108214.5704                   25108224.3874
        37.5004         31.7504
  -9458740.07047  -7329600.88745  22066039.8834                   22066041.1414
        46.0004         31.5004
 -11785185.34447  -9137810.66446  22096714.0474                   22096717.8754
        45.0004         41.0004
  11238865.68447   8757360.46544  23613127.6804                   23613129.6254
        43.0004         28.2504
   1381071.29348   1102791.41447  20681885.3364                   20681883.3834
        48.5004         46.0004
  11032982.24647   8598770.34444  22991209.9844                   22991209.9104
        42.7504         28.2504
  12449038.85946   9689961.56644  25116945.4454                   25116950.5084
        36.7504         29.2504
 25  8  7 23 20  0.0000000  0 10G03G01G16G09G04G26G02G31G28G32
 -10933417.13748  -8476110.57848  20460187.2424                   20460188.3834
        50.0004         49.0004
   4246349.95347   3317711.19145  21845074.9144                   21845075.9344
        45.2504         33.0004
  -4124123.65246  -1745476.25843  23919600.8594                   23919604.4384
        39.5004         18.2504
   4425741.43446   3471836.92245  25089006.6804                   25089016.1134
        37.5004         31.0004
  -9534458.41047  -7388602.10545  22051630.7664                   22051632.6094
        45.2504         31.5004
 -11861023.34047  -9196905.12146  22082282.3524                   22082285.7974
        45.0004         41.0004
  11302828.71546   8807201.57044  23625298.6884                   23625301.3984
        40.7504         26.7504
   1410614.11748   1125811.78547  20687506.7424                   20687505.4344
        50.0004         45.7504
  11101363.87947   8652054.66844  23004222.2114                   23004222.8674
        42.2504         29.2504
  12500069.36346   9729725.50044  25126656.1414                   25126661.3094
        36.7504         29.0004
 25  8  7 23 20 30.0000000  0 10G03G01G16G09G04G26G02G31G28G32
 -11000187.03148  -8528139.05548  20447481.3284                   20447482.6454
        50.0004         49.0004
   4283667.12547   3346789.46545  21852175.9454                   21852176.5944
        45.5004         33.5004
  -4249553.55546  -1843213.39843  23895732.3754                   23895736.9064
        39.5004         20.7504
   4324822.88346   3393199.32445  25069803.1644                   25069812.0434
        38.7504         30.7504
  -9610039.49247  -7447496.38745  22037248.0084                   22037249.6334
        46.0004         31.5004
 -11936383.18447  -9255626.98446  22067942.1884                   22067945.4024
        45.7504         40.2504
  11366916.44547   8857139.78944  23637495.0084                   23637496.6884
        42.2504         27.2504
   1440641.30548   1149209.59047  20693220.5084                   20693219.1414
        49.0004         45.7504
  11169947.85947   8705496.68844  23017273.4614                   23017273.6724
        43.2504         28.5004
  12551126.09446   9769509.87544  25136371.9774                   25136377.0084
        36.0004         29.0004
 25  8  7 23 21  0.0000000  0 10G03G01G16G09G04G26G02G31G28G32
 -11066526.15648  -8579831.85948  20434857.3524                   20434858.5124
        50.2504         49.0004
   4321440.52347   3376223.23445  21859364.3364                   21859365.0984
        46.0004         33.5004
  -4374934.32846  -1940912.48843  23871871.2034                   23871876.9804
        36.7504         19.2504
   4223927.27046   3314579.57045  25050602.7504                   25050612.1414
        38.0004         30.7504
  -9685478.29747  -7506279.80145  22022892.8524                   22022894.0864
        45.5004         30.7504
 -12011257.52747  -9313970.55146  22053693.9694                   22053697.5784
        45.0004         41.0004
  11431130.76647   8907176.64544  23649715.2344                   23649717.3054
        42.2504         25.5004
   1471155.78148   1172987.09047  20699027.2584                   20699025.7074
        49.0004         45.7504
  11238736.74647   8759098.35544  23030363.9614                   23030363.5594
        43.0004         29.0004
  12602214.10246   9809318.61344  25146093.8444                   25146098.6414
        37.5004         29.5004
 25  8  7 23 21 30.0000000  0 10G03G01G16G09G04G26G02G31G28G32
 -11132430.55548  -8631185.92248  20422316.4774                   20422317.3014
        50.0004         49.2504
   4359669.44947   3406011.95745  21866638.4224                   21866639.5594
        45.5004         33.5004
  -4500260.98046  -2038569.22743  23848024.1334                   23848027.5704
        40.7504         22.5004
   4123056.34046   3235979.09044  25031407.3754                   25031416.4264
        37.2504         29.5004
  -9760773.13747  -7564951.02345  22008564.3834                   22008565.7584
        45.0004         31.7504
 -12085641.91047  -9371932.32446  22039539.2274                   22039542.4064
        46.2504         40.7504
  11495470.66446   8957311.37944  23661958.1174                   23661960.3444
        41.5004         27.2504
   1502156.70748   1197143.65247  20704926.8674                   20704925.3834
        48.7504         45.7504
  11307729.94547   8812859.23844  23043492.5164                   23043492.7074
        43.2504         28.5004
  12653335.13746   9849153.10244  25155822.0704                   25155826.7894
        38.0004         28.0004
 25  8  7 23 22  0.0000000  0 10G03G01G16G09G04G26G02G31G28G32
 -11197897.64148  -8682199.22348  20409858.4844                   20409859.4304
        50.5004         49.0004
   4398351.94147   3436154.10245  21873999.2344                   21874000.7074
        46.0004         32.7504
  -4625529.95346  -2136181.07843  23824184.4924                   23824189.5394
        39.7504         19.5004
   4022210.82046   3157398.46945  25012216.8594                   25012226.2114
        38.2504         32.5004
  -9835923.43047  -7623509.61345  21994263.8284                   21994265.0124
        45.2504         31.7504
 -12159533.33247  -9429509.97746  22025477.8914                   22025481.1844
        45.2504         40.5004
  11559933.89146   9007542.18044  23674225.4694                   23674227.7424
        41.0004         27.0004
   1533642.23848   1221677.83247  20710918.1024                   20710916.7774
        48.5004         45.7504
  11376925.62547   8866777.89544  23056660.8674                   23056660.3484
        43.0004         29.2504
  12704490.04346   9889013.98444  25165556.7034                   25165561.2584
        37.7504         28.2504
 25  8  7 23 22 30.0000000  0 10G03G01G16G09G04G26G02G31G28G32
 -11262925.26648  -8732870.08248  20397483.8524                   20397485.0664
        51.0004         49.2504
   4437485.48047   3466647.72345  21881446.3204                   21881447.8634
        46.0004         33.0004
  -4750737.84046  -2233745.31643  23800358.6804                   23800363.1374
        39.7504         21.5004
   3921390.35246   3078837.33245  24993031.4144                   24993040.4024
        38.0004         33.2504
  -9910929.15247  -7681955.56245  21979990.6334                   21979991.9574
        44.2504         31.0004
 -12232929.20747  -9486701.48446  22011510.9924                   22011514.5204
        45.2504         41.0004
  11624517.81346   9057867.03544  23686515.5164                   23686518.0354
        40.5004         27.0004
   1565610.18448   1246587.90647  20717001.4064                   20716999.9144
        48.5004         45.5004
  11446321.39847   8920852.47344  23069866.3524                   23069866.1604
        43.0004         28.7504
  12755678.93446   9928901.33644  25175298.4144                   25175302.3914
        38.2504         29.5004
 25  8  7 23 23  0.0000000  0 10G03G01G16G09G04G26G02G31G28G32
 -11327511.94548  -8783197.35248  20385193.5784                   20385194.6954
        51.2504         49.2504
   4477066.92647   3497490.34445  21888978.7734                   21888980.1914
        46.0004         33.5004
  -4875881.91446  -2331259.89843  23776544.4534                   23776547.3794
        41.0004         20.2504
   3820594.36746   3000295.30145  24973850.1414                   24973859.1564
        38.0004         33.2504
  -9985790.96147  -7740289.35945  21965744.8984                   21965746.0704
        44.5004         31.7504
 -12305827.71147  -9543505.43446  21997638.4774                   21997641.9574
        45.5004         40.5004
  11689219.00446   9108283.29744  23698827.5634                   23698830.6094
        39.5004         27.5004
   1598057.39848   1271871.44547  20723176.1414                   20723174.5234
        48.5004         45.5004
  11515914.25847   8975080.62944  23083109.5084                   23083109.2544
        43.5004         28.2504
  12806901.25046   9968814.73044  25185045.2664                   25185049.8204
        39.5004         29.2504
 25  8  7 23 23 30.0000000  0 10G03G01G16G09G04G26G02G31G28G32
 -11391655.41848  -8833179.26248  20372987.2424                   20372988.4344
        50.2504         49.5004
   4517093.85547   3528680.10545  21896595.6254                   21896596.9804
        45.5004         33.0004
  -5000958.53946  -2428721.84043  23752743.5394                   23752746.8874
        40.0004         21.7504
   3719822.90246   2921772.32845  24954673.8444                   24954682.8364
        37.5004         30.0004
 -10060508.64547  -7798510.86745  21951526.3674                   21951527.6214
        44.7504         31.2504
 -12378226.12547  -9599919.71146  21983861.5944                   21983865.0864
        45.0004         40.5004
  11754034.95746   9158788.91044  23711162.4694                   23711164.8874
        40.7504         27.5004
   1630981.66048   1297526.70347  20729441.3754                   20729439.7934
        48.5004         45.5004
  11585702.02347   9029460.66044  23096389.5234                   23096389.4734
        42.5004         28.2504
  12858157.43446  10008754.51244  25194798.4694                   25194803.5164
        39.0004         28.7504
 25  8  7 23 24  0.0000000  0 10G03G01G16G09G04G26G02G31G28G32
 -11455353.71148  -8882814.27048  20360866.0234                   20360867.0204
        50.2504         49.5004
   4557563.67247   3560214.96945  21904297.0634                   21904298.1214
        45.5004         33.5004
  -5125964.97346  -2526129.14543  23728953.5474                   23728958.5514
        37.0004         19.5004
   3619076.24346   2843268.74045  24935502.0004                   24935510.9654
        38.0004         30.5004
 -10135082.27747  -7856620.13745  21937335.2424                   21937336.4104
        43.5004         31.2504
 -12450122.10947  -9655942.48046  21970180.8284                   21970183.8054
        44.5004         41.0004
  11818962.65646   9209381.68844  23723516.8364                   23723520.7854
        39.2504         26.0004
   1664380.59048   1323551.84047  20735796.9534                   20735795.8054
        49.2504         45.5004
  11655682.28947   9083990.68444  23109706.5314                   23109706.6844
        43.0004         28.5004
  12909447.41046  10048720.62145  25204559.2734                   25204563.7974
        38.5004         30.0004
 25  8  7 23 24 30.0000000  0 10G03G01G16G09G04G26G02G31G28G32
 -11518604.94548  -8932100.92248  20348829.5474                   20348830.4884
        50.5004         49.2504
   4598473.58247   3592092.75445  21912081.7504                   21912083.1334
        45.7504         32.5004
  -5250897.89146  -2623479.16043  23705180.8054                   23705184.5044
        39.0004         21.5004
   3518353.81346   2764784.02345  24916335.8364                   24916343.7154
        37.2504         30.0004
 -10209512.04747  -7914617.28945  21923171.7584                   21923173.0164
        45.0004         31.5004
 -12521513.41847  -9711571.99646  21956595.5004                   21956598.2704
        45.5004         40.2504
  11883999.26647   9260059.25844  23735893.8284                   23735897.0394
        42.0004         27.0004
   1698251.32448   1349944.62147  20742241.9774                   20742240.7384
        48.5004         45.5004
  11725852.44147   9138668.67244  23123059.0004                   23123059.2934
        42.7504         28.2504
  12960771.21946  10088713.09445  25214326.0004                   25214330.6914
        38.5004         30.2504
 25  8  7 23 25  0.0000000  0 10G03G01G16G09G04G26G02G31G28G32
 -11581404.59048  -8981035.69548  20336879.3984                   20336880.6454
        50.2504         49.5004
   4639823.45747   3624313.37545  21919949.9224                   21919951.6334
        46.0004         33.0004
  -5375751.60246  -2720767.44943  23681421.4924                   23681424.7114
        40.2504         19.7504
   3417658.19946   2686320.20345  24897174.0394                   24897182.0354
        38.5004         30.0004
 -10283795.48047  -7972500.43445  21909036.0864                   21909037.5164
        44.7504         31.7504
 -12592395.12547  -9766804.42246  21943106.6644                   21943110.4574
        45.5004         40.2504
  11949144.46947   9310821.48044  23748291.3594                   23748294.3834
        42.0004         28.2504
   1732593.99648   1376705.14547  20748777.3204                   20748776.0474
        49.0004         45.5004
  11796212.56647   9193494.69144  23136447.9774                   23136448.4924
        42.5004         27.7504
  13012131.47746  10128733.97344  25224099.0784                   25224104.3594
        38.2504         29.5004
 25  8  7 23 25 30.0000000  0 10G03G01G16G09G04G26G02G31G28G32
 -11643753.25448  -9029619.04748  20325014.8284                   20325015.7274
        51.0004         49.5004
   4681608.05147   3656872.73845  21927901.7034                   21927902.8674
        46.0004         33.0004
  -5500525.37946  -2817993.47743  23657677.2274                   23657681.3714
        38.2504         20.0004
   3316986.86346   2607875.30945  24878016.2274                   24878024.3754
        38.0004         31.5004
 -10357935.24647  -8030271.60945  21894927.8204                   21894929.1564
        44.7504         31.5004
 -12662767.50047  -9821639.99246  21929715.2664                   21929718.6604
        45.0004         40.2504
  12014392.82447   9361664.05544  23760708.5164                   23760710.3674
        42.5004         27.0004
   1767403.73848   1403829.60547  20755401.3984                   20755399.8484
        49.0004         45.5004
  11866757.75447   9248464.91444  23149872.8134                   23149873.2194
        42.2504         27.0004
  13063525.55146  10168781.19544  25233879.3054                   25233884.2894
        38.5004         28.7504
 25  8  7 23 26  0.0000000  0 10G03G01G16G09G04G26G02G31G28G32
 -11705647.16048  -9077848.04348  20313236.4224                   20313237.6254
        50.2504         49.5004
   4723826.44947   3689770.12145  21935936.1254                   21935936.8874
        45.5004         32.5004
  -5625214.01646  -2915153.15643  23633950.4614                   23633953.7034
        38.5004         21.0004
   3216341.33646   2529450.52745  24858863.6644                   24858871.4844
        36.5004         32.2504
 -10431929.46547  -8087929.38345  21880847.0314                   21880848.3134
        44.5004         31.0004
 -12732626.36347  -9876075.39546  21916421.6954                   21916424.3914
        46.5004         40.7504
  12079743.24646   9412586.21544  23773141.9064                   23773146.6024
        40.0004         26.5004
   1802679.72748   1431317.37947  20762114.1174                   20762112.8404
        48.7504         45.5004
  11937487.35547   9303578.83644  23163332.0554                   23163332.3404
        42.5004         28.7504
  13114955.40246  10208856.30544  25243666.2194                   25243671.0554
        38.5004         29.2504
 25  8  7 23 26 30.0000000  0 10G03G01G16G09G04G26G02G31G28G32
 -11767087.46148  -9125723.58248  20301544.8134                   20301545.7384
        51.0004         49.5004
   4766472.84847   3723001.02345  21944050.9454                   21944052.2194
        45.0004         32.7504
  -5749817.44146  -3012246.43743  23610238.8524                   23610242.4024
        40.7504         22.0004
   3115718.37546   2451043.31345  24839715.5784                   24839723.4304
        37.5004         31.7504
 -10505781.42647  -8145476.28545  21866793.5164                   21866794.8324
        45.5004         31.5004
 -12801972.60247  -9930111.35546  21903225.3444                   21903228.2934
        46.0004         40.7504
  12145189.80146   9463583.22744  23785597.7504                   23785601.0084
        41.5004         26.5004
   1838416.50048   1459164.20347  20768914.5634                   20768913.2424
        48.5004         45.5004
  12008395.87947   9358832.18044  23176825.5784                   23176825.9734
        42.0004         28.0004
  13166418.02346  10248956.94544  25253459.3834                   25253464.2584
        38.5004         29.5004
 25  8  7 23 27  0.0000000  0 10G03G01G16G09G04G26G02G31G28G32
 -11828074.45748  -9173245.89548  20289939.6024                   20289940.5044
        50.5004         49.5004
   4809542.25847   3756561.54745  21952246.7034                   21952248.0784
        45.0004         32.2504
  -5874334.75046  -3109272.65243  23586542.7584                   23586547.1884
        40.2504         21.5004
   3015115.75446   2372651.96145  24820571.3054                   24820579.5044
        37.2504         31.7504
 -10579493.35547  -8202914.09445  21852766.6414                   21852767.7304
        45.7504         32.0004
 -12870806.14847  -9983747.82446  21890126.7274                   21890129.9694
        46.5004         41.0004
  12210727.46146   9514651.19944  23798069.8364                   23798072.8984
        40.7504         26.7504
   1874608.98448   1487366.13347  20775802.3444                   20775800.3484
        48.5004         45.5004
  12079478.62947   9414221.29344  23190352.3054                   23190352.3674
        42.5004         28.0004
  13217911.18046  10289081.37944  25263258.9454                   25263263.5474
        39.5004         29.7504
 25  8  7 23 27 30.0000000  0 10G03G01G16G09G04G26G02G31G28G32
 -11888601.66448  -9220409.94548  20278421.6174                   20278422.5204
        50.5004         49.5004
   4853036.54347   3790453.13345  21960523.9774                   21960524.9534
        45.0004         32.7504
  -5998758.39846  -3206225.82043  23562865.0944                   23562869.3674
        39.7504         19.7504
   2914537.85546   2294279.85945  24801431.5084                   24801439.4264
        36.5004         30.2504
 -10653060.79747  -8260239.30145  21838766.8594                   21838767.8054
        45.0004         32.0004
 -12939120.21547 -10036979.50046  21877127.0314                   21877129.8794
        46.7504         40.7504
  12276357.60947   9565791.29744  23810560.2114                   23810562.0394
        43.0004         27.5004
   1911259.16048   1515924.69547  20782776.1724                   20782774.7734
        48.2504         45.5004
  12150737.75847   9469747.84044  23203912.5314                   23203912.7504
        42.2504         26.5004
  13269439.46346  10329233.18844  25273064.0394                   25273068.8364
        38.5004         29.5004
 25  8  7 23 28  0.0000000  0 10G03G01G16G09G04G26G02G31G28G32
 -11948665.45348  -9267212.88348  20266991.5554                   20266992.5354
        50.0004         49.5004
   4896954.60247   3824674.93845  21968880.7734                   21968881.9884
        45.5004         32.5004
  -6123083.01646  -3303101.82843  23539206.2274                   23539211.2504
        39.5004         22.5004
   2813986.28946   2215928.28145  24782297.0784                   24782305.1134
        37.0004         32.0004
 -10726482.05547  -8317450.59445  21824795.7894                   21824796.5164
        45.2504         30.7504
 -13006910.86747 -10089803.32046  21864226.7664                   21864229.3134
        45.7504         40.5004
  12342079.55946   9617002.93844  23823064.4304                   23823068.8754
        38.5004         26.5004
   1948366.15248   1544839.22347  20789837.5784                   20789836.1684
        48.5004         45.5004
  12222172.60247   9525411.30544  23217506.1174                   23217506.1644
        42.0004         27.5004
  13321004.61346  10369413.73044  25282876.8204                   25282881.0664
        37.7504         28.7504
 25  8  7 23 28 30.0000000  0 10G03G01G16G09G04G26G02G31G28G32
 -12008267.44948  -9313655.97748  20255649.8134                   20255651.1644
        50.5004         49.5004
   4941290.16847   3859222.07045  21977318.3134                   21977319.3164
        45.5004         32.7504
  -6247309.09446  -3399901.08243  23515567.7894                   23515570.3404
        39.7504         22.0004
   2713457.43846   2137594.38745  24763166.8834                   24763174.5274
        36.5004         31.2504
 -10799760.72747  -8374550.78545  21810850.8284                   21810851.6254
        45.0004         31.5004
 -13074179.38347 -10142220.28146  21851426.2734                   21851428.6294
        46.0004         40.5004
  12407887.07046   9668281.16844  23835589.0314                   23835591.9654
        40.7504         26.0004
   1985924.13347   1574105.17647  20796984.6484                   20796983.1724
        47.7504         45.5004
  12293777.25447   9581207.08244  23231132.3984                   23231131.9024
        42.7504         27.5004
  13372603.35946  10409620.42644  25292696.5164                   25292700.5944
        38.5004         28.7504
 25  8  7 23 29  0.0000000  0 10G03G01G16G09G04G26G02G31G28G32
 -12067405.83648  -9359737.83248  20244396.0704                   20244397.5124
        50.2504         49.5004
   4986040.34847   3894092.27345  21985833.8754                   21985834.9414
        45.0004         31.7504
  -6371433.44146  -3496621.01643  23491947.5084                   23491950.2704
        40.2504         21.0004
   2612951.15245   2059278.05944  24744041.1484                   24744048.7774
        35.5004         29.7504
 -10872896.95747  -8431539.98445  21796933.3444                   21796934.6604
        46.0004         31.7504
 -13140923.67647 -10194228.75446  21838724.8204                   21838727.4774
        46.2504         40.5004
  12473776.65646   9719623.47744  23848127.3054                   23848130.6604
        41.5004         26.7504
   2023930.34447   1603720.39547  20804217.0554                   20804215.7774
        47.7504         45.2504
  12365549.20747   9637133.22744  23244789.6414                   23244790.1604
        42.2504         26.2504
  13424235.54746  10449853.18844  25302521.1334                   25302525.9964
        38.7504         29.0004
 25  8  7 23 29 30.0000000  0 10G03G01G16G09G04G26G02G31G28G32
 -12126077.39548  -9405455.91848  20233231.2114                   20233232.8594
        50.0004         49.5004
   5031203.64847   3929284.39145  21994428.1174                   21994429.3674
        45.0004         31.7504
  -6495451.52746  -3593258.14543  23468347.6644                   23468350.8094
        40.5004         21.5004
   2512468.59046   1980980.19945  24724919.5704                   24724927.6764
        37.0004         31.0004
 -10945889.44147  -8488417.17645  21783043.6024                   21783044.4024
        45.2504         32.0004
 -13207140.27347 -10245826.03546  21826123.9384                   21826127.0944
        46.5004         40.2504
  12539746.91846   9771028.56344  23860680.5234                   23860684.8444
        38.5004         25.5004
   2062383.37147   1633683.78547  20811534.5004                   20811532.7854
        47.2504         45.5004
  12437487.39847   9693188.90244  23258479.6884                   23258479.5514
        43.0004         27.0004
  13475902.50046  10490113.05944  25312353.1484                   25312357.6644
        38.0004         29.7504
 25  8  7 23 30  0.0000000  0 10G03G01G16G09G04G26G02G31G28G32
 -12184279.92648  -9450808.52748  20222155.8364                   20222156.8244
        50.0004         49.5004
   5076777.56347   3964796.46945  22003099.9454                   22003101.6844
        45.0004         31.7504
  -6619359.50046  -3689809.57043  23444767.8444                   23444771.6524
        41.0004         22.5004
   2412010.09046   1902701.08644  24705802.8134                   24705810.4144
        36.5004         29.5004
 -11018737.91447  -8545182.15245  21769180.7344                   21769182.0744
        46.0004         32.0004
 -13272826.66047 -10297010.16846  21813624.2584                   21813626.9534
        46.2504         40.2504
  12605795.41046   9822494.59444  23873250.3364                   23873253.7584
        40.2504         25.5004
   2101281.16048   1663993.74247  20818936.1954                   20818934.8364
        48.0004         45.2504
  12509589.80546   9749372.54344  23272199.9924                   23272200.0354
        41.5004         27.0004
  13527604.76246  10530400.44144  25322191.5704                   25322196.1994
        38.5004         28.5004
 25  8  7 23 30 30.0000000  0 10G03G01G16G09G04G26G02G31G28G32
 -12242011.78948  -9495794.37948  20211169.3364                   20211170.9184
        50.2504         49.5004
   5122759.13747   4000626.19145  22011850.6174                   22011851.7854
        46.0004         32.0004
  -6743154.41446  -3786272.84043  23421210.4694                   23421213.9494
        39.2504         21.7504
   2311575.34846   1824440.47745  24686690.3524                   24686698.1884
        36.5004         31.0004
 -11091442.59047  -8601835.07845  21755345.5634                   21755346.3164
        46.0004         32.7504
 -13337980.95747 -10347779.68446  21801226.0314                   21801229.0944
        46.0004         40.2504
  12671919.11746   9874019.29344  23885833.8524                   23885836.7814
        41.5004         27.0004
   2140620.70348   1694647.92247  20826422.3984                   20826421.3594
        48.2504         45.0004
  12581853.83647   9805682.12144  23285951.0164                   23285951.5984
        42.2504         27.0004
  13579342.08646  10570715.11344  25332036.6724                   25332042.2544
        38.0004         28.0004
 25  8  7 23 31  0.0000000  0 10G03G01G16G09G04G26G02G31G28G32
 -12299273.55948  -9540413.92648  20200273.1094                   20200273.9494
        49.7504         49.5004
   5169143.01647   4036769.40245  22020677.3594                   22020678.4344
        46.0004         32.2504
  -6866835.78146  -3882647.61743  23397675.1094                   23397676.9534
        40.2504         21.5004
   2211161.77045   1746196.35945  24667582.6644                   24667589.9184
        35.5004         30.2504
 -11164005.96947  -8658377.89845  21741537.5704                   21741538.1684
        45.7504         32.7504
 -13402603.50047 -10398134.85546  21788928.8674                   21788931.6214
        45.7504         40.2504
  12738112.85246   9925598.59044  23898428.8754                   23898433.1454
        40.2504         26.0004
   2180396.97347   1725642.40647  20833991.6954                   20833990.4144
        47.5004         45.2504
  12654274.65646   9862113.87544  23299732.6414                   23299732.9844
        41.7504         26.7504
  13631112.06346  10611055.25445  25341887.9924                   25341893.8284
        38.5004         30.0004
 25  8  7 23 31 30.0000000  0  9G03G01G16G09G04G26G02G31G28
 -12356061.00448  -9584663.87148  20189466.8834                   20189467.8634
        50.2504         49.5004
   5215928.79747   4073225.77745  22029580.0634                   22029581.3324
        45.7504         31.5004
  -6990397.66846  -3978929.28543  23374161.6094                   23374164.5164
        40.2504         21.0004
   2110771.69546   1667970.56345  24648478.1954                   24648486.0204
        36.0004         30.0004
 -11236425.65247  -8714808.75845  21727756.2894                   21727756.8324
        45.7504         31.2504
 -13466689.82047 -10448072.18046  21776733.0234                   21776736.3054
        45.5004         40.5004
  12804375.94546   9977231.84444  23911038.1174                   23911043.3984
        39.5004         25.7504
   2220609.90247   1756977.14847  20841644.2424                   20841642.3054
        47.7504         45.0004
  12726852.39146   9918667.89844  23313543.9694                   23313543.9344
        41.5004         25.7504
 25  8  7 23 32  0.0000000  0  9G03G01G16G09G04G26G02G31G28
 -12412371.72748  -9628542.34048  20178751.1564                   20178752.5274
        49.5004         49.5004
   5263114.15647   4109993.51645  22038559.3914                   22038560.2894
        46.0004         32.2504
  -7113835.82446  -4075114.59443  23350671.5164                   23350674.8404
        40.7504         22.0004
   2010405.59845   1589763.43444  24629378.8444                   24629386.5434
        35.5004         29.7504
 -11308701.12947  -8771127.25445  21714002.4774                   21714003.1334
        46.2504         31.7504
 -13530237.23047 -10497589.58646  21764640.5944                   21764643.1764
        46.5004         40.5004
  12870706.34846  10028917.53144  23923662.5704                   23923665.8984
        40.5004         27.0004
   2261257.16047   1788650.32847  20849378.7814                   20849377.3484
        47.5004         45.0004
  12799585.12947   9975342.69144  23327384.3674                   23327384.8484
        42.0004         26.5004
 25  8  7 23 32 30.0000000  0  9G03G01G16G09G04G26G02G31G28
 -12468199.76648  -9672044.69148  20168127.1884                   20168128.3954
        49.7504         49.5004
   5310700.39147   4147073.61745  22047615.0314                   22047615.9694
        46.2504         31.5004
  -7237143.44546  -4171198.19143  23327206.2114                   23327209.5664
        38.7504         22.5004
   1910067.56645   1511578.16844  24610286.3204                   24610293.4774
        35.2504         29.7504
 -11380828.28147  -8827330.16845  21700277.2734                   21700277.8054
        46.0004         33.0004
 -13593239.58647 -10546682.26646  21752652.1254                   21752654.0594
        46.0004         40.7504
  12937105.39146  10080656.78944  23936298.5004                   23936301.0744
        41.7504         27.0004
   2302340.42647   1820663.25447  20857196.7274                   20857195.1564
        47.7504         44.7504
  12872474.76247  10032139.76644  23341254.8364                   23341255.2114
        42.0004         27.0004
 25  8  7 23 33  0.0000000  0  9G03G01G16G09G04G26G02G31G28
 -12523542.31648  -9715168.73448  20157596.1724                   20157596.8954
        50.0004         49.5004
   5358685.60247   4184464.60945  22056746.5704                   22056747.2974
        46.5004         31.5004
  -7360316.00846  -4267176.53543  23303767.9614                   23303769.9024
        41.7504         22.5004
   1809758.47346   1433415.45744  24591196.8674                   24591204.2854
        36.0004         29.7504
 -11452806.17647  -8883416.78945  21686579.9304                   21686581.0864
        46.2504         32.5004
 -13655693.87547 -10595347.88346  21740766.8054                   21740769.4064
        45.7504         40.7504
  13003571.02046  10132447.91044  23948945.3594                   23948948.9654
        40.7504         26.0004
   2343858.15247   1853014.71147  20865097.3054                   20865095.6334
        47.7504         44.5004
  12945519.91047  10089057.99244  23355154.8524                   23355155.5164
        42.0004         27.0004
 25  8  7 23 33 30.0000000  0  9G03G01G16G09G04G26G02G31G28
 -12578398.70748  -9757913.96148  20147157.2274                   20147158.3754
        50.0004         49.5004
   5407065.77747   4222163.37945  22065952.6254                   22065954.1254
        46.0004         31.0004
  -7483351.37146  -4363048.01243  23280354.1564                   23280357.3634
        39.7504         22.7504
   1709477.16445   1355274.39544  24572114.3834                   24572121.6094
        35.2504         28.7504
 -11524635.86347  -8939387.92645  21672910.9304                   21672912.0554
        46.0004         33.0004
 -13717599.19147 -10643585.72746  21728986.9774                   21728989.4224
        46.0004         40.7504
  13070099.21147  10184287.77044  23961605.3984                   23961610.1564
        42.0004         26.0004
   2385806.73848   1885701.90647  20873079.4924                   20873078.3674
        48.2504         44.7504
  13018717.13347  10146094.72744  23369083.9844                   23369084.2544
        42.0004         26.5004
 25  8  7 23 34  0.0000000  0  9G03G01G16G09G04G26G02G31G28
 -12632766.98448  -9800278.83248  20136811.2034                   20136812.4064
        49.7504         49.5004
   5455838.18047   4260167.78145  22075233.9534                   22075235.1254
        45.7504         31.7504
  -7606246.00846  -4458809.75443  23256968.8204                   23256971.6294
        41.0004         22.5004
   1609223.73045   1277155.05544  24553035.6564                   24553043.6684
        35.0004         28.5004
 -11596317.22347  -8995243.48045  21659270.8284                   21659271.4734
        46.5004         32.5004
 -13778953.40247 -10691394.14146  21717311.1564                   21717313.9024
        46.0004         40.2504
  13136687.51446  10236174.46844  23974277.4384                   23974281.0234
        41.2504         26.5004
   2428183.60948   1918722.82847  20881143.9064                   20881142.6374
        48.0004         44.5004
  13092064.27747  10203248.29344  23383041.8914                   23383041.6134
        42.7504         27.0004
 25  8  7 23 34 30.0000000  0  9G03G01G16G09G04G26G02G31G28
 -12686648.88348  -9842264.71148  20126557.8524                   20126558.8914
        49.2504         49.5004
   5504996.42247   4298472.82845  22084588.2034                   22084590.1334
        46.0004         31.5004
  -7729000.10946  -4554462.09843  23233607.8984                   23233611.8834
        39.0004         23.5004
   1508994.71546   1199054.77044  24533963.6094                   24533970.8134
        36.0004         29.2504
 -11667853.73047  -9050986.16845  21645657.6094                   21645658.6764
        46.7504         33.5004
 -13839758.06247 -10738774.33646  21705740.1334                   21705743.4224
        45.7504         40.5004
  13203329.60246  10288103.05943  23986957.4064                   23986962.7304
        39.0004         23.5004
   2470982.05148   1952072.24647  20889287.9774                   20889286.7974
        48.0004         44.7504
  13165555.52347  10260514.12144  23397026.3834                   23397026.6294
        43.0004         27.0004
 25  8  7 23 35  0.0000000  0  9G03G01G16G09G04G26G02G31G28
 -12740043.38748  -9883870.79748  20116397.4144                   20116398.4774
        49.5004         49.5004
   5554536.82447   4337075.65645  22094016.3674                   22094017.0824
        45.5004         31.7504
  -7851610.94546  -4650002.75043  23210276.3674                   23210279.2034
        41.2504         22.2504
   1408789.01646   1120972.62544  24514894.8984                   24514901.7424
        36.7504         29.0004
 -11739246.14847  -9106616.57845  21632072.5864                   21632073.3754
        46.2504         33.0004
 -13900011.95747 -10785725.36746  21694274.6884                   21694277.3364
        46.0004         41.0004
  13270022.08646  10340070.93443  23999649.0314                   23999654.0514
        39.7504         23.0004
   2514199.19948   1985747.93047  20897512.0784                   20897510.4534
        48.5004         44.7504
  13239187.86347  10317889.91844  23411038.3364                   23411038.5554
        43.0004         27.0004
 25  8  7 23 35 30.0000000  0  9G03G01G16G09G04G26G02G31G28
 -12792953.49248  -9925099.44148  20106328.5944                   20106329.7114
        49.5004         49.5004
   5604451.65247   4375970.25045  22103514.5164                   22103515.7854
        45.7504         31.7504
  -7974080.14146  -4745433.06243  23186971.5314                   23186973.6954
        41.0004         22.0004
   1308602.02046   1042905.04744  24495829.0314                   24495836.3244
        36.5004         29.0004
 -11810499.23847  -9162138.42245  21618513.1024                   21618513.8874
        46.0004         33.0004
 -13959717.96147 -10832249.46546  21682912.8674                   21682915.3484
        45.2504         40.5004
  13336756.81646  10392071.69943  24012348.2584                   24012353.4144
        39.0004         21.7504
   2557827.62148   2019744.08247  20905814.3524                   20905813.1214
        48.2504         44.5004
  13312954.19547  10375370.11744  23425075.9224                   23425076.0084
        42.7504         25.7504
 25  8  7 23 36  0.0000000  0  9G03G01G16G09G04G26G02G31G28
 -12845375.60548  -9965947.82048  20096353.2584                   20096354.2304
        49.2504         49.5004
   5654739.86747   4415155.78545  22113083.9144                   22113085.2274
        45.7504         30.7504
  -8096402.62546  -4840749.04743  23163693.8134                   23163695.7664
        40.5004         22.2504
   1208435.43445    964853.38744  24476767.9534                   24476775.1174
        35.0004         28.0004
 -11881611.12147  -9217550.23445  21604981.2034                   21604981.8674
        46.7504         32.5004
 -14018872.27347 -10878343.67246  21671656.1644                   21671658.7814
        46.0004         41.0004
  13403533.19546  10444104.92644  24025056.4224                   24025062.0084
        40.5004         26.2504
   2601866.37948   2054059.98047  20914194.6094                   20914193.0594
        48.7504         45.0004
  13386854.09447  10432954.37144  23439138.1804                   23439138.9024
        42.5004         26.5004
 25  8  7 23 36 30.0000000  0  9G03G01G16G09G04G26G02G31G28
 -12897308.41848 -10006414.93748  20086470.6334                   20086471.3164
        48.5004         49.5004
   5705398.12947   4454629.66845  22122723.8914                   22122725.0634
        45.5004         31.2504
  -8218575.21946  -4935948.23843  23140445.0164                   23140446.9654
        40.5004         22.7504
   1108288.89845    886817.34844  24457710.7344                   24457717.2274
        35.7504         28.5004
 -11952582.19947  -9272852.32845  21591475.7274                   21591476.8284
        46.0004         33.0004
 -14077473.46147 -10924006.87946  21660504.4384                   21660507.3204
        45.7504         41.0004
  13470348.25446  10496168.31644  24037771.9614                   24037776.0354
        41.2504         25.2504
   2646312.41448   2088693.22747  20922652.6564                   20922650.8054
        48.0004         44.2504
  13460884.86747  10490640.62944  23453225.9384                   23453226.4144
        42.2504         26.7504
 25  8  7 23 37  0.0000000  0  9G03G01G16G09G04G26G02G31G28
 -12948749.02048 -10046498.50848  20076681.8204                   20076683.0394
        49.5004         49.5004
   5756424.64547   4494390.50445  22132434.2974                   22132435.2504
        45.0004         30.7504
  -8340593.53946  -5031027.24643  23117225.7194                   23117227.6254
        41.0004         22.5004
   1008163.45346    808797.72744  24438656.8914                   24438664.6564
        36.2504         28.5004
 -12023411.22747  -9328043.73045  21577997.4384                   21577998.0514
        46.2504         32.7504
 -14135518.45347 -10969236.68746  21649458.8054                   21649461.6174
        46.0004         40.7504
  13537200.26246  10548260.48844  24050493.9924                   24050498.1484
        41.0004         26.0004
   2691164.41848   2123642.82047  20931187.3834                   20931186.1644
        48.5004         44.5004
  13535045.48047  10548428.05144  23467338.1484                   23467338.6764
        42.5004         26.7504
 25  8  7 23 37 30.0000000  0  9G03G01G16G09G04G26G02G31G28
 -12999695.41448 -10086196.99248  20066986.8364                   20066988.3524
        49.0004         49.5004
   5807816.74647   4534436.19545  22142213.6954                   22142215.1484
        45.2504         31.0004
  -8462453.78147  -5125983.05543  23094036.4144                   23094038.5744
        42.2504         23.7504
    908059.43846    730794.83644  24419607.4454                   24419614.8834
        36.0004         27.7504
 -12094097.92647  -9383124.21945  21564545.6564                   21564546.6454
        46.2504         34.2504
 -14193005.14847 -11014031.44946  21638519.1254                   21638522.2894
        45.7504         41.0004
  13604086.37146  10600379.23844  24063222.4454                   24063225.6524
        41.5004         24.7504
   2736419.78948   2158906.73047  20939799.5784                   20939798.0474
        48.2504         44.2504
  13609333.94146  10606315.09444  23481475.4064                   23481475.2704
        41.5004         26.0004
 25  8  7 23 38  0.0000000  0  9G03G01G16G09G04G26G02G31G28
 -13050147.53548 -10125510.32848  20057386.3914                   20057387.5944
        49.5004         49.5004
   5859569.85547   4574763.21545  22152062.3054                   22152063.7974
        45.0004         31.2504
  -8584154.34447  -5220814.41843  23070877.3834                   23070879.2384
        42.2504         22.5004
    807975.11345    652807.27344  24400562.1174                   24400569.3914
        35.0004         27.0004
 -12164643.82447  -9438095.00445  21551121.7194                   21551122.4964
        46.0004         33.5004
 -14249933.33647 -11058391.02346  21627686.4614                   21627689.0744
        45.7504         41.5004
  13671002.41447  10652521.31344  24075955.9144                   24075959.8714
        42.2504         26.0004
   2782074.29348   2194481.63347  20948487.4384                   20948485.8404
        48.7504         44.0004
  13683746.34446  10664298.71944  23495635.1484                   23495635.7664
        41.2504         26.2504
 25  8  7 23 38 30.0000000  0  9G03G01G16G09G04G26G02G31G28
 -13100102.89848 -10164436.57848  20047879.9384                   20047881.5234
        49.5004         49.5004
   5911681.78547   4615369.83245  22161978.1414                   22161980.3634
        44.5004         30.5004
  -8705690.82847  -5315517.93744  23047749.9614                   23047751.5514
        42.5004         25.2504
    707911.30545    574835.69144  24381520.0394                   24381527.2034
        35.2504         28.0004
 -12235048.13747  -9492955.45745  21537723.9774                   21537724.9454
        45.5004         33.2504
 -14306300.42647 -11102313.37946  21616960.3134                   21616962.6294
        45.5004         41.5004
  13737946.31346  10704685.05544  24088695.9454                   24088699.3164
        40.7504         25.0004
   2828126.05548   2230366.10947  20957250.6564                   20957249.0824
        48.0004         44.2504
  13758281.32446  10722377.85244  23509819.0234                   23509819.2114
        40.0004         24.7504
 25  8  7 23 39  0.0000000  0  9G03G01G16G09G04G26G02G31G28
 -13149560.00448 -10202974.57848  20038468.2894                   20038469.8554
        49.0004         49.5004
   5964149.36347   4656253.56645  22171963.1414                   22171964.3634
        45.5004         30.0004
  -8827060.35947  -5410091.36743  23024653.2814                   23024655.3794
        42.0004         23.5004
    607867.64145    496879.82044  24362482.8594                   24362489.1914
        35.0004         28.7504
 -12305310.99247  -9547705.67645  21524353.6174                   21524354.2074
        45.7504         33.2504
 -14362104.90647 -11145797.32446  21606340.8134                   21606343.2974
        45.7504         41.2504
  13804914.79746  10756867.95744  24101439.1484                   24101443.6024
        41.0004         25.7504
   2874572.10548   2266557.80947  20966089.1804                   20966087.4344
        48.0004         44.5004
  13832936.34046  10780550.53144  23524025.5314                   23524025.8794
        40.0004         25.5004
 25  8  7 23 39 30.0000000  0  9G03G01G16G09G04G26G02G31G28
 -13198514.87948 -10241121.23848  20029152.9844                   20029154.1484
        49.2504         49.5004
   6016971.95347   4697413.93445  22182014.7814                   22182016.2974
        44.5004         30.5004
  -8948257.22746  -5504530.28543  23001589.4454                   23001591.6564
        41.7504         22.7504
    507846.57045    418941.55944  24343448.7974                   24343456.2194
        35.2504         28.2504
 -12375429.94947  -9602343.76245  21511010.1954                   21511010.7624
        45.5004         33.2504
 -14417342.60547 -11188839.63346  21595829.1414                   21595832.2194
        45.0004         41.2504
  13871908.14546  10809070.26644  24114187.6334                   24114192.4614
        41.7504         26.7504
   2921412.39548   2303056.71947  20975002.5474                   20975001.0234
        48.0004         44.2504
  13907711.65646  10838816.94144  23538254.8754                   23538255.5164
        40.2504         26.5004
 25  8  7 23 40  0.0000000  0  9G03G01G16G09G04G26G02G31G28
 -13246967.11748 -10278876.22348  20019932.9454                   20019933.9534
        50.0004         49.7504
   6070145.30947   4738847.63345  22192133.4534                   22192135.0784
        45.0004         30.7504
  -9069279.43347  -5598833.09943  22978560.0864                   22978562.3874
        42.0004         22.7504
    407846.81345    341019.89844  24324419.8134                   24324425.4344
        35.0004         28.2504
 -12445406.26647  -9656870.70345  21497693.9384                   21497694.8364
        46.2504         33.0004
 -14472013.10247 -11231439.96946  21585425.5864                   21585428.4964
        45.2504         41.5004
  13938921.99246  10861288.48444  24126940.0394                   24126944.5664
        39.7504         24.7504
   2968642.89848   2339859.68847  20983990.2274                   20983988.5164
        48.0004         44.5004
  13982603.71546  10897174.32044  23552505.6724                   23552506.4964
        40.2504         24.7504
 25  8  7 23 40 30.0000000  0  9G03G01G16G09G04G26G02G31G28
 -13294914.94148 -10316238.16448  20010808.4064                   20010809.8714
        50.0004         50.0004
   6123666.46547   4780552.32445  22202318.4144                   22202319.5744
        45.5004         30.7504
  -9190123.26647  -5692996.90643  22955563.9224                   22955566.3484
        42.0004         22.5004
    307868.41045    263114.88744  24305394.4924                   24305400.2664
        35.2504         28.0004
 -12515239.69947  -9711286.30545  21484404.9384                   21484405.9104
        46.0004         33.0004
 -14526114.52347 -11273596.87146  21575130.9384                   21575133.3324
        45.0004         41.5004
  14005953.44946  10913520.48043  24139695.3984                   24139700.1764
        40.5004         22.5004
   3016260.93848   2376964.63347  20993051.5474                   20993050.1414
        48.2504         44.0004
  14057610.47746  10955621.08644  23566779.5394                   23566780.4774
        39.2504         26.0004
 25  8  7 23 41  0.0000000  0  9G03G01G16G09G04G26G02G31G28
 -13342357.09848 -10353206.07448  20001780.6484                   20001781.7664
        50.0004         49.7504
   6177532.16047   4822525.50445  22212568.2424                   22212570.3444
        45.0004         31.2504
  -9310785.46946  -5787019.23443  22932602.6174                   22932604.5044
        41.5004         23.0004
    207911.07045    185226.26644  24286373.1414                   24286379.2734
        35.2504         27.0004
 -12584930.53147  -9765590.78945  21471143.6024                   21471144.1134
        45.2504         33.5004
 -14579645.47747 -11315309.25446  21564944.2114                   21564946.5274
        45.0004         41.5004
  14072999.64146  10965763.91443  24152454.3914                   24152459.7584
        40.2504         22.7504
   3064263.89547   2414369.51647  21002186.2734                   21002185.0514
        47.5004         44.2504
  14132729.39546  11014155.25044  23581074.4924                   23581074.8094
        39.7504         25.2504
 25  8  7 23 41 30.0000000  0  9G03G01G16G09G04G26G02G31G28
 -13389291.87148 -10389778.62148  19992849.1254                   19992850.4064
        49.7504         50.0004
   6231739.47347   4864764.86744  22222883.7584                   22222885.7464
        45.7504         29.2504
  -9431262.97746  -5880897.61743  22909676.2344                   22909678.2624
        41.7504         22.5004
    107974.85245    107354.12544  24267355.3054                   24267362.2624
        35.7504         27.5004
 -12654478.62947  -9819784.04745  21457908.7894                   21457909.6564
        45.5004         33.5004
 -14632604.37147 -11356575.87146  21554866.3364                   21554869.0084
        46.0004         41.7504
  14140057.99647  11018016.85243  24165216.2974                   24165220.2704
        42.5004         23.0004
   3112648.52047   2452071.80147  21011393.3364                   21011392.1484
        47.5004         44.2504
  14207958.37946  11072775.16844  23595389.8134                   23595390.6294
        39.5004         25.2504
 25  8  7 23 42  0.0000000  0  9G03G01G16G09G04G26G02G31G28
 -13435717.94548 -10425954.76648  19984014.7194                   19984016.0594
        50.2504         49.7504
   6286285.08247   4907267.84845  22233263.3204                   22233265.5004
        45.5004         30.0004
  -9551552.50047  -5974629.51644  22886786.2344                   22886788.0514
        42.2504         26.0004
      8059.47346     29498.21144  24248342.6564                   24248348.5394
        36.5004         27.0004
 -12723884.11747  -9873866.19145  21444701.4534                   21444701.9924
        46.0004         33.5004
 -14684989.71547 -11397395.57446  21544897.7424                   21544900.5044
        45.5004         41.7504
  14207125.46546  11070276.82443  24177978.8594                   24177982.9224
        40.5004         21.0004
   3161412.08247   2490069.37147  21020673.0634                   21020671.6954
        47.7504         44.5004
  14283294.96546  11131478.94944  23609725.7034                   23609726.5434
        38.7504         26.0004
 25  8  7 23 42 30.0000000  0 10G03G01G16G09G04G26G02G06G31G28
 -13481633.31648 -10461732.97348  19975276.9844                   19975278.0784
        50.5004         50.0004
   6341166.36347   4950032.37545  22243707.4144                   22243709.2704
        46.2504         30.2504
  -9671650.25447  -6068212.02043  22863931.6414                   22863933.6134
        42.0004         22.5004
    -91834.67646    -48341.14544  24229332.5554                   24229339.4344
        37.2504         28.0004
 -12793146.52347  -9927836.83645  21431520.5084                   21431521.5044
        46.5004         33.2504
 -14736799.53547 -11437766.81647  21535038.3524                   21535040.9734
        45.7504         42.0004
  14274199.52346  11122542.02343  24190741.8674                   24190747.9534
        40.2504         22.5004
   4549463.93855   3564155.30154  25349286.6174                   25349293.1454
        34.5004         25.7504
   3210552.47748   2528360.56647  21030024.4064                   21030023.1174
        48.7504         44.5004
  14358737.43846  11190265.22744  23624082.4534                   23624083.0354
        40.0004         25.5004
 25  8  7 23 43  0.0000000  0 10G03G01G16G09G04G26G02G06G31G28
 -13527041.69548 -10497116.10548  19966636.4844                   19966637.3164
        50.2504         50.0004
   6396375.06347   4993052.03145  22254213.3204                   22254214.8554
        45.5004         30.5004
  -9791558.01247  -6161646.46544  22841114.8674                   22841115.6724
        43.5004         25.7504
   -191712.86746   -126168.08244  24210326.2974                   24210332.6994
        37.0004         26.5004
 -12862271.00447  -9981700.00445  21418367.3284                   21418367.9144
        46.0004         33.0004
 -14788037.44147 -11477692.42247  21525288.3204                   21525290.8794
        45.2504         42.0004
  14341272.46546  11174806.24243  24203505.7584                   24203511.9064
        40.2504         22.5004
   4460685.43845   3494977.27744  25332393.5784                   25332398.6844
        35.5004         25.5004
   3260061.73048   2566939.19147  21039445.2344                   21039444.1334
        48.5004         44.0004
  14434278.40646  11249128.26244  23638457.1644                   23638457.7664
        40.5004         26.0004
 25  8  7 23 43 30.0000000  0 10G03G01G16G09G04G26G02G06G31G28
 -13571942.82848 -10532103.98448  19958091.9924                   19958093.0744
        50.0004         50.0004
   6451906.74647   5036323.37145  22264781.1884                   22264782.1484
        45.2504         30.0004
  -9911273.81247  -6254931.33644  22818332.8204                   22818334.6454
        43.0004         25.2504
   -291576.34846   -203983.55144  24191322.7974                   24191328.8284
        37.2504         27.2504
 -12931258.80947 -10035456.68445  21405239.3134                   21405239.6884
        47.0004         33.7504
 -14838703.25447 -11517172.23047  21515647.1724                   21515649.3444
        46.0004         42.2504
  14408339.87546  11227066.22743  24216268.0394                   24216274.1174
        38.7504         22.0004
   4372314.96546   3426117.18044  25315577.1954                   25315582.5704
        37.0004         29.0004
   3309935.83648   2605802.10947  21048936.3984                   21048934.6054
        48.5004         44.0004
  14509914.36746  11308065.31644  23652850.6954                   23652851.1094
        41.2504         25.7504
 25  8  7 23 44  0.0000000  0 10G03G01G16G09G04G26G02G06G31G28
 -13616334.40248 -10566694.80148  19949644.5084                   19949645.8054
        50.0004         50.0004
   6507759.14847   5079844.61745  22275408.5234                   22275411.0944
        45.5004         30.0004
 -10030793.12147  -6348063.10543  22795588.9064                   22795590.6804
        42.0004         23.5004
   -391424.39146   -281786.97344  24172321.7814                   24172328.3054
        36.5004         28.0004
 -13000109.03547 -10089106.15245  21392137.0864                   21392137.7774
        47.0004         33.5004
 -14888794.62947 -11556204.42647  21506114.9384                   21506117.3364
        45.7504         42.5004
  14475400.09046  11279320.59843  24229030.1174                   24229036.0594
        40.2504         22.0004
   4284355.14845   3357577.12544  25298838.0314                   25298844.3674
        35.5004         27.0004
   3360172.73848   2644947.73047  21058495.9064                   21058494.3364
        48.7504         43.7504
  14585643.87946  11367075.27744  23667261.1804                   23667261.8984
        41.0004         25.2504
 25  8  7 23 44 30.0000000  0 10G03G01G16G09G04G26G02G06G31G28
 -13660212.16048 -10600885.24248  19941294.6804                   19941296.0124
        50.2504         50.0004
   6563932.04747   5123615.58245  22286098.8054                   22286100.4694
        45.5004         31.0004
 -10150110.15646  -6441037.23043  22772883.0704                   22772884.8714
        41.7504         23.5004
   -491254.20746   -359576.18744  24153325.1804                   24153331.0234
        36.2504         28.5004
 -13068818.77747 -10142646.16045  21379062.1414                   21379062.4264
        47.0004         33.2504
 -14938307.27747 -11594785.66847  21496692.7894                   21496695.3674
        46.0004         42.5004
  14542452.96546  11331569.19943  24241790.1954                   24241796.3244
        39.2504         22.5004
   4196810.69946   3289360.69144  25282179.8054                   25282184.5164
        36.0004         27.7504
   3410772.48848   2684376.09847  21068124.8204                   21068123.6454
        49.0004         44.0004
  14661467.69546  11426158.70344  23681689.9924                   23681691.0664
        40.7504         24.5004
 25  8  7 23 45  0.0000000  0 10G03G01G16G09G04G26G02G06G31G28
 -13703572.96148 -10634672.85548  19933043.4614                   19933044.5554
        50.0004         50.2504
   6620423.94947   5167635.12944  22296848.9304                   22296850.4024
        45.5004         29.7504
 -10269219.84047  -6533849.80544  22750218.1644                   22750219.4064
        42.7504         24.2504
   -591064.09845   -437349.86344  24134331.1334                   24134337.8324
        35.7504         27.5004
 -13137386.35547 -10196075.38345  21366013.7274                   21366014.9024
        46.5004         34.0004
 -14987238.09447 -11632913.53947  21487381.6804                   21487383.7424
        46.2504         42.2504
  14609497.46946  11383811.35243  24254549.4844                   24254554.0314
        40.7504         22.7504
   4109685.51646   3221470.96144  25265601.1414                   25265605.4064
        37.0004         28.5004
   3461734.37548   2724086.64147  21077822.3444                   21077820.9694
        48.5004         44.0004
  14737385.23446  11485315.14844  23696136.8284                   23696137.7774
        39.2504         26.2504
 25  8  7 23 45 30.0000000  0 10G03G01G16G09G04G26G02G06G31G28
 -13746413.70348 -10668055.23848  19924891.3594                   19924892.2034
        50.0004         50.2504
   6677233.37947   5211902.10944  22307658.8674                   22307661.4304
        45.2504         29.5004
 -10388116.93047  -6626496.71944  22727591.7974                   22727593.8634
        42.5004         24.7504
   -690852.48445   -515106.79344  24115342.0234                   24115348.0474
        35.5004         27.0004
 -13205810.01247 -10249392.46945  21352993.7194                   21352993.9804
        46.0004         34.0004
 -15035583.96147 -11670585.60247  21478181.6094                   21478184.1644
        46.5004         42.5004
  14676532.27046  11436045.87143  24267304.6484                   24267311.3524
        41.0004         22.2504
   4022983.01246   3153910.65644  25249101.8984                   25249106.6994
        37.5004         28.2504
   3513057.00848   2764078.29347  21087588.7114                   21087587.7774
        48.5004         44.0004
  14813396.08646  11544544.32044  23710601.3754                   23710602.1214
        40.0004         25.0004
 25  8  7 23 46  0.0000000  0 10G03G01G16G09G04G26G02G06G31G28
 -13788734.10548 -10701032.15648  19916837.9224                   19916839.1334
        49.7504         50.2504
   6734356.11747   5256413.21945  22318529.2894                   22318531.5274
        45.0004         30.0004
 -10506799.50446  -6718976.47343  22705007.1024                   22705009.1334
        41.5004         22.5004
   -790620.52745   -592847.84044  24096357.2114                   24096362.9024
        35.5004         27.7504
 -13274090.75047 -10302598.19145  21339999.9924                   21340000.8754
        46.2504         34.2504
 -15083344.67247 -11707801.70747  21469092.9384                   21469095.7624
        46.2504         42.5004
  14743553.58646  11488269.83643  24280059.0314                   24280065.8714
        40.0004         21.5004
   3936703.97746   3086680.27744  25232683.0704                   25232688.2624
        36.2504         27.5004
   3564736.75848   2804348.21547  21097423.1334                   21097421.6484
        48.0004         44.0004
  14889496.94546  11603843.63744  23725082.7814                   23725083.7194
        39.0004         25.0004
 25  8  7 23 46 30.0000000  0 10G03G01G16G09G04G26G02G06G31G28
 -13830530.71148 -10733600.93048  19908884.1804                   19908885.3364
        50.5004         50.2504
   6791791.07847   5301167.59844  22329458.5784                   22329460.8634
        45.0004         29.5004
 -10625261.97747  -6811284.71544  22682464.8054                   22682465.6254
        43.2504         24.7504
   -890366.20745   -670571.48444  24077375.6724                   24077381.2274
        35.2504         27.0004
 -13342226.51647 -10355690.95745  21327034.0554                   21327034.7504
        46.5004         33.2504
 -15130516.80147 -11744559.17247  21460116.1564                   21460118.9494
        46.2504         42.7504
  14810560.92646  11540482.94143  24292809.4534                   24292816.9414
        38.2504         21.5004
   3850852.23846   3019782.85244  25216345.8134                   25216350.7274
        36.2504         27.0004
   3616772.91848   2844895.85547  21107325.3134                   21107324.1094
        48.5004         44.0004
  14965687.60546  11663212.90644  23739581.3914                   23739582.5004
        39.0004         25.2504
 25  8  7 23 47  0.0000000  0 10G03G01G16G09G04G26G02G06G31G28
 -13871802.55548 -10765760.80148  19901030.3674                   19901031.7154
        49.5004         50.5004
   6849534.65247   5346162.47744  22340447.8524                   22340449.6134
        45.0004         29.0004
 -10743501.53547  -6903419.26644  22659964.0634                   22659965.8834
        43.0004         26.7504
   -990089.98445   -748278.05544  24058398.6644                   24058404.2704
        35.5004         26.7504
 -13410217.58247 -10408670.96545  21314095.5784                   21314096.4844
        46.0004         33.5004
 -15177099.42647 -11780857.28547  21451252.3984                   21451254.7974
        47.5004         42.7504
  14877551.16446  11592682.71543  24305559.3674                   24305564.9964
        40.7504         21.2504
   3765429.27746   2953219.57044  25200090.6484                   25200095.5944
        36.5004         27.5004
   3669161.89147   2885718.41447  21117294.3364                   21117293.0394
        47.5004         44.0004
  15041965.63746  11722650.25044  23754097.0234                   23754097.4884
        38.0004         25.5004
 25  8  7 23 47 30.0000000  0 10G03G01G16G09G04G26G02G06G31G28
 -13912548.11748 -10797510.58648  19893276.8364                   19893277.9734
        48.7504         50.2504
   6907583.96147   5391395.58644  22351493.3914                   22351495.7154
        44.7504         29.2504
 -10861514.40247  -6995377.17244  22637507.3204                   22637508.2624
        42.5004         25.7504
  -1089791.67646   -825967.43044  24039426.5864                   24039431.1994
        36.5004         27.2504
 -13478063.75847 -10461538.07045  21301185.1334                   21301185.9614
        45.2504         34.0004
 -15223091.07047 -11816694.89547  21442499.8834                   21442502.4414
        47.5004         42.7504
  14944521.41846  11644866.91843  24318303.3204                   24318309.7234
        39.7504         21.5004
   3680437.09446   2886991.94144  25183917.8444                   25183921.8204
        36.2504         28.7504
   3721901.23847   2926813.99247  21127330.2194                   21127329.1954
        47.7504         44.0004
  15118328.98846  11782154.08244  23768628.3834                   23768628.6994
        38.5004         24.7504
 25  8  7 23 48  0.0000000  0 10G03G01G16G09G04G26G02G06G31G28
 -13952765.07848 -10828848.47748  19885623.6564                   19885624.7734
        50.5004         50.2504
   6965936.73047   5436865.14545  22362598.0864                   22362599.9304
        44.5004         30.2504
 -10979296.34847  -7087155.14544  22615093.4454                   22615095.3284
        43.0004         27.0004
  -1189470.34846   -903638.87144  24020457.4064                   24020462.6294
        37.2504         28.5004
 -13545763.98047 -10514291.44545  21288302.4064                   21288302.7384
        45.7504         33.5004
 -15268489.48047 -11852070.24247  21433861.4304                   21433863.4884
        47.2504         42.7504
  15011470.17246  11697034.39543  24331043.4694                   24331049.6644
        39.5004         20.0004
   3595878.51245   2821102.19944  25167825.5704                   25167830.7114
        34.7504         26.7504
   3774989.45347   2968181.41447  21137433.0234                   21137431.7624
        47.7504         43.7504
  15194776.55146  11841723.54344  23783175.6954                   23783176.4024
        39.5004         25.0004
 25  8  7 23 48 30.0000000  0 10G03G01G16G09G04G26G02G06G31G28
 -13992451.99648 -10859773.34848  19878071.5944                   19878072.7664
        49.7504         50.5004
   7024589.82047   5482568.73044  22373759.0944                   22373761.8134
        44.5004         29.5004
 -11096844.28547  -7178750.76644  22592724.8364                   22592725.9804
        43.0004         26.7504
  -1289126.10946   -981292.46944  24001493.3284                   24001499.0394
        37.2504         26.2504
 -13613318.05547 -10566930.95345  21275447.1564                   21275447.8834
        45.5004         33.7504
 -15313293.35248 -11886982.31647  21425334.9694                   21425337.4844
        48.0004         42.7504
  15078394.55546  11749182.89143  24343779.2974                   24343785.2154
        40.7504         19.7504
   3511755.38745   2755551.77344  25151817.3914                   25151822.5204
        34.7504         27.5004
   3828423.81347   3009818.55947  21147601.0314                   21147600.1374
        47.2504         43.5004
  15271306.20346  11901356.96544  23797738.6024                   23797739.4264
        39.7504         24.5004
 25  8  7 23 49  0.0000000  0 10G03G01G16G09G04G26G02G06G31G28
 -14031607.01248 -10890283.75048  19870620.8674                   19870621.6804
        49.7504         50.5004
   7083540.77047   5528504.42245  22384977.3914                   22384979.7194
        44.5004         30.0004
 -11214154.07047  -7270160.81244  22570401.4534                   22570403.0004
        43.2504         25.7504
  -1388758.24246  -1058927.67644  23982533.9844                   23982539.0044
        37.7504         27.5004
 -13680725.31247 -10619456.05545  21262619.9924                   21262620.7464
        46.2504         34.5004
 -15357500.84447 -11921429.67647  21416922.4304                   21416925.2774
        47.5004         42.7504
  15145292.27746  11801310.57043  24356509.1884                   24356516.1374
        38.5004         19.5004
   3428070.05545   2690342.50844  25135893.3674                   25135898.0594
        35.2504         27.0004
   3882202.00447   3051723.62147  21157834.6414                   21157833.2034
        47.2504         44.0004
  15347916.53146  11961053.25444  23812316.9384                   23812318.4344
        40.0004         24.5004
 25  8  7 23 49 30.0000000  0 10G03G01G16G09G04G26G02G06G31G28
 -14070228.78948 -10920378.63748  19863271.1414                   19863272.3984
        49.2504         50.5004
   7142786.33247   5574669.66444  22396251.8204                   22396253.5164
        45.7504         29.7504
 -11331222.24647  -7361382.61744  22548124.3204                   22548125.4224
        43.0004         26.2504
  -1488366.69146  -1136544.44144  23963578.3054                   23963584.0354
        37.2504         27.7504
 -13747985.64847 -10671866.67245  21249820.4384                   21249821.5474
        45.5004         34.2504
 -15401110.75047 -11955411.38747  21408623.8364                   21408626.1454
        47.5004         42.5004
  15212160.64146  11853415.34443  24369234.7584                   24369240.7154
        38.5004         19.5004
   3344824.30145   2625475.72744  25120051.5554                   25120057.0864
        32.7504         27.0004
   3936321.35247   3093894.53547  21168133.3914                   21168132.3284
        46.0004         43.5004
  15424605.37946  12020810.69943  23826910.7814                   23826911.2734
        40.0004         23.2504
 25  8  7 23 50  0.0000000  0 10G03G01G16G09G04G26G02G06G31G28
 -14108317.91848 -10950058.47748  19856022.8754                   19856024.3914
        49.0004         50.5004
   7202321.50047   5621060.58245  22407581.1724                   22407582.8714
        45.2504         30.2504
 -11448047.29347  -7452414.96944  22525893.1564                   22525893.9414
        43.2504         26.0004
  -1587953.43046  -1214144.28944  23944628.0944                   23944633.3444
        37.0004         28.0004
 -13815100.78147 -10724164.13745  21237049.2734                   21237049.5044
        46.0004         34.0004
 -15444123.78947 -11988928.00847  21400438.5864                   21400441.0664
        47.2504         42.5004
  15278995.35546  11905493.93843  24381953.6804                   24381959.5824
        40.5004         20.7504
   3262018.18445   2560951.53544  25104293.9694                   25104299.3204
        34.5004         26.2504
   3990777.12947   3136327.58247  21178496.2274                   21178494.6024
        47.5004         43.5004
  15501368.77046  12080626.26243  23841518.9064                   23841519.2894
        40.2504         23.5004
 25  8  7 23 50 30.0000000  0 10G03G01G16G09G04G26G02G06G31G28
 -14145871.62148 -10979321.09848  19848876.8204                   19848878.1414
        49.0004         50.2504
   7262144.58247   5667675.84444  22418965.7034                   22418967.1564
        46.0004         29.7504
 -11564624.31647  -7543254.05544  22503708.1724                   22503709.6484
        42.7504         25.5004
  -1687516.88346  -1291726.00044  23925682.1254                   23925686.4884
        37.2504         27.0004
 -13882069.11347 -10776347.21945  21224305.2344                   21224305.6804
        46.0004         33.2504
 -15486537.19947 -12021977.39147  21392367.7194                   21392370.0434
        46.2504         42.7504
  15345795.27346  11957545.35243  24394665.4064                   24394671.5434
        39.5004         19.5004
   3179654.72345   2496772.26644  25088619.8984                   25088625.8404
        33.7504         26.0004
   4045568.23047   3179021.92647  21188922.6884                   21188920.9774
        46.2504         44.0004
  15578206.24246  12140499.53544  23856140.2344                   23856141.3094
        40.5004         24.2504
 25  8  7 23 51  0.0000000  0 10G03G01G16G09G04G26G02G06G31G28
 -14182887.59048 -11008164.70748  19841833.1024                   19841834.1484
        50.0004         50.5004
   7322253.52047   5714513.85544  22430403.5084                   22430405.5824
        45.0004         29.5004
 -11680948.97747  -7633896.50444  22481573.0634                   22481574.0634
        42.5004         26.0004
  -1787056.01646  -1369288.78144  23906739.7814                   23906744.5704
        37.5004         28.0004
 -13948889.42647 -10828414.95345  21211590.1174                   21211590.5044
        46.5004         34.0004
 -15528348.90247 -12054557.91447  21384411.1954                   21384413.8754
        46.7504         42.7504
  15412558.34846  12009568.06643  24407369.0864                   24407376.8164
        38.5004         19.0004
   3097736.72345   2432940.11744  25073031.9534                   25073037.0084
        33.5004         25.2504
   4100692.91047   3221976.19947  21199412.1884                   21199410.7194
        46.7504         43.7504
  15655116.63346  12200429.61343  23870776.3134                   23870777.0204
        39.2504         22.5004
 25  8  7 23 51 30.0000000  0 10G03G01G16G09G04G26G02G06G31G28
 -14219365.86748 -11036589.33248  19834891.3204                   19834892.2934
        49.5004         50.5004
   7382643.72747   5761571.04345  22441895.9844                   22441897.6484
        44.7504         30.0004
 -11797019.18047  -7724340.65244  22459485.4454                   22459486.6604
        42.7504         26.7504
  -1886572.13346  -1446833.65644  23887802.3204                   23887807.5044
        37.2504         27.7504
 -14015562.90647 -10880368.27045  21198902.4454                   21198902.8134
        45.0004         34.7504
 -15569559.03547 -12086669.68047  21376569.3594                   21376571.7814
        47.0004         42.7504
  15479280.75446  12061559.21143  24420066.6804                   24420074.1414
        38.0004         19.2504
   3016264.92646   2369455.63344  25057528.8524                   25057534.0704
        36.0004         24.5004
   4156147.05547   3265187.19947  21209965.0944                   21209963.8674
        47.0004         43.2504
  15732096.71946  12260414.02343  23885425.0234                   23885425.9774
        40.2504         23.7504
 25  8  7 23 52  0.0000000  0 10G03G01G16G09G04G26G02G06G31G28
 -12679884.13748  -9836993.17248  20127844.6024                   20127845.8914
        50.0004         50.5004
   9018729.95747   7036443.30144  22753232.7664                   22753234.6844
        45.2504         29.5004
 -10337407.69947  -6586980.92244  22737240.5084                   22737241.3404
        43.0004         26.5004
   -410641.92246   -296758.00044  24168661.8204                   24168667.3324
        39.0004         28.7504
 -12506667.27747  -9704605.39545  21486035.5944                   21486036.2384
        45.7504         34.5004
 -14034745.25047 -10890710.86747  21668634.4614                   21668636.9414
        47.2504         42.7504
  17121377.39546  13341114.54343  24732548.1954                   24732555.3634
        38.5004         20.2504
   4510663.46545   3533922.07844  25341902.9924                   25341908.3364
        35.7504         26.7504
   5787346.19147   4536251.43447  21520372.0634                   21520370.2624
        47.0004         43.5004
  17384561.75846  13548049.04343  24199877.9844                   24199879.6564
        40.0004         22.5004
 25  8  7 23 52 30.0000000  0 10G03G01G16G09G04G26G02G06G31G28
 -12715281.86348  -9864575.80548  20121109.2894                   20121109.8834
        50.0004         50.5004
   9079674.80147   7083932.67644  22764830.5634                   22764832.3524
        44.7504         29.0004
 -10452957.18447  -6677019.33644  22715251.7814                   22715252.3754
        42.5004         26.2504
   -510110.27746   -374265.67244  24149733.2814                   24149738.8324
        39.2504         28.5004
 -12573045.09847  -9756328.32445  21473404.3754                   21473404.8524
        45.0004         34.5004
 -14074747.48047 -10921881.40247  21661022.3364                   21661024.5434
        47.5004         42.7504
  17188011.73046  13393037.05943  24745228.3914                   24745235.3594
        37.5004         19.0004
   4430090.46945   3471137.94544  25326571.4304                   25326575.7894
        35.7504         25.7504
   5843452.78547   4579970.83647  21531048.2894                   21531047.3954
        46.5004         43.5004
  17461676.59046  13608138.44143  24214552.4304                   24214553.9804
        40.5004         22.7504
 25  8  7 23 53  0.0000000  0 10G03G01G16G09G04G26G02G06G31G28
 -12750136.30148  -9891735.10248  20114476.2424                   20114477.4344
        49.5004         50.5004
   9140893.38347   7131635.35544  22776478.9064                   22776481.6484
        44.0004         29.0004
 -10568240.25847  -6766850.16444  22693314.3054                   22693314.7384
        43.0004         26.7504
   -609553.50846   -451753.74244  24130809.7504                   24130815.2424
        39.2504         28.5004
 -12639273.68747  -9807934.97745  21460801.3914                   21460801.8054
        45.5004         34.2504
 -14114142.96947 -10952579.16447  21653525.6024                   21653528.2424
        46.5004         42.7504
  17254599.23846  13444922.96543  24757900.1174                   24757907.3364
        37.2504         18.5004
   4349970.54745   3408706.86744  25311323.7734                   25311329.2664
        35.0004         26.2504
   5899882.80947   4623942.27047  21541786.8444                   21541785.3984
        46.5004         43.0004
  17538856.93046  13668278.88343  24229239.9774                   24229240.7974
        40.2504         23.7504
 25  8  7 23 53 30.0000000  0 10G03G01G16G09G04G26G02G06G31G28
 -12784450.05948  -9918473.08648  20107946.5234                   20107947.5664
        49.5004         50.2504
   9202378.75847   7179545.89844  22788179.5944                   22788182.3164
        44.2504         28.5004
 -10683257.07047  -6856473.51244  22671427.2274                   22671427.5084
        43.5004         26.5004
   -708975.33246   -529225.15244  24111890.6334                   24111895.4534
        39.5004         28.2504
 -12705356.56647  -9859428.07845  21448226.0704                   21448226.5314
        45.7504         33.5004
 -14152934.44547 -10982806.25847  21646143.8204                   21646146.2504
        46.5004         43.0004
  17321133.58246  13496767.53143  24770561.5784                   24770568.4804
        38.2504         19.7504
   4270301.67246   3346627.23844  25296164.8204                   25296168.4384
        37.0004         26.7504
   5956629.69147   4668160.59447  21552585.4774                   21552583.9024
        46.5004         43.0004
  17616097.08646  13728465.93843  24243938.1564                   24243939.6684
        39.7504         22.7504
 25  8  7 23 54  0.0000000  0 10G03G01G16G09G04G26G02G06G31G28
 -12818217.18448  -9944785.12948  20101520.9694                   20101521.9264
        49.2504         50.5004
   9264132.50447   7227665.56644  22799931.4144                   22799933.9694
        44.7504         29.5004
 -10797999.43747  -6945883.02044  22649592.0864                   22649592.7974
        43.0004         26.2504
   -808370.94546   -606676.12544  24092976.2894                   24092981.3054
        39.0004         29.0004
 -12771288.83247  -9910803.82845  21435679.6024                   21435680.2344
        45.5004         34.5004
 -14191116.25447 -11012558.28147  21638878.2194                   21638880.7304
        47.7504         42.5004
  17387616.90646  13548572.28543  24783212.6884                   24783220.1374
        37.5004         19.0004
   4191090.28946   3284904.11344  25281091.2114                   25281096.1054
        36.0004         28.0004
   6013695.32047   4712627.29747  21563444.5554                   21563443.1684
        47.0004         43.2504
  17693399.73446  13788701.70744  24258648.0474                   24258649.5124
        41.0004         25.0004
 25  8  7 23 54 30.0000000  0 10G03G01G16G09G04G26G02G06G31G28
 -12851439.89148  -9970672.93748  20095198.7114                   20095199.9184
        49.0004         50.2504
   9326148.05547   7275989.25844  22811732.8204                   22811735.5984
        44.0004         29.2504
 -10912467.53147  -7035078.78144  22627809.1644                   22627810.4184
        43.0004         26.2504
   -907743.62146   -684109.22744  24074066.7274                   24074071.2544
        39.2504         29.5004
 -12837073.66447  -9962064.69145  21423161.0944                   21423161.8674
        44.7504         34.2504
 -14228690.65647 -11041836.99647  21631727.9614                   21631730.2074
        47.0004         42.5004
  17454043.09446  13600332.48443  24795853.7814                   24795861.1684
        38.0004         19.7504
   4112334.60245   3223536.03144  25266103.6094                   25266108.9614
        35.0004         24.7504
   6071073.88747   4757337.84847  21574363.6334                   21574362.1524
        46.5004         42.7504
  17770759.56346  13848982.00443  24273369.9384                   24273370.3404
        40.2504         22.5004
 25  8  7 23 55  0.0000000  0 10G03G01G16G09G04G26G02G06G31G28
 -12884116.43448  -9996135.16848  20088980.5944                   20088981.7504
        49.5004         50.2504
   9388422.85547   7324514.94944  22823583.5234                   22823585.8164
        44.5004         28.5004
 -11026657.38347  -7124057.74644  22606079.1724                   22606079.6484
        42.2504         25.7504
  -1007092.61746   -761523.87945  24055161.1804                   24055166.0124
        40.0004         30.0004
 -12902710.25447 -10013210.03545  21410671.1484                   21410671.3204
        45.7504         34.5004
 -14265656.17647 -11070641.25847  21624693.5314                   21624696.0984
        46.7504         42.7504
  17520410.10945  13652046.58242  24808482.8834                   24808490.7424
        35.5004         17.7504
   4034037.12545   3162525.07844  25251203.1484                   25251209.4774
        35.2504         27.0004
   6128763.02747   4802290.40247  21585341.3134                   21585339.7344
        47.2504         42.7504
  17848175.25446  13909305.85543  24288101.8984                   24288102.4964
        41.0004         22.7504
 25  8  7 23 55 30.0000000  0 10G03G01G16G09G04G26G02G06G31G28
 -12916245.60548 -10021170.87548  20082867.0784                   20082867.7194
        49.2504         50.2504
   9450953.90247   7373240.32044  22835482.5394                   22835485.3834
        43.0004         29.0004
 -11140565.41847  -7212817.12944  22584403.4144                   22584404.4144
        43.5004         27.5004
  -1106417.84046   -838920.01245  24036259.9844                   24036264.1524
        39.0004         31.2504
 -12968198.26247 -10064239.61745  21398209.1564                   21398209.4344
        46.0004         34.5004
 -14302011.75847 -11098970.25847  21617775.1954                   21617777.8714
        47.0004         42.7504
  17586715.27045  13703712.53143  24821101.0084                   24821109.1764
        35.2504         18.5004
   3956199.38345   3101872.30944  25236391.7664                   25236396.7934
        34.2504         26.0004
   6186760.32047   4847483.07447  21596377.0944                   21596376.6484
        47.0004         42.7504
  17925644.95346  13969671.78543  24302843.5394                   24302844.8164
        40.7504         22.7504
 25  8  7 23 56  0.0000000  0 10G03G01G16G09G04G26G02G06G31G28
 -12947827.53548 -10045780.16048  20076857.1484                   20076858.0354
        49.2504         50.2504
   9513736.64547   7422161.80544  22847429.7734                   22847432.6844
        44.2504         29.2504
 -11254189.59447  -7301355.30544  22562781.5784                   22562782.4774
        42.2504         25.5004
  -1205720.40646   -916298.47745  24017363.0704                   24017367.8954
        40.2504         30.7504
 -13033538.74247 -10115154.23445  21385774.9384                   21385775.3984
        46.5004         34.2504
 -14337757.79347 -11126824.27347  21610973.3204                   21610975.1884
        45.7504         42.7504
  17652954.69946  13755327.19942  24833706.7344                   24833714.4774
        38.2504         17.7504
   3878821.61745   3041577.96944  25221667.3754                   25221671.8674
        34.2504         25.2504
   6245062.31347   4892913.17647  21607472.2974                   21607470.9414
        46.7504         42.5004
  18003165.50446  14030077.34443  24317595.1804                   24317596.4734
        40.7504         23.0004
 25  8  7 23 56 30.0000000  0 10G03G01G16G09G04G26G02G06G31G28
 -12978859.84048 -10069961.16448  20070951.4844                   20070953.0744
        49.5004         50.2504
   9576769.25847   7471277.99644  22859424.9144                   22859427.2664
        43.2504         29.0004
 -11367524.99247  -7389668.47344  22541214.3914                   22541214.9024
        42.0004         26.0004
  -1304998.92246   -993658.20745  23998471.1254                   23998475.5204
        40.5004         32.0004
 -13098730.15247 -10165952.70345  21373369.4304                   21373369.6604
        46.5004         34.7504
 -14372892.04347 -11154201.58247  21604287.1954                   21604289.1684
        47.0004         42.7504
  17719127.14546  13806889.75843  24846298.6334                   24846306.8554
        36.2504         19.5004
   3801907.14846   2981644.65244  25207031.9384                   25207036.3754
        36.5004         25.7504
   6303666.84847   4938579.02747  21618624.2734                   21618622.8914
        47.0004         42.5004
  18080736.20346  14090521.98443  24332356.6484                   24332357.8054
        41.0004         22.7504
 25  8  7 23 57  0.0000000  0 10G03G01G16G09G04G26G02G06G31G28
 -13009340.23848 -10093712.11348  20065151.3364                   20065152.6804
        50.2504         50.2504
   9640049.69947   7520587.31344  22871466.9844                   22871469.5204
        43.7504         28.5004
 -11480567.00047  -7477753.02344  22519703.0314                   22519704.1414
        42.5004         27.5004
  -1404252.13346  -1070998.23045  23979583.1484                   23979588.3484
        40.2504         32.2504
 -13163771.10547 -10216633.92245  21360992.6644                   21360992.8324
        47.5004         34.0004
 -14407412.51247 -11181100.61347  21597718.0234                   21597720.4844
        47.0004         42.5004
  17785231.40646  13858399.15243  24858878.9224                   24858886.5044
        38.2504         19.0004
   3725458.43445   2922074.25044  25192483.2814                   25192488.5314
        34.5004         26.5004
   6362572.94147   4984479.85247  21629833.7504                   21629832.4104
        46.5004         42.2504
  18158356.33246  14151005.11344  24347127.6564                   24347128.3404
        41.5004         24.7504
 25  8  7 23 57 30.0000000  0 10G03G01G16G09G04G26G02G06G31G28
 -13039269.78148 -10117033.82448  20059455.8914                   20059457.2704
        49.2504         50.2504
   9703572.75447   7570085.67644  22883554.7114                   22883557.5164
        43.0004         28.5004
 -11593314.46947  -7565608.05144  22498247.7974                   22498248.4184
        42.7504         26.5004
  -1503482.02046  -1148320.06645  23960699.9384                   23960705.4104
        40.7504         32.7504
 -13228663.42247 -10267199.33245  21348643.9454                   21348644.2234
        46.5004         34.2504
 -14441320.44947 -11207522.35547  21591265.5234                   21591267.8134
        46.5004         42.2504
  17851262.96546  13909851.83243  24871444.2584                   24871452.9144
        36.0004         18.2504
   3649475.06645   2862866.46944  25178024.4614                   25178029.0864
        35.0004         25.5004
   6421775.27047   5030611.51247  21641099.6564                   21641098.3404
        46.7504         42.5004
  18236021.94146  14211523.68843  24361906.7664                   24361907.4534
        41.5004         22.2504
 25  8  7 23 58  0.0000000  0 10G03G01G16G09G04G26G02G06G31G28
 -13068646.43048 -10139924.70748  20053865.6094                   20053866.9264
        49.2504         50.2504
   9767336.18447   7619771.32844  22895688.6884                   22895691.3634
        43.0004         28.7504
 -11705762.97347  -7653230.12544  22476849.2894                   22476850.2704
        43.2504         26.2504
  -1602687.40646  -1225622.80945  23941821.8364                   23941827.1374
        41.0004         34.0004
 -13293405.86747 -10317647.94145  21336323.8134                   21336324.0944
        46.7504         34.5004
 -14474614.03947 -11233465.37147  21584929.8834                   21584931.9804
        46.7504         42.5004
  17917219.54346  13961246.14843  24883996.0004                   24884004.1254
        36.7504         19.5004
   3573959.68045   2804023.32844  25163653.5864                   25163658.8554
        34.5004         26.5004
   6481272.39847   5076972.89147  21652421.8284                   21652420.5864
        46.0004         42.2504
  18313732.12146  14272076.99243  24376694.0634                   24376695.3244
        41.0004         22.0004
 25  8  7 23 58 30.0000000  0 10G03G01G16G09G04G26G02G06G31G28
 -13097470.57448 -10162385.07048  20048380.8754                   20048381.6254
        48.7504         50.2504
   9831335.41047   7669640.73444  22907866.9694                   22907869.8914
        42.2504         29.2504
 -11817910.43747  -7740617.64144  22455509.0234                   22455508.9774
        43.2504         26.0004
  -1701869.62546  -1302907.51645  23922948.3754                   23922953.5594
        41.0004         33.5004
 -13357999.58247 -10367980.66845  21324031.8204                   21324032.5784
        46.2504         34.5004
 -14507293.96147 -11258930.22347  21578711.1024                   21578713.3134
        45.2504         42.5004
  17983097.63746  14012579.32043  24896532.4774                   24896539.9574
        37.7504         20.0004
   3498912.29345   2745544.86744  25149373.3204                   25149378.0274
        34.7504         25.0004
   6541060.30547   5123560.83247  21663799.0314                   21663797.6024
        46.2504         42.2504
  18391483.55146  14332662.46943  24391489.8364                   24391490.6954
        41.2504         22.5004
 25  8  7 23 59  0.0000000  0 10G03G01G16G09G04G26G02G06G31G28
 -13125742.96548 -10184415.49648  20043000.7424                   20043001.7704
        49.0004         50.5004
   9895565.55147   7719690.03944  22920090.0234                   22920092.9774
        42.0004         28.5004
 -11929754.98447  -7827769.11744  22434224.7274                   22434225.2154
        43.5004         26.7504
  -1801030.24646  -1380175.37145  23904078.6024                   23904083.1094
        40.7504         33.2504
 -13422446.02747 -10418198.64145  21311768.1334                   21311768.3094
        46.7504         34.5004
 -14539361.17647 -11283917.63347  21572608.8834                   21572611.2854
        46.0004         42.2504
  18048892.84045  14063847.87142  24909052.2424                   24909061.6054
        34.5004         17.2504
   3424332.74645   2687430.94144  25135180.7974                   25135185.8484
        34.7504         26.5004
   6601134.45747   5170371.82447  21675231.2114                   21675229.5394
        46.5004         42.5004
  18469272.66046  14393277.27343  24406293.1254                   24406293.7304
        41.0004         22.5004
 25  8  7 23 59 30.0000000  0 10G03G01G16G09G04G26G02G06G31G28
 -13153462.10948 -10206014.83248  20037725.8984                   20037727.2114
        48.7504         50.2504
   9960023.93447   7769917.22344  22932355.3364                   22932359.4494
        42.2504         27.5004
 -12041293.44947  -7914682.08644  22412999.9614                   22413000.5274
        43.2504         26.7504
  -1900168.63346  -1457425.91045  23885213.1724                   23885218.1914
        41.0004         33.7504
 -13486744.40247 -10468301.23445  21299532.5394                   21299532.8404
        47.7504         34.2504
 -14570814.39147 -11308426.59447  21566623.3984                   21566625.5514
        47.0004         42.2504
  18114602.87946  14115050.14543  24921557.5394                   24921565.7974
        36.0004         18.2504
   3350223.10545   2629683.19944  25121078.8134                   25121083.2704
        35.2504         26.0004
   6661493.19547   5217404.57847  21686716.7034                   21686715.5234
        45.5004         42.0004
  18547098.15246  14453920.40643  24421102.8674                   24421104.0554
        41.0004         22.5004
 25  8  8  0  0  0.0000000  0 10G03G01G16G09G04G26G02G06G31G28
 -13180625.48448 -10227181.10248  20032556.5634                   20032557.6564
        48.5004         50.2504
  10024708.82846   7820320.89544  22944664.6564                   22944668.4184
        41.0004         28.5004
 -12152520.50847  -8001352.41044  22391833.2894                   22391834.4264
        43.0004         28.0004
  -1999283.13746  -1534657.83245  23866352.3284                   23866356.9654
        41.5004         34.5004
 -13550892.94147 -10518287.06645  21287325.4454                   21287325.6954
        47.7504         34.5004
 -14601651.52747 -11332455.50047  21560755.4534                   21560757.9144
        46.5004         42.2504
  18180227.26645  14166185.59043  24934043.2194                   24934054.5004
        32.2504         18.2504
   3276586.30945   2572303.87944  25107065.9454                   25107070.9654
        34.7504         24.7504
   6722135.07047   5264657.95346  21698256.4144                   21698255.1174
        45.2504         41.5004
  18624959.58646  14514591.58243  24435919.0634                   24435920.1724
        41.0004         22.5004
