     2.11           OBSERVATION DATA    G (GPS)             RINEX VERSION / TYPE
teqc  2019Feb25                         20250821 04:04:47UTCPGM / RUN BY / DATE
Linux 2.6.32-573.12.1.x86_64|x86_64|gcc -static|Linux 64|=+ COMMENT
BIT 2 OF LLI FLAGS DATA COLLECTED UNDER A/S CONDITION       COMMENT
35183570                                                    MARKER NAME
3570                                                        MARKER NUMBER
-Unknown-           -Unknown-                               OBSERVER / AGENCY
0220413518          TRIMBLE R7          2.32                REC # / TYPE / VERS
-Unknown-           TRM39105.00     NONE                    ANT # / TYPE
 -2371482.9030 -4596804.4265  3720999.3375                  APPROX POSITION XYZ
        0.0000        0.0000        0.0000                  ANTENNA: DELTA H/E/N
     1     1                                                WAVELENGTH FACT L1/2
     7    L1    L2    C1    P1    P2    S1    S2            # / TYPES OF OBSERV
    18                                                      LEAP SECONDS
 SNR is mapped to RINEX snr flag value [0-9]                COMMENT
  L1 & L2: min(max(int(snr_dBHz/6), 0), 9)                  COMMENT
  2025     8     8     0     0   30.0000000     GPS         TIME OF FIRST OBS
                                                            END OF HEADER
 25  8  8  0  0 30.0000000  0 10G03G01G16G09G04G26G02G06G31G28
 -19508910.56258 -15158312.33258  20027493.8754                   20027495.2774
        48.0004         50.2504
   3787938.70357   2960499.87154  22957017.5394                   22957020.6024
        42.0004         28.5004
 -18565111.13757 -12998176.15654  22370728.5864                   22370728.5204
        43.7504         28.0004
  -8400051.98456  -6522269.76255  23847495.7664                   23847500.6764
        41.0004         34.2504
 -19916569.73857 -15478554.66055  21275147.2584                   21275147.6884
        47.0004         35.0004
 -20933550.17657 -16266402.46957  21555004.8134                   21555007.2664
        44.5004         42.0004
  11944084.52055   9306853.16453  24946516.9844                   24946525.6844
        35.0004         19.0004
  -3098254.35955  -2395104.42654  25093144.1564                   25093149.0664
        35.7504         24.5004
    481379.17657    401731.25457  21709850.1094                   21709848.7814
        46.0004         42.0004
  12401176.83656   9664890.66853  24450742.6334                   24450744.1134
        41.2504         22.5004
 25  8  8  0  1  0.0000000  0 10G03G01G16G09G04G26G02G06G31G28
 -19534957.84848 -15178608.92248  20022537.2894                   20022538.2704
        50.0004         50.5004
   3853068.85947   3011250.47744  22969411.5234                   22969414.8244
        42.5004         28.5004
 -18675703.31647 -13084351.75444  22349683.0634                   22349683.9454
        43.0004         27.2504
  -8499116.49246  -6599462.71945  23828644.3914                   23828649.1844
        41.2504         34.5004
 -19980415.99647 -15528304.95745  21262997.5634                   21262998.0704
        47.5004         35.0004
 -20963151.25047 -16289468.20347  21549372.2734                   21549374.3794
        46.7504         42.2504
  12009530.88745   9357849.87943  24958972.1414                   24958980.1994
        35.2504         19.0004
  -3170938.97345  -2451741.77344  25079311.5864                   25079317.0634
        35.2504         25.5004
    542581.30547    449421.19547  21721496.4144                   21721495.1414
        46.5004         42.0004
  12479106.51646   9725615.00443  24465571.9384                   24465573.3554
        41.0004         21.2504
 25  8  8  0  1 30.0000000  0 10G03G01G16G09G04G26G02G06G31G28
 -19560451.56648 -15198474.15648  20017686.2424                   20017687.0044
        49.7504         50.5004
   3918411.12147   3062166.37944  22981845.9454                   22981849.0124
        42.7504         27.5004
 -18785978.52347 -13170280.37544  22328698.4384                   22328699.0474
        43.0004         27.7504
  -8598161.64146  -6676640.61345  23809797.3594                   23809801.5634
        41.5004         34.5004
 -20044116.45747 -15577941.63745  21250875.9694                   21250876.4734
        47.2504         35.0004
 -20992139.19547 -16312056.18447  21543855.6174                   21543858.0004
        46.5004         42.2504
  12074878.62546   9408769.80543  24971407.2114                   24971415.8984
        36.5004         20.2504
  -3243151.27045  -2508011.07844  25065571.1644                   25065575.6334
        35.7504         27.0004
    604053.53547    497321.60546  21733194.1884                   21733192.9804
        45.7504         41.7504
  12557061.80146   9786359.30543  24480406.6094                   24480408.0084
        41.2504         21.5004
 25  8  8  0  2  0.0000000  0 10G03G01G16G09G04G26G02G06G31G28
 -19585391.52748 -15217907.89148  20012940.4144                   20012941.1914
        48.5004         50.5004
   3983961.52747   3113244.48044  22994319.3674                   22994322.6564
        42.7504         28.2504
 -18895934.69947 -13255960.37544  22307774.5864                   22307774.0234
        43.2504         28.0004
  -8697187.91846  -6753803.80945  23790952.3674                   23790956.7074
        41.2504         35.0004
 -20107671.55547 -15627465.05545  21238781.6884                   21238782.2584
        47.7504         34.7504
 -21020514.11347 -16334166.47747  21538456.0474                   21538458.7344
        45.7504         42.2504
  12140124.41046   9459610.25042  24983822.8524                   24983832.3364
        36.0004         17.7504
  -3314890.43746  -2563911.68744  25051919.2584                   25051924.1134
        36.2504         27.2504
    665792.95347    545430.21146  21744942.9384                   21744941.3134
        46.5004         41.5004
  12635040.15246   9847121.60943  24495245.7114                   24495246.9574
        41.0004         21.5004
 25  8  8  0  2 30.0000000  0 10G03G01G16G09G04G26G02G06G31G28
 -19609774.27748 -15236907.43448  20008300.5004                   20008301.4144
        49.0004         50.5004
   4049719.36346   3164484.19144  23006832.5634                   23006836.4144
        41.7504         28.0004
 -19005565.59847 -13341386.93744  22286912.3984                   22286912.4344
        43.0004         27.2504
  -8796192.62146  -6830950.18745  23772112.4144                   23772116.9184
        41.2504         35.0004
 -20171078.42647 -15676872.96145  21226715.9384                   21226716.1094
        47.7504         35.0004
 -21048272.91447 -16355796.67647  21533174.1954                   21533176.4264
        47.0004         42.2504
  12205268.47345   9510371.45743  24996219.8524                   24996229.4304
        35.5004         20.0004
  -3386152.50446  -2619440.56244  25038358.6334                   25038363.8484
        36.2504         26.0004
    727798.85947    593746.48046  21756742.2584                   21756740.8094
        45.7504         41.7504
  12713042.33646   9907902.46143  24510088.8754                   24510089.9454
        40.7504         21.2504
 25  8  8  0  3  0.0000000  0 10G03G01G16G09G04G26G02G06G31G28
 -19633600.05948 -15255472.97348  20003766.6174                   20003767.6954
        50.5004         50.5004
   4115680.53947   3215882.32444  23019385.6024                   23019388.5164
        42.2504         28.0004
 -19114868.93747 -13426558.25044  22266112.4144                   22266112.7194
        43.0004         27.7504
  -8895176.59446  -6908080.43045  23753276.7424                   23753280.8554
        41.0004         35.0004
 -20234337.77747 -15726165.93045  21214678.0474                   21214678.2734
        47.7504         35.5004
 -21075416.10247 -16376947.17647  21528008.8984                   21528011.0314
        45.0004         42.2504
  12270307.25845   9561050.66442  25008596.8754                   25008605.6644
        35.2504         16.7504
  -3456937.18745  -2674597.43044  25024888.9454                   25024893.8244
        35.7504         26.0004
    790067.93847    642267.80946  21768591.6804                   21768590.2624
        46.5004         41.5004
  12791065.49646   9968699.64543  24524936.6644                   24524937.3794
        40.5004         20.0004
 25  8  8  0  3 30.0000000  0 10G03G01G16G09G04G26G02G06G31G28
 -19656860.92648 -15273598.32048  19999340.0784                   19999341.3524
        49.7504         50.5004
   4181848.87547   3267441.90644  23031977.4454                   23031979.9964
        42.0004         27.7504
 -19223834.18047 -13511466.10544  22245377.0784                   22245377.8404
        43.0004         28.5004
  -8994132.64146  -6985188.90245  23734445.5164                   23734449.9614
        41.7504         34.7504
 -20297442.22347 -15775338.18745  21202669.6484                   21202669.7544
        47.5004         35.7504
 -21101936.11347 -16397612.09047  21522962.1804                   21522964.3754
        45.7504         42.2504
  12335245.10946   9611651.19143  25020954.4454                   25020963.6294
        37.2504         20.2504
  -3527235.83246  -2729375.58244  25011511.1334                   25011515.9304
        36.0004         25.2504
    852604.85247    690997.85246  21780492.0784                   21780490.5394
        47.0004         41.5004
  12869114.96546  10029517.34843  24539788.9454                   24539789.6524
        39.5004         21.5004
 25  8  8  0  4  0.0000000  0 10G03G01G16G09G04G26G02G06G31G28
 -19679557.01248 -15291283.57048  19995021.1884                   19995022.1374
        48.2504         50.5004
   4248220.26647   3319159.72344  23044606.7734                   23044609.9414
        42.5004         28.2504
 -19332458.93047 -13596108.64144  22224706.2734                   22224706.5084
        43.2504         28.0004
  -9093061.41846  -7062276.14545  23715620.1414                   23715624.3134
        41.0004         35.2504
 -20360392.33247 -15824390.18745  21190690.9454                   21190690.6914
        47.7504         34.7504
 -21127833.39547 -16417791.76647  21518033.6954                   21518036.2504
        44.5004         42.7504
  12400078.85246   9662170.56642  25033292.6954                   25033301.4964
        37.2504         17.7504
  -3597048.12146  -2783774.74244  24998226.5864                   24998231.5274
        36.0004         25.2504
    915405.69547    739933.54746  21792442.8134                   21792441.3324
        46.7504         41.5004
  12947188.08246  10090353.48843  24554645.6884                   24554646.9614
        41.0004         20.7504
 25  8  8  0  4 30.0000000  0 10G03G01G16G09G04G26G02G06G31G28
 -19701688.17648 -15308528.62948  19990809.7274                   19990811.0864
        48.2504         50.5004
   4314790.91447   3371032.74644  23057276.4924                   23057278.5664
        42.5004         26.7504
 -19440740.55547 -13680483.80544  22204101.1254                   22204100.5164
        42.7504         29.7504
  -9191963.40246  -7139342.49645  23696799.2734                   23696804.0944
        41.5004         34.7504
 -20423188.39147 -15873322.14145  21178740.7034                   21178741.2854
        47.5004         35.2504
 -21153108.08647 -16437486.30147  21513224.3284                   21513226.2114
        46.2504         42.5004
  12464805.40246   9712606.46143  25045609.2734                   25045619.2344
        36.7504         19.7504
  -3666373.40245  -2837794.42244  24985034.7664                   24985039.0864
        35.7504         27.0004
    978467.64147    789072.70746  21804443.2344                   21804441.5704
        45.2504         41.5004
  13025282.39546  10151206.13743  24569506.4694                   24569507.3754
        40.5004         18.5004
 25  8  8  0  5  0.0000000  0 10G03G01G16G09G04G26G02G06G31G28
 -19723252.71548 -15325332.15648  19986706.1804                   19986707.3164
        49.0004         50.5004
   4381558.50847   3423059.30144  23069980.8054                   23069983.8984
        42.0004         27.7504
 -19548674.65647 -13764588.18044  22183562.1024                   22183561.3834
        43.5004         28.5004
  -9290837.43746  -7216387.08645  23677984.6254                   23677989.1254
        41.2504         35.5004
 -20485829.15647 -15922133.10245  21166820.5784                   21166820.6174
        47.7504         35.2504
 -21177758.88347 -16456694.68747  21508533.2114                   21508535.6334
        46.0004         42.5004
  12529423.09846   9762957.49243  25057905.9694                   25057915.8984
        36.2504         19.0004
  -3735209.39546  -2891432.80544  24971935.7814                   24971940.2934
        36.5004         25.5004
   1041788.62147    838413.70747  21816492.7194                   21816491.4804
        46.7504         42.0004
  13103397.11746  10212074.68843  24584371.3444                   24584372.4304
        40.0004         18.5004
 25  8  8  0  5 30.0000000  0 10G03G01G16G09G04G26G02G06G31G28
 -19744251.38748 -15341694.74648  19982710.3364                   19982711.1054
        48.2504         50.5004
   4448518.43446   3475235.68844  23082722.8524                   23082726.1174
        41.5004         28.2504
 -19656259.34847 -13848420.28544  22163089.1094                   22163089.3754
        42.0004         29.0004
  -9389684.85546  -7293410.93446  23659173.7894                   23659178.6054
        41.0004         36.0004
 -20548315.77747 -15970823.93445  21154929.4924                   21154929.7274
        47.5004         35.2504
 -21201786.88747 -16475417.78947  21503961.0314                   21503963.1764
        45.0004         42.5004
  12593927.83246   9813220.57043  25070181.2584                   25070190.9224
        37.5004         20.0004
  -3803556.20346  -2944690.04344  24958929.4534                   24958934.3324
        36.0004         25.5004
   1105364.58647    887953.39546  21828590.2194                   21828589.4734
        46.2504         41.5004
  13181528.96146  10272956.56643  24599239.4924                   24599240.6294
        39.5004         18.2504
 25  8  8  0  6  0.0000000  0 10G03G01G16G09G04G26G02G06G31G28
 -19764682.84048 -15357615.35248  19978822.2814                   19978823.4494
        48.5004         50.5004
   4515668.10946   3527559.94144  23095501.0944                   23095504.4774
        41.5004         27.7504
 -19763490.61347 -13931977.02044  22142683.2274                   22142683.2194
        42.5004         28.5004
  -9488504.71546  -7370413.30946  23640369.0704                   23640373.6454
        41.0004         36.2504
 -20610647.21548 -16019393.85545  21143068.4064                   21143068.7034
        48.0004         35.2504
 -21225191.04347 -16493654.77047  21499507.0004                   21499509.6254
        45.0004         42.7504
  12658317.82846   9863394.17643  25082434.3754                   25082444.3914
        36.7504         21.5004
  -3871411.91046  -2997564.61344  24946016.3054                   24946021.9494
        36.0004         25.5004
   1169193.75447    937690.38346  21840736.9694                   21840735.5164
        46.2504         41.5004
  13259676.95346  10333851.07043  24614110.7974                   24614111.9024
        39.7504         19.2504
 25  8  8  0  6 30.0000000  0 10G03G01G16G09G04G26G02G06G31G28
 -19784547.84848 -15373094.57448  19975042.0864                   19975043.1214
        48.5004         50.5004
   4583002.81346   3580028.36344  23108314.5474                   23108317.8324
        41.5004         27.7504
 -19870367.01647 -14015257.21144  22122345.4454                   22122345.6174
        43.7504         29.5004
  -9587298.30146  -7447395.19546  23621568.9694                   23621573.5944
        41.5004         36.0004
 -20672824.62547 -16067843.75045  21131236.3054                   21131236.4264
        47.5004         35.5004
 -21247972.56247 -16511406.58247  21495172.0314                   21495174.5664
        46.2504         42.5004
  12722589.22546   9913475.42443  25094664.9534                   25094675.3244
        38.7504         20.5004
  -3938776.68746  -3050056.59444  24933197.4614                   24933202.5824
        36.0004         27.2504
   1233271.92647    987621.41046  21852930.8524                   21852929.3714
        46.0004         40.7504
  13337837.82446  10394755.56643  24628984.2584                   24628985.6294
        39.2504         19.0004
 25  8  8  0  7  0.0000000  0 10G03G01G16G09G04G26G02G06G31G28
 -19803843.70748 -15388130.30148  19971369.9774                   19971371.1524
        49.5004         50.5004
   4650521.43847   3632640.09044  23121163.2664                   23121166.6174
        42.5004         28.5004
 -19976882.87947 -14098256.48044  22102076.2194                   22102075.7894
        43.7504         29.5004
  -9686063.42646  -7524354.91045  23602774.4384                   23602779.1724
        41.5004         35.7504
 -20734845.62147 -16116171.77045  21119434.2424                   21119434.7154
        47.7504         35.5004
 -21270129.05947 -16528671.36347  21490955.6254                   21490958.3094
        45.5004         42.7504
  12786741.58246   9963463.88143  25106873.1334                   25106883.4184
        38.2504         21.2504
  -4005647.25846  -3102163.50444  24920471.5704                   24920476.9614
        37.2504         26.5004
   1297598.84447   1037746.26246  21865171.4924                   21865170.1994
        46.5004         41.2504
  13416011.89146  10455670.35243  24643859.8754                   24643861.6604
        39.5004         19.2504
 25  8  8  0  7 30.0000000  0 10G03G01G16G09G04G26G02G06G31G28
 -19822572.62548 -15402724.26648  19967806.3524                   19967807.3054
        49.5004         50.2504
   4718217.95347   3685390.43844  23134046.4614                   23134048.6884
        42.2504         28.0004
 -20083037.51647 -14180974.24244  22081875.0474                   22081875.3714
        43.0004         29.2504
  -9784802.70346  -7601294.47346  23583985.4774                   23583989.1024
        41.5004         36.0004
 -20796712.63348 -16164379.79745  21107661.2894                   21107661.9104
        48.5004         35.7504
 -21291663.18047 -16545451.17247  21486857.7344                   21486860.7774
        45.7504         42.5004
  12850769.56346  10013355.43443  25119057.6954                   25119068.3484
        38.7504         20.2504
  -4072025.29746  -3153886.60944  24907840.8134                   24907846.0554
        37.0004         26.0004
   1362168.94547   1088060.60246  21877458.9304                   21877457.8794
        47.0004         41.0004
  13494194.60246  10516591.88743  24658737.9304                   24658739.2814
        39.0004         19.0004
 25  8  8  0  8  0.0000000  0 10G03G01G16G09G04G26G02G06G31G28
 -19840733.19548 -15416875.35548  19964350.1724                   19964351.5354
        48.0004         50.5004
   4786089.88747   3738277.48844  23146961.1334                   23146964.8594
        42.2504         27.7504
 -20188826.94947 -14263407.47745  22061744.3364                   22061743.9494
        43.2504         30.5004
  -9883515.08647  -7678213.08645  23565201.3134                   23565205.3984
        42.2504         35.7504
 -20858424.58248 -16212466.98845  21095917.7424                   21095918.1524
        48.5004         35.5004
 -21312573.80547 -16561745.14147  21482878.5394                   21482881.2034
        44.5004         42.5004
  12914671.39546  10063148.66843  25131218.6414                   25131228.7774
        38.7504         22.0004
  -4137908.84846  -3205224.41044  24895303.7034                   24895308.9024
        36.7504         26.7504
   1426980.00847   1138562.69946  21889792.0864                   21889790.9924
        46.0004         41.2504
  13572385.05546  10577519.43442  24673617.1644                   24673618.7544
        39.2504         17.7504
 25  8  8  0  8 30.0000000  0 10G03G01G16G09G04G26G02G06G31G28
 -19858324.68048 -15430583.00048  19961003.0084                   19961004.3754
        48.0004         50.2504
   4854134.21947   3791298.87144  23159909.5554                   23159913.2624
        42.0004         27.7504
 -20294247.92247 -14345553.56644  22041683.1804                   22041683.6294
        44.0004         29.2504
  -9982200.26646  -7755110.48846  23546421.5864                   23546425.7424
        41.2504         36.5004
 -20919980.91448 -16260432.92245  21084204.2424                   21084204.2464
        48.0004         35.5004
 -21332860.71147 -16577553.10547  21479018.3444                   21479020.6804
        44.5004         42.7504
  12978445.01246  10112842.02043  25143353.8204                   25143364.5664
        38.0004         21.0004
  -4203296.62146  -3256175.89144  24882860.7114                   24882866.0704
        37.2504         26.5004
   1492029.91447   1189250.91046  21902170.5314                   21902169.3714
        47.0004         41.5004
  13650581.69946  10638451.79742  24688497.3204                   24688499.0434
        38.7504         17.7504
 25  8  8  0  9  0.0000000  0 10G03G01G16G09G04G26G02G06G31G28
 -19875347.35548 -15443847.42648  19957763.6884                   19957764.4694
        48.7504         50.2504
   4922346.88346   3844451.39844  23172890.9304                   23172893.6254
        41.5004         27.0004
 -20399297.95347 -14427410.62945  22021692.9224                   22021692.7814
        44.0004         30.0004
 -10080858.80946  -7831987.12545  23527647.1094                   23527651.2624
        41.5004         35.5004
 -20981382.16048 -16308278.01645  21072519.7894                   21072519.8914
        48.2504         35.0004
 -21352524.49647 -16592875.51247  21475276.6414                   21475278.8364
        44.7504         42.7504
  13042087.01246  10162432.82043  25155465.0554                   25155475.6764
        40.0004         22.0004
  -4268188.29346  -3306740.79344  24870512.9844                   24870517.6294
        37.5004         25.5004
   1557315.14547   1240122.48846  21914594.2344                   21914593.0554
        46.0004         41.5004
  13728782.00046  10699387.03142  24703379.0704                   24703380.3874
        38.5004         17.7504
 25  8  8  0  9 30.0000000  0 10G03G01G16G09G04G26G02G06G31G28
 -19891800.12148 -15456667.76248  19954632.4844                   19954633.5554
        48.5004         50.2504
   4990725.21147   3897733.02344  23185902.8594                   23185905.9734
        42.0004         27.0004
 -20503973.20747 -14508975.64544  22001773.5944                   22001773.1484
        43.5004         29.7504
 -10179489.95746  -7908842.43045  23508878.2974                   23508882.3674
        41.2504         35.5004
 -21042627.28948 -16356001.45745  21060865.2424                   21060865.2704
        48.0004         35.5004
 -21371564.45347 -16607711.82847  21471653.4614                   21471655.5944
        44.5004         42.7504
  13105595.39846  10211919.50043  25167550.8444                   25167561.7074
        38.5004         21.2504
  -4332581.94946  -3356917.66044  24858259.4224                   24858263.7154
        37.2504         27.0004
   1622833.80547   1291175.95746  21927061.7344                   21927060.5434
        46.0004         40.7504
  13806984.83246  10760324.23842  24718260.3754                   24718262.1684
        37.5004         17.2504
 25  8  8  0 10  0.0000000  0 10G03G01G16G09G04G26G02G06G31G28
 -19907681.68448 -15469043.00048  19951610.5704                   19951611.6094
        50.0004         50.2504
   5059266.71546   3951141.83644  23198945.2424                   23198949.0204
        41.7504         26.5004
 -20608269.40647 -14590245.29345  21981926.2274                   21981926.5784
        43.7504         30.0004
 -10278092.77346  -7985675.64145  23490114.7664                   23490118.8714
        41.0004         35.5004
 -21103715.20748 -16403602.39545  21049240.8284                   21049240.5634
        48.0004         35.0004
 -21389979.72347 -16622061.37147  21468149.1884                   21468151.4264
        45.5004         43.0004
  13168968.60946  10261300.87943  25179610.4064                   25179621.3164
        38.2504         20.2504
  -4396475.98846  -3406705.19944  24846100.5864                   24846104.7734
        37.5004         25.7504
   1688584.01247   1342409.85546  21939573.8364                   21939572.5274
        46.2504         41.0004
  13885189.26246  10821262.70743  24733141.8594                   24733143.1684
        37.5004         18.2504
 25  8  8  0 10 30.0000000  0 10G03G01G16G09G04G26G02G06G31G28
 -19922991.90248 -15480973.03948  19948696.9844                   19948698.2624
        50.0004         50.2504
   5127967.87947   4004674.99244  23212019.0704                   23212023.2114
        42.0004         27.5004
 -20712183.70347 -14671217.35944  21962152.3984                   21962152.9384
        44.7504         28.7504
 -10376667.27046  -8062486.79345  23471356.3674                   23471360.6024
        41.0004         35.5004
 -21164645.91448 -16451080.82845  21037646.1414                   21037646.0434
        48.2504         35.5004
 -21407770.56247 -16635924.34847  21464763.4694                   21464765.7074
        45.2504         42.7504
  13232203.85246  10310574.72743  25191644.0474                   25191654.9104
        39.0004         21.0004
  -4459869.53546  -3456102.73044  24834035.9614                   24834041.6914
        37.2504         26.7504
   1754562.78947   1393821.85546  21952129.3444                   21952127.9574
        46.7504         40.5004
  13963393.34045  10882200.87542  24748023.7034                   24748024.8284
        35.7504         17.7504
 25  8  8  0 11  0.0000000  0 10G03G01G16G09G04G26G06G07G31G28
 -19937729.91048 -15492457.20348  19945892.2424                   19945893.2194
        49.7504         50.2504
   5196825.92246   4058330.37944  23225122.8834                   23225125.8404
        40.5004         25.5004
 -20815712.71947 -14751889.21145  21942451.4454                   21942451.0354
        44.2504         30.5004
 -10475212.87546  -8139275.42245  23452604.3364                   23452608.2194
        40.5004         35.5004
 -21225418.59847 -16498436.12945  21026080.9224                   21026081.1054
        47.7504         35.5004
 -21424936.57047 -16649300.44147  21461496.7664                   21461499.1644
        46.7504         43.0004
  -4522761.23446  -3505109.22744  24822069.1954                   24822073.4534
        38.0004         26.5004
   -146675.15656    -92027.11754  25252986.9534                   25252996.8324
        38.2504         29.5004
   1820768.14147   1445410.41046  21964727.4144                   21964726.6214
        46.2504         40.7504
  14041595.73445  10943137.80542  24762905.1954                   24762906.1644
        35.7504         17.2504
 25  8  8  0 11 30.0000000  0 10G03G01G16G09G04G26G06G07G31G28
 -19951893.44948 -15503493.71948  19943197.1884                   19943198.4694
        48.7504         50.2504
   5265839.33247   4112106.88744  23238255.6174                   23238259.2894
        42.2504         26.5004
 -20918851.31647 -14832256.84845  21922824.2894                   21922824.7464
        45.0004         30.5004
 -10573727.53946  -8216039.93746  23433857.2664                   23433860.9454
        41.2504         36.5004
 -21286031.03947 -16545666.56245  21014546.6094                   21014547.1024
        47.7504         35.2504
 -21441475.85547 -16662188.18447  21458349.6564                   21458351.4264
        44.7504         43.0004
  -4585148.08646  -3553722.34044  24810196.8284                   24810201.6604
        37.5004         26.7504
   -253238.52346   -175062.99644  25232707.6954                   25232718.2464
        39.0004         29.7504
   1887199.24647   1497174.87546  21977369.3054                   21977368.0274
        46.5004         40.5004
  14119796.61746  11004073.48042  24777786.5784                   24777787.9384
        36.5004         17.2504
 25  8  8  0 12  0.0000000  0 10G03G01G16G09G04G26G06G07G31G28
 -19965476.63748 -15514078.02048  19940612.4924                   19940613.7894
        49.2504         50.0004
   5335010.46147   4166006.21944  23251419.7114                   23251422.2894
        42.2504         24.5004
 -21021590.58247 -14912313.31644  21903273.6414                   21903273.4344
        45.2504         29.2504
 -10672205.51646  -8292775.86745  23415117.3524                   23415120.8054
        40.0004         35.7504
 -21346477.43048 -16592767.60246  21003044.1954                   21003044.2854
        48.2504         36.0004
 -21457383.00847 -16674583.34847  21455322.5864                   21455324.6254
        46.0004         43.2504
  -4647023.63346  -3601937.00844  24798422.4694                   24798426.9454
        37.0004         26.2504
   -359654.00046   -257983.65245  25212457.6644                   25212467.2664
        38.7504         30.0004
   1953858.79347   1549117.34846  21990053.7034                   21990052.8914
        45.2504         39.7504
  14197999.89145  11065011.03942  24792668.1804                   24792669.7814
        35.0004         16.7504
 25  8  8  0 12 30.0000000  0 10G03G01G16G09G04G26G06G07G31G28
 -19978477.49648 -15524208.55948  19938138.5314                   19938139.4614
        49.2504         50.2504
   5404337.63346   4220027.25844  23264610.6644                   23264614.9964
        40.7504         24.5004
 -21123926.11347 -14992055.17645  21883799.5314                   21883799.4804
        45.0004         30.2504
 -10770645.00846  -8369481.79745  23396384.6884                   23396388.2934
        41.0004         35.0004
 -21406755.75448 -16639737.68445  20991573.7734                   20991573.6454
        48.2504         35.7504
 -21472656.48447 -16686484.74247  21452416.0394                   21452418.4494
        45.5004         43.2504
  -4708385.43446  -3649751.35544  24786746.1484                   24786750.6724
        38.2504         24.7504
   -465918.87546   -340786.97345  25192235.6174                   25192245.2704
        39.2504         30.2504
   2020746.31647   1601237.46146  22002782.3444                   22002780.7974
        45.7504         40.0004
  14276205.34045  11125950.34042  24807549.3834                   24807552.2034
        35.0004         17.2504
 25  8  8  0 13  0.0000000  0 10G03G01G16G09G04G26G06G07G31G28
 -19990896.91048 -15533886.02048  19935775.0314                   19935776.1884
        48.7504         50.2504
   5473816.38347   4274166.31344  23277832.9224                   23277836.7894
        42.0004         25.5004
 -21225855.47747 -15071480.53945  21864403.2194                   21864403.4774
        44.5004         30.5004
 -10869046.97746  -8446158.48446  23377659.3754                   23377663.2304
        40.2504         36.2504
 -21466866.86748 -16686577.47745  20980134.6414                   20980134.7544
        48.5004         35.5004
 -21487297.59447 -16697893.37947  21449629.9144                   21449632.4184
        45.0004         43.2504
  -4769233.57046  -3697165.44144  24775166.5474                   24775171.3754
        37.0004         25.5004
   -572033.75046   -423473.38344  25172041.6724                   25172051.6484
        38.0004         28.2504
   2087857.60547   1653531.94546  22015553.0704                   22015551.6644
        46.0004         40.2504
  14354410.25445  11186889.14142  24822431.3364                   24822433.9494
        34.0004         16.2504
 25  8  8  0 13 30.0000000  0 10G03G01G16G09G04G26G06G07G31G28
 -20002737.90648 -15543112.77048  19933522.0004                   19933522.8554
        49.0004         50.2504
   5543440.11346   4328418.36744  23291082.7344                   23291085.3874
        41.5004         24.7504
 -21327379.24247 -15150589.85945  21845083.9304                   21845083.7234
        44.5004         30.5004
 -10967414.62146  -8522808.42646  23358940.5784                   23358943.8164
        39.0004         36.7504
 -21526813.79348 -16733289.32046  20968727.5164                   20968727.7194
        48.5004         36.0004
 -21501309.85547 -16708812.00847  21446963.1804                   21446965.8674
        45.0004         43.5004
  -4829570.62946  -3744181.31244  24763684.4384                   24763689.1134
        37.5004         27.0004
   -678001.43746   -506045.13344  25151878.0004                   25151885.9964
        39.5004         29.7504
   2155186.88347   1705996.27746  22028365.8594                   22028364.7304
        45.0004         40.0004
  14432609.48045  11247823.56642  24837312.5474                   24837314.8404
        34.0004         16.7504
 25  8  8  0 14  0.0000000  0 10G03G01G16G09G04G26G06G07G31G28
 -20014004.98048 -15551892.30148  19931377.5084                   19931378.9304
        50.5004         50.2504
   5613200.79346   4382777.14844  23304357.4384                   23304360.5664
        41.7504         26.5004
 -21428498.92647 -15229384.32045  21825841.6644                   21825841.3594
        45.5004         31.2504
 -11065752.41846  -8599435.10946  23340226.9924                   23340231.1054
        39.5004         36.0004
 -21586600.86348 -16779876.60546  20957350.1094                   20957350.0204
        48.0004         36.2504
 -21514698.17647 -16719244.44947  21444415.7974                   21444417.8404
        46.2504         43.7504
  -4889400.46946  -3790801.92644  24752300.1564                   24752304.4104
        37.0004         26.5004
   -783825.91446   -588505.27744  25131739.0474                   25131747.9534
        38.7504         29.7504
   2222726.60247   1758624.60546  22041217.7584                   22041216.4734
        46.0004         39.7504
  14510796.72345  11308748.65642  24852191.4384                   24852194.0234
        34.2504         16.2504
 25  8  8  0 14 30.0000000  0 10G03G01G16G09G04G26G06G07G31G28
 -20024696.70748 -15560223.51648  19929343.2034                   19929344.0784
        50.0004         50.0004
   5683096.32846   4437240.98444  23317657.4064                   23317661.9494
        41.0004         26.2504
 -21529210.16447 -15307860.49645  21806676.2894                   21806676.1724
        44.0004         30.7504
 -11164059.04746  -8676037.49645  23321519.7034                   23321523.7624
        38.2504         35.5004
 -21646226.53947 -16826338.13346  20946003.5554                   20946003.6684
        47.5004         36.0004
 -21527461.60247 -16729189.96547  21441986.8524                   21441988.9534
        46.0004         43.5004
  -4948720.96146  -3837025.63744  24741011.5234                   24741015.4024
        37.7504         27.2504
   -889505.00046   -670852.07845  25111628.6724                   25111637.6214
        38.5004         30.0004
   2290475.41847   1811415.86746  22054109.8984                   22054109.1484
        46.7504         40.2504
  14588971.44145  11369663.93842  24867067.3054                   24867070.3794
        33.5004         17.2504
 25  8  8  0 15  0.0000000  0 10G03G01G16G09G04G26G06G07G31G28
 -20034812.37548 -15568105.85248  19927417.8914                   19927419.0124
        49.0004         50.2504
   5753123.91847   4491807.70344  23330983.8834                   23330987.9064
        42.0004         25.2504
 -21629509.48047 -15386015.70745  21787590.4774                   21787589.8284
        44.2504         30.5004
 -11262333.75046  -8752615.02346  23302818.5004                   23302822.0004
        39.0004         36.2504
 -21705690.03947 -16872673.28945  20934688.4304                   20934688.4104
        47.5004         35.5004
 -21539599.89547 -16738648.35247  21439676.9614                   21439679.0664
        46.0004         43.5004
  -5007530.86346  -3882851.50844  24729820.4384                   24729824.7704
        37.2504         25.0004
   -995037.84046   -753084.97345  25091545.9844                   25091555.5314
        38.7504         30.2504
   2358431.28947   1864368.45746  22067041.3594                   22067040.5824
        46.0004         40.5004
  14667132.45345  11430568.57042  24881941.2034                   24881944.2774
        33.5004         16.2504
 25  8  8  0 15 30.0000000  0 10G03G01G16G09G04G26G06G07G31G28
 -20044352.64148 -15575539.82448  19925602.6954                   19925603.7854
        49.7504         50.0004
   5823279.48447   4546474.13344  23344334.9694                   23344338.5434
        43.0004         26.0004
 -21729394.55147 -15463848.12545  21768583.1174                   21768582.4574
        44.7504         30.7504
 -11360577.15646  -8829168.15246  23284123.3914                   23284126.8244
        39.5004         36.0004
 -21764991.79347 -16918882.40246  20923403.3674                   20923403.1334
        47.2504         36.0004
 -21551114.16847 -16747620.50447  21437486.0864                   21437487.9734
        46.2504         43.7504
  -5065830.17246  -3928279.51644  24718725.7194                   24718730.1884
        37.5004         24.5004
  -1100424.44146   -835203.92645  25071491.3134                   25071500.2504
        38.5004         30.5004
   2426590.69947   1917479.66046  22080011.6954                   22080010.9184
        46.0004         39.7504
  14745277.29745  11491460.60542  24896812.3364                   24896814.0124
        33.2504         15.5004
 25  8  8  0 16  0.0000000  0 10G03G01G16G09G04G26G06G07G31G28
 -20053317.72348 -15582525.60248  19923896.7894                   19923897.6094
        50.5004         50.0004
   5893559.33646   4601237.44944  23357708.2274                   23357712.2814
        41.5004         26.0004
 -21828862.52747 -15541355.53945  21749654.4064                   21749654.0314
        44.7504         32.0004
 -11458789.46146  -8905697.04746  23265433.9534                   23265438.0704
        39.2504         36.0004
 -21824131.84848 -16964965.52345  20912149.4304                   20912149.5164
        48.0004         35.5004
 -21562005.16447 -16756106.97747  21435413.6174                   21435415.9144
        47.0004         43.5004
  -5123618.56246  -3973309.40244  24707728.9144                   24707733.7544
        36.7504         26.0004
  -1205664.57046   -917208.80544  25051464.0084                   25051473.1954
        38.7504         29.0004
   2494950.71547   1970747.17246  22093020.6644                   22093019.3524
        45.7504         40.0004
  14823403.85945  11552338.38342  24911678.6724                   24911680.7814
        33.0004         16.2504
 25  8  8  0 16 30.0000000  0 10G03G01G16G09G04G26G06G07G31G28
 -20061709.76248 -15589064.85248  19922299.7114                   19922301.3404
        50.7504         50.2504
   5963957.92246   4656093.27044  23371104.6024                   23371109.3954
        41.5004         25.5004
 -21927912.71547 -15618537.39145  21730805.5944                   21730805.7304
        45.5004         32.0004
 -11556972.71146  -8982203.30146  23246750.5234                   23246753.9884
        39.7504         36.0004
 -21883112.05948 -17010924.09046  20900925.6174                   20900925.6214
        48.0004         36.2504
 -21572275.45747 -16764109.78947  21433458.8754                   21433461.1884
        47.5004         43.5004
  -5180897.48046  -4017942.29744  24696829.4304                   24696833.6294
        37.2504         27.0004
  -1310759.48846   -999100.51244  25031465.0554                   25031473.8364
        39.2504         29.2504
   2563506.50447   2024167.23046  22106066.4454                   22106065.2234
        46.5004         39.7504
  14901508.44145  11613199.04342  24926541.2584                   24926543.7584
        33.7504         17.2504
 25  8  8  0 17  0.0000000  0 10G03G01G16G09G04G26G06G07G31G28
 -20069525.85248 -15595155.31648  19920812.3524                   19920813.5984
        49.5004         50.2504
   6034474.81346   4711041.26244  23384524.3524                   23384527.6994
        40.5004         26.5004
 -22026539.49647 -15695389.32845  21712037.5864                   21712037.5044
        44.7504         31.2504
 -11655123.87946  -9058684.56245  23228072.2584                   23228076.1134
        40.2504         35.0004
 -21941929.30947 -17056755.68445  20889733.0864                   20889733.1214
        47.7504         35.5004
 -21581922.59847 -16771627.02047  21431623.3284                   21431625.6524
        45.7504         43.2504
  -5237663.42246  -4062175.47744  24686027.8674                   24686031.4064
        37.5004         26.5004
  -1415706.02346  -1080876.61744  25011494.4844                   25011502.8984
        38.2504         29.7504
   2632258.44547   2077740.14546  22119149.4304                   22119148.2194
        45.0004         40.0004
  14979591.96945  11674043.31342  24941400.6254                   24941402.4964
        34.2504         17.2504
 25  8  8  0 17 30.0000000  0 10G03G01G16G09G04G26G06G07G31G28
 -20076765.95348 -15600796.95348  19919434.8364                   19919435.9964
        50.0004         50.2504
   6105106.57846   4766078.79744  23397964.3134                   23397969.4494
        41.2504         26.0004
 -22124739.46547 -15771908.68445  21693350.6484                   21693350.2154
        44.2504         32.2504
 -11753242.77846  -9135140.68645  23209401.7504                   23209404.8014
        39.7504         35.7504
 -22000583.22748 -17102460.00045  20878571.9064                   20878571.7384
        48.0004         35.5004
 -21590947.14147 -16778659.10947  21429906.3674                   21429908.3094
        45.7504         43.2504
  -5293915.76246  -4106008.44944  24675322.5314                   24675326.7934
        37.7504         25.5004
  -1520503.84446  -1162536.81244  24991551.2584                   24991560.0514
        39.0004         29.0004
   2701203.70347   2131463.68846  22132269.2034                   22132267.9494
        45.2504         40.2504
  15057652.95345  11734869.96542  24956254.2974                   24956257.0514
        34.0004         16.2504
 25  8  8  0 18  0.0000000  0 10G03G01G16G09G04G26G06G07G31G28
 -20083428.73048 -15605988.73448  19918166.8984                   19918168.1414
        50.0004         50.0004
   6175851.30546   4821204.30944  23411427.8914                   23411431.9454
        40.7504         25.5004
 -22222508.41047 -15848092.19145  21674745.5084                   21674745.7544
        44.5004         31.2504
 -11851327.94546  -9211570.53145  23190735.8834                   23190739.4264
        40.0004         35.7504
 -22059072.21947 -17148035.80546  20867441.6724                   20867441.5704
        47.0004         36.2504
 -21599348.15648 -16785205.34447  21428307.2814                   21428309.6564
        48.0004         43.2504
  -5349652.49246  -4149439.64844  24664716.1724                   24664720.5164
        37.2504         27.0004
  -1625150.73846  -1244079.41444  24971637.1254                   24971645.7934
        37.5004         26.7504
   2770340.88747   2185336.77746  22145425.3594                   22145424.7504
        44.5004         40.5004
  15135690.91445  11795678.73842  24971104.2344                   24971107.3444
        35.5004         16.2504
 25  8  8  0 18 30.0000000  0 10G03G01G16G09G04G26G06G07G31G28
 -20089513.14148 -15610729.83248  19917008.9694                   19917010.1604
        50.2504         50.2504
   6246706.75447   4876416.09844  23424911.5004                   23424914.8444
        42.0004         26.2504
 -22319842.66447 -15923936.95745  21656223.6414                   21656223.3404
        45.2504         32.0004
 -11949378.08246  -9287973.07846  23172077.3364                   23172080.8954
        39.0004         37.0004
 -22117394.80148 -17193481.94546  20856343.4774                   20856343.3054
        48.0004         36.0004
 -21607125.14147 -16791265.31247  21426827.4224                   21426829.9654
        47.2504         43.7504
  -5404871.89846  -4192467.73844  24654208.5704                   24654213.1724
        37.5004         27.0004
  -1729644.76246  -1325502.93744  24951752.3284                   24951761.0274
        37.5004         27.7504
   2839668.80547   2239358.49246  22158618.3754                   22158617.5164
        45.5004         39.7504
  15213705.45746  11856469.24642  24985950.4144                   24985953.0044
        36.2504         16.7504
 25  8  8  0 19  0.0000000  0 10G03G01G16G09G04G26G06G07G31G28
 -20095019.85548 -15615020.77748  19915961.1884                   19915962.2114
        50.0004         50.2504
   6317668.85246   4931711.03544  23438414.3754                   23438418.8554
        40.7504         27.0004
 -22416739.56247 -15999440.95345  21637784.6094                   21637784.5944
        44.7504         31.7504
 -12047393.65646  -9364348.69946  23153425.5314                   23153429.0234
        40.5004         37.0004
 -22175551.34448 -17238798.70345  20845276.3834                   20845275.8014
        48.0004         35.2504
 -21614279.25047 -16796839.93047  21425466.2504                   21425468.5824
        47.5004         43.2504
  -5459574.08246  -4235092.78144  24643799.3754                   24643803.1954
        37.5004         28.0004
  -1833986.23446  -1406807.57844  24931896.5314                   24931904.5554
        38.0004         27.5004
   2909183.96947   2293526.11346  22171846.7424                   22171845.6374
        46.0004         40.0004
  15291694.13345  11917239.58242  25000790.7114                   25000793.5084
        35.7504         17.2504
 25  8  8  0 19 30.0000000  0 10G03G01G16G09G04G26G06G07G31G28
 -20099951.29348 -15618863.45748  19915022.8204                   19915023.9384
        50.2504         50.0004
   6388732.02046   4987084.71544  23451937.0864                   23451942.1174
        39.7504         24.7504
 -22513198.59047 -16074603.73445  21619429.5474                   21619428.6174
        45.7504         30.7504
 -12145376.83646  -9440699.08646  23134780.2734                   23134783.4844
        39.7504         36.7504
 -22233543.85547 -17283987.63746  20834240.7584                   20834240.5124
        47.7504         36.0004
 -21620813.46147 -16801931.51247  21424222.7584                   21424224.7774
        47.5004         43.5004
  -5513760.90646  -4277316.25444  24633488.3134                   24633491.8954
        37.2504         27.2504
  -1938177.27746  -1487995.00444  24912069.4304                   24912077.2704
        38.0004         27.5004
   2978881.85547   2347836.11346  22185109.9614                   22185108.7894
        45.0004         39.7504
  15369653.00846  11977986.68842  25015626.2814                   25015628.7304
        36.2504         16.7504
 25  8  8  0 20  0.0000000  0 10G03G01G16G09G04G26G06G07G31G28
 -20104304.44948 -15622255.52748  19914194.1484                   19914195.1254
        50.5004         50.0004
   6459896.00846   5042536.92244  23465480.0554                   23465484.6684
        40.5004         25.5004
 -22609213.68047 -16149420.59445  21601157.8834                   21601157.5664
        44.2504         31.2504
 -12243324.25846  -9517021.62146  23116141.4144                   23116144.5944
        39.2504         37.0004
 -22291368.84447 -17329046.04746  20823237.2274                   20823236.8954
        47.5004         36.2504
 -21626725.25047 -16806538.08647  21423097.6094                   21423099.3324
        47.5004         43.7504
  -5567428.60246  -4319135.23044  24623275.0634                   24623279.0864
        36.7504         25.7504
  -2042213.82846  -1569062.04744  24892271.4694                   24892279.6644
        37.7504         27.2504
   3048762.42647   2402288.46146  22198407.5084                   22198406.4844
        45.5004         39.5004
  15447583.60946  12038711.79342  25030456.2274                   25030458.6604
        37.0004         17.7504
 25  8  8  0 20 30.0000000  0 10G03G01G16G09G04G26G06G07G31G28
 -20108078.69148 -15625196.50048  19913475.9454                   19913477.1804
        50.5004         50.0004
   6531158.24646   5098065.68844  23479040.5394                   23479045.3674
        40.5004         24.5004
 -22704781.32447 -16223888.80945  21582971.8594                   21582971.4304
        45.2504         31.7504
 -12341235.03546  -9593315.60946  23097509.0164                   23097512.5704
        40.2504         37.0004
 -22349025.21148 -17373973.05545  20812265.3984                   20812265.4024
        48.5004         35.5004
 -21632014.48447 -16810659.55947  21422090.7424                   21422093.1954
        47.5004         42.7504
  -5620575.93046  -4360548.69144  24613161.0234                   24613165.6994
        37.5004         26.0004
  -2146094.91846  -1650007.96144  24872503.5784                   24872511.3554
        38.0004         27.0004
   3118823.98047   2456881.83646  22211739.9844                   22211739.1454
        45.2504         39.7504
  15525484.89846  12099414.06642  25045281.0314                   25045283.0124
        36.0004         16.7504
 25  8  8  0 21  0.0000000  0 10G03G01G16G09G04G26G06G07G31G28
 -20111274.40648 -15627686.66448  19912867.9924                   19912869.2664
        50.2504         50.2504
   6602515.16846   5153668.26244  23492619.7034                   23492624.4534
        40.5004         26.0004
 -22799898.89547 -16298006.31645  21564871.7734                   21564870.8164
        44.0004         31.5004
 -12439109.13746  -9669581.01646  23078884.2424                   23078888.1374
        41.7504         36.5004
 -22406512.85947 -17418768.59446  20801325.6954                   20801325.9694
        47.7504         36.0004
 -21636682.09447 -16814296.64147  21421203.0314                   21421205.3594
        47.0004         43.0004
  -5673202.71146  -4401556.54344  24603147.0864                   24603150.8324
        37.5004         27.7504
  -2249819.94546  -1730832.27344  24852765.0784                   24852772.9344
        39.2504         28.0004
   3189063.80147   2511614.11746  22225106.0784                   22225105.1804
        45.7504         39.0004
  15603355.23046  12160092.17242  25060098.8364                   25060101.5664
        36.5004         17.7504
 25  8  8  0 21 30.0000000  0 10G03G01G16G09G04G26G06G07G31G28
 -20113893.48448 -15629727.50448  19912370.0634                   19912371.0004
        50.0004         50.2504
   6673961.72346   5209340.64844  23506215.5164                   23506220.4264
        39.5004         24.5004
 -22894564.93747 -16371771.98045  21546856.9384                   21546856.5434
        45.0004         31.2504
 -12536948.15646  -9745819.09846  23060266.2274                   23060269.6484
        41.2504         37.0004
 -22463833.16047 -17463433.73046  20790418.1024                   20790417.9064
        47.5004         36.5004
 -21640730.48047 -16817451.21547  21420432.6094                   21420434.5824
        46.5004         43.0004
  -5725310.15246  -4442159.71544  24593230.5864                   24593235.7384
        36.2504         28.0004
  -2353390.22946  -1811535.99744  24833055.4924                   24833063.5904
        38.0004         28.5004
   3259477.50047   2566481.89546  22238505.5864                   22238504.6294
        44.2504         39.2504
  15681191.11346  12220743.45742  25074910.4694                   25074912.3164
        36.5004         17.7504
 25  8  8  0 22  0.0000000  0 10G03G01G16G09G04G26G06G07G31G28
 -20115937.01248 -15631319.85948  19911980.8444                   19911981.7114
        50.0004         50.2504
   6745493.69146   5265079.59444  23519827.9384                   23519832.9454
        39.5004         25.7504
 -22988777.59047 -16445184.34445  21528929.2274                   21528928.2344
        45.2504         31.0004
 -12634752.69547  -9822030.30546  23041654.3524                   23041657.3484
        42.5004         37.0004
 -22520986.64147 -17507968.87946  20779542.1484                   20779542.3014
        47.5004         37.0004
 -21644161.28547 -16820124.55947  21419779.2734                   21419781.7234
        47.2504         42.5004
  -5776898.70346  -4482358.55544  24583414.1094                   24583418.7154
        37.7504         27.0004
  -2456806.05146  -1892119.36744  24813375.1954                   24813383.9384
        37.7504         28.2504
   3330061.55947   2621482.41846  22251937.3364                   22251936.3914
        45.0004         39.2504
  15758990.14846  12281366.05143  25089715.3674                   25089717.6174
        37.2504         19.0004
 25  8  8  0 22 30.0000000  0 10G03G01G16G09G04G26G06G07G31G28
 -20117403.22348 -15632462.36748  19911701.6884                   19911702.4064
        49.2504         50.0004
   6817109.77346   5320884.07843  23533455.8914                   23533461.0274
        39.0004         22.7504
 -23082532.04347 -16518239.66445  21511088.2664                   21511087.6604
        45.0004         32.0004
 -12732520.56247  -9898212.94946  23023049.6414                   23023052.7774
        42.2504         37.0004
 -22577970.90647 -17552372.17246  20768698.4694                   20768698.4184
        46.5004         36.0004
 -21646973.22747 -16822315.67247  21419244.2894                   21419246.6214
        47.5004         42.7504
  -5827965.96546  -4522151.18444  24573695.5704                   24573700.6094
        37.7504         28.0004
  -2560065.02746  -1972580.51644  24793725.9694                   24793733.8054
        39.0004         27.7504
   3400815.52047   2676615.32846  22265401.3364                   22265400.4924
        44.2504         39.5004
  15836752.70346  12341960.21542  25104512.5784                   25104514.5634
        37.5004         17.7504
 25  8  8  0 23  0.0000000  0 10G03G01G16G09G04G26G06G07G31G28
 -20118292.09848 -15633154.99648  19911532.8524                   19911533.5314
        49.5004         50.0004
   6888806.92246   5376751.73044  23547099.4144                   23547104.6484
        40.0004         24.5004
 -23175825.30947 -16590935.64145  21493335.2194                   21493334.0274
        44.7504         32.0004
 -12830251.26247  -9974366.64546  23004452.1254                   23004455.3594
        43.0004         37.0004
 -22634785.38747 -17596643.15646  20757886.9534                   20757886.9454
        47.0004         36.0004
 -21649166.90647 -16824025.03147  21418827.2344                   21418828.9264
        47.0004         42.7504
  -5878511.31946  -4561537.12144  24564078.3134                   24564082.1374
        38.0004         27.5004
  -2663166.35246  -2052918.87144  24774107.2194                   24774113.9494
        38.5004         28.0004
   3471737.49647   2731879.16446  22278897.3674                   22278896.3484
        44.5004         39.0004
  15914477.43446  12402524.85942  25119303.0784                   25119306.1454
        37.0004         17.2504
 25  8  8  0 23 30.0000000  0 10G03G01G16G09G04G26G06G07G31G28
 -20118603.59448 -15633397.72748  19911473.3204                   19911474.5354
        49.5004         50.0004
   6960582.07846   5432680.18844  23560758.4304                   23560763.6564
        40.0004         24.7504
 -23268654.09447 -16663269.66845  21475669.9924                   21475669.5474
        45.0004         31.7504
 -12927944.28147 -10050490.97746  22985861.4144                   22985864.8954
        42.5004         37.5004
 -22691429.36747 -17640781.29346  20747107.8754                   20747108.1764
        47.7504         36.2504
 -21650742.77747 -16825252.98447  21418527.2814                   21418529.8444
        46.0004         42.5004
  -5928533.99246  -4600515.79744  24554559.3444                   24554563.4264
        38.7504         28.0004
  -2766109.29346  -2133133.78544  24754517.2974                   24754524.5594
        38.0004         26.7504
   3542824.47347   2787271.55946  22292424.8444                   22292424.0004
        44.5004         39.0004
  15992163.09846  12463059.08642  25134086.4384                   25134088.6174
        38.0004         17.7504
 25  8  8  0 24  0.0000000  0 10G03G01G16G09G04G26G06G07G31G28
 -20118338.13348 -15633190.87548  19911523.7584                   19911524.9414
        48.2504         50.0004
   7032431.94546   5488666.81643  23574431.8444                   23574436.1684
        40.0004         23.7504
 -23361015.89847 -16735239.81645  21458094.2034                   21458093.6564
        45.7504         32.0004
 -13025599.45747 -10126585.83246  22967277.9224                   22967281.5984
        43.0004         37.2504
 -22747902.53547 -17684786.32046  20736361.4384                   20736361.0864
        46.5004         36.2504
 -21651701.77747 -16826000.25047  21418344.7974                   21418346.4384
        44.5004         42.5004
  -5978033.78946  -4639087.03144  24545139.1884                   24545143.6334
        38.2504         27.7504
  -2868893.43746  -2213224.96944  24734957.0704                   24734964.8634
        37.2504         26.2504
   3614074.06647   2842790.66846  22305983.3914                   22305982.3484
        44.5004         39.0004
  16069808.05946  12523561.60943  25148862.2974                   25148864.0044
        37.5004         18.5004
 25  8  8  0 24 30.0000000  0 10G03G01G16G09G04G26G06G07G31G28
 -20117494.30948 -15632533.35248  19911684.5864                   19911685.4064
        49.5004         50.0004
   7104354.79346   5544710.33644  23588117.8834                   23588122.7384
        40.0004         25.0004
 -23452905.72347 -16806842.19145  21440608.2584                   21440607.3754
        45.2504         31.7504
 -13123214.81647 -10202649.65646  22948702.9224                   22948706.1054
        42.5004         37.2504
 -22804202.84047 -17728656.66046  20725647.5084                   20725647.4104
        47.0004         36.0004
 -21652043.05147 -16826266.17247  21418279.9844                   21418281.9654
        46.0004         42.5004
  -6027008.71546  -4677249.26644  24535819.9304                   24535823.8204
        38.2504         28.5004
  -2971516.41846  -2293190.51644  24715428.7664                   24715436.2544
        37.7504         26.0004
   3685485.59447   2898435.96546  22319572.4534                   22319571.3484
        44.5004         38.7504
  16147412.44546  12584032.50843  25163629.5164                   25163631.7774
        37.7504         18.2504
 25  8  8  0 25  0.0000000  0 10G03G01G16G09G04G26G06G07G31G28
 -20116070.57848 -15631423.96148  19911955.2424                   19911956.8404
        48.7504         50.0004
   7176349.29746   5600809.67243  23601817.8674                   23601823.4304
        39.0004         23.2504
 -23544319.34447 -16878073.50445  21423212.5944                   21423212.2074
        45.5004         32.0004
 -13220788.25447 -10278680.82046  22930135.1644                   22930138.0944
        43.2504         37.5004
 -22860327.98447 -17772390.50446  20714967.6644                   20714967.1054
        45.5004         36.2504
 -21651765.67647 -16826050.03147  21418332.3834                   21418334.6294
        45.7504         42.5004
  -6075456.56646  -4715000.80544  24526600.5084                   24526604.4694
        37.7504         27.7504
  -3073976.08246  -2373028.80144  24695930.6334                   24695938.1454
        37.7504         27.0004
   3757058.41847   2954206.94946  22333192.1024                   22333190.8914
        44.2504         38.2504
  16224976.55146  12644472.04342  25178390.1954                   25178392.0864
        37.5004         17.2504
 25  8  8  0 25 30.0000000  0 10G03G01G16G09G04G26G06G07G31G28
 -20114067.52348 -15629863.14548  19912336.8834                   19912337.9924
        50.0004         50.0004
   7248411.91446   5656962.05144  23615532.0944                   23615537.0824
        39.2504         24.7504
 -23635254.21147 -16948931.76645  21405908.5784                   21405907.1914
        45.0004         32.7504
 -13318319.68447 -10354679.24246  22911575.4304                   22911578.5044
        43.2504         37.7504
 -22916277.84047 -17815987.77046  20704320.5474                   20704320.3714
        46.5004         36.5004
 -21650870.73447 -16825352.66847  21418503.0234                   21418504.7384
        46.0004         42.2504
  -6123377.25846  -4752341.57044  24517480.8754                   24517485.7544
        38.2504         29.2504
  -3176272.23046  -2452739.69144  24676464.3054                   24676471.6174
        37.7504         26.7504
   3828789.82447   3010101.49246  22346842.4924                   22346841.3954
        44.2504         38.5004
  16302498.72746  12704878.88743  25193141.3054                   25193143.8094
        37.5004         19.0004
 25  8  8  0 26  0.0000000  0 10G03G01G16G09G04G26G06G07G31G28
 -20111485.57448 -15627851.23848  19912827.8054                   19912829.1254
        49.2504         50.0004
   7320539.37546   5713165.03543  23629258.0864                   23629262.1524
        40.5004         23.2504
 -23725707.40647 -17019414.69145  21388695.3284                   21388694.8244
        45.2504         33.0004
 -13415808.86347 -10430644.74646  22893023.5634                   22893027.1174
        43.7504         37.7504
 -22972051.99247 -17859448.11746  20693707.1254                   20693706.6954
        46.7504         36.2504
 -21649359.18747 -16824174.83647  21418790.3674                   21418792.2234
        45.7504         42.0004
  -6170770.52046  -4789271.33244  24508463.1024                   24508466.6884
        39.2504         29.0004
  -3278404.48046  -2532322.86344  24657029.3204                   24657035.6024
        37.5004         26.7504
   3900677.08247   3066117.49246  22360522.1174                   22360521.3794
        44.2504         38.5004
  16379977.38346  12765251.83243  25207885.2894                   25207887.9574
        38.7504         20.0004
 25  8  8  0 26 30.0000000  0 10G03G01G16G09G04G26G06G07G31G28
 -20108326.92648 -15625389.96148  19913429.2344                   19913429.6724
        50.2504         50.0004
   7392726.50846   5769414.47743  23642994.0234                   23642999.1024
        39.5004         22.5004
 -23815678.17647 -17089521.71145  21371574.5474                   21371574.0204
        44.7504         32.5004
 -13513257.35247 -10506578.53546  22874480.0474                   22874483.1214
        43.7504         38.0004
 -23027651.81247 -17902772.62546  20683126.8834                   20683126.5944
        47.0004         36.2504
 -21647233.86347 -16822518.73047  21419194.8674                   21419196.8954
        45.0004         42.2504
  -6217638.00846  -4825791.41844  24499543.8754                   24499547.9104
        38.2504         28.7504
  -3380374.01646  -2611779.26244  24637625.0394                   24637631.2774
        37.7504         27.5004
   3972715.96147   3122251.63746  22374231.0944                   22374230.0634
        44.0004         37.7504
  16457409.11346  12825588.21143  25222620.0004                   25222622.8444
        37.7504         18.5004
 25  8  8  0 27  0.0000000  0 10G03G01G16G09G04G26G06G07G31G28
 -20104591.09048 -15622478.93048  19914140.0704                   19914140.5664
        49.2504         50.0004
   7464971.03946   5825708.64543  23656741.7664                   23656746.7074
        39.5004         22.7504
 -23905162.75047 -17159249.87545  21354546.0084                   21354545.4304
        45.0004         32.0004
 -13610663.88347 -10582479.62546  22855944.1644                   22855947.0394
        43.5004         38.2504
 -23083075.94947 -17945960.25046  20672579.6094                   20672579.4804
        47.5004         36.7504
 -21644494.80147 -16820384.39546  21419715.8674                   21419718.2664
        45.5004         41.7504
  -6263978.53546  -4861900.89544  24490725.0704                   24490729.8284
        38.5004         29.0004
  -3482179.70746  -2691107.97744  24618250.9844                   24618257.9774
        37.2504         25.5004
   4044904.91847   3178502.72346  22387968.0554                   22387966.7734
        44.0004         38.2504
  16534793.47346  12885887.68843  25237346.4384                   25237348.3634
        37.5004         19.0004
 25  8  8  0 27 30.0000000  0 10G03G01G16G09G04G26G06G07G31G28
 -20100276.38348 -15619116.81648  19914960.9224                   19914961.9804
        50.0004         50.2504
   7537271.80546   5882046.59444  23670501.2424                   23670506.0124
        40.5004         24.2504
 -23994156.23447 -17228595.36345  21337610.9924                   21337610.3674
        45.7504         33.0004
 -13708026.05947 -10658346.16046  22837417.1094                   22837419.4804
        44.2504         38.0004
 -23138321.88747 -17989009.01246  20662066.7974                   20662066.6994
        47.0004         36.2504
 -21641140.88347 -16817770.95747  21420354.3524                   21420356.6294
        45.7504         42.0004
  -6309789.80146  -4897597.95344  24482006.8204                   24482012.3164
        37.7504         28.5004
  -3583818.75846  -2770306.82444  24598909.8054                   24598915.7934
        37.0004         27.0004
   4117243.63747   3234870.50846  22401733.9144                   22401732.6684
        44.2504         38.2504
  16612131.06646  12946150.71143  25252062.8594                   25252065.0784
        37.0004         18.2504
 25  8  8  0 28  0.0000000  0 10G03G01G16G09G04G26G06G07G31G28
 -20095385.75848 -15615305.94548  19915891.7344                   19915892.8014
        48.2504         50.0004
   7609623.05146   5938423.88743  23684269.2194                   23684274.3364
        41.2504         22.7504
 -24082658.41047 -17297558.02345  21320769.9144                   21320769.2114
        45.5004         33.0004
 -13805346.05147 -10734179.81246  22818897.5864                   22818900.3324
        44.0004         38.0004
 -23193391.58247 -18031920.43446  20651587.5474                   20651587.3324
        47.5004         36.5004
 -21637175.59447 -16814681.10947  21421108.6804                   21421110.9614
        44.2504         42.0004
  -6355074.00046  -4932884.30944  24473389.5634                   24473394.4414
        38.0004         28.7504
  -3685293.14846  -2849377.39844  24579599.5784                   24579605.8054
        37.0004         26.0004
   4189727.35547   3291351.28146  22415526.8674                   22415525.6684
        44.7504         38.5004
  16689417.92246  13006374.21943  25266770.2344                   25266772.4884
        37.5004         18.5004
 25  8  8  0 28 30.0000000  0 10G03G01G16G09G04G26G06G07G31G28
 -20089918.19948 -15611045.51648  19916931.8984                   19916932.7544
        48.5004         50.0004
   7682023.08246   5994839.23043  23698046.2034                   23698052.0904
        41.0004         22.7504
 -24170665.05147 -17366134.55145  21304022.5554                   21304021.8444
        45.5004         32.5004
 -13902621.97347 -10809979.12946  22800386.4144                   22800388.6374
        44.0004         38.0004
 -23248283.10247 -18074693.03546  20641142.0634                   20641141.9224
        46.5004         36.5004
 -21632598.53147 -16811114.56646  21421979.7664                   21421982.3054
        44.5004         41.7504
  -6399829.55146  -4967758.74644  24464873.9304                   24464877.9964
        38.5004         28.7504
  -3786601.13346  -2928318.26244  24560321.9224                   24560327.3204
        37.2504         26.0004
   4262355.09847   3347944.27746  22429347.3594                   22429346.4144
        44.0004         38.0004
  16766654.13346  13066558.23043  25281467.1804                   25281469.8794
        37.2504         18.2504
 25  8  8  0 29  0.0000000  0 10G03G01G16G09G04G26G06G07G31G28
 -20083873.20348 -15606335.14148  19918082.3204                   19918083.4734
        49.0004         50.0004
   7754469.62546   6051290.79343  23711832.2114                   23711838.5394
        40.7504         22.7504
 -24258172.41847 -17434322.04745  21287370.5084                   21287369.3594
        46.0004         33.2504
 -13999852.55147 -10885743.09846  22781883.5234                   22781886.4224
        44.0004         37.7504
 -23302994.99647 -18117325.65646  20630730.6644                   20630730.2814
        46.5004         37.2504
 -21627409.76647 -16807071.37547  21422967.1954                   21422969.4384
        45.5004         42.0004
  -6444055.27746  -5002220.32444  24456457.9534                   24456462.4734
        38.7504         28.5004
  -3887741.20346  -3007128.31644  24541074.1414                   24541080.6484
        37.2504         24.5004
   4335125.13347   3404648.16446  22443195.0394                   22443194.1724
        44.5004         38.0004
  16843839.21546  13126702.41443  25296155.2344                   25296158.0004
        36.7504         18.2504
 25  8  8  0 29 30.0000000  0  9G03G01G16G09G04G26G06G07G31
 -20077251.30548 -15601175.22748  19919342.4224                   19919343.2624
        48.5004         49.7504
   7826959.48446   6107776.08643  23725626.9454                   23725633.4774
        40.5004         22.5004
 -24345177.80947 -17502118.38345  21270813.9534                   21270812.7154
        45.0004         33.5004
 -14097037.42247 -10961471.45746  22763389.8754                   22763392.6054
        44.0004         37.7504
 -23357526.75047 -18159817.91046  20620353.4224                   20620353.4454
        45.7504         36.0004
 -21621610.42247 -16802552.39846  21424070.7274                   21424072.9264
        45.5004         41.7504
  -6487751.07846  -5036268.98444  24448142.3914                   24448147.6914
        39.0004         28.0004
  -3988713.02346  -3085807.25044  24521859.4144                   24521865.6524
        38.5004         26.2504
   4408035.45347   3461461.35546  22457069.4534                   22457068.8364
        44.5004         38.0004
 25  8  8  0 30  0.0000000  0  9G03G01G16G09G04G26G06G07G31
 -18494633.30548 -14367966.40248  20220504.7734                   20220505.6454
        48.5004         49.7504
   9474906.98446   7391890.69943  24039221.7424                   24039227.5514
        41.0004         23.2504
 -22856255.98447 -16341919.48445  21554146.2974                   21554145.1914
        45.5004         33.5004
 -12618753.03147  -9809561.43746  23044697.9454                   23044700.5784
        44.0004         38.0004
 -21836456.12947 -16974568.06646  20909803.6884                   20909803.6334
        46.0004         36.0004
 -20039781.82447 -15569958.68746  21725082.9774                   21725085.1024
        45.0004         41.7504
  -4955495.43746  -3842303.52744  24739720.9304                   24739725.8714
        39.5004         28.5004
  -2514092.83646  -1936752.20744  24802469.5864                   24802476.1804
        36.7504         24.5004
   6056500.90647   4745979.84846  22770762.2504                   22770761.3324
        44.2504         38.0004
 25  8  8  0 30 30.0000000  0  9G03G01G16G09G04G26G06G07G31
 -18486856.57848 -14361906.62148  20221984.6254                   20221985.6954
        48.0004         49.7504
   9547476.50446   7448438.10244  24053031.5944                   24053037.1764
        41.2504         24.7504
 -22942247.16447 -16408925.53145  21537782.5704                   21537781.5044
        45.5004         34.0004
 -12715842.69547  -9885215.61746  23026222.4844                   23026224.2704
        43.5004         37.5004
 -21890623.50847 -17016776.39846  20899495.5474                   20899495.4494
        45.2504         36.5004
 -20032761.98047 -15564488.69146  21726418.3364                   21726421.0664
        44.7504         41.7504
  -4998128.37546  -3875523.98044  24731607.5634                   24731612.5314
        39.0004         29.2504
  -2614723.92246  -2015165.65644  24783320.3204                   24783326.6994
        39.2504         26.2504
   6129686.65647   4803007.65246  22784688.3134                   22784687.8674
        44.0004         38.2504
 25  8  8  0 31  0.0000000  0  9G03G01G16G09G04G26G06G07G31
 -18478498.84448 -14355394.11348  20223574.9614                   20223576.2274
        49.2504         49.7504
   9620085.44546   7505016.21543  24066849.2974                   24066853.9884
        41.7504         22.7504
 -23027722.73047 -16475529.79745  21521516.9844                   21521516.0984
        45.0004         33.2504
 -12812879.72347  -9960828.77346  23007757.0164                   23007759.3524
        44.5004         38.7504
 -21944603.50047 -17058838.70745  20889223.6174                   20889223.6524
        45.2504         35.5004
 -20025129.20347 -15558541.07846  21727870.9304                   21727873.1174
        45.2504         41.7504
  -5040225.30546  -3908326.76244  24723597.2424                   24723602.0004
        39.5004         29.0004
  -2715179.86746  -2093442.65644  24764204.0784                   24764209.9694
        38.2504         26.5004
   6203010.94947   4860143.43046  22798642.0004                   22798641.3794
        44.2504         38.0004
 25  8  8  0 31 30.0000000  0  9G03G01G16G09G04G26G06G07G31
 -18469560.94548 -14348429.52748  20225275.6094                   20225276.8554
        48.7504         49.7504
   9692730.48846   7561622.46944  24080672.7814                   24080678.4964
        41.0004         25.2504
 -23112680.29347 -16541730.41845  21505350.2114                   21505349.3524
        45.5004         34.0004
 -12909864.04747 -10036400.86746  22989301.2424                   22989303.8674
        43.7504         38.0004
 -21998395.79747 -17100754.77745  20878987.4454                   20878987.3984
        45.7504         35.7504
 -20016884.87147 -15552116.91847  21729440.0634                   21729441.8324
        44.5004         42.0004
  -5081786.43446  -3940712.04744  24715688.7974                   24715693.0904
        39.5004         28.5004
  -2815460.14546  -2171582.81244  24745120.5004                   24745127.0864
        38.5004         26.5004
   6276471.35947   4917385.26246  22812621.0554                   22812620.2304
        43.2504         38.0004
 25  8  8  0 32  0.0000000  0  9G03G01G16G09G04G26G06G07G31
 -18460046.34048 -14341015.55948  20227086.4064                   20227088.0204
        48.0004         49.7504
   9765405.59046   7618252.13343  24094502.4774                   24094507.8554
        40.7504         23.0004
 -23197120.04347 -16607527.55945  21489281.5554                   21489280.5354
        46.0004         33.5004
 -13006797.94147 -10111933.67246  22970855.1094                   22970857.4844
        43.7504         37.7504
 -22052002.70747 -17142526.37946  20868786.5314                   20868786.4104
        45.7504         36.0004
 -20008033.01647 -15545219.36746  21731124.7344                   21731126.5704
        44.2504         41.7504
  -5122814.52046  -3972681.95344  24707881.3754                   24707885.7274
        39.2504         28.7504
  -2915567.48046  -2249588.18044  24726071.3674                   24726077.1804
        39.7504         27.2504
   6350062.73047   4974729.15246  22826625.0474                   22826624.6134
        43.2504         38.0004
 25  8  8  0 32 30.0000000  0  9G03G01G16G09G04G26G06G07G31
 -18449953.50848 -14333151.02048  20229006.9694                   20229008.2704
        48.0004         49.5004
   9838109.69946   7674904.35943  24108337.4774                   24108343.1174
        40.7504         22.7504
 -23281037.19147 -16672917.47345  21473312.9144                   21473311.7894
        45.5004         33.5004
 -13103678.95347 -10187425.27046  22952418.9614                   22952421.6414
        44.2504         37.5004
 -22105421.53547 -17184151.41846  20858621.1954                   20858620.9614
        45.5004         36.0004
 -19998572.75847 -15537847.74646  21732924.8834                   21732927.0784
        44.2504         41.7504
  -5163307.41846  -4004234.84845  24700175.3984                   24700180.5744
        39.2504         30.0004
  -3015499.12146  -2327456.57844  24707054.6564                   24707060.9104
        39.5004         27.5004
   6423784.91847   5032174.97346  22840654.2974                   22840653.3554
        43.5004         37.7504
 25  8  8  0 33  0.0000000  0  9G03G01G16G09G04G26G06G07G31
 -18439286.91048 -14324839.39548  20231036.8984                   20231038.1724
        48.7504         49.5004
   9910835.94146   7731573.82443  24122176.9694                   24122183.9774
        40.0004         22.7504
 -23364432.75447 -16737900.95345  21457442.9924                   21457441.8094
        45.5004         33.5004
 -13200510.38347 -10262878.23046  22933992.7504                   22933995.4614
        44.0004         38.0004
 -22158655.53547 -17225632.43746  20848491.0634                   20848490.8754
        47.0004         36.7504
 -19988509.14847 -15530005.96946  21734839.5084                   21734841.8054
        44.7504         41.7504
  -5203268.87946  -4035373.63345  24692571.3834                   24692575.9184
        40.0004         30.0004
  -3115258.34846  -2405190.70344  24688070.6564                   24688076.7934
        39.5004         26.5004
   6497631.75847   5089717.92646  22854706.7034                   22854705.8284
        43.7504         38.0004
 25  8  8  0 33 30.0000000  0  9G03G01G16G09G04G26G06G07G31
 -18428045.57848 -14316079.93048  20233176.0314                   20233177.1454
        48.0004         49.5004
   9983582.70746   7788259.32443  24136020.4454                   24136027.1914
        40.0004         22.7504
 -23447302.92647 -16802475.04345  21441673.0704                   21441672.2934
        45.2504         34.0004
 -13297290.15647 -10338290.94946  22915576.5474                   22915578.8444
        43.7504         38.0004
 -22211702.51247 -17266967.72746  20838396.5084                   20838396.6914
        46.7504         36.5004
 -19977841.78947 -15521693.74646  21736869.4534                   21736871.4964
        44.0004         41.5004
  -5242697.34046  -4066097.09844  24685067.8594                   24685073.1684
        40.0004         29.7504
  -3214843.44546  -2482789.17644  24669119.9304                   24669125.0664
        39.5004         27.0004
   6571602.53147   5147357.44946  22868783.0944                   22868782.2504
        43.5004         37.7504
 25  8  8  0 34  0.0000000  0  9G03G01G16G09G04G26G06G07G31
 -18416231.13748 -14306873.88348  20235424.1484                   20235425.3164
        49.2504         49.5004
  10056346.03146   7844957.68843  24149867.6024                   24149874.0234
        41.0004         22.5004
 -23529645.85547 -16866638.30145  21426003.7114                   21426003.2584
        45.5004         33.5004
 -13394018.78547 -10413663.81646  22897169.2114                   22897171.6484
        43.7504         38.2504
 -22264562.76247 -17308157.52046  20828337.4064                   20828337.4654
        46.5004         36.5004
 -19966572.88747 -15512912.77346  21739014.0164                   21739016.3094
        44.7504         41.7504
  -5281593.77046  -4096406.00445  24677666.5554                   24677671.0434
        39.2504         30.0004
  -3314254.54746  -2560252.00044  24650203.0164                   24650208.0824
        40.2504         27.0004
   6645694.08647   5205091.09446  22882882.0784                   22882881.3554
        43.0004         37.5004
 25  8  8  0 34 30.0000000  0  9G03G01G16G09G04G26G06G07G31
 -18403844.89148 -14297222.26648  20237781.1564                   20237782.3794
        48.0004         49.5004
  10129122.15246   7901666.05943  24163716.8284                   24163723.2854
        40.7504         22.2504
 -23611459.66847 -16930389.24645  21410435.3754                   21410434.3444
        45.2504         33.7504
 -13490696.30547 -10488996.86346  22878772.4304                   22878774.5474
        43.7504         37.7504
 -22317236.35947 -17349201.85946  20818313.8444                   20818313.8754
        46.5004         37.0004
 -19954704.34047 -15503664.55946  21741272.1484                   21741274.6954
        44.7504         41.7504
  -5319958.72746  -4126300.76244  24670366.4454                   24670370.2934
        40.0004         29.7504
  -3413492.28546  -2637579.75444  24631318.2584                   24631322.8014
        39.5004         24.5004
   6719903.40247   5262916.50046  22897003.5004                   22897002.9774
        42.2504         37.2504
 25  8  8  0 35  0.0000000  0  9G03G01G16G09G04G26G06G07G31
 -18390889.72348 -14287127.34048  20240246.4454                   20240247.5594
        49.7504         49.5004
  10201905.84446   7958380.31643  24177567.2504                   24177573.1484
        40.2504         22.0004
 -23692743.67647 -16993727.36745  21394967.3914                   21394966.0234
        45.2504         33.5004
 -13587324.43747 -10564291.42646  22860384.0704                   22860386.7074
        43.5004         38.5004
 -22369724.84047 -17390101.94546  20808325.9384                   20808325.6094
        46.7504         36.5004
 -19942239.64847 -15493951.80946  21743644.0704                   21743646.6054
        45.0004         41.7504
  -5357794.57446  -4155783.23045  24663166.0784                   24663170.9024
        40.5004         30.2504
  -3512558.18746  -2714773.65244  24612466.7664                   24612470.7774
        41.0004         26.2504
   6794226.15647   5320830.30146  22911146.7274                   22911146.0274
        43.5004         37.5004
 25  8  8  0 35 30.0000000  0  9G03G01G16G09G04G26G06G07G31
 -18377366.05148 -14276589.41848  20242820.2504                   20242821.1954
        49.2504         49.5004
  10274694.27046   8015098.23043  24191418.7584                   24191424.7034
        41.2504         22.5004
 -23773495.30947 -17056650.65245  21379600.8054                   21379600.1054
        45.2504         34.0004
 -13683902.34847 -10639546.83646  22842005.9614                   22842008.2934
        44.2504         38.7504
 -22422027.21947 -17430857.02346  20798373.2114                   20798373.0274
        46.2504         37.2504
 -19929179.79747 -15483775.28947  21746129.5474                   21746131.7424
        45.0004         42.0004
  -5395100.96546  -4184853.12945  24656066.5784                   24656071.2114
        40.0004         30.2504
  -3611451.48046  -2791832.98444  24593648.2664                   24593652.5314
        41.2504         28.7504
   6868660.46947   5378831.02046  22925311.0234                   22925310.3404
        43.7504         37.2504
 25  8  8  0 36  0.0000000  0  9G03G01G16G09G04G26G06G07G31
 -18363273.97348 -14265608.59048  20245501.4844                   20245502.8134
        49.7504         49.5004
  10347485.12546   8071818.06343  24205270.7344                   24205277.4384
        39.7504         22.5004
 -23853711.43047 -17119156.65245  21364336.2194                   21364335.1644
        44.7504         33.7504
 -13780428.81647 -10714762.18046  22823637.5474                   22823639.8444
        43.0004         38.5004
 -22474142.24647 -17471466.11746  20788455.6954                   20788455.2734
        45.2504         37.2504
 -19915525.48847 -15473135.56646  21748727.6884                   21748729.9384
        45.5004         41.7504
  -5431877.37546  -4213510.07445  24649068.9384                   24649073.2974
        40.0004         30.2504
  -3710171.08246  -2868757.05144  24574861.4614                   24574866.0204
        40.2504         26.2504
   6943204.82047   5436917.49246  22939496.6484                   22939495.8284
        43.7504         37.2504
 25  8  8  0 36 30.0000000  0  9G03G01G16G09G04G26G06G07G31
 -18348616.03948 -14254186.83648  20248290.7814                   20248292.0434
        49.0004         49.5004
  10420273.45346   8128535.92643  24219122.1644                   24219128.5744
        39.7504         22.0004
 -23933391.16447 -17181244.69545  21349173.6094                   21349172.0554
        45.5004         33.2504
 -13876905.09847 -10789938.40646  22805278.7194                   22805281.1644
        43.5004         38.5004
 -22526071.05147 -17511930.08646  20778573.9064                   20778573.5234
        46.2504         36.7504
 -19901279.90647 -15462035.10946  21751438.9844                   21751441.1214
        44.5004         41.7504
  -5468125.68746  -4241755.50045  24642171.1484                   24642175.4614
        40.5004         31.0004
  -3808718.45346  -2945546.91044  24556108.2114                   24556112.6134
        41.5004         28.0004
   7017855.36347   5495086.70346  22953701.8834                   22953701.5434
        43.5004         37.7504
 25  8  8  0 37  0.0000000  0  9G03G01G16G09G04G26G06G07G31
 -18333391.44948 -14242323.53148  20251188.0554                   20251189.3324
        48.2504         49.5004
  10493057.87946   8185250.73843  24232972.5474                   24232978.6454
        39.0004         21.5004
 -24012530.19947 -17242911.41045  21334113.6954                   21334112.6884
        45.5004         33.7504
 -13973329.07047 -10865073.87946  22786929.6804                   22786932.3674
        43.0004         38.2504
 -22577811.38347 -17552247.19946  20768727.9304                   20768728.1564
        47.2504         36.7504
 -19886442.77347 -15450473.70346  21754262.4534                   21754264.0514
        44.2504         41.7504
  -5503844.46146  -4269588.31245  24635373.7894                   24635378.2424
        40.0004         30.0004
  -3907091.58646  -3022200.98444  24537387.1954                   24537392.2544
        39.7504         26.5004
   7092611.23047   5553337.97746  22967927.9534                   22967926.9614
        44.2504         37.2504
 25  8  8  0 37 30.0000000  0  9G03G01G16G09G04G26G06G07G31
 -18317601.33648 -14230019.55948  20254192.9064                   20254194.0084
        49.2504         49.5004
  10565834.96546   8241959.85243  24246821.0704                   24246828.3524
        40.2504         22.0004
 -24091126.28947 -17304155.04745  21319157.8204                   21319156.1294
        46.0004         33.7504
 -14069700.51647 -10940168.41846  22768590.0004                   22768593.2274
        42.7504         38.7504
 -22629362.89847 -17592417.18446  20758918.3444                   20758918.0354
        46.7504         36.2504
 -19871015.92247 -15438452.77047  21757197.8914                   21757199.5664
        45.2504         42.0004
  -5539034.19146  -4297008.88345  24628677.6334                   24628681.6764
        40.5004         30.5004
  -4005290.56646  -3098719.31244  24518700.9774                   24518705.5204
        38.5004         27.7504
   7167469.78147   5611669.27046  22982172.7664                   22982172.3754
        43.5004         37.2504
 25  8  8  0 38  0.0000000  0  9G03G01G16G09G04G26G06G07G31
 -18301246.71148 -14217275.70748  20257305.0784                   20257306.1804
        49.0004         49.5004
  10638601.62946   8298660.80943  24260668.7504                   24260675.8554
        40.0004         21.5004
 -24169177.91447 -17364974.43445  21304304.4384                   21304302.8874
        46.0004         34.0004
 -14166018.96547 -11015221.67246  22750262.0004                   22750264.5984
        42.5004         38.5004
 -22680725.11747 -17632439.66446  20749144.5164                   20749144.0234
        47.0004         36.7504
 -19855000.86347 -15425973.50446  21760245.3834                   21760247.6764
        44.5004         41.7504
  -5573695.15246  -4324017.43445  24622081.4774                   24622085.9844
        41.0004         30.5004
  -4103314.84446  -3175101.52744  24500047.4064                   24500051.8094
        41.5004         28.7504
   7242429.19147   5670079.14546  22996437.4144                   22996436.5234
        43.2504         37.7504
 25  8  8  0 38 30.0000000  0  9G03G01G16G09G04G26G06G07G31
 -18284325.66048 -14204090.49248  20260525.2664                   20260525.9804
        48.7504         49.2504
  10711357.50446   8355353.38343  24274514.5704                   24274521.6804
        41.2504         22.7504
 -24246679.47347 -17425365.20345  21289556.4224                   21289555.3674
        45.0004         34.5004
 -14262281.12147 -11090231.05546  22731943.7664                   22731946.2274
        42.7504         38.2504
 -22731894.55547 -17672311.93046  20739406.9304                   20739406.6604
        47.0004         37.0004
 -19838396.31247 -15413034.88346  21763405.5784                   21763407.2344
        45.2504         41.5004
  -5607824.78546  -4350611.96545  24615587.0394                   24615591.1804
        40.7504         30.5004
  -4201161.53946  -3251345.41044  24481427.5944                   24481432.3834
        41.2504         28.5004
   7317489.84847   5728567.91846  23010721.1334                   23010720.4184
        42.5004         37.0004
 25  8  8  0 39  0.0000000  0  9G03G01G16G09G04G26G06G07G31
 -18266840.64148 -14190465.82048  20263852.5004                   20263853.7464
        50.0004         49.5004
  10784097.96146   8412033.91443  24288357.1484                   24288363.7934
        40.5004         21.7504
 -24323629.90647 -17485326.52345  21274913.4774                   21274911.9844
        45.5004         33.5004
 -14358488.01247 -11165197.37146  22713635.8524                   22713638.4494
        43.2504         38.5004
 -22782872.21147 -17712034.75446  20729706.6024                   20729706.2074
        47.0004         36.5004
 -19821205.39147 -15399639.35547  21766676.6174                   21766678.3634
        46.2504         42.0004
  -5641424.92246  -4376793.89845  24609192.9614                   24609197.7624
        41.0004         30.5004
  -4298831.66846  -3327451.73044  24462841.0084                   24462845.5314
        40.7504         29.2504
   7392647.79347   5787132.49246  23025023.1024                   23025022.5704
        43.5004         37.2504
 25  8  8  0 39 30.0000000  0  9G03G01G16G09G04G26G06G07G31
 -18248791.93448 -14176401.91048  20267286.8594                   20267287.8484
        49.7504         49.5004
  10856820.71546   8468700.61743  24302196.0554                   24302202.8244
        40.0004         21.5004
 -24400026.23047 -17544856.06245  21260375.3754                   21260374.2384
        46.7504         33.5004
 -14454638.33647 -11240119.61346  22695339.3984                   22695341.5744
        43.2504         39.0004
 -22833656.67247 -17751607.03946  20720042.3284                   20720042.3014
        47.2504         36.7504
 -19803428.93447 -15385787.57047  21770058.8914                   21770061.0864
        45.5004         42.0004
  -5674495.21546  -4402562.97745  24602899.9304                   24602904.5824
        40.7504         32.0004
  -4396324.57446  -3403419.87144  24444288.9454                   24444293.3754
        41.5004         29.2504
   7467901.84447   5845771.94946  23039343.6884                   23039342.6644
        42.7504         37.2504
 25  8  8  0 40  0.0000000  0  9G03G01G16G09G04G26G06G07G31
 -18230181.53148 -14161900.32048  20270828.4774                   20270829.5004
        49.7504         49.5004
  10929521.60546   8525350.37543  24316030.1954                   24316037.3324
        39.2504         21.7504
 -24475867.07047 -17603952.76245  21245943.4304                   21245942.1564
        46.5004         33.5004
 -14550732.60947 -11314998.17246  22677052.9064                   22677055.3524
        42.5004         39.2504
 -22884248.36747 -17791029.12146  20710414.7504                   20710414.8244
        46.5004         37.5004
 -19785069.51247 -15371481.52047  21773553.0004                   21773555.2584
        46.5004         42.0004
  -5707037.03546  -4427920.23845  24596707.8594                   24596712.2504
        40.7504         30.5004
  -4493640.88746  -3479250.51245  24425769.8364                   24425774.2664
        40.5004         30.0004
   7543248.60547   5904483.65246  23053681.8984                   23053680.8284
        43.2504         37.2504
 25  8  8  0 40 30.0000000  0  9G03G01G16G09G04G26G06G07G31
 -18211008.53948 -14146960.34448  20274477.2424                   20274478.2114
        49.7504         49.2504
  11002199.57046   8581982.16043  24329860.9384                   24329867.3674
        39.7504         21.0004
 -24551148.57447 -17662613.63345  21231617.5164                   21231616.3484
        46.7504         34.0004
 -14646768.33247 -11389831.10546  22658778.2114                   22658780.7304
        42.5004         39.2504
 -22934644.72347 -17830298.98446  20700825.1254                   20700824.8204
        46.2504         36.7504
 -19766126.85547 -15356721.00446  21777157.5234                   21777160.0634
        45.7504         41.7504
  -5739048.73047  -4452864.44945  24590616.5234                   24590620.1174
        42.0004         31.0004
  -4590778.35946  -3554941.73044  24407285.2274                   24407289.5314
        40.5004         29.2504
   7618687.77747   5963267.36346  23068037.0634                   23068036.7704
        43.5004         37.0004
 25  8  8  0 41  0.0000000  0  9G03G01G16G09G04G26G06G07G31
 -18191275.30148 -14131583.81248  20278232.2194                   20278233.2234
        49.7504         49.5004
  11074850.12946   8638592.57043  24343686.5314                   24343693.5704
        39.0004         21.2504
 -24625869.50047 -17720837.66845  21217398.8914                   21217397.4454
        47.0004         34.2504
 -14742746.33247 -11464619.07446  22640513.7114                   22640516.3324
        42.0004         39.7504
 -22984846.43747 -17869417.17646  20691271.6954                   20691270.9654
        47.5004         37.0004
 -19746603.93047 -15341508.34046  21780872.4694                   21780874.7934
        46.5004         41.7504
  -5770532.04746  -4477396.91445  24584624.8834                   24584629.3554
        40.5004         31.0004
  -4687737.78946  -3630494.25044  24388833.9614                   24388838.4574
        40.5004         29.2504
   7694216.16447   6022120.57446  23082409.5164                   23082409.3244
        43.5004         37.5004
 25  8  8  0 41 30.0000000  0  9G03G01G16G09G04G26G06G07G31
 -18170982.44548 -14115771.21948  20282093.4924                   20282094.9144
        49.7504         49.5004
  11147470.67246   8695179.71143  24357504.6174                   24357512.2114
        37.0004         20.0004
 -24700027.25047 -17778622.88345  21203286.7194                   21203285.3834
        47.0004         34.2504
 -14838665.55547 -11539361.23046  22622260.7974                   22622263.4534
        42.2504         40.0004
 -23034852.42247 -17908382.85546  20681756.1024                   20681756.0664
        47.0004         37.0004
 -19726501.93447 -15325844.44947  21784698.0084                   21784699.8324
        46.0004         42.0004
  -5801486.91846  -4501517.60945  24578734.7664                   24578738.9494
        41.5004         30.5004
  -4784518.70346  -3705907.65644  24370416.5784                   24370421.1804
        40.7504         29.5004
   7769831.75847   6081041.75846  23096798.5784                   23096798.4534
        44.2504         36.7504
 25  8  8  0 42  0.0000000  0  9G03G01G16G09G04G26G06G07G31
 -18150130.19148 -14099522.73448  20286061.6484                   20286063.0514
        49.7504         49.0004
  11220059.10546   8751741.72743  24371318.9144                   24371326.5984
        38.2504         20.5004
 -24773618.45747 -17835966.62945  21189283.1094                   21189281.6334
        46.5004         34.0004
 -14934524.61347 -11614056.50846  22604019.3204                   22604022.0784
        42.5004         39.5004
 -23084661.18447 -17947194.86746  20672277.4534                   20672277.0864
        47.2504         36.7504
 -19705821.69947 -15309729.98047  21788633.3134                   21788635.6174
        46.5004         42.0004
  -5831912.97746  -4525226.25445  24572944.6334                   24572948.7424
        40.7504         30.5004
  -4881120.07046  -3781181.19144  24352033.5944                   24352038.6254
        39.5004         28.5004
   7845533.37147   6140029.95346  23111204.4614                   23111203.9344
        43.5004         36.2504
 25  8  8  0 42 30.0000000  0  9G03G01G16G09G04G26G06G07G31
 -18128720.06648 -14082839.53948  20290135.6254                   20290136.9144
        49.7504         49.2504
  11292611.99246   8808276.10243  24385126.1024                   24385133.6684
        39.5004         21.2504
 -24846641.86747 -17892867.94545  21175387.4924                   21175386.1024
        47.0004         34.5004
 -15030323.31246 -11688704.75046  22585789.4064                   22585791.7114
        41.5004         39.5004
 -23134272.48447 -17985853.01246  20662836.6024                   20662836.9614
        46.5004         37.0004
 -19684565.35247 -15293166.59446  21792678.0164                   21792680.2894
        46.0004         41.7504
  -5861811.03546  -4548523.46145  24567254.3524                   24567259.6414
        41.2504         30.5004
  -4977541.92246  -3856314.79344  24333685.2344                   24333689.2814
        40.5004         29.5004
   7921318.48047   6199083.22346  23125625.8364                   23125625.5514
        43.7504         37.0004
 25  8  8  0 43  0.0000000  0  9G03G01G16G09G04G26G06G07G31
 -18106752.37948 -14065721.88748  20294316.1484                   20294317.4494
        49.2504         49.2504
  11365127.09846   8864781.00043  24398925.3594                   24398932.4534
        39.7504         19.5004
 -24919094.08647 -17949324.17645  21161600.1254                   21161598.4694
        46.7504         34.5004
 -15126060.28547 -11763304.89146  22567571.3984                   22567573.7234
        42.2504         39.2504
 -23183684.84847 -18024356.13746  20653434.1644                   20653433.7974
        46.7504         37.2504
 -19662733.77047 -15276154.96947  21796832.6564                   21796834.7234
        45.7504         42.0004
  -5891180.75046  -4571408.98045  24561666.7114                   24561670.4574
        40.2504         30.2504
  -5073783.15246  -3931307.67245  24315370.8594                   24315375.0634
        40.5004         30.2504
   7997185.80547   6258200.54346  23140063.0784                   23140062.8754
        44.0004         36.2504
 25  8  8  0 43 30.0000000  0  9G03G01G16G09G04G26G06G07G31
 -18084229.11748 -14048171.30948  20298602.3204                   20298603.2774
        49.7504         49.0004
  11437600.40646   8921253.37143  24412716.8984                   24412724.4534
        39.2504         19.0004
 -24990973.82047 -18005334.29745  21147921.7584                   21147920.6644
        46.2504         34.0004
 -15221735.80547 -11837857.13746  22549364.1024                   22549366.8204
        43.0004         39.7504
 -23232898.42247 -18062704.36346  20644068.8754                   20644069.0554
        46.7504         37.5004
 -19640329.60547 -15258697.19146  21801095.7344                   21801097.8714
        45.5004         41.7504
  -5920023.46146  -4593883.85945  24556177.5004                   24556181.9414
        40.7504         30.7504
  -5169844.29346  -4006160.21545  24297090.9924                   24297094.8164
        40.0004         30.5004
   8073132.32047   6317379.57846  23154515.3914                   23154514.8914
        43.5004         36.7504
 25  8  8  0 44  0.0000000  0  9G03G01G16G09G04G26G06G07G31
 -18061151.07048 -14030188.43448  20302993.6024                   20302995.0744
        49.7504         49.0004
  11510029.47746   8977691.17243  24426499.4534                   24426507.1884
        39.0004         19.5004
 -25062278.55947 -18060896.38345  21134352.9224                   21134351.2114
        46.5004         34.5004
 -15317348.83247 -11912360.69146  22531169.7584                   22531172.2624
        43.0004         39.5004
 -23281912.15647 -18100896.87146  20634742.1334                   20634741.9734
        47.0004         37.0004
 -19617354.19547 -15240794.27747  21805468.3204                   21805470.1764
        46.2504         42.0004
  -5948339.29746  -4615948.15645  24550789.6334                   24550793.7774
        41.5004         30.5004
  -5265724.87547  -4080872.08645  24278845.6804                   24278849.2424
        42.0004         31.2504
   8149156.25847   6376618.94146  23168982.3674                   23168982.0784
        43.5004         36.5004
 25  8  8  0 44 30.0000000  0  9G03G01G16G09G04G26G06G07G31
 -18037519.00048 -14011773.85948  20307490.6564                   20307492.2704
        50.0004         49.0004
  11582411.55146   9034092.41443  24440273.4454                   24440281.4694
        38.7504         19.5004
 -25133005.87547 -18116008.53545  21120893.7584                   21120892.5204
        47.0004         34.2504
 -15412898.31647 -11986814.74246  22512986.8674                   22512989.5824
        43.2504         39.5004
 -23330724.97347 -18138932.82446  20625453.2584                   20625452.8204
        47.2504         36.7504
 -19593808.93047 -15222447.32046  21809948.9534                   21809950.2384
        46.2504         41.2504
  -5976128.44946  -4637602.06645  24545501.4384                   24545505.4614
        40.5004         30.0004
  -5361424.30547  -4155442.76245  24260634.5084                   24260638.1684
        42.0004         31.2504
   8225256.07047   6435917.41846  23183463.4614                   23183463.3444
        43.7504         36.5004
 25  8  8  0 45  0.0000000  0  9G03G01G16G09G04G26G06G07G31
 -18013330.84848 -13992925.96948  20312093.4844                   20312094.6884
        49.7504         49.0004
  11654746.98046   9090457.28942  24454038.8284                   24454046.8754
        39.0004         17.7504
 -25203150.31247 -18170666.49645  21107545.5084                   21107543.7234
        46.7504         34.5004
 -15508380.39547 -12061216.26246  22494817.9924                   22494819.5744
        43.5004         40.0004
 -23379332.91847 -18176809.12146  20616203.6024                   20616203.0634
        46.7504         37.2504
 -19569692.29347 -15203655.14547  21814538.1094                   21814539.9964
        46.7504         42.2504
  -6003388.09846  -4658843.38745  24540313.9454                   24540318.3634
        41.2504         32.0004
  -5456938.73847  -4229869.29745  24242458.1804                   24242462.3524
        42.0004         31.2504
   8301432.95347   6495275.96945  23197960.1254                   23197959.1334
        43.0004         35.7504
 25  8  8  0 45 30.0000000  0  9G03G01G16G09G04G26G06G07G31
 -17988589.71948 -13973647.19148  20316801.7664                   20316802.7584
        49.7504         49.0004
  11727031.04346   9146782.11743  24467795.4694                   24467802.8914
        39.2504         19.0004
 -25272711.28547 -18224869.79745  21094308.6954                   21094307.5434
        47.0004         34.5004
 -15603796.34447 -12135566.26246  22476661.0234                   22476663.0164
        44.0004         40.2504
 -23427737.10947 -18214526.67246  20606992.3134                   20606992.2464
        47.0004         37.0004
 -19545008.03947 -15184420.66846  21819234.8054                   21819237.1524
        46.2504         41.5004
  -6030120.80146  -4679674.09045  24535227.7344                   24535231.5554
        41.0004         31.0004
  -5552270.45346  -4304153.46145  24224316.9774                   24224320.2074
        41.5004         32.2504
   8377683.05547   6554691.55946  23212469.5704                   23212469.1134
        43.2504         36.5004
 25  8  8  0 46  0.0000000  0  9G03G01G16G09G04G26G06G07G31
 -17963299.51648 -13953940.55148  20321614.4614                   20321615.4694
        49.7504         48.7504
  11799258.03546   9203062.48442  24481539.5784                   24481546.9614
        38.7504         17.7504
 -25341689.92247 -18278619.33245  21081182.5864                   21081180.9024
        47.0004         34.0004
 -15699148.08247 -12209866.22346  22458516.3594                   22458517.9384
        43.2504         40.2504
 -23475939.56647 -18252087.00846  20597819.7664                   20597819.5554
        47.5004         37.0004
 -19519760.64847 -15164747.38746  21824039.3754                   21824041.3594
        45.5004         41.5004
  -6056329.78946  -4700096.71545  24530239.6804                   24530244.0514
        41.2504         32.0004
  -5647421.27046  -4378296.66445  24206209.1174                   24206213.5824
        41.5004         32.2504
   8454001.48047   6614160.39845  23226992.6884                   23226991.9614
        42.5004         35.7504
 25  8  8  0 46 30.0000000  0  9G03G01G16G09G04G26G06G07G31
 -17937459.43048 -13933805.44548  20326531.6804                   20326533.2114
        49.2504         48.7504
  11871426.94946   9259297.49643  24495272.1174                   24495281.7664
        36.5004         19.2504
 -25410081.93447 -18331911.76645  21068167.5474                   21068166.6524
        47.0004         35.0004
 -15794432.96947 -12284114.09846  22440383.8914                   22440385.5314
        42.7504         40.5004
 -23523937.42647 -18289487.93046  20588685.8914                   20588685.8054
        47.2504         37.0004
 -19493949.87947 -15144635.10946  21828950.8054                   21828953.2774
        45.5004         41.2504
  -6082013.60246  -4720110.10245  24525352.4614                   24525356.7034
        41.5004         31.7504
  -5742389.40247  -4452297.50845  24188138.3364                   24188141.6604
        42.0004         32.0004
   8530388.46947   6673682.66045  23241528.2974                   23241528.2854
        43.2504         35.5004
 25  8  8  0 47  0.0000000  0  9G03G01G16G09G04G26G06G07G31
 -17911070.39148 -13913242.57848  20331553.3054                   20331554.3594
        49.7504         48.7504
  11943535.27746   9315485.50443  24508995.2114                   24509002.7274
        38.5004         19.5004
 -25477884.91847 -18384745.21145  21055265.0864                   21055263.7274
        47.0004         34.5004
 -15889649.93746 -12358309.05946  22422264.6254                   22422266.3874
        41.5004         40.0004
 -23571729.68447 -18326728.61746  20579591.4844                   20579590.9494
        47.2504         37.2504
 -19467577.30147 -15124085.07846  21833969.4384                   21833971.7114
        46.0004         41.5004
  -6107172.52346  -4739714.48445  24520564.7504                   24520569.2384
        39.7504         30.7504
  -5837174.25046  -4526155.53545  24170101.1484                   24170104.0554
        40.5004         32.0004
   8606842.02047   6733256.79345  23256077.6564                   23256077.1374
        42.5004         35.5004
 25  8  8  0 47 30.0000000  0  9G03G01G16G09G04G26G06G07G31
 -17884133.31248 -13892252.66848  20336679.1954                   20336680.8014
        49.2504         48.7504
  12015580.54346   9371624.15643  24522705.1954                   24522713.9924
        39.2504         19.2504
 -25545096.47747 -18437117.80945  21042475.2424                   21042473.6564
        47.0004         34.7504
 -15984797.89147 -12432450.23846  22404158.6334                   22404160.3284
        43.0004         40.7504
 -23619315.17647 -18363808.21146  20570536.4614                   20570536.0354
        47.2504         37.5004
 -19440644.38347 -15103098.41046  21839095.2114                   21839097.0274
        45.2504         41.5004
  -6131806.75446  -4758910.02045  24515877.5164                   24515881.6134
        39.5004         30.7504
  -5931775.11746  -4599870.22745  24152098.7974                   24152101.9574
        40.7504         33.0004
   8683360.77347   6792881.73445  23270637.9144                   23270638.0474
        42.7504         35.0004
 25  8  8  0 48  0.0000000  0  9G03G01G16G09G04G26G06G07G31
 -17856650.52748 -13870837.53548  20341909.1414                   20341910.7304
        49.0004         48.7504
  12087558.76646   9427710.69942  24536402.3674                   24536410.5784
        37.5004         17.2504
 -25611715.53947 -18489028.72745  21029798.0394                   21029796.3054
        46.5004         34.5004
 -16079877.20347 -12506537.93046  22386065.4844                   22386067.2344
        42.2504         40.2504
 -23666694.19147 -18400726.90246  20561520.0784                   20561519.9694
        47.2504         37.5004
 -19413154.04347 -15081677.35246  21844325.3984                   21844328.3554
        45.0004         41.0004
  -6155918.09846  -4777698.11345  24511288.8914                   24511292.9184
        41.5004         30.7504
  -6026192.57446  -4673441.99645  24134132.0554                   24134134.9304
        40.7504         32.5004
   8759941.90647   6852555.27745  23285210.9384                   23285211.2704
        42.7504         35.5004
 25  8  8  0 48 30.0000000  0  9G03G01G16G09G04G26G06G07G31
 -17828622.32848 -13848997.39548  20347242.5864                   20347243.6374
        49.2504         48.7504
  12159467.96546   9483743.35943  24550087.3834                   24550095.3954
        39.5004         20.0004
 -25677739.17247 -18540475.66845  21017234.2814                   21017232.3874
        46.7504         34.0004
 -16174886.09047 -12580570.75446  22367985.4924                   22367987.9224
        42.0004         40.5004
 -23713864.95747 -18437483.32446  20552543.9304                   20552543.5744
        47.7504         38.2504
 -19385107.19947 -15059822.69146  21849663.7734                   21849665.3204
        45.0004         41.0004
  -6179506.18046  -4796078.46145  24506800.4774                   24506804.1334
        40.2504         30.5004
  -6120425.68746  -4746870.12545  24116199.5084                   24116202.4734
        40.5004         33.2504
   8836583.94547   6912276.29346  23299795.2664                   23299795.1374
        42.5004         36.2504
 25  8  8  0 49  0.0000000  0  9G03G01G16G09G04G26G06G07G31
 -17800050.06248 -13826733.30948  20352680.1414                   20352681.1914
        49.5004         48.7504
  12231305.46546   9539720.20343  24563756.7344                   24563765.8874
        38.0004         18.2504
 -25743165.55547 -18591457.22345  21004784.2274                   21004782.1174
        47.2504         34.2504
 -16269823.80147 -12654548.11346  22349919.5084                   22349921.8204
        42.7504         41.0004
 -23760826.68047 -18474076.85546  20543607.8134                   20543607.4024
        47.7504         37.5004
 -19356505.73847 -15037535.86346  21855105.7034                   21855108.1604
        45.0004         41.2504
  -6202571.66046  -4814051.59445  24502410.3834                   24502415.4184
        39.7504         30.5004
  -6214474.25446  -4820154.46545  24098301.8134                   24098305.2894
        40.2504         33.5004
   8913285.21947   6972043.46145  23314391.6024                   23314391.1994
        42.2504         35.5004
 25  8  8  0 49 30.0000000  0  9G03G01G16G09G04G26G06G07G31
 -17770933.62948 -13804045.20348  20358220.6884                   20358221.9304
        49.5004         48.7504
  12303069.73846   9595639.92243  24577412.9384                   24577423.1564
        37.5004         18.2504
 -25807991.16447 -18641970.63345  20992447.9844                   20992446.2114
        47.5004         34.5004
 -16364688.15647 -12728468.32446  22331867.6094                   22331869.3134
        44.0004         41.0004
 -23807577.11748 -18510505.74646  20534711.5704                   20534710.5984
        48.2504         37.7504
 -19327350.16447 -15014817.24246  21860653.6024                   21860656.2034
        45.2504         41.0004
  -6225113.84846  -4831616.95345  24498120.7814                   24498125.5314
        40.0004         30.7504
  -6308336.31646  -4893293.48445  24080440.3134                   24080444.3134
        40.5004         33.0004
   8990045.12547   7031856.32445  23328998.7974                   23328998.5514
        42.2504         35.2504
 25  8  8  0 50  0.0000000  0  9G03G01G16G09G04G26G06G07G31
 -17741275.35248 -13780934.87948  20363864.7194                   20363865.9414
        49.0004         48.7504
  12374756.98446   9651499.73043  24591055.3674                   24591064.2894
        37.5004         19.0004
 -25872215.02747 -18692015.15245  20980226.7114                   20980225.0434
        46.2504         35.0004
 -16459479.39547 -12802331.55546  22313828.8364                   22313831.3594
        43.5004         41.2504
 -23854116.43048 -18546770.11746  20525854.8834                   20525854.6414
        48.0004         37.5004
 -19297643.38747 -14991669.12946  21866306.5634                   21866309.4264
        45.2504         41.2504
  -6247134.43146  -4848775.89045  24493931.8834                   24493935.2424
        41.2504         31.5004
  -6402013.00046  -4966288.05145  24062614.1174                   24062617.2814
        41.5004         33.0004
   9066861.12147   7091712.88745  23343616.4614                   23343615.9304
        42.0004         35.0004
 25  8  8  0 50 30.0000000  0  9G03G01G16G09G04G26G06G07G31
 -17711076.55948 -13757403.37548  20369610.7584                   20369612.2664
        50.0004         48.5004
  12446364.47745   9707297.26643  24604682.2584                   24604692.2734
        35.2504         19.0004
 -25935835.25847 -18741589.32045  20968119.6724                   20968118.3914
        46.0004         35.0004
 -16554196.54347 -12876137.05546  22295805.0004                   22295806.9304
        44.5004         41.5004
 -23900443.70747 -18582869.26646  20517039.3204                   20517038.9384
        47.5004         37.5004
 -19267387.28547 -14968092.95746  21872064.4384                   21872066.9574
        45.0004         41.0004
  -6268634.05946  -4865528.86745  24489839.8364                   24489844.0044
        41.2504         31.0004
  -6495503.89147  -5039137.85945  24044823.6024                   24044826.4304
        43.0004         33.2504
   9143731.09446   7151611.51645  23358244.4924                   23358243.8404
        41.5004         35.2504
 25  8  8  0 51  0.0000000  0  9G03G01G16G09G04G26G06G07G31
 -17680338.71948 -13733451.82848  20375460.2664                   20375461.7304
        49.5004         48.7504
  12517889.19546   9763030.45743  24618292.8594                   24618302.4454
        37.2504         19.7504
 -25998849.86747 -18790691.57445  20956128.6094                   20956126.5434
        47.5004         34.5004
 -16648839.00047 -12949884.36746  22277795.1884                   22277797.1844
        44.0004         41.2504
 -23946558.27347 -18618802.67646  20508264.1024                   20508263.7974
        47.2504         38.2504
 -19236583.94147 -14944090.36346  21877926.3134                   21877928.4344
        45.0004         40.7504
  -6289613.65646  -4881876.63745  24485847.2424                   24485852.2074
        40.7504         30.2504
  -6588808.56647  -5111842.57045  24027068.3594                   24027071.0594
        42.5004         33.2504
   9220653.29746   7211550.84445  23372881.7664                   23372882.0744
        41.2504         35.2504
 25  8  8  0 51 30.0000000  0  9G03G01G16G09G04G26G06G07G31
 -17649063.16848 -13709081.29348  20381411.7974                   20381413.0514
        49.0004         48.7504
  12589328.44546   9818696.94543  24631888.8594                   24631897.5984
        39.0004         19.2504
 -26061256.92647 -18839320.41845  20944252.5634                   20944251.1604
        46.5004         35.0004
 -16743405.85247 -13023572.75446  22259799.6644                   22259801.3794
        44.0004         41.5004
 -23992459.27348 -18654569.65246  20499529.0704                   20499529.2734
        48.2504         38.0004
 -19205235.27047 -14919662.84046  21883891.6804                   21883894.0824
        44.5004         40.5004
  -6310073.91846  -4897819.72345  24481953.5634                   24481958.4694
        41.2504         31.0004
  -6681927.25447  -5184402.37145  24009348.0784                   24009350.8444
        42.2504         32.5004
   9297625.69146   7271529.28945  23387529.1024                   23387529.4184
        41.0004         35.0004
 25  8  8  0 52  0.0000000  0  9G03G01G16G09G04G26G06G07G31
 -17617250.65648 -13684292.34848  20387465.4534                   20387466.7974
        49.2504         48.5004
  12660680.18846   9874295.26243  24645465.3984                   24645475.8444
        36.2504         18.5004
 -26123054.02047 -18887473.95345  20932493.0634                   20932492.0514
        46.2504         34.7504
 -16837895.56247 -13097201.04347  22241818.9224                   22241820.8204
        44.0004         42.0004
 -24038145.05147 -18690168.94146  20490835.7424                   20490834.8164
        47.2504         37.5004
 -19173342.55547 -14894811.38346  21889960.8284                   21889963.1914
        45.5004         41.0004
  -6330014.82446  -4913358.12945  24478159.3834                   24478163.9534
        40.7504         30.7504
  -6774859.00846  -5256816.50845  23991663.5004                   23991666.4694
        40.5004         32.2504
   9374647.45746   7331546.19545  23402186.1884                   23402186.1994
        41.5004         34.2504
 25  8  8  0 52 30.0000000  0  9G03G01G16G09G04G26G06G07G31
 -17584904.25048 -13659087.37948  20393621.2194                   20393622.4144
        49.2504         48.5004
  12731939.96946   9929821.94543  24659025.8674                   24659036.1564
        36.5004         19.7504
 -26184240.77347 -18935151.90645  20920849.9454                   20920848.0664
        46.5004         34.5004
 -16932308.91847 -13170769.83246  22223852.8834                   22223854.2464
        43.2504         41.2504
 -24083616.46547 -18725601.18746  20482182.5394                   20482182.1024
        47.5004         37.5004
 -19140909.46147 -14869538.85946  21896133.0394                   21896134.6334
        45.0004         40.7504
  -6349439.10246  -4928493.95345  24474462.3754                   24474467.8364
        38.5004         31.0004
  -6867605.08246  -5329085.95745  23974015.1254                   23974017.1764
        41.0004         33.0004
   9451714.77746   7391598.60545  23416851.5944                   23416851.3834
        41.0004         34.5004
 25  8  8  0 53  0.0000000  0  9G03G01G16G09G04G26G06G07G31
 -17552023.13748 -13633465.75848  20399877.7344                   20399878.8674
        49.5004         48.5004
  12803107.41846   9985276.66042  24672569.7344                   24672579.1054
        36.2504         17.7504
 -26244813.23847 -18982351.19145  20909323.0634                   20909321.5664
        46.5004         34.5004
 -17026642.80547 -13244276.69546  22205901.4144                   22205902.9804
        44.2504         41.2504
 -24128870.34047 -18760863.93046  20473570.9844                   20473570.5164
        47.7504         37.7504
 -19107935.75447 -14843845.07446  21902407.6484                   21902409.6334
        44.7504         40.0004
  -6368345.00046  -4943225.85245  24470865.1414                   24470869.5434
        40.2504         31.5004
  -6960162.77346  -5401208.65645  23956401.1954                   23956404.0984
        39.5004         32.5004
   9528828.28146   7451686.98445  23431525.8524                   23431525.6604
        41.5004         34.7504
 25  8  8  0 53 30.0000000  0  9G03G01G16G09G04G26G06G07G31
 -17518608.35548 -13607428.29748  20406236.7424                   20406238.3714
        49.2504         48.5004
  12874179.98446  10040657.50843  24686094.5554                   24686104.8094
        36.0004         19.0004
 -26304769.23847 -19029070.11745  20897914.0554                   20897912.4614
        46.0004         34.7504
 -17120895.91047 -13317720.61346  22187965.6954                   22187967.3364
        45.0004         41.5004
 -24173905.37148 -18795956.14546  20465001.1414                   20465000.7424
        48.0004         37.7504
 -19074422.95347 -14817731.21546  21908784.7114                   21908786.5164
        44.5004         40.0004
  -6386733.03946  -4957554.23445  24467365.4694                   24467370.7894
        39.5004         31.0004
  -7052531.84046  -5473184.33645  23938824.1414                   23938826.8914
        41.5004         33.5004
   9605986.53146   7511810.24245  23446208.1724                   23446208.5044
        41.2504         34.0004
 25  8  8  0 54  0.0000000  0  9G03G01G16G09G04G26G06G07G31
 -17484663.96548 -13580978.14848  20412696.2814                   20412697.1914
        49.2504         48.5004
  12945152.60546  10095960.43443  24699601.4774                   24699610.3754
        38.2504         18.2504
 -26364109.43447 -19075309.19145  20886621.7584                   20886620.0554
        46.0004         34.7504
 -17215069.94147 -13391102.91846  22170044.4454                   22170046.6954
        44.5004         41.7504
 -24218723.23848 -18830879.14546  20456472.8204                   20456472.0744
        48.2504         37.5004
 -19040375.77347 -14791200.94546  21915263.4844                   21915266.1764
        45.0004         39.7504
  -6404606.75046  -4971481.81645  24463965.4144                   24463970.0434
        38.5004         31.7504
  -7144714.57446  -5545014.87145  23921282.0004                   23921284.2934
        41.2504         33.5004
   9683185.23046   7571965.01245  23460899.3364                   23460898.8834
        41.7504         33.5004
 25  8  8  0 54 30.0000000  0  9G03G01G16G09G04G26G06G07G31
 -17450189.48848 -13554114.94948  20419256.3754                   20419257.8594
        49.0004         48.5004
  13016024.27045  10151184.72342  24713086.6094                   24713097.5824
        35.5004         17.2504
 -26422830.35547 -19121065.72345  20875447.7034                   20875446.1914
        45.7504         35.7504
 -17309162.04347 -13464421.37946  22152139.4064                   22152141.2814
        45.0004         41.7504
 -24263321.13747 -18865630.73446  20447985.7194                   20447985.5554
        47.2504         37.7504
 -19005794.32847 -14764254.37546  21921844.2344                   21921846.3364
        44.5004         40.0004
  -6421965.02746  -4985007.78945  24460662.6884                   24460666.2074
        40.5004         32.0004
  -7236709.02046  -5616698.65245  23903775.3674                   23903778.3364
        40.7504         33.0004
   9760424.67646   7632151.52745  23475596.7344                   23475597.0044
        41.2504         33.5004
 25  8  8  0 55  0.0000000  0  9G03G01G16G09G04G26G06G07G31
 -17415184.73048 -13526838.54748  20425917.6174                   20425918.9144
        49.0004         48.5004
  13086794.07846  10206329.59443  24726555.6564                   24726565.2194
        38.5004         19.0004
 -26480928.09847 -19166336.65245  20864391.9774                   20864390.7814
        45.7504         35.2504
 -17403169.51647 -13537673.89546  22134250.3364                   22134252.3244
        45.2504         41.7504
 -24307696.41048 -18900208.86746  20439541.4224                   20439541.4804
        48.5004         37.0004
 -18970678.88347 -14736891.70346  21928526.0704                   21928528.6484
        44.5004         39.5004
  -6438807.05146  -4998131.48045  24457457.0004                   24457461.6724
        37.7504         31.7504
  -7328512.94546  -5688233.97345  23886305.7584                   23886308.2624
        40.7504         32.5004
   9837704.74646   7692369.69545  23490303.4844                   23490303.0704
        41.2504         34.0004
 25  8  8  0 55 30.0000000  0  9G03G01G16G09G04G26G06G07G31
 -17379650.21148 -13499149.34048  20432679.6954                   20432680.7664
        48.7504         48.2504
  13157460.40246  10261393.86743  24740002.1174                   24740013.3164
        36.5004         18.5004
 -26538400.26647 -19211120.12945  20853455.2664                   20853453.7544
        46.0004         35.5004
 -17497090.48047 -13610859.00047  22116377.3674                   22116379.8364
        45.0004         42.0004
 -24351847.07048 -18934611.96146  20431139.8524                   20431139.5984
        48.0004         38.5004
 -18935030.54347 -14709113.79346  21935310.1174                   21935312.2464
        44.5004         39.7504
  -6455132.57846  -5010852.70345  24454350.3594                   24454355.1374
        39.0004         31.0004
  -7420124.92646  -5759619.71145  23868872.3524                   23868875.2894
        41.5004         33.0004
   9915024.62146   7752618.87945  23505016.5004                   23505016.8634
        40.7504         34.2504
 25  8  8  0 56  0.0000000  0  9G03G01G16G09G04G26G06G07G31
 -17343587.16447 -13471048.29348  20439541.8754                   20439543.6644
        47.7504         48.2504
  13228020.85546  10316375.60943  24753431.2114                   24753441.0084
        39.0004         19.5004
 -26595244.98447 -19255414.68045  20842638.1414                   20842636.4694
        46.0004         34.7504
 -17590923.67647 -13683975.71547  22098522.0864                   22098523.7934
        44.7504         42.0004
 -24395771.94948 -18968839.13346  20422781.0634                   20422780.5234
        48.0004         38.0004
 -18898851.15247 -14680922.07046  21942195.0004                   21942197.1764
        43.5004         39.7504
  -6470942.43446  -5023172.10945  24451341.6174                   24451346.4104
        38.5004         30.7504
  -7511544.64846  -5830855.66045  23851475.5164                   23851478.0354
        41.5004         32.2504
   9992383.05146   7812898.10545  23519737.0784                   23519737.5784
        41.2504         33.7504
 25  8  8  0 56 30.0000000  0  9G03G01G16G09G04G26G06G07G31
 -17306999.36348 -13442538.35548  20446504.4384                   20446505.5944
        48.0004         48.0004
  13298470.60245  10371271.11343  24766837.1484                   24766847.4924
        35.5004         19.2504
 -26651462.63747 -19299220.61345  20831940.5004                   20831939.0164
        45.7504         35.5004
 -17684670.38347 -13757025.04347  22080682.3674                   22080684.0824
        44.5004         42.2504
 -24439472.31247 -19002891.35946  20414464.9774                   20414465.1054
        47.5004         38.0004
 -18862144.94547 -14652319.84446  21949179.9144                   21949181.7034
        44.0004         39.0004
  -6486239.69946  -5035092.10545  24448431.5944                   24448435.8634
        40.5004         30.2504
  -7602774.47746  -5901943.63745  23834114.3364                   23834117.7384
        39.2504         32.0004
  10069776.35946   7873204.50045  23534465.1724                   23534465.1524
        41.0004         34.0004
 25  8  8  0 57  0.0000000  0  9G03G01G16G09G04G26G06G07G31
 -17269889.79748 -13413621.84448  20453566.2664                   20453567.5904
        48.0004         48.0004
  13368805.53146  10426077.10943  24780221.1174                   24780231.5944
        36.5004         19.5004
 -26707052.77747 -19342537.58245  20821361.8284                   20821360.3524
        46.0004         34.7504
 -17778331.02047 -13830007.30547  22062859.1644                   22062861.3054
        45.2504         42.2504
 -24482948.62548 -19036768.99646  20406191.8594                   20406191.7814
        48.0004         37.7504
 -18824915.55147 -14623309.94146  21956264.0164                   21956266.3164
        44.0004         39.5004
  -6501026.72346  -5046614.48845  24445616.2194                   24445621.8914
        39.2504         31.2504
  -7693815.71546  -5972884.64145  23816790.5234                   23816792.9694
        41.2504         32.7504
  10147201.01646   7933535.31645  23549198.8054                   23549198.8484
        41.5004         34.2504
 25  8  8  0 57 30.0000000  0  9G03G01G16G09G04G26G06G07G31
 -17232259.43048 -13384299.50848  20460726.8674                   20460728.4774
        49.0004         48.2504
  13439023.54746  10480791.99643  24793583.7974                   24793594.0984
        37.0004         19.0004
 -26762013.38347 -19385363.99645  20810903.0944                   20810901.7584
        46.0004         34.7504
 -17871903.98447 -13902921.24247  22045052.8594                   22045054.6724
        45.0004         42.0004
 -24526199.30948 -19070470.81246  20397961.7504                   20397961.2154
        49.0004         37.5004
 -18787164.43447 -14593893.50446  21963448.4454                   21963450.2274
        43.7504         39.5004
  -6515303.96546  -5057739.65245  24442901.4774                   24442905.0824
        39.2504         30.5004
  -7784667.19146  -6043677.79345  23799501.6804                   23799503.9264
        41.2504         32.5004
  10224655.87547   7993889.66445  23563938.3674                   23563937.8634
        42.2504         33.5004
 25  8  8  0 58  0.0000000  0  9G03G01G16G09G04G26G06G07G31
 -17194111.43748 -13354573.83248  20467986.7424                   20467987.7894
        48.7504         48.0004
  13509120.50446  10535412.58643  24806923.0314                   24806934.1134
        37.2504         21.0004
 -26816344.65647 -19427700.02045  20800564.2584                   20800562.8754
        45.5004         34.5004
 -17965389.87947 -13975767.33247  22027263.1334                   22027265.0824
        45.5004         42.0004
 -24569224.96948 -19103997.29346  20389774.0784                   20389773.3834
        48.0004         37.5004
 -18748895.30147 -14564073.41046  21970730.8284                   21970732.7664
        44.7504         40.0004
  -6529073.90646  -5068469.50445  24440280.1804                   24440284.7814
        39.0004         30.7504
  -7875330.37546  -6114324.21545  23782248.3834                   23782251.3914
        41.0004         32.7504
  10302137.96546   8054265.23845  23578682.8594                   23578682.4844
        41.2504         34.0004
 25  8  8  0 58 30.0000000  0  9G03G01G16G09G04G26G06G07G31
 -17155445.06648 -13324444.22748  20475344.5554                   20475345.8554
        48.2504         48.0004
  13579096.28146  10589938.74643  24820240.0944                   24820250.2974
        37.5004         19.5004
 -26870042.28147 -19469542.29345  20790345.7274                   20790344.3054
        45.7504         35.0004
 -18058785.27347 -14048542.89847  22009490.2734                   22009492.3554
        45.2504         42.2504
 -24612022.28147 -19137345.84846  20381630.1094                   20381629.4574
        47.7504         37.7504
 -18710107.92647 -14533849.50446  21978111.6174                   21978113.7114
        43.7504         39.7504
  -6542335.27346  -5078803.07045  24437755.9534                   24437761.2504
        39.5004         31.2504
  -7965802.64846  -6184821.87145  23765032.2424                   23765034.7194
        41.2504         32.0004
  10379648.25046   8114662.77345  23593431.9304                   23593432.0164
        41.7504         33.7504
 25  8  8  0 59  0.0000000  0  9G03G01G16G09G04G26G06G07G31
 -17116263.21548 -13293912.93747  20482800.5394                   20482801.8634
        48.5004         47.7504
  13648946.96146  10644367.45343  24833531.7034                   24833542.9184
        37.0004         20.0004
 -26923106.06247 -19510890.65245  20780248.0704                   20780246.3324
        45.5004         35.2504
 -18152090.47347 -14121248.19147  21991735.6094                   21991737.3324
        45.0004         42.5004
 -24654591.49648 -19170516.65246  20373529.4924                   20373529.0704
        48.0004         38.2504
 -18670805.75047 -14503224.44946  21985590.4924                   21985592.7464
        44.5004         39.5004
  -6555090.34846  -5088742.12545  24435329.4844                   24435334.1024
        39.5004         30.7504
  -8056085.16847  -6255171.66045  23747852.0004                   23747854.3634
        42.0004         32.7504
  10457183.76746   8175079.97645  23608186.7734                   23608186.8834
        41.2504         33.2504
 25  8  8  0 59 30.0000000  0  9G03G01G16G09G04G26G06G07G31
 -17076566.74248 -13262980.65247  20490354.4534                   20490356.3014
        49.2504         47.7504
  13718670.64145  10698697.23843  24846799.8834                   24846810.9804
        35.5004         19.2504
 -26975533.73447 -19551743.34445  20770271.2664                   20770269.9964
        45.5004         35.5004
 -18245303.61347 -14193881.74647  21973997.8754                   21973999.1254
        46.0004         42.0004
 -24696930.87948 -19203508.37546  20365472.4614                   20365472.3554
        48.5004         38.0004
 -18630990.19947 -14472199.36346  21993167.4924                   21993169.2504
        44.0004         39.2504
  -6567339.36746  -5098286.85545  24432998.4924                   24433003.1524
        40.0004         32.0004
  -8146176.94946  -6325372.82845  23730708.0004                   23730710.1644
        41.5004         33.5004
  10534743.46947   8235516.02045  23622945.9924                   23622946.1024
        42.2504         34.2504
 25  8  8  1  0  0.0000000  0  9G03G01G16G09G04G26G06G07G31
 -17036357.90247 -13231649.12547  20498006.1174                   20498007.4414
        47.7504         47.7504
  13788264.27046  10752925.61343  24860044.0784                   24860054.8874
        37.0004         18.5004
 -27027324.03147 -19592099.39145  20760415.6024                   20760414.0434
        45.5004         35.2504
 -18338424.22747 -14266443.20347  21956276.8524                   21956278.7424
        46.0004         42.2504
 -24739039.95348 -19236320.62946  20357459.1884                   20357459.0664
        48.0004         38.5004
 -18590663.96947 -14440776.35246  22000841.3364                   22000843.4414
        44.0004         39.0004
  -6579084.03546  -5107438.59445  24430764.4454                   24430768.2624
        40.7504         30.7504
  -8236078.43747  -6395425.71945  23713600.2664                   23713602.4414
        42.0004         33.5004
  10612325.41447   8295969.39545  23637709.1024                   23637709.4024
        42.2504         34.0004
 25  8  8  1  0 30.0000000  0  9G03G01G16G09G04G26G06G07G31
 -16995637.35548 -13199918.85947  20505754.8444                   20505756.6764
        48.2504         47.5004
  13857726.35946  10807051.48843  24873262.3204                   24873273.4574
        37.2504         19.5004
 -27078475.06647 -19631957.29345  20750682.1564                   20750680.8164
        46.0004         35.7504
 -18431450.28147 -14338930.98047  21938574.7344                   21938576.2384
        45.7504         42.2504
 -24780916.77747 -19268951.91046  20349490.6254                   20349490.0434
        47.7504         38.5004
 -18549828.32847 -14408956.39846  22008611.8914                   22008613.8874
        43.5004         39.0004
  -6590324.40246  -5116197.35545  24428624.5004                   24428628.8914
        39.7504         31.0004
  -8325788.31247  -6465329.30145  23696528.9144                   23696531.0434
        43.2504         34.2504
  10689928.57847   8356439.29745  23652476.9384                   23652476.5274
        42.5004         33.5004
 25  8  8  1  1  0.0000000  0  9G03G01G16G09G04G26G06G07G31
 -16954406.68448 -13167791.10247  20513601.0784                   20513602.3914
        48.0004         47.7504
  13927054.41046  10861072.96943  24886455.1414                   24886466.4414
        36.0004         18.5004
 -27128985.06247 -19671315.71145  20741070.5554                   20741068.4224
        45.5004         35.7504
 -18524380.60247 -14411344.15247  21920890.7344                   21920892.0204
        45.2504         42.2504
 -24822560.22347 -19301401.33646  20341565.8594                   20341565.3794
        47.7504         38.2504
 -18508485.35247 -14376741.11746  22016479.0634                   22016481.0164
        43.0004         39.2504
  -6601061.60546  -5124564.05145  24426581.3754                   24426585.9144
        39.5004         30.0004
  -8415306.89147  -6535083.82445  23679494.2584                   23679495.8954
        42.5004         34.5004
  10767551.90246   8416924.90245  23667248.1884                   23667248.0904
        41.7504         34.0004
 25  8  8  1  1 30.0000000  0  9G03G01G16G09G04G26G06G07G31
 -16912667.75448 -13135267.28947  20521543.5234                   20521544.9064
        48.5004         47.5004
  13996245.68446  10914987.84842  24899622.1484                   24899633.7424
        37.0004         17.2504
 -27178852.66847 -19710173.54745  20731581.1724                   20731579.2734
        45.7504         35.2504
 -18617214.21547 -14483681.97747  21903225.1724                   21903226.6374
        45.5004         42.2504
 -24863969.38348 -19333668.20346  20333686.2344                   20333685.9024
        48.0004         37.5004
 -18466637.39147 -14344132.34846  22024442.3284                   22024444.7544
        43.5004         39.2504
  -6611296.71546  -5132539.50045  24424633.6884                   24424638.1134
        38.7504         30.5004
  -8504633.75847  -6604688.97345  23662495.2734                   23662497.5944
        42.5004         34.2504
  10845193.71546   8477424.92645  23682023.4614                   23682022.8364
        41.7504         33.2504
 25  8  8  1  2  0.0000000  0  9G03G01G16G09G04G26G06G07G31
 -16870424.27348 -13102350.32847  20529582.5704                   20529583.9654
        48.5004         47.5004
  14065295.72745  10968792.72343  24912761.6564                   24912773.7704
        35.5004         19.7504
 -27228078.48847 -19748531.30145  20722213.7894                   20722211.7624
        45.7504         35.5004
 -18709952.03147 -14555945.14547  21885577.4224                   21885578.7074
        44.7504         42.7504
 -24905145.24648 -19365753.28146  20325850.5234                   20325850.2704
        48.2504         38.2504
 -18424288.68047 -14311133.38346  22032501.4064                   22032503.5354
        43.2504         39.0004
  -6621032.91446  -5140126.17645  24422780.1884                   24422785.5984
        38.7504         31.2504
  -8593770.65247  -6674146.09445  23645532.7344                   23645534.9574
        42.0004         34.0004
  10922850.60246   8537936.69945  23696800.9614                   23696800.9344
        41.5004         33.2504
 25  8  8  1  2 30.0000000  0  9G03G01G16G09G04G26G06G07G31
 -16827678.04348 -13069041.61347  20537716.6884                   20537718.1134
        48.7504         47.5004
  14134202.01245  11022485.60543  24925874.2114                   24925886.0784
        35.7504         19.7504
 -27276661.06647 -19786387.83645  20712968.7034                   20712966.8284
        45.7504         35.7504
 -18802592.99647 -14628132.85547  21867948.2974                   21867949.5944
        46.0004         42.0004
 -24946086.82047 -19397655.79746  20318059.7274                   20318059.3914
        47.0004         38.2504
 -18381441.52047 -14277746.01646  22040655.1804                   22040657.0704
        43.7504         39.0004
  -6630271.47346  -5147325.09245  24421022.5634                   24421028.0044
        39.0004         30.5004
  -8682717.77347  -6743455.31645  23628606.3594                   23628608.7934
        43.0004         33.2504
  11000520.66446   8598458.73845  23711580.7814                   23711580.6564
        41.2504         33.5004
 25  8  8  1  3  0.0000000  0  9G03G01G16G09G04G26G06G07G31
 -16784428.06648 -13035340.37547  20545947.2274                   20545948.2894
        48.5004         47.5004
  14202964.76646  11076066.63343  24938959.6484                   24938971.8954
        36.0004         19.7504
 -27324596.46947 -19823740.07045  20703846.7114                   20703845.4414
        46.0004         35.7504
 -18895133.27047 -14700242.09447  21850338.4694                   21850340.0944
        45.2504         42.5004
 -24986790.30948 -19429372.78946  20310313.9304                   20310313.5044
        48.0004         38.0004
 -18338095.40247 -14243969.84846  22048903.5864                   22048905.5784
        43.5004         39.7504
  -6639010.84446  -5154135.03145  24419360.0554                   24419364.8674
        39.5004         30.5004
  -8771471.75447  -6812614.06245  23611717.7344                   23611718.9384
        42.0004         33.5004
  11078205.34846   8658992.18045  23726363.6724                   23726363.5354
        41.5004         33.5004
 25  8  8  1  3 30.0000000  0  9G03G01G16G09G04G26G06G07G31
 -16740677.65648 -13001249.17247  20554272.2664                   20554273.9534
        48.5004         47.5004
  14271579.92246  11129532.69943  24952017.2504                   24952029.0864
        38.7504         21.0004
 -27371884.86347 -19860588.14145  20694848.0864                   20694846.5044
        46.2504         35.2504
 -18987573.23847 -14772273.18447  21832747.4694                   21832749.3484
        45.2504         42.5004
 -25027256.25847 -19460904.68446  20302613.7274                   20302613.1254
        47.5004         37.5004
 -18294254.21147 -14209807.91446  22057246.2504                   22057248.0554
        43.0004         39.7504
  -6647253.78546  -5160558.14145  24417791.9384                   24417796.7464
        38.0004         30.2504
  -8860034.57447  -6881623.86345  23594863.8204                   23594866.0124
        42.2504         34.2504
  11155901.74246   8719534.74245  23741149.0164                   23741149.1254
        40.5004         32.5004
 25  8  8  1  4  0.0000000  0  9G03G01G16G09G04G26G06G07G31
 -16696426.08648 -12966767.46947  20562693.2974                   20562694.7424
        48.5004         47.5004
  14340047.74646  11182883.92643  24965046.5634                   24965058.3364
        39.0004         19.5004
 -27418522.56647 -19896929.17645  20685973.2194                   20685971.8484
        46.5004         35.5004
 -19079909.25447 -14844223.25847  21815176.7504                   21815178.4144
        46.0004         42.5004
 -25067481.08648 -19492248.69546  20294959.4774                   20294958.5664
        48.0004         38.0004
 -18249917.67247 -14175259.98046  22065683.3204                   22065685.4924
        43.0004         39.0004
  -6654998.98846  -5166593.40245  24416316.7504                   24416322.3164
        38.7504         30.7504
  -8948403.29347  -6950482.44145  23578047.8834                   23578049.3244
        42.7504         34.5004
  11233610.73846   8780087.13745  23755936.4924                   23755936.4734
        40.5004         32.7504
 25  8  8  1  4 30.0000000  0  9G03G01G16G09G04G26G06G07G31
 -16651676.08648 -12931897.37547  20571209.1644                   20571210.4344
        49.5004         47.5004
  14408364.65246  11236117.49643  24978047.0944                   24978058.6094
        39.2504         19.7504
 -27464509.03947 -19932762.76645  20677222.2974                   20677220.3094
        47.0004         35.5004
 -19172141.07047 -14916092.14547  21797625.6724                   21797627.2774
        45.7504         42.5004
 -25107464.62547 -19523404.68746  20287350.5004                   20287349.8754
        47.5004         38.0004
 -18205088.91847 -14140328.51646  22074213.7974                   22074216.3834
        43.0004         39.5004
  -6662248.53546  -5172242.43744  24414938.1884                   24414942.9184
        38.0004         29.5004
  -9036578.68447  -7019190.37145  23561269.1724                   23561270.3914
        44.0004         34.0004
  11311329.79346   8840647.36745  23770725.7894                   23770726.3204
        40.0004         33.0004
 25  8  8  1  5  0.0000000  0  9G03G01G16G09G04G26G06G07G31
 -16606429.39848 -12896640.24647  20579819.1094                   20579820.7034
        48.5004         47.5004
  14476528.15246  11289231.67243  24991018.3134                   24991030.3094
        36.5004         19.7504
 -27509842.94947 -19968087.85245  20668595.4304                   20668594.1374
        47.5004         35.0004
 -19264267.49247 -14987878.90647  21780094.4144                   21780095.9384
        45.5004         42.5004
 -25147205.77347 -19554371.80546  20279787.7814                   20279787.6684
        47.7504         38.0004
 -18159770.28147 -14105015.32446  22082837.5944                   22082839.3014
        43.0004         39.5004
  -6669003.72346  -5177506.25845  24413652.2114                   24413657.3524
        38.2504         30.0004
  -9124560.60947  -7087747.56245  23544526.2974                   23544527.7584
        43.0004         34.5004
  11389057.73846   8901214.53145  23785517.3204                   23785517.7974
        40.0004         32.0004
 25  8  8  1  5 30.0000000  0  9G03G01G16G09G04G26G06G07G31
 -16560688.88748 -12860998.33647  20588523.4384                   20588524.9414
        48.5004         47.2504
  14544535.03546  11342223.68443  25003959.6334                   25003972.2034
        38.2504         19.7504
 -27554524.22347 -20002904.40645  20660092.7504                   20660091.2974
        46.5004         34.5004
 -19356288.43747 -15059583.48447  21762583.2274                   21762584.8634
        46.2504         42.5004
 -25186704.51647 -19585150.03946  20272271.5554                   20272271.0394
        47.5004         38.0004
 -18113965.10247 -14069322.99646  22091554.0704                   22091556.4654
        43.0004         39.0004
  -6675266.87546  -5182386.66844  24412460.9534                   24412465.2344
        39.0004         29.5004
  -9212349.97747  -7156154.71545  23527820.8364                   23527821.5234
        44.0004         34.7504
  11466791.75846   8961786.44145  23800309.2034                   23800309.7854
        39.2504         32.2504
 25  8  8  1  6  0.0000000  0  8G03G16G09G04G26G06G07G31
 -16514455.57848 -12824972.41047  20597321.1484                   20597322.5354
        48.5004         47.2504
 -27598550.87947 -20037210.86345  20651714.6884                   20651712.8484
        47.5004         35.0004
 -19448201.80947 -15131204.23447  21745092.6564                   21745094.4024
        46.0004         42.5004
 -25225958.94147 -19615737.89146  20264801.6094                   20264801.1174
        47.5004         37.5004
 -18067674.85547 -14033252.71546  22100363.0554                   22100364.8284
        42.7504         39.5004
  -6681038.39546  -5186883.98445  24411363.6024                   24411367.2114
        38.7504         30.2504
  -9299945.84847  -7224411.10945  23511151.0474                   23511152.8134
        42.5004         35.0004
  11544531.69946   9022362.97345  23815103.3134                   23815102.6914
        40.5004         33.0004
 25  8  8  1  6 30.0000000  0  8G03G16G09G04G26G06G07G31
 -16467731.07048 -12788563.74647  20606212.9064                   20606214.0514
        48.5004         47.2504
 -27641921.46947 -20071006.10545  20643461.4844                   20643460.0164
        46.5004         34.5004
 -19540006.15647 -15202740.02347  21727622.9614                   21727624.2034
        45.5004         42.7504
 -25264967.65247 -19646134.27746  20257378.6484                   20257378.4734
        47.5004         37.7504
 -18020901.59847 -13996806.03146  22109263.9064                   22109266.2274
        43.0004         39.7504
  -6686319.37146  -5190999.05545  24410358.4534                   24410362.1914
        39.0004         30.2504
  -9387347.90647  -7292516.46145  23494519.3524                   23494520.7624
        44.0004         34.7504
  11622276.18846   9082943.02345  23829897.4694                   23829897.8054
        41.0004         32.5004
 25  8  8  1  7  0.0000000  0  8G03G16G09G04G26G06G07G31
 -16420516.10548 -12751772.91047  20615197.6094                   20615199.1214
        48.0004         47.2504
 -27684633.58647 -20104288.25045  20635333.7894                   20635332.1804
        47.5004         35.2504
 -19631699.07047 -15274188.98847  21710174.2504                   21710175.4844
        46.2504         42.7504
 -25303728.44547 -19676337.48846  20250002.2344                   20250001.8914
        47.5004         38.0004
 -17973646.52347 -13959983.92246  22118255.7344                   22118257.8874
        42.7504         38.2504
  -6691109.95346  -5194732.00444  24409445.7734                   24409451.0204
        38.7504         29.5004
  -9474554.58647  -7360469.60245  23477923.2504                   23477925.4884
        43.0004         33.5004
  11700025.09046   9143526.52745  23844692.1954                   23844692.3674
        41.0004         31.0004
 25  8  8  1  7 30.0000000  0  8G03G16G09G04G26G06G07G31
 -16372808.07448 -12714597.85547  20624275.8594                   20624277.6684
        48.0004         47.2504
 -27726681.81647 -20137053.07445  20627332.3364                   20627330.8554
        46.0004         35.0004
 -19723275.01647 -15345546.80547  21692747.9844                   21692749.5164
        45.5004         43.0004
 -25342235.84447 -19706343.23446  20242674.7584                   20242674.4964
        46.2504         38.2504
 -17925907.60947 -13922784.79746  22127340.1804                   22127342.4454
        42.5004         39.2504
  -6695407.14546  -5198080.50845  24408629.0084                   24408633.1914
        38.2504         30.0004
  -9561561.47347  -7428267.03945  23461367.3134                   23461368.6174
        43.5004         34.0004
  11777781.18046   9204115.64145  23859488.7814                   23859489.3594
        41.2504         31.5004
 25  8  8  1  8  0.0000000  0  8G03G16G09G04G26G06G07G31
 -14749189.48447 -11449440.55547  20933240.3984                   20933242.2504
        47.7504         47.0004
 -26192642.62147 -18941697.82845  20919250.3914                   20919248.2774
        47.0004         35.5004
 -18239308.55947 -14189209.24647  21975137.0864                   21975138.8634
        46.0004         43.2504
 -23805066.35947 -18508548.81646  20535188.7504                   20535188.3164
        47.7504         37.5004
 -16302267.64547 -12657610.84046  22436308.6174                   22436310.5784
        43.0004         39.5004
  -5123790.99646  -3973444.56244  24707697.6094                   24707701.9844
        39.0004         29.7504
  -8072944.80547  -6268305.87945  23744641.4844                   23744642.4574
        43.2504         34.2504
  13430962.01246  10492308.44145  24174079.1024                   24174079.2974
        41.0004         31.5004
 25  8  8  1  8 30.0000000  0  8G03G16G09G04G26G06G07G31
 -14700505.51248 -11411505.03147  20942504.6334                   20942506.1374
        48.0004         47.0004
 -26233364.30548 -18973428.97745  20911500.8054                   20911499.4064
        48.0004         35.5004
 -18330651.07847 -14260385.17647  21957755.5084                   21957756.3164
        45.5004         43.0004
 -23843067.93747 -18538160.41446  20527956.8594                   20527956.6644
        47.0004         38.5004
 -16253572.38747 -12619666.52346  22445575.2974                   22445578.2504
        42.0004         38.5004
  -5127109.69946  -3976030.60544  24707065.1414                   24707070.2854
        39.0004         29.5004
  -8159556.42247  -6335795.32045  23728159.2814                   23728161.1564
        42.7504         34.0004
  13508724.63746  10552902.63345  24188876.3984                   24188877.0434
        40.5004         30.7504
 25  8  8  1  9  0.0000000  0  8G03G16G09G04G26G06G07G31
 -14651340.19547 -11373194.44147  20951860.0704                   20951862.0084
        47.5004         47.0004
 -26273424.64847 -19004644.80545  20903877.6094                   20903876.0314
        47.5004         35.5004
 -18421878.80947 -14331471.65647  21940395.3834                   21940396.9104
        46.0004         43.0004
 -23880818.72348 -18567576.60246  20520773.2584                   20520773.1844
        48.0004         38.0004
 -16204406.26647 -12581355.28946  22454931.6484                   22454933.7194
        42.0004         38.7504
  -5129945.07046  -3978240.02044  24706526.3594                   24706531.0824
        38.7504         28.7504
  -8245973.96147  -6403133.52045  23711714.9064                   23711716.3134
        42.7504         34.7504
  13586484.91446  10613494.99245  24203674.2504                   24203674.1564
        40.0004         31.5004
 25  8  8  1  9 30.0000000  0  8G03G16G09G04G26G06G07G31
 -14601697.12947 -11334511.57447  20961307.1254                   20961309.0124
        47.5004         46.7504
 -26312824.41447 -19035345.89845  20896380.2814                   20896378.6564
        45.5004         35.2504
 -18512992.07047 -14402468.94547  21923056.8364                   21923058.3634
        45.5004         42.7504
 -23918319.24247 -18596797.77346  20513637.2344                   20513636.6294
        45.7504         38.2504
 -16154773.40247 -12542680.36746  22464376.4304                   22464378.6374
        42.5004         38.5004
  -5132300.16046  -3980075.18044  24706077.4774                   24706082.5234
        39.0004         29.5004
  -8332199.14847  -6470321.83645  23695306.3524                   23695307.8484
        43.2504         34.7504
  13664239.48046  10674082.92645  24218470.4694                   24218470.5354
        39.5004         32.2504
 25  8  8  1 10  0.0000000  0  8G03G16G09G04G26G06G07G31
 -14551578.35547 -11295458.02747  20970844.9304                   20970846.4224
        47.7504         47.0004
 -26351562.83247 -19065531.64545  20889008.3914                   20889006.8914
        47.7504         35.5004
 -18603989.73047 -14473376.14847  21905740.7194                   21905742.1414
        45.7504         43.0004
 -23955568.45347 -18625823.11746  20506549.0164                   20506548.3204
        47.2504         38.5004
 -16104676.16447 -12503643.59046  22473909.4144                   22473911.7034
        42.5004         39.0004
  -5134176.46546  -3981537.27744  24705721.0394                   24705725.6954
        38.7504         29.5004
  -8418231.89847  -6537360.19945  23678934.8984                   23678936.3914
        43.2504         35.2504
  13741986.84846  10734665.22745  24233265.5004                   24233265.3594
        39.2504         31.0004
 25  8  8  1 10 30.0000000  0  8G03G16G09G04G26G06G07G31
 -14500987.03147 -11256036.26247  20980471.6954                   20980473.6024
        46.7504         47.0004
 -26389640.14847 -19095202.26245  20881762.5944                   20881761.1024
        47.2504         34.7504
 -18694871.68447 -14544193.18747  21888446.3134                   21888447.6294
        46.0004         43.0004
 -23992566.38747 -18654652.65646  20499508.5784                   20499508.2274
        47.0004         39.0004
 -16054118.21947 -12464247.83246  22483530.1724                   22483532.6914
        42.0004         38.0004
  -5135576.65646  -3982628.37144  24705454.1884                   24705459.2034
        39.0004         28.7504
  -8504073.05147  -6604249.26245  23662599.7504                   23662601.3014
        43.5004         34.7504
  13819725.07846  10795240.41845  24248058.4064                   24248058.7814
        40.0004         30.7504
 25  8  8  1 11  0.0000000  0  8G03G16G09G04G26G06G07G31
 -14449928.49247 -11216250.43747  20990187.9694                   20990189.7154
        47.7504         46.7504
 -26427058.73848 -19124359.58245  20874642.0554                   20874640.2274
        48.0004         35.2504
 -18785639.93447 -14614921.63747  21871173.7274                   21871175.0234
        46.0004         42.7504
 -24029315.27747 -18683288.14146  20492515.5004                   20492514.9774
        47.0004         38.2504
 -16003105.28547 -12424497.53146  22493237.4304                   22493239.7814
        42.0004         38.2504
  -5136505.55946  -3983352.23844  24705278.3984                   24705282.8484
        39.0004         28.2504
  -8589725.95347  -6670991.62545  23646300.8444                   23646301.5864
        43.7504         35.0004
  13897449.15246  10855804.58645  24262849.0784                   24262849.2624
        40.5004         31.0004
 25  8  8  1 11 30.0000000  0  8G03G16G09G04G26G06G07G31
 -14398401.65247 -11176099.69547  20999993.2274                   20999994.7424
        47.5004         46.7504
 -26463814.54748 -19153000.44545  20867647.8594                   20867645.9734
        48.0004         35.2504
 -18876290.12947 -14685558.09447  21853923.4304                   21853924.5044
        46.2504         43.0004
 -24065810.94947 -18711726.31646  20485570.5784                   20485570.2194
        47.2504         38.0004
 -15951636.71947 -12384392.19146  22503031.9774                   22503034.1374
        42.5004         38.5004
  -5136961.55546  -3983707.60244  24705190.9454                   24705195.8324
        38.2504         29.7504
  -8675187.80547  -6737585.11345  23630037.2034                   23630038.3634
        43.5004         35.0004
  13975160.79746  10916359.06345  24277637.2344                   24277636.8524
        41.0004         30.2504
 25  8  8  1 12  0.0000000  0  8G03G16G09G04G26G06G07G31
 -14346409.33647 -11135586.24647  21009887.0704                   21009888.9774
        47.2504         46.7504
 -26499907.57447 -19181124.85546  20860779.5784                   20860777.5824
        47.0004         36.0004
 -18966821.78147 -14756102.17247  21836695.8524                   21836697.2704
        46.2504         43.5004
 -24102053.05147 -18739966.89546  20478674.1724                   20478673.6134
        47.0004         39.0004
 -15899715.76246 -12343934.34446  22512911.8594                   22512914.7384
        41.7504         38.0004
  -5136946.94546  -3983696.26244  24705193.4534                   24705198.8054
        38.5004         29.7504
  -8760459.05147  -6804030.07445  23613811.0864                   23613812.0164
        44.5004         35.0004
  14052858.23046  10976902.45745  24292421.9924                   24292422.1334
        40.7504         30.2504
 25  8  8  1 12 30.0000000  0  8G03G16G09G04G26G06G07G31
 -14293953.39847 -11094711.53947  21019869.1484                   21019871.3714
        47.0004         46.7504
 -26535336.95347 -19208732.13345  20854037.3914                   20854035.5864
        46.7504         35.7504
 -19057233.34847 -14826552.68047  21819491.0394                   21819492.3284
        46.2504         43.0004
 -24138040.25848 -18768008.86346  20471825.6804                   20471825.3204
        48.0004         38.0004
 -15847344.68747 -12303125.75046  22522877.8134                   22522880.3094
        42.5004         38.7504
  -5136463.09046  -3983319.27744  24705285.8834                   24705290.8244
        38.2504         28.5004
  -8845539.48047  -6870326.35945  23597620.1804                   23597621.5554
        42.7504         35.5004
  14130540.23046  11037433.84045  24307204.3754                   24307204.8954
        40.5004         30.0004
 25  8  8  1 13  0.0000000  0  8G03G16G09G04G26G06G07G31
 -14241036.89847 -11053477.95347  21029938.8594                   21029940.5634
        47.5004         46.7504
 -26570102.74647 -19235822.34446  20847421.6644                   20847419.9344
        46.2504         36.0004
 -19147524.54747 -14896909.40647  21802309.2584                   21802310.0744
        46.5004         43.0004
 -24173772.48048 -18795852.14846  20465026.1724                   20465025.7584
        48.2504         38.0004
 -15794526.97747 -12261969.14546  22532928.9144                   22532931.4924
        42.2504         38.2504
  -5135512.56246  -3982578.65244  24705467.4304                   24705471.6994
        38.2504         28.2504
  -8930430.13347  -6936474.75845  23581466.0864                   23581467.0004
        43.5004         35.2504
  14208204.69946  11097951.55145  24321984.0704                   24321984.2234
        40.7504         30.0004
 25  8  8  1 13 30.0000000  0  8G03G16G09G04G26G06G07G31
 -14187661.91848 -11011887.09847  21040096.1484                   21040097.6214
        48.0004         46.5004
 -26604204.32047 -19262394.97346  20840932.3674                   20840930.6484
        45.7504         36.2504
 -19237694.02747 -14967171.28147  21785150.3444                   21785151.4964
        45.7504         43.0004
 -24209248.53547 -18823495.80946  20458275.0234                   20458274.3834
        46.2504         38.5004
 -15741265.05547 -12220466.38746  22543064.7274                   22543066.8834
        42.0004         37.5004
  -5134096.93746  -3981475.61344  24705736.0474                   24705741.3754
        38.5004         29.5004
  -9015130.87547  -7002475.16445  23565348.0164                   23565348.6994
        43.7504         35.0004
  14285850.10946  11158454.41444  24336758.9144                   24336759.6804
        41.0004         29.5004
 25  8  8  1 14  0.0000000  0  8G03G16G09G04G26G06G07G31
 -14133829.04348 -10969939.44147  21050339.6414                   21050341.8404
        48.0004         46.5004
 -26637639.47347 -19288448.30946  20834570.0004                   20834568.3834
        47.0004         36.0004
 -19327738.99647 -15037336.14147  21768015.6804                   21768016.3364
        46.0004         43.5004
 -24244465.81247 -18850937.83646  20451573.5164                   20451572.9804
        47.7504         38.5004
 -15687559.91047 -12178618.25446  22553283.8594                   22553286.5594
        42.7504         38.0004
  -5132216.38746  -3980010.28144  24706093.6884                   24706099.2074
        38.0004         29.0004
  -9099640.17247  -7068326.41845  23549265.8834                   23549267.1604
        43.5004         35.2504
  14363476.81646  11218942.71544  24351531.2344                   24351531.6134
        40.5004         29.5004
 25  8  8  1 14 30.0000000  0  8G03G16G09G04G26G06G07G31
 -14079539.85547 -10927636.22747  21060670.7664                   21060672.5314
        47.7504         46.5004
 -26670406.71947 -19313981.21146  20828334.7894                   20828332.5864
        46.7504         36.2504
 -19417657.50847 -15107402.45747  21750904.3754                   21750905.6054
        45.5004         43.5004
 -24279422.68748 -18878176.95346  20444921.7194                   20444920.8484
        48.0004         38.5004
 -15633413.54347 -12136426.32846  22563587.3834                   22563590.4654
        42.0004         37.5004
  -5129872.00046  -3978183.53144  24706540.1644                   24706545.4574
        37.7504         29.0004
  -9183957.66047  -7134028.20345  23533220.7504                   23533222.3634
        43.7504         35.7504
  14441084.17646  11279415.92244  24366298.9844                   24366299.6914
        40.2504         29.0004
 25  8  8  1 15  0.0000000  0  8G03G16G09G04G26G06G07G31
 -14024797.46548 -10884979.87147  21071088.0314                   21071089.9734
        48.5004         46.5004
 -26702506.73847 -19338994.18745  20822226.0234                   20822224.3874
        45.7504         35.2504
 -19507449.29347 -15177370.03147  21733817.7424                   21733819.0004
        44.5004         43.5004
 -24314119.00847 -18905213.04746  20438318.9304                   20438318.3834
        45.7504         38.0004
 -15578829.51247 -12093893.35946  22573975.1564                   22573977.5904
        42.7504         37.2504
  -5127066.25046  -3975997.30144  24707074.1414                   24707079.1024
        37.0004         28.5004
  -9268083.94547  -7199581.00045  23517212.0784                   23517213.5864
        43.0004         35.5004
  14518670.10246  11339872.43444  24381063.2194                   24381063.7034
        40.7504         29.2504
 25  8  8  1 15 30.0000000  0  8G03G16G09G04G26G06G07G31
 -13969605.10548 -10841972.87947  21081590.9454                   21081592.5084
        49.0004         46.5004
 -26733939.93747 -19363487.56245  20816244.6724                   20816242.8554
        47.5004         35.5004
 -19597114.02747 -15247238.60247  21716755.0704                   21716755.8954
        45.7504         44.0004
 -24348554.69148 -18932046.03946  20431766.1254                   20431765.6644
        48.0004         38.0004
 -15523811.37947 -12051022.12546  22584444.2194                   22584447.0354
        43.5004         37.5004
  -5123802.08246  -3973453.84044  24707695.2894                   24707700.2274
        37.5004         28.5004
  -9352020.57447  -7264986.03145  23501239.3524                   23501240.5984
        43.0004         35.5004
  14596232.13346  11400310.34844  24395822.4064                   24395823.5124
        40.7504         29.2504
 25  8  8  1 16  0.0000000  0  8G03G16G09G04G26G06G07G31
 -13913966.37548 -10798618.06247  21092178.3364                   21092180.5394
        48.5004         46.2504
 -26764707.01647 -19387461.88345  20810389.7194                   20810387.7704
        47.0004         35.7504
 -19686651.80547 -15317008.24247  21699716.6724                   21699717.5084
        46.0004         43.7504
 -24382730.07448 -18958676.21146  20425262.5944                   20425262.2304
        48.2504         38.0004
 -15468363.04347 -12007815.66846  22594995.7584                   22594998.6764
        43.0004         37.7504
  -5120082.59446  -3970555.59844  24708402.8204                   24708408.2974
        36.7504         29.0004
  -9435768.81247  -7330244.24646  23485302.9304                   23485303.8984
        43.2504         36.0004
  14673767.45346  11460727.43044  24410577.0084                   24410577.8054
        40.5004         28.7504
 25  8  8  1 16 30.0000000  0  8G03G16G09G04G26G06G07G31
 -13857881.04748 -10754915.26247  21102851.1484                   21102852.9184
        48.5004         46.2504
 -26794804.71947 -19410914.60546  20804662.5394                   20804660.4454
        47.7504         36.0004
 -19776058.88747 -15386676.04747  21682703.0084                   21682704.1484
        46.2504         44.0004
 -24416641.67647 -18985100.82846  20418809.7344                   20418809.4224
        47.7504         38.5004
 -15412484.76247 -11964274.18446  22605629.4844                   22605631.7274
        43.5004         37.7504
  -5115906.97746  -3967301.92644  24709198.5084                   24709203.2074
        37.5004         28.0004
  -9519326.25447  -7395353.80945  23469402.1484                   23469402.8204
        43.2504         35.5004
  14751277.45346  11521124.79344  24425327.0944                   24425327.6564
        40.5004         29.0004
 25  8  8  1 17  0.0000000  0  9G03G27G16G09G04G26G06G07G31
 -13801353.41848 -10710867.80947  21113608.2974                   21113610.1644
        49.0004         46.0004
   2926431.04355   2375592.48453  25111089.9144                   25111095.6454
        30.0004         18.5004
 -26824235.34448 -19433847.53545  20799061.5704                   20799059.8594
        48.7504         35.7504
 -19865335.95347 -15456242.53947  21665713.6954                   21665715.1604
        46.0004         44.2504
 -24450290.43048 -19011320.63746  20412406.1804                   20412406.0274
        48.2504         38.2504
 -15356181.11747 -11920401.25046  22616343.4224                   22616346.0084
        43.5004         37.2504
  -5111279.23846  -3963695.95344  24710078.6954                   24710083.8554
        37.7504         28.7504
  -9602695.09847  -7460316.41046  23453537.5314                   23453538.4924
        43.5004         36.2504
  14828758.94146  11581499.92244  24440071.6954                   24440072.1764
        40.0004         29.0004
 25  8  8  1 17 30.0000000  0  9G03G27G16G09G04G26G06G07G31
 -13744388.30948 -10666479.44947  21124448.5394                   21124450.0004
        48.5004         46.0004
                                  25091558.8594                   25091565.1094
        28.2504         16.7504
 -26853000.82847 -19456262.18445  20793588.2344                   20793585.9574
        47.0004         35.5004
 -19954484.25447 -15525708.69147  21648749.2734                   21648750.4694
        45.2504         43.7504
 -24483677.80948 -19037336.77746  20406053.2734                   20406052.5354
        48.0004         38.7504
 -15299457.26647 -11876200.88346  22627138.3984                   22627140.2074
        43.5004         37.0004
  -5106203.54346  -3959740.93044  24711045.1804                   24711049.4654
        36.5004         27.7504
  -9685877.86747  -7525134.02346  23437708.2504                   23437709.0234
        44.5004         36.0004
  14906208.11746  11641849.87544  24454809.9844                   24454810.0354
        39.7504         29.0004
 25  8  8  1 18  0.0000000  0  9G03G27G16G09G04G26G06G07G31
 -13686989.10948 -10621752.84847  21135371.0554                   21135372.5944
        48.7504         45.7504
   2721141.85255   2215627.26653  25072024.5634                   25072031.2194
        33.5004         18.5004
 -26881101.71147 -19478158.95345  20788240.9534                   20788238.5784
        47.5004         35.5004
 -20043503.59847 -15595074.35947  21631809.3834                   21631810.3404
        45.0004         44.0004
 -24516803.82048 -19063149.24646  20399749.2274                   20399748.3554
        48.5004         38.7504
 -15242317.00847 -11831676.03146  22638011.5864                   22638013.5164
        43.7504         37.0004
  -5100682.94146  -3955439.23044  24712094.5634                   24712100.1094
        37.2504         28.0004
  -9768875.81647  -7589807.63746  23421914.0554                   23421914.9414
        43.2504         36.2504
  14983622.32046  11702172.57044  24469541.1564                   24469541.5824
        40.0004         28.5004
 25  8  8  1 18 30.0000000  0  9G03G27G16G09G04G26G06G07G31
 -13629155.74248 -10576687.93447  21146376.3914                   21146378.3404
        48.0004         45.7504
   2618481.38345   2135632.29343  25052488.2424                   25052494.2854
        34.2504         20.7504
 -26908535.17247 -19499535.67246  20783019.9534                   20783018.1764
        47.7504         36.0004
 -20132390.21547 -15664336.61747  21614894.9844                   21614896.2624
        45.5004         44.2504
 -24549665.03148 -19088755.38346  20393496.2974                   20393495.4304
        48.0004         38.2504
 -15184760.56247 -11786826.89146  22648963.9144                   22648966.3834
        42.7504         36.5004
  -5094716.86746  -3950790.40244  24713230.4144                   24713235.9264
        36.5004         27.7504
  -9851686.66047  -7654335.44946  23406156.2114                   23406156.1884
        43.0004         36.2504
  15061003.07446  11762469.21144  24484266.4304                   24484266.9614
        40.0004         29.5004
 25  8  8  1 19  0.0000000  0  9G03G27G16G09G04G26G06G07G31
 -13570887.80948 -10531284.39547  21157464.5394                   21157466.3634
        48.0004         46.0004
   2515817.84445   2055634.94143  25032951.4384                   25032958.1454
        33.0004         22.0004
 -26935298.45747 -19520390.16445  20777927.1644                   20777925.1644
        47.0004         35.5004
 -20221140.14547 -15733492.35547  21598006.5634                   21598007.4224
        44.7504         44.2504
 -24582257.70748 -19114152.27346  20387293.6414                   20387292.9734
        48.0004         38.7504
 -15126787.93047 -11741653.44546  22659995.6094                   22659998.2624
        43.0004         37.0004
  -5088304.46145  -3945793.78144  24714450.4694                   24714455.8404
        34.7504         27.0004
  -9934307.78147  -7718715.44546  23390432.9064                   23390433.9844
        43.0004         36.0004
  15138351.98046  11822741.03944  24498985.4844                   24498986.2384
        40.0004         28.2504
 25  8  8  1 19 30.0000000  0  9G03G27G16G09G04G26G06G07G31
 -13512183.79348 -10485541.05147  21168635.6484                   21168637.1604
        48.5004         45.5004
   2413158.00845   1975640.50843  25013415.0314                   25013421.8204
        34.0004         23.0004
 -26961387.12947 -19540718.98445  20772962.7504                   20772960.8404
        47.2504         35.5004
 -20309748.23047 -15802537.56647  21581144.9844                   21581145.6994
        45.7504         44.2504
 -24614577.01248 -19139336.14546  20381143.9304                   20381143.2424
        48.0004         39.0004
 -15068397.96947 -11696154.79746  22671107.1024                   22671109.9224
        42.5004         36.7504
  -5081443.88346  -3940447.94144  24715756.0554                   24715761.7734
        36.5004         28.0004
 -10016735.55947  -7782944.77746  23374747.6024                   23374748.2624
        43.5004         36.5004
  15215671.62546  11882990.05144  24513698.7894                   24513699.5234
        40.0004         28.0004
 25  8  8  1 20  0.0000000  0  9G03G27G16G09G04G26G06G07G31
 -13453046.31647 -10439459.95347  21179889.1174                   21179890.4614
        47.7504         45.5004
   2310504.88745   1895651.22744  24993881.4614                   24993887.5944
        35.5004         24.7504
 -26986801.67647 -19560522.51245  20768126.4534                   20768124.4734
        47.5004         35.5004
 -20398213.32047 -15871471.35947  21564310.8054                   21564311.6884
        45.0004         44.2504
 -24646622.05147 -19164306.29746  20375045.7734                   20375044.6524
        47.5004         38.5004
 -15009593.55147 -11650333.21546  22682297.3984                   22682300.0474
        42.5004         36.5004
  -5074137.22345  -3934754.51644  24717147.1644                   24717152.0474
        35.5004         26.7504
 -10098970.05947  -7847023.50446  23359099.2504                   23359099.7544
        42.7504         36.2504
  15292960.12146  11943214.80144  24528406.3284                   24528406.9534
        40.0004         27.5004
 25  8  8  1 20 30.0000000  0  9G03G27G16G09G04G26G06G07G31
 -13393478.06648 -10393043.17647  21191224.8674                   21191225.9734
        48.0004         45.5004
   2207861.23845   1815669.31344  24974349.0944                   24974355.1644
        35.2504         26.0004
 -27011541.80947 -19579800.52345  20763418.3204                   20763416.4304
        47.2504         35.7504
 -20486534.35947 -15940292.90247  21547503.8674                   21547504.4804
        45.0004         44.5004
 -24678392.09447 -19189062.16846  20369000.0554                   20368999.7894
        47.5004         38.7504
 -14950377.70347 -11604191.02046  22693564.8834                   22693568.2274
        42.2504         36.0004
  -5066386.72345  -3928715.22744  24718621.0864                   24718626.9614
        34.7504         27.0004
 -10181012.23447  -7910952.38746  23343487.1804                   23343487.6644
        43.0004         36.5004
  15370216.16446  12003414.27044  24543107.9454                   24543108.4804
        40.2504         27.7504
 25  8  8  1 21  0.0000000  0  9G03G27G16G09G04G26G06G07G31
 -13333481.02347 -10346292.28147  21202641.5004                   21202643.6094
        47.5004         45.5004
   2105230.35945   1735697.43844  24954818.6254                   24954824.9654
        35.5004         27.5004
 -27035607.03147 -19598552.63345  20758839.0554                   20758837.0594
        47.7504         35.0004
 -20574709.70347 -16009000.91847  21530724.0944                   21530725.3404
        45.7504         44.5004
 -24709885.74248 -19213602.66046  20363007.1174                   20363006.5084
        48.0004         38.7504
 -14890752.68446 -11557729.99646  22704911.8444                   22704914.4574
        41.0004         36.0004
  -5058193.96945  -3922331.31244  24720179.9384                   24720185.5864
        34.7504         25.2504
 -10262861.71947  -7974731.10546  23327911.1024                   23327912.0984
        43.0004         37.0004
  15447439.11346  12063587.93844  24557802.3594                   24557803.1564
        40.0004         27.7504
 25  8  8  1 21 30.0000000  0  9G03G27G16G09G04G26G06G07G31
 -13273058.15247 -10299209.57847  21214139.5084                   21214141.5744
        47.0004         45.0004
   2002614.84846   1655737.49644  24935291.2734                   24935297.9024
        38.0004         29.7504
 -27058997.78148 -19616779.17646  20754388.2344                   20754385.9494
        48.0004         36.2504
 -20662738.48847 -16077594.73447  21513972.9224                   21513973.9964
        46.0004         44.7504
 -24741102.48847 -19237927.39146  20357066.7194                   20357065.7424
        47.7504         39.2504
 -14830721.83646 -11510952.75046  22716335.2344                   22716337.7464
        41.0004         36.5004
  -5049561.57445  -3915604.85244  24721823.4304                   24721828.6334
        35.5004         26.0004
 -10344519.13347  -8038360.17246  23312372.0474                   23312372.9844
        44.0004         37.2504
  15524627.22746  12123734.47744  24572491.4384                   24572492.0554
        39.5004         28.2504
 25  8  8  1 22  0.0000000  0  9G03G27G16G09G04G26G06G07G31
 -13212211.44147 -10251796.60947  21225718.9454                   21225720.6334
        46.5004         45.2504
   1900018.17646   1575792.23044  24915767.8914                   24915773.6334
        37.5004         29.0004
 -27081713.43748 -19634479.68445  20750065.2734                   20750063.0744
        48.5004         35.5004
 -20750618.96147 -16146072.97347  21497249.5634                   21497250.4144
        46.2504         44.5004
 -24772040.84447 -19262035.18746  20351179.3204                   20351179.0354
        47.7504         38.7504
 -14770287.45346 -11463861.06246  22727835.9534                   22727838.2974
        41.0004         36.0004
  -5040490.94145  -3908536.88344  24723549.7584                   24723554.7734
        34.2504         25.0004
 -10425984.37947  -8101839.50046  23296870.3524                   23296870.6254
        44.0004         37.2504
  15601779.36346  12183852.99644  24587173.1024                   24587173.3834
        39.2504         27.0004
 25  8  8  1 22 30.0000000  0  9G03G27G16G09G04G26G06G07G31
 -13150943.62947 -10204055.50447  21237377.5314                   21237379.4384
        47.2504         44.7504
   1797443.19546   1495863.89844  24896248.1804                   24896254.0474
        37.7504         28.7504
 -27103754.28948 -19651654.35545  20745870.9694                   20745868.8634
        48.0004         35.5004
 -20838350.01647 -16214434.80147  21480555.2034                   21480556.0274
        45.5004         45.2504
 -24802700.03147 -19285925.46146  20345345.0474                   20345344.3204
        47.5004         38.7504
 -14709452.49246 -11416457.22746  22739412.3284                   22739414.9384
        41.0004         36.5004
  -5030984.52045  -3901129.35544  24725359.5394                   24725363.7974
        35.0004         25.0004
 -10507257.55547  -8165169.16446  23281404.1094                   23281404.7234
        43.7504         36.7504
  15678894.52046  12243942.68444  24601847.3364                   24601848.5514
        40.0004         27.7504
 25  8  8  1 23  0.0000000  0  9G03G27G16G09G04G26G06G07G31
 -13089257.60247 -10155988.51647  21249116.0314                   21249117.9654
        47.5004         45.0004
   1694892.51646   1415954.50445  24876733.2344                   24876739.2304
        38.5004         30.2504
 -27125120.65248 -19668303.45346  20741805.0784                   20741803.3874
        48.0004         36.0004
 -20925930.71947 -16282679.46147  21463889.1094                   21463890.1094
        47.0004         44.7504
 -24833079.49247 -19309597.75846  20339564.1414                   20339563.6914
        47.5004         38.7504
 -14648220.17647 -11368743.76246  22751064.1724                   22751066.7974
        42.0004         36.2504
  -5021044.73445  -3893384.12144  24727250.6724                   24727255.1024
        35.0004         25.0004
 -10588339.43047  -8228349.76646  23265974.7034                   23265975.4804
        44.5004         37.5004
  15755970.83646  12304002.11744  24616514.1484                   24616515.0044
        39.2504         27.0004
 25  8  8  1 23 30.0000000  0  9G03G27G16G09G04G26G06G07G31
 -13027154.52347 -10107596.55147  21260933.4924                   21260935.2624
        47.0004         44.7504
   1592370.44146   1336067.38344  24857222.9304                   24857229.5904
        38.0004         29.5004
 -27145811.46948 -19684426.14145  20737867.5864                   20737866.0274
        48.0004         35.5004
 -21013358.43747 -16350804.92247  21447252.3054                   21447252.9064
        46.2504         45.0004
 -24863176.87547 -19333050.25446  20333836.6644                   20333836.0904
        46.7504         38.7504
 -14586591.93446 -11320721.79346  22762792.0474                   22762794.7774
        41.5004         36.0004
  -5010672.32045  -3885301.79744  24729224.2504                   24729229.4654
        35.0004         25.2504
 -10669229.02347  -8291380.53546  23250581.8054                   23250582.5164
        44.0004         37.5004
  15833008.68446  12364031.55944  24631174.5634                   24631175.1174
        38.7504         25.7504
 25  8  8  1 24  0.0000000  0  9G03G27G16G09G04G26G06G07G31
 -12964635.87147 -10058880.77347  21272830.5474                   21272832.5004
        47.0004         44.5004
   1489881.04346   1256205.72745  24837720.7664                   24837726.3634
        36.5004         30.0004
 -27165825.46548 -19700021.44546  20734059.4534                   20734057.1994
        48.0004         36.0004
 -21100630.81647 -16418809.34047  21430644.4454                   21430645.6724
        46.5004         45.0004
 -24892990.19547 -19356281.40246  20328163.5004                   20328162.9804
        47.2504         38.7504
 -14524569.58646 -11272392.72745  22774593.9454                   22774597.1094
        41.5004         35.7504
  -4999868.38345  -3876883.21144  24731279.9064                   24731285.1094
        34.0004         25.7504
 -10749925.57447  -8354260.89146  23235225.4384                   23235226.0664
        43.5004         37.7504
  15910007.75046  12424030.80144  24645827.5314                   24645827.6884
        38.7504         26.5004
 25  8  8  1 24 30.0000000  0  9G03G27G16G09G04G26G06G07G31
 -12901706.34447 -10009844.82847  21284805.8834                   21284807.7194
        46.5004         44.7504
   1387425.22746   1176370.21945  24818223.5084                   24818229.8134
        36.5004         30.5004
 -27185165.03148 -19715091.21945  20730378.8284                   20730376.9304
        48.0004         35.2504
 -21187748.62947 -16486693.32047  21414066.4844                   21414067.8484
        46.2504         45.2504
 -24922520.59047 -19379292.09446  20322543.7664                   20322543.1094
        46.7504         39.0004
 -14462158.03946 -11223760.39145  22786470.7504                   22786473.5514
        41.0004         35.5004
  -4988637.30545  -3868131.77744  24733417.5004                   24733422.6024
        35.5004         26.2504
 -10830431.60947  -8416992.77746  23219905.8834                   23219906.5004
        43.7504         37.5004
  15986964.92246  12483997.39844  24660471.6484                   24660472.0634
        39.2504         25.5004
 25  8  8  1 25  0.0000000  0  9G03G27G16G09G04G26G06G07G31
 -12838366.85947  -9960489.43747  21296858.9844                   21296861.0434
        46.2504         44.5004
   1285007.76246   1096564.58645  24798734.0634                   24798739.6454
        36.0004         31.0004
 -27203828.79747 -19729634.39545  20726827.4534                   20726825.4264
        46.5004         35.5004
 -21274708.94947 -16554454.57847  21397518.5004                   21397519.3674
        46.7504         45.0004
 -24951765.45747 -19402080.29746  20316978.7974                   20316978.4024
        47.2504         38.7504
 -14399358.49246 -11174825.71145  22798421.2504                   22798424.3444
        40.7504         35.5004
  -4976979.52345  -3859047.85544  24735636.4304                   24735640.9534
        35.5004         24.5004
 -10910745.59847  -8479575.03146  23204622.8914                   23204622.9734
        44.2504         37.2504
  16063880.37146  12543931.48444  24675107.8834                   24675108.3754
        39.2504         25.0004
 25  8  8  1 25 30.0000000  0  9G03G27G16G09G04G26G06G07G31
 -12774621.29347  -9910817.62547  21308989.1334                   21308991.1884
        46.7504         44.2504
   1182630.42646   1016790.22745  24779251.7194                   24779258.3914
        36.7504         30.0004
 -27221818.00847 -19743651.94146  20723403.8834                   20723401.9774
        47.5004         36.0004
 -21361511.67647 -16622093.04347  21381000.7344                   21381001.7114
        46.5004         45.2504
 -24980725.07047 -19424646.22746  20311467.9924                   20311467.5124
        47.5004         38.5004
 -14336175.07446 -11125591.91445  22810444.8594                   22810447.5004
        41.2504         35.0004
  -4964898.61346  -3849634.23444  24737935.5164                   24737939.5434
        36.0004         25.5004
 -10990869.00047  -8542008.76646  23189375.3754                   23189375.6954
        44.5004         37.5004
  16140751.60246  12603831.10944  24689736.1174                   24689736.7544
        38.5004         26.0004
 25  8  8  1 26  0.0000000  0  9G03G27G16G09G04G26G06G07G31
 -12710473.42647  -9860832.32847  21321196.3524                   21321198.2034
        47.2504         44.2504
   1080294.84446    937048.41845  24759777.6804                   24759784.3834
        36.5004         30.5004
 -27239134.71947 -19757145.46945  20720109.0474                   20720106.9534
        47.5004         35.7504
 -21448156.69947 -16689608.61347  21364512.6954                   21364513.2464
        46.5004         45.2504
 -25009399.71547 -19446990.09846  20306011.0864                   20306010.6294
        46.5004         38.2504
 -14272611.87946 -11076062.18045  22822540.4534                   22822542.8524
        41.2504         35.5004
  -4952397.87945  -3839893.47744  24740312.6954                   24740318.7074
        34.0004         24.0004
 -11070803.50447  -8604295.31246  23174164.5704                   23174165.1334
        43.5004         37.5004
  16217576.34046  12663694.48844  24704355.5084                   24704355.7584
        38.5004         26.0004
 25  8  8  1 26 30.0000000  0  9G03G27G16G09G04G26G06G07G31
 -12645924.64847  -9810534.64147  21333479.9144                   21333481.3634
        46.5004         44.5004
    978005.48045    857342.61744  24740313.5944                   24740318.9224
        34.7504         27.2504
 -27255777.20348 -19770113.62145  20716941.8444                   20716939.6604
        48.0004         35.5004
 -21534641.44147 -16756999.30147  21348055.6024                   21348056.2504
        46.5004         45.2504
 -25037787.17647 -19469110.19146  20300609.5634                   20300608.9964
        47.2504         38.7504
 -14208670.42647 -11026237.70345  22834707.8984                   22834710.8364
        42.0004         35.2504
  -4939478.41046  -3829826.43744  24742772.1724                   24742777.1414
        36.0004         24.5004
 -11150548.28547  -8666434.02746  23158989.2664                   23158989.9224
        44.0004         37.5004
  16294354.84046  12723521.83244  24718965.8674                   24718966.3914
        37.5004         25.5004
 25  8  8  1 27  0.0000000  0  9G03G27G16G09G04G26G06G07G31
 -12580978.26647  -9759927.12547  21345838.4844                   21345840.6414
        46.7504         44.0004
    875764.62945    777674.64144  24720857.8834                   24720862.7344
        35.7504         27.0004
 -27271746.55147 -19782557.25045  20713903.0864                   20713901.2034
        47.2504         35.5004
 -21620965.21547 -16824264.56247  21331628.2894                   21331629.3754
        46.7504         45.2504
 -25065887.15647 -19491006.26646  20295262.1024                   20295261.8164
        47.0004         38.5004
 -14144354.32046 -10976121.28545  22846946.8594                   22846949.7934
        41.5004         35.2504
  -4926143.18045  -3819435.41844  24745309.9844                   24745315.0744
        35.7504         24.7504
 -11230103.84847  -8728425.29346  23143850.7734                   23143850.8954
        44.5004         38.0004
  16371085.12546  12783311.62144  24733566.9614                   24733567.9344
        37.5004         26.0004
 25  8  8  1 27 30.0000000  0  9G03G27G16G09G04G26G06G07G31
 -12515636.85247  -9709011.79347  21358272.5474                   21358274.7274
        45.7504         44.2504
    773575.50845    698046.93443  24701411.3834                   24701416.7384
        34.7504         23.0004
 -27287043.06247 -19794476.59445  20710992.3364                   20710990.2114
        47.7504         35.7504
 -21707126.61747 -16891403.29347  21315232.4924                   21315232.9734
        46.5004         45.5004
 -25093698.64547 -19512677.55946  20289970.0474                   20289969.3444
        46.5004         38.7504
 -14079666.36746 -10925715.12546  22859256.3984                   22859259.5004
        41.2504         36.5004
  -4912394.20746  -3808722.01244  24747927.1334                   24747931.4614
        36.0004         26.0004
 -11309470.84047  -8790269.62946  23128747.3984                   23128747.9344
        45.0004         38.0004
  16447765.94146  12843062.84844  24748158.8364                   24748159.7424
        38.0004         26.0004
 25  8  8  1 28  0.0000000  0  9G03G27G16G09G04G26G06G07G31
 -12449901.38747  -9657789.41847  21370782.3204                   21370783.8554
        46.0004         44.2504
    671442.75846    618463.16044  24681975.3054                   24681980.9654
        36.5004         24.5004
 -27301665.74247 -19805870.87146  20708209.3754                   20708207.6884
        47.7504         36.2504
 -21793122.61747 -16958413.14147  21298867.3054                   21298868.4304
        46.0004         45.2504
 -25121219.02747 -19534122.00446  20284733.1254                   20284732.5634
        46.2504         39.0004
 -14014607.80946 -10875020.16845  22871636.5864                   22871639.3794
        41.5004         35.5004
  -4898232.23045  -3797686.77744  24750621.2344                   24750626.2234
        35.2504         26.5004
 -11388648.15647  -8851966.16446  23113680.5634                   23113681.0944
        44.7504         38.5004
  16524397.60246  12902775.78544  24762742.0234                   24762742.3284
        38.0004         26.5004
 25  8  8  1 28 30.0000000  0  9G03G27G16G09G04G26G06G07G31
 -12383773.02347  -9606260.87547  21383365.5394                   21383367.3324
        45.5004         44.0004
    569371.02346    538926.88743  24662552.4454                   24662557.1604
        37.5004         22.5004
 -27315613.32848 -19816739.09446  20705555.4224                   20705553.5354
        48.5004         36.0004
 -21878950.35547 -17025291.87947  21282534.4924                   21282535.6994
        46.7504         45.5004
 -25148445.85248 -19555337.71146  20279551.8204                   20279550.9734
        48.2504         38.7504
 -13949179.96547 -10824037.46945  22884087.3284                   22884090.0314
        42.0004         35.5004
  -4883658.06645  -3786330.37144  24753394.7974                   24753399.5984
        35.7504         24.7504
 -11467634.22747  -8913513.68046  23098649.8674                   23098650.1884
        45.0004         38.2504
  16600981.10546  12962451.20344  24777314.8674                   24777315.8324
        37.5004         25.5004
 25  8  8  1 29  0.0000000  0  9G03G27G16G09G04G26G06G07G31
 -12317256.01647  -9554429.50447  21396023.0314                   21396025.5784
        45.5004         44.0004
    467361.71546    459439.22744  24643140.4304                   24643145.9064
        37.5004         26.0004
 -27328887.80547 -19827082.83245  20703029.5634                   20703027.3834
        47.7504         35.5004
 -21964610.06647 -17092039.68047  21266234.8204                   21266235.3484
        46.5004         45.5004
 -25175379.75048 -19576325.15246  20274426.2274                   20274425.3404
        48.0004         39.0004
 -13883387.38346 -10772770.54745  22896607.7664                   22896610.1644
        41.2504         35.0004
  -4868675.52745  -3774655.72744  24756244.9304                   24756250.6954
        34.7504         27.7504
 -11546430.99647  -8974913.69146  23083655.1484                   23083655.7274
        44.2504         38.5004
  16677513.37946  13022086.68044  24791878.8674                   24791879.7114
        37.7504         25.2504
 25  8  8  1 29 30.0000000  0  9G03G27G16G09G04G26G06G07G31
 -12250356.12947  -9502299.78947  21408754.4534                   21408756.1134
        45.2504         43.7504
    365414.87946    380000.27044  24623740.2734                   24623746.2664
        37.5004         25.7504
 -27341492.75447 -19836904.85245  20700630.7584                   20700628.6054
        47.5004         35.5004
 -22050103.41047 -17158657.84447  21249965.8594                   21249966.5084
        45.5004         45.5004
 -25202022.84047 -19597085.99646  20269356.2584                   20269355.6804
        47.0004         38.5004
 -13817235.96946 -10721224.02745  22909195.7194                   22909198.5594
        41.0004         35.5004
  -4853290.10545  -3762667.16444  24759174.2274                   24759178.8554
        35.7504         27.2504
 -11625042.10247  -9036169.02046  23068696.1954                   23068696.2774
        45.0004         38.5004
  16753990.50046  13081679.20344  24806431.2344                   24806432.4534
        37.5004         25.0004
 25  8  8  1 30  0.0000000  0  9G03G27G16G09G04G26G06G07G31
 -12183075.93747  -9449873.72347  21421557.1174                   21421558.9844
        45.7504         43.7504
    263533.67646    300612.43844  24604352.4144                   24604357.8754
        37.5004         28.2504
 -27353428.49648 -19846205.41846  20698359.3674                   20698357.4804
        48.2504         36.0004
 -22135428.91847 -17225145.23447  21233729.3754                   21233729.9064
        46.2504         45.7504
 -25228374.07847 -19617619.42646  20264341.7664                   20264341.2194
        46.7504         38.7504
 -13750728.48846 -10669400.03945  22921851.5554                   22921854.2704
        41.0004         35.2504
  -4837504.07445  -3750366.43744  24762177.6024                   24762182.7304
        35.0004         25.5004
 -11703467.91447  -9097279.97346  23053771.9384                   23053772.3284
        45.5004         38.5004
  16830411.21546  13141227.78544  24820974.0164                   24820975.1054
        37.5004         25.7504
 25  8  8  1 30 30.0000000  0  9G03G27G16G09G04G26G06G07G31
 -12115418.94547  -9397154.05947  21434432.1724                   21434434.0554
        46.0004         43.7504
    161720.40246    221277.56344  24584978.1334                   24584983.4534
        38.2504         29.0004
 -27364696.19948 -19854985.43746  20696214.9304                   20696213.1884
        48.0004         36.0004
 -22220586.00447 -17291501.37947  21217523.7114                   21217525.0084
        46.7504         46.0004
 -25254433.29347 -19637925.29746  20259382.8444                   20259382.2734
        47.5004         38.2504
 -13683868.67646 -10617301.51245  22934574.5164                   22934577.5554
        41.2504         35.5004
  -4821320.53545  -3737755.96544  24765257.5164                   24765262.5274
        35.2504         25.5004
 -11781709.32047  -9158247.23446  23038883.7194                   23038883.6174
        45.0004         38.2504
  16906773.52346  13200730.84044  24835505.7034                   24835506.5664
        37.0004         25.0004
 25  8  8  1 31  0.0000000  0  9G03G27G16G09G04G26G06G07G31
 -12047387.34047  -9344142.47747  21447377.6254                   21447380.3054
        45.5004         43.7504
     59978.69146    141998.46144  24565617.4144                   24565622.6564
        37.0004         28.5004
 -27375296.12548 -19863245.11345  20694198.0864                   20694196.1914
        48.7504         35.5004
 -22305572.67247 -17357724.73047  21201351.5234                   21201352.4414
        46.5004         45.7504
 -25280199.02747 -19658002.48446  20254479.7424                   20254479.4224
        47.5004         38.0004
 -13616658.93746 -10564930.32045  22947364.5784                   22947367.1914
        41.2504         35.0004
  -4804741.32445  -3724837.16044  24768411.6954                   24768417.4264
        35.2504         27.2504
 -11859766.00447  -9219070.57046  23024029.2664                   23024029.6214
        44.5004         38.0004
  16983077.13346  13260188.15644  24850025.6644                   24850026.7114
        37.0004         25.5004
 25  8  8  1 31 30.0000000  0  9G03G27G16G09G04G26G06G07G31
 -11978983.33247  -9290840.72747  21460394.8984                   21460397.1994
        45.5004         43.7504
    -41687.88745     62777.92644  24546270.2664                   24546275.5514
        35.5004         28.2504
 -27385228.33248 -19870984.48046  20692307.7344                   20692305.8054
        48.2504         36.2504
 -22390387.05147 -17423813.82447  21185211.9694                   21185212.7274
        47.0004         46.0004
 -25305669.78547 -19677849.82846  20249632.9454                   20249632.4384
        47.7504         38.5004
 -13549101.59846 -10512288.27745  22960220.1094                   22960223.2384
        41.5004         35.5004
  -4787768.40645  -3711611.58644  24771641.9694                   24771647.4414
        35.0004         27.2504
 -11937638.03947  -9279749.99246  23009210.9694                   23009211.2034
        45.0004         38.7504
  17059321.48846  13319599.30944  24864534.6954                   24864535.3444
        37.2504         25.7504
 25  8  8  1 32  0.0000000  0  9G03G27G16G09G04G26G06G07G31
 -11910208.91847  -9237250.34447  21473482.7034                   21473484.5704
        46.0004         44.2504
   -143275.53145    -16381.05944  24526938.8134                   24526944.4104
        35.0004         28.5004
 -27394492.52748 -19878203.32446  20690545.5314                   20690543.5704
        48.0004         36.0004
 -22475026.97747 -17489766.97747  21169105.9694                   21169106.0204
        47.0004         46.0004
 -25330843.90648 -19697466.01246  20244842.3754                   20244841.8634
        48.0004         38.5004
 -13481198.87146 -10459377.09445  22973141.5784                   22973144.4384
        41.2504         35.2504
  -4770403.40645  -3698080.50044  24774946.3364                   24774951.8834
        34.5004         27.5004
 -12015325.29747  -9340285.44146  22994427.1724                   22994427.2274
        45.0004         39.0004
  17135506.08646  13378963.89543  24879031.4614                   24879032.9344
        37.5004         22.7504
 25  8  8  1 32 30.0000000  0  9G03G27G16G09G04G26G06G07G31
 -11841066.67247  -9183373.33647  21486639.9534                   21486642.0274
        45.7504         43.5004
   -244780.88746    -95475.96544  24507623.3134                   24507628.3634
        36.0004         28.5004
 -27403089.35548 -19884902.14546  20688909.2584                   20688907.4494
        48.2504         36.0004
 -22559490.91047 -17555582.99247  21153032.5084                   21153033.3754
        47.2504         46.0004
 -25355720.30947 -19716850.22346  20240108.6254                   20240108.0274
        47.5004         38.7504
 -13412953.44146 -10406198.87945  22986128.6024                   22986131.1764
        40.7504         35.0004
  -4752648.52045  -3684245.59444  24778324.8754                   24778330.8324
        35.5004         25.5004
 -12092827.67247  -9400676.83246  22979678.9064                   22979679.2664
        45.0004         38.5004
  17211629.96146  13438281.12944  24893517.7504                   24893519.0554
        37.2504         24.2504
 25  8  8  1 33  0.0000000  0  9G03G27G16G09G04G26G06G07G31
 -11771557.64547  -9129210.53147  21499867.0864                   21499869.0354
        46.0004         43.2504
   -346199.08246   -174502.96144  24488323.2664                   24488329.2304
        38.0004         29.0004
 -27411017.55548 -19891079.94946  20687400.7504                   20687398.5704
        48.2504         36.2504
 -22643775.60247 -17621259.32847  21136993.5164                   21136994.1484
        47.2504         46.2504
 -25380296.25047 -19736000.30146  20235432.0314                   20235431.6174
        47.5004         38.5004
 -13344366.53146 -10352754.57045  22999180.1254                   22999182.8874
        41.5004         35.5004
  -4734504.50446  -3670107.46944  24781776.9614                   24781783.4144
        36.0004         26.7504
 -12170143.96547  -9460923.20746  22964966.4924                   22964966.5274
        45.5004         38.7504
  17287693.92646  13497551.69943  24907992.1484                   24907993.5944
        37.2504         23.7504
 25  8  8  1 33 30.0000000  0  9G03G27G16G09G04G26G06G07G31
 -11701683.20747  -9074762.98847  21513163.4224                   21513165.6684
        45.2504         42.7504
   -447525.69546   -253458.64144  24469042.0944                   24469046.7974
        38.2504         28.0004
 -27418276.61348 -19896736.35546  20686019.3524                   20686017.4774
        48.0004         37.0004
 -22727878.34847 -17686793.88347  21120989.5634                   21120990.0664
        47.5004         46.0004
 -25404569.52048 -19754914.52746  20230813.0554                   20230812.5004
        48.5004         38.5004
 -13275439.76646 -10299045.44945  23012296.1174                   23012299.2814
        41.2504         35.5004
  -4715972.48845  -3655666.99644  24785304.3284                   24785309.8444
        35.0004         26.7504
 -12247273.13347  -9521023.77746  22950288.9534                   22950289.1024
        45.0004         38.5004
  17363698.48846  13556775.99244  24922456.0004                   24922456.3244
        36.5004         25.2504
 25  8  8  1 34  0.0000000  0  9G03G27G16G09G04G26G06G07G31
 -11631446.33647  -9020033.02347  21526529.0394                   21526531.6024
        45.5004         43.0004
   -548757.82046   -332340.73044  24449777.8444                   24449782.7934
        38.7504         27.0004
 -27424867.67248 -19901872.23446  20684765.0234                   20684763.0514
        48.2504         36.0004
 -22811797.90247 -17752185.69147  21105020.2504                   21105020.6644
        47.5004         46.2504
 -25428539.35247 -19773592.31646  20226251.5474                   20226251.3014
        46.2504         38.5004
 -13206176.19946 -10245073.88345  23025477.2974                   23025479.5744
        41.0004         34.7504
  -4697055.11746  -3640926.25844  24788905.0944                   24788910.0474
        36.2504         27.0004
 -12324215.65247  -9580978.90246  22935647.0004                   22935647.1524
        45.2504         38.5004
  17439642.12546  13615952.79344  24936907.6804                   24936908.4884
        36.7504         25.0004
 25  8  8  1 34 30.0000000  0  9G03G27G16G09G04G26G06G07G31
 -11560850.40647  -8965023.27747  21539963.1884                   21539965.0984
        45.7504         43.0004
   -649892.87146   -411147.14544  24430532.1884                   24430537.6454
        37.5004         26.2504
 -27430791.70748 -19906488.35246  20683637.8284                   20683635.6174
        48.0004         36.5004
 -22895533.35947 -17817434.03947  21089085.5554                   21089086.2584
        47.2504         46.2504
 -25452205.35947 -19792033.35546  20221748.4454                   20221747.7464
        47.0004         39.0004
 -13136579.30546 -10190842.57045  23038720.5234                   23038723.4694
        40.5004         35.0004
  -4677755.52345  -3625887.66844  24792577.8674                   24792583.0124
        35.2504         26.5004
 -12400972.62547  -9640789.43046  22921040.6644                   22921041.0124
        45.2504         38.7504
  17515523.07046  13675080.76644  24951346.4144                   24951348.3014
        36.5004         25.0004
 25  8  8  1 35  0.0000000  0  9G03G27G16G09G04G26G06G07G31
 -11489897.95347  -8909735.71947  21553465.0944                   21553467.4694
        44.7504         42.7504
   -750927.61746   -489875.37544  24411306.8134                   24411311.2544
        38.0004         27.5004
 -27436049.43448 -19910585.27746  20682637.0634                   20682635.3134
        48.5004         36.7504
 -22979083.06647 -17882537.64547  21073186.5704                   21073187.2704
        47.5004         46.5004
 -25475566.47748 -19810236.81646  20217302.9224                   20217302.2464
        48.5004         38.0004
 -13066651.80546 -10136353.65245  23052027.5234                   23052030.4104
        40.5004         35.2504
  -4658075.84046  -3610552.91844  24796321.7894                   24796327.5084
        36.2504         27.5004
 -12477544.40647  -9700455.65246  22906469.5394                   22906470.2074
        45.2504         39.5004
  17591340.89146  13734159.54344  24965773.9224                   24965775.8164
        36.7504         26.0004
 25  8  8  1 35 30.0000000  0  9G03G27G16G09G04G26G06G07G31
 -11418591.82447  -8854172.57047  21567034.5084                   21567036.4654
        45.0004         43.0004
   -851858.75846   -568522.84444  24392098.9224                   24392104.2424
        37.7504         28.2504
 -27440641.80148 -19914163.73046  20681763.3984                   20681761.8484
        48.0004         36.7504
 -23062445.57447 -17947495.37947  21057322.9614                   21057324.1174
        47.7504         46.5004
 -25498621.65248 -19828201.88346  20212915.6024                   20212915.2894
        48.2504         37.7504
 -12996396.66846 -10081609.43745  23065396.8444                   23065399.7274
        41.0004         34.7504
  -4638018.66446  -3594924.02044  24800138.5084                   24800144.4654
        37.0004         28.2504
 -12553931.18047  -9759977.72746  22891933.4064                   22891933.4344
        45.2504         39.0004
  17667094.83246  13793188.53944  24980190.4774                   24980190.7974
        36.5004         25.0004
 25  8  8  1 36  0.0000000  0  9G03G27G16G09G04G26G06G07G31
 -11346934.80947  -8798336.00047  21580670.3594                   21580672.3714
        45.2504         43.2504
   -952683.26646   -647087.25044  24372913.2734                   24372918.2704
        38.0004         28.5004
 -27444569.60548 -19917224.34846  20681015.6024                   20681013.9924
        48.0004         36.5004
 -23145619.41847 -18012306.09447  21041495.5234                   21041495.8914
        47.5004         46.7504
 -25521370.04747 -19845927.89846  20208586.7664                   20208586.0394
        46.5004         38.7504
 -12925816.78146 -10026612.18445  23078827.4844                   23078830.5634
        40.0004         35.5004
  -4617586.53145  -3579002.94144  24804026.3594                   24804033.3164
        35.5004         28.0004
 -12630133.33247  -9819355.91846  22877433.2734                   22877432.8284
        44.2504         39.0004
  17742783.55146  13852166.72344  24994593.7504                   24994594.2424
        37.2504         25.0004
 25  8  8  1 36 30.0000000  0  9G03G27G16G09G04G26G06G07G31
 -11274928.28947  -8742227.09847  21594372.8914                   21594375.0904
        45.0004         42.7504
  -1053396.55546   -725564.94945  24353748.6884                   24353752.6804
        38.7504         30.0004
 -27447832.29348 -19919766.68746  20680394.7734                   20680393.2544
        48.0004         36.7504
 -23228601.70748 -18076967.55147  21025704.4924                   21025705.5704
        48.0004         46.7504
 -25543809.24648 -19863412.98046  20204316.7114                   20204316.1564
        48.0004         38.5004
 -12854913.69546  -9971363.07445  23092320.2894                   23092322.9654
        40.0004         35.0004
  -4596780.43746  -3562790.46544  24807986.9454                   24807992.0664
        36.5004         27.5004
 -12706150.15647  -9878589.69546  22862967.3594                   22862966.9574
        45.5004         39.0004
  17818407.35945  13911094.31644  25008984.3984                   25008984.8364
        35.5004         25.5004
 25  8  8  1 37  0.0000000  0  9G03G27G16G09G04G26G06G07G31
 -11202576.93047  -8685849.48447  21608140.6024                   21608142.9144
        45.5004         43.2504
  -1153997.31246   -803955.02344  24334604.6334                   24334609.0234
        39.0004         29.5004
 -27450432.44147 -19921792.77046  20679899.9144                   20679898.2664
        47.5004         36.0004
 -23311392.82047 -18141480.04747  21009949.9454                   21009950.4614
        47.7504         46.7504
 -25565940.23447 -19880657.90646  20200104.9694                   20200104.5474
        46.5004         39.7504
 -12783692.07446  -9915865.76645  23105872.9844                   23105876.3014
        40.2504         34.7504
  -4575605.00446  -3546290.21544  24812016.9694                   24812021.8634
        36.5004         27.5004
 -12781983.77347  -9937680.73046  22848536.4844                   22848536.4264
        45.5004         39.0004
  17893963.50046  13969969.18444  25023362.1414                   25023363.0474
        36.7504         27.0004
 25  8  8  1 37 30.0000000  0  9G03G27G16G09G04G26G06G07G31
 -11129881.29347  -8629203.60247  21621974.1644                   21621976.7304
        45.0004         42.5004
  -1254480.16846   -882253.21544  24315482.9454                   24315487.5594
        38.5004         28.0004
 -27452369.07048 -19923301.82446  20679531.7584                   20679529.5784
        48.0004         36.7504
 -23393988.98847 -18205840.63347  20994232.4144                   20994232.9414
        47.5004         47.0004
 -25587759.79347 -19897660.15246  20195953.1804                   20195952.2504
        46.0004         39.2504
 -12712152.69946  -9860120.85545  23119486.7424                   23119489.3914
        40.5004         35.0004
  -4554060.35246  -3529502.24644  24816115.5394                   24816121.3634
        36.5004         28.5004
 -12857632.19147  -9996627.44946  22834140.5634                   22834141.2934
        44.5004         39.0004
  17969453.32445  14028792.39844  25037727.3134                   25037728.0904
        35.2504         27.0004
 25  8  8  1 38  0.0000000  0  9G03G27G16G09G04G26G06G07G31
 -11056846.84447  -8572293.71147  21635872.0554                   21635874.9104
        45.0004         42.5004
  -1354844.50846   -960459.06644  24296383.5784                   24296388.8054
        37.7504         28.2504
 -27453645.77348 -19924296.64145  20679288.7584                   20679287.0434
        48.0004         35.7504
 -23476391.39147 -18270050.23447  20978551.5164                   20978552.1134
        47.2504         47.0004
 -25609269.60547 -19914421.04346  20191860.1254                   20191858.9494
        46.2504         38.5004
 -12640301.08246  -9804132.63745  23133159.8054                   23133162.2544
        39.5004         34.5004
  -4532151.69946  -3512430.65244  24820285.4144                   24820291.2624
        37.0004         26.5004
 -12933098.37947 -10055432.16846  22819779.9384                   22819779.7424
        44.7504         39.5004
  18044873.27746  14087561.15244  25052079.2424                   25052080.2344
        37.7504         26.7504
 25  8  8  1 38 30.0000000  0 10G03G27G16G09G04G26G08G06G07G31
 -10983476.94547  -8515122.44147  21649834.4614                   21649836.2464
        45.5004         42.2504
  -1455087.82846  -1038570.61744  24277307.7114                   24277312.6724
        38.2504         27.5004
 -27454263.74248 -19924778.16445  20679170.8914                   20679168.9614
        48.2504         35.7504
 -23558598.98047 -18334108.03547  20962908.0864                   20962908.6454
        47.7504         47.0004
 -25630469.28547 -19930940.27746  20187825.8674                   20187825.0164
        46.5004         39.0004
 -12568140.64146  -9747903.78145  23146891.1484                   23146894.5904
        39.2504         34.2504
   3002247.72756   2362401.19554  24802344.1094                   24802353.0784
        36.0004         27.7504
  -4509882.16446  -3495077.84044  24824523.5864                   24824528.0744
        36.0004         27.5004
 -13008383.57447 -10114095.86746  22805454.4454                   22805453.7704
        45.7504         39.2504
  18120221.84446  14146274.28944  25066417.8054                   25066418.6804
        37.0004         27.2504
 25  8  8  1 39  0.0000000  0 10G03G27G16G09G04G26G08G06G07G31
 -10909775.89147  -8457693.12547  21663859.0234                   21663861.7234
        45.5004         42.5004
  -1555208.33646  -1116586.48044  24258256.3364                   24258260.5354
        39.2504         29.0004
 -27454225.64848 -19924748.47346  20679178.0004                   20679176.2234
        48.0004         36.0004
 -23640611.71547 -18398014.01247  20947301.5474                   20947302.4574
        47.5004         47.0004
 -25651359.32847 -19947218.23046  20183850.6254                   20183849.4964
        47.0004         38.7504
 -12495675.80046  -9691437.73445  23160681.2194                   23160683.6914
        39.2504         34.0004
   2894117.67245   2278144.32844  24781767.1174                   24781775.8404
        33.5004         27.2504
  -4487255.76246  -3477446.95744  24828828.1804                   24828834.5274
        36.7504         28.5004
 -13083489.87547 -10172620.17246  22791160.9384                   22791161.2894
        45.7504         39.0004
  18195496.95346  14204930.19544  25080742.0234                   25080743.3054
        37.5004         26.0004
 25  8  8  1 39 30.0000000  0 10G03G27G16G09G04G26G08G06G07G31
 -10835750.94147  -8400011.41447  21677945.8284                   21677948.1024
        45.2504         42.2504
  -1655207.31246  -1194507.66245  24239225.9224                   24239231.4144
        39.0004         30.2504
 -27453536.98448 -19924211.83645  20679308.9454                   20679307.4614
        48.5004         35.5004
 -23722432.55548 -18461770.45747  20931731.2584                   20931732.2114
        48.0004         47.0004
 -25671943.32048 -19963257.70746  20179933.4144                   20179932.5314
        48.0004         38.5004
 -12422913.87946  -9634740.18745  23174526.9924                   23174530.1094
        40.5004         33.2504
   2785856.97745   2193785.64843  24761166.1334                   24761174.5634
        30.5004         23.7504
  -4464279.60246  -3459543.55544  24833201.0864                   24833206.8634
        36.5004         28.0004
 -13158421.93747 -10231008.71146  22776901.6644                   22776901.9654
        45.7504         39.7504
  18270692.66846  14263524.25844  25095051.1884                   25095052.5314
        37.7504         27.2504
 25  8  8  1 40  0.0000000  0 10G03G27G16G09G04G26G08G06G07G31
 -10761403.56247  -8342078.47747  21692093.2974                   21692096.1884
        44.2504         42.2504
  -1755080.04346  -1272330.43045  24220221.4844                   24220225.7154
        39.0004         30.7504
 -27452197.47748 -19923168.06246  20679563.9304                   20679562.1724
        48.0004         36.5004
 -23804058.49648 -18525375.04747  20916198.6414                   20916198.9264
        48.0004         47.0004
 -25692218.80947 -19979056.79346  20176075.0234                   20176074.3794
        46.2504         39.0004
 -12349856.35546  -9577812.30545  23188429.7584                   23188432.3134
        39.2504         33.7504
                                  24740540.1954                   24740548.6134
        29.0004         23.0004
  -4440954.71546  -3441368.39144  24837639.3674                   24837645.5984
        36.5004         29.2504
 -13233178.72347 -10289260.66446  22762676.7114                   22762676.4264
        46.0004         39.7504
  18345809.79346  14322057.07044  25109345.9144                   25109346.4924
        38.2504         26.5004
 25  8  8  1 40 30.0000000  0 10G03G27G16G09G04G26G08G06G07G31
 -10686733.22747  -8283893.87146  21706302.6564                   21706305.6724
        46.0004         41.2504
  -1854820.09446  -1350049.84445  24201241.5004                   24201246.2814
        39.7504         30.5004
 -27450204.83248 -19921615.34446  20679943.5234                   20679941.7664
        48.0004         36.5004
 -23885484.65647 -18588823.96547  20900703.5314                   20900704.0594
        47.2504         47.0004
 -25712181.57047 -19994612.19146  20172276.4774                   20172275.6954
        46.2504         39.0004
 -12276502.81646  -9520653.76245  23202388.0554                   23202391.1914
        39.5004         33.5004
   2568962.26645   2024777.38744  24719891.2504                   24719899.9064
        32.0004         24.7504
  -4417280.54746  -3422921.07444  24842144.8674                   24842151.0664
        37.0004         28.0004
 -13307757.02047 -10347373.55146  22748484.2814                   22748483.9064
        46.0004         39.7504
  18420851.15246  14380530.86744  25123625.1954                   25123626.6524
        38.5004         28.0004
 25  8  8  1 41  0.0000000  0 10G03G27G16G09G04G26G08G06G07G31
 -10611743.16847  -8225460.13747  21720572.7734                   21720575.5274
        45.7504         42.0004
  -1954424.62946  -1427663.64844  24182287.0314                   24182291.8554
        38.7504         29.5004
 -27447560.41448 -19919554.75446  20680446.6804                   20680445.1094
        48.2504         36.0004
 -23966709.87948 -18652116.31647  20885246.6414                   20885247.1334
        48.0004         47.2504
 -25731831.04747 -20009923.46946  20168537.5004                   20168536.2114
        46.5004         39.0004
 -12202856.52046  -9463267.09445  23216402.4924                   23216405.7194
        39.5004         33.2504
   2460336.30945   1940134.05544  24699220.7894                   24699229.1954
        34.7504         26.5004
  -4393259.94946  -3404203.80544  24846715.8834                   24846721.7894
        37.2504         29.5004
 -13382157.87547 -10405348.16046  22734326.6334                   22734326.1484
        46.0004         39.2504
  18495815.58646  14438944.70344  25137890.6884                   25137891.8054
        37.7504         26.7504
 25  8  8  1 41 30.0000000  0 10G03G27G16G09G04G26G08G06G07G31
 -10536432.90247  -8166776.89847  21734904.0164                   21734906.5944
        45.7504         42.0004
  -2053887.03546  -1505166.69544  24163360.5004                   24163364.3404
        38.2504         28.0004
 -27444262.11748 -19916984.64545  20681074.2504                   20681072.2194
        48.0004         35.5004
 -24047729.20348 -18715248.22747  20869829.0784                   20869830.3094
        48.0004         47.2504
 -25751162.93748 -20024987.28546  20164858.3444                   20164857.2734
        48.2504         38.7504
 -12128917.03546  -9405651.96545  23230472.7034                   23230476.0164
        39.7504         34.5004
   2351598.09446   1855403.19944  24678527.3444                   24678536.9694
        36.5004         27.2504
  -4368892.27746  -3385216.09444  24851352.6804                   24851359.0514
        37.0004         28.2504
 -13456378.51247 -10463182.34446  22720202.9224                   22720202.4264
        46.2504         39.7504
  18570704.71546  14497299.85944  25152141.9774                   25152142.8634
        37.0004         28.0004
 25  8  8  1 42  0.0000000  0 10G03G27G16G09G04G26G08G06G07G31
 -10460802.12947  -8107843.89846  21749296.3674                   21749298.6024
        45.0004         41.7504
  -2153201.06246  -1582554.14844  24144460.5164                   24144465.3244
        37.7504         29.0004
 -27440307.89547 -19913903.42645  20681826.3594                   20681824.9614
        47.0004         35.7504
 -24128537.94548 -18778216.05947  20854452.0314                   20854452.3914
        48.0004         47.2504
 -25770173.17647 -20039800.45346  20161240.8524                   20161240.6994
        46.2504         38.5004
 -12054684.09846  -9347808.17645  23244599.0474                   23244602.2384
        39.7504         34.0004
   2242753.19546   1770589.18044  24657816.1094                   24657823.6254
        37.5004         25.2504
  -4344176.95746  -3365957.49244  24856056.3204                   24856062.0554
        36.5004         29.2504
 -13530415.92647 -10520873.77046  22706113.5554                   22706113.6564
        46.5004         39.5004
  18645521.60946  14555598.74644  25166379.0314                   25166379.5124
        36.7504         26.2504
 25  8  8  1 42 30.0000000  0  9G03G27G16G09G04G26G08G06G07
 -10384854.82047  -8048664.27047  21763749.2194                   21763751.2234
        46.0004         42.0004
  -2252364.47746  -1659824.23044  24125590.2584                   24125595.2734
        39.0004         29.2504
 -27435700.00448 -19910312.85945  20682703.7584                   20682701.9344
        48.0004         35.5004
 -24209135.59047 -18841019.39147  20839114.9454                   20839115.5084
        47.5004         47.5004
 -25788861.94147 -20054363.13746  20157684.8674                   20157684.1764
        47.0004         38.7504
 -11980161.72746  -9289738.85545  23258780.9924                   23258783.4574
        39.2504         33.5004
   2133803.19545   1685693.16043  24637082.4384                   24637090.6884
        33.7504         22.0004
  -4319117.85546  -3346430.98844  24860824.9224                   24860830.9144
        37.0004         29.7504
 -13604271.71947 -10578423.67246  22692059.3054                   22692059.2344
        46.0004         39.5004
 25  8  8  1 43  0.0000000  0  9G03G27G16G09G04G26G08G06G07
 -10308592.32047  -7989239.02346  21778260.8984                   21778263.6564
        45.5004         41.7504
  -2351372.54746  -1736973.26644  24106750.2664                   24106754.6134
        39.0004         28.7504
 -27430438.41847 -19906212.92245  20683704.6954                   20683702.8164
        47.2504         35.5004
 -24289519.02347 -18903655.82047  20823818.6024                   20823818.7234
        47.2504         47.5004
 -25807226.69547 -20068673.34046  20154189.7734                   20154189.2974
        46.2504         39.0004
 -11905351.21546  -9231445.01245  23273016.6024                   23273019.5824
        39.5004         34.0004
   2024752.41045   1600718.61743  24616330.7274                   24616339.6174
        32.0004         20.5004
  -4293715.93746  -3326637.38344  24865659.1564                   24865664.5904
        37.0004         29.5004
 -13677945.19947 -10635831.50846  22678039.9844                   22678039.6414
        46.5004         39.5004
 25  8  8  1 43 30.0000000  0  8G03G27G16G09G04G26G06G07
 -10232017.52047  -7929570.43046  21792832.6334                   21792834.8524
        45.7504         41.5004
  -2450222.19946  -1813998.85544  24087939.9534                   24087944.2424
        39.5004         29.5004
 -27424524.47747 -19901604.64845  20684829.9224                   20684828.0514
        47.0004         35.5004
 -24369686.73847 -18966124.15647  20808562.7504                   20808563.3444
        47.0004         47.5004
 -25825266.56647 -20082730.37946  20150756.8984                   20150756.6174
        46.0004         39.0004
 -11830255.55146  -9172928.97345  23287307.0474                   23287309.9534
        39.7504         34.0004
  -4267973.94946  -3306578.77344  24870557.1174                   24870563.1024
        37.0004         27.7504
 -13751436.50447 -10693097.39546  22664054.8754                   22664054.7464
        46.2504         39.7504
 25  8  8  1 44  0.0000000  0  9G03G27G16G09G04G26G06G07G30
 -10155126.35547  -7869655.31647  21807464.3444                   21807466.9734
        45.2504         42.0004
  -2548903.15246  -1890893.01245  24069160.9614                   24069165.3364
        39.0004         30.0004
 -27417952.23047 -19896483.41846  20686080.6644                   20686079.0434
        46.0004         36.0004
 -24449630.13347 -19028417.69547  20793350.2974                   20793350.7154
        47.5004         47.5004
 -25842973.76247 -20096528.19146  20147387.5394                   20147386.6454
        46.5004         38.5004
 -11754870.68446  -9114187.57445  23301651.8674                   23301655.2234
        39.0004         33.5004
  -4241887.59846  -3286251.82445  24875521.3204                   24875527.4844
        38.0004         31.0004
 -13824738.85247 -10750216.05146  22650105.7734                   22650105.7704
        45.7504         39.7504
   3012453.41856   2368814.23054  25234861.5004                   25234871.1174
        36.7504         29.2504
 25  8  8  1 44 30.0000000  0 10G03G27G16G09G04G26G08G06G07G30
 -10077925.42647  -7809498.84846  21822155.7194                   21822158.0514
        46.0004         41.2504
  -2647415.90646  -1967656.10945  24050414.7814                   24050419.2304
        39.0004         30.0004
 -27410726.93047 -19890853.30545  20687455.4774                   20687453.9104
        45.5004         34.7504
 -24529351.36347 -19090538.12147  20778179.5634                   20778180.1914
        46.7504         47.5004
 -25860351.05147 -20110068.93046  20144080.3204                   20144080.1724
        47.0004         38.5004
 -11679203.22746  -9055225.96945  23316051.1414                   23316053.9654
        39.2504         33.5004
   3075048.21155   1515660.95755  24553968.8054                   24553976.1844
        33.5004         30.5004
  -4215463.41046  -3265661.63345  24880550.2194                   24880555.5044
        38.2504         30.0004
 -13897856.71547 -10807190.93746  22636192.0474                   22636191.8054
        46.5004         39.5004
   2911927.88346   2290483.09045  25215731.8284                   25215740.8484
        38.0004         30.2504
 25  8  8  1 45  0.0000000  0 10G03G27G16G09G04G26G08G06G07G30
 -10000424.30147  -7749108.44146  21836904.0234                   21836906.4104
        45.2504         41.7504
  -2745763.88746  -2044290.81244  24031699.7424                   24031703.9104
        38.5004         29.2504
 -27402856.40647 -19884720.42645  20688953.4384                   20688951.4694
        45.5004         35.2504
 -24608855.39547 -19152489.30547  20763050.8674                   20763051.1994
        47.5004         47.5004
 -25877404.10947 -20123357.01646  20140835.6334                   20140834.8484
        46.5004         39.0004
 -11603262.64846  -8996051.55145  23330501.8754                   23330504.8914
        39.5004         33.5004
   2965627.37146   1430398.18845  24533147.3054                   24533154.4104
        38.0004         34.0004
  -4188710.64146  -3244815.41444  24885641.1644                   24885646.9264
        37.5004         29.7504
 -13970797.36747 -10864027.74646  22622311.2734                   22622311.5594
        46.2504         40.0004
   2811490.17646   2212220.37945  25196618.5084                   25196627.9884
        37.7504         30.7504
 25  8  8  1 45 30.0000000  0 10G03G27G16G09G04G26G08G06G07G30
  -9922628.38347  -7688488.32046  21851707.5084                   21851710.3834
        46.0004         41.7504
  -2843946.44946  -2120796.57845  24013015.8444                   24013020.8444
        38.7504         31.0004
 -27394344.58247 -19878087.84046  20690573.4064                   20690571.2624
        46.2504         36.2504
 -24688143.15647 -19214271.96547  20747962.5704                   20747963.0984
        47.0004         47.7504
 -25894134.60947 -20136393.76646  20137651.6414                   20137651.4304
        45.7504         38.7504
 -11527054.40646  -8936668.56245  23345004.3444                   23345007.4534
        39.7504         33.7504
   2856112.98846   1345062.53145  24512306.4924                   24512314.5744
        39.2504         33.7504
  -4161634.49646  -3223717.21544  24890794.0474                   24890799.2774
        37.5004         29.0004
 -14043563.67647 -10920728.70346  22608464.3754                   22608464.3324
        45.0004         39.7504
   2711137.76246   2134024.10545  25177521.8594                   25177531.1844
        36.7504         30.5004
 25  8  8  1 46  0.0000000  0 10G03G27G16G09G04G26G08G06G07G30
  -8269121.11347  -6400041.19546  22166359.5784                   22166362.3284
        44.7504         41.7504
  -1366534.94946   -969566.72345  24294158.1334                   24294162.0554
        40.0004         30.7504
 -25809771.13747 -18643355.29345  20992107.4454                   20992105.4304
        46.0004         35.5004
 -23191788.42247 -18048281.24647  21032709.5704                   21032709.8794
        47.2504         47.7504
 -24335119.02047 -18921576.41846  20434322.2274                   20434322.2894
        47.2504         38.7504
  -9875161.84446  -7649479.59845  23659349.2504                   23659352.1994
        38.5004         33.5004
   4321933.60246   2487260.66845  24791243.5864                   24791250.4414
        38.0004         31.0004
  -2558816.54346  -1974768.23845  25195800.1334                   25195805.9184
        38.7504         30.0004
 -12540731.53547  -9749690.61746  22894444.1414                   22894443.8364
        46.5004         40.0004
   4186296.23046   3283498.64544  25458235.3524                   25458244.1724
        36.7504         28.2504
 25  8  8  1 46 30.0000000  0 10G03G27G16G09G04G26G08G06G07G30
  -8190738.95347  -6338964.26647  22181275.5234                   22181278.3674
        46.0004         42.0004
  -1464371.48846  -1045802.89144  24275540.1804                   24275544.7114
        39.0004         28.5004
 -25799975.64547 -18635722.44545  20993971.2664                   20993969.7344
        46.5004         35.2504
 -23270633.46947 -18109718.93448  21017705.7344                   21017706.2734
        47.5004         48.0004
 -24351196.27047 -18934104.15246  20431262.8834                   20431262.7624
        46.5004         38.5004
  -9798421.51646  -7589681.99645  23673952.2734                   23673955.0434
        38.7504         33.0004
   4212245.89146   2401789.98844  24770369.6334                   24770377.7584
        37.0004         26.5004
  -2531096.52046  -1953168.30545  25201075.0234                   25201080.4924
        38.5004         31.0004
 -12613145.02047  -9806116.63746  22880664.4454                   22880664.0594
        46.0004         40.0004
   4086120.39146   3205439.92244  25439172.2894                   25439181.1954
        37.0004         29.0004
 25  8  8  1 47  0.0000000  0 10G03G27G16G09G04G26G08G06G07G30
  -8112066.70747  -6277661.31646  22196246.8204                   22196249.5704
        45.7504         41.5004
  -1562028.90246  -1121899.49244  24256956.2424                   24256960.2624
        39.0004         28.2504
 -25789539.14147 -18627590.11346  20995957.2734                   20995955.5664
        46.7504         36.0004
 -23349253.39848 -18170981.19948  21002744.8594                   21002745.1414
        48.0004         48.2504
 -24366944.23447 -18946375.28946  20428266.2814                   20428265.7194
        47.0004         39.0004
  -9721418.20746  -7529679.46545  23688605.0314                   23688608.3284
        39.5004         33.7504
                                  24749482.3444                   24749489.0664
        29.5004         17.2504
  -2503057.31246  -1931319.66844  25206410.2584                   25206416.5204
        37.5004         29.2504
 -12685381.51247  -9862404.73046  22866918.0634                   22866917.7624
        46.2504         40.0004
   3986034.14546   3127451.02744  25420125.8204                   25420134.7304
        36.5004         29.7504
 25  8  8  1 47 30.0000000  0  9G03G27G16G09G04G26G06G07G30
  -8033104.59447  -6216132.47746  22211271.9304                   22211275.1994
        44.7504         41.0004
  -1659501.17646  -1197851.81644  24238408.2344                   24238412.5904
        39.0004         28.7504
 -25778460.33647 -18618957.28545  20998065.6024                   20998064.2274
        46.0004         35.7504
 -23427643.78547 -18232064.59448  20987827.6804                   20987827.8444
        47.5004         48.0004
 -24382359.28547 -18958387.00846  20425332.7584                   20425332.3754
        46.0004         38.7504
  -9644151.99246  -7469472.07845  23703308.1094                   23703311.6954
        39.7504         33.0004
  -2474698.85946  -1909222.27345  25211807.0634                   25211812.5634
        38.7504         31.0004
 -12757438.73047  -9918553.13746  22853206.1174                   22853205.6094
        46.0004         39.7504
   3886040.51646   3049534.27045  25401097.7584                   25401106.1484
        37.0004         30.0004
 25  8  8  1 48  0.0000000  0 10G03G27G16G09G04G26G08G06G07G30
  -7953857.03947  -6154381.21146  22226352.3134                   22226355.4104
        44.7504         41.5004
  -1756786.64846  -1273658.55945  24219894.8364                   24219899.5514
        38.7504         30.0004
 -25766742.48447 -18609826.50045  21000296.0864                   21000293.3984
        45.7504         35.0004
 -23505804.60248 -18292969.09848  20972954.0944                   20972954.6024
        48.0004         48.0004
 -24397442.06647 -18970139.83246  20422462.7114                   20422462.3834
        46.0004         38.7504
  -9566627.30546  -7409063.28945  23718060.7504                   23718064.1334
        38.5004         32.7504
                                  24707660.977
        37.250
  -2446025.55546  -1886879.52045  25217262.6724                   25217269.2894
        37.0004         30.7504
 -12829318.60247  -9974563.35246  22839527.5084                   22839527.2664
        45.2504         39.7504
   3786137.93846   2971688.46544  25382086.8364                   25382094.6604
        37.5004         28.7504
 25  8  8  1 48 30.0000000  0 10G03G27G16G09G04G26G08G06G07G30
  -7874326.26247  -6092409.28146  22241486.7034                   22241489.9654
        45.7504         41.0004
  -1853881.24646  -1349316.54345  24201419.1724                   24201422.9844
        40.0004         30.7504
 -25754386.13747 -18600198.18445  21002646.5314                   21002645.0394
        46.2504         34.7504
 -23583733.35248 -18353692.77348  20958124.5234                   20958125.2854
        48.0004         48.2504
 -24412190.89847 -18981632.43446  20419656.1174                   20419655.9614
        45.7504         39.0004
  -9488846.32046  -7348454.78545  23732862.0084                   23732865.5824
        39.0004         33.5004
   4595013.31346   2218576.30555  24686730.5084                   24686738.3094
        40.2504         35.2504
  -2417039.44546  -1864293.05545  25222779.5944                   25222785.0474
        37.0004         30.5004
 -12901020.69947 -10030435.03946  22825883.1254                   22825882.6994
        45.2504         40.0004
   3686327.36346   2893914.32845  25363093.8984                   25363101.1254
        37.0004         30.0004
 25  8  8  1 49  0.0000000  0 10G03G27G16G09G04G26G08G06G07G30
  -7794516.68747  -6030220.08646  22256674.9614                   22256677.4024
        45.5004         41.7504
  -1950783.34046  -1424824.60544  24182978.6024                   24182982.4614
        39.7504         28.2504
 -25741394.44947 -18590074.79745  21005118.9064                   21005117.1134
        46.2504         35.0004
 -23661429.99648 -18414235.58648  20943339.4614                   20943339.8954
        48.2504         48.2504
 -24426606.50847 -18992865.37546  20416913.2194                   20416912.4104
        46.5004         38.0004
  -9410813.39846  -7287649.97345  23747711.3914                   23747714.9344
        39.7504         33.2504
   4484952.66846   2132815.02346  24665785.8914                   24665793.1764
        39.7504         36.2504
  -2387744.76646  -1841466.12145  25228353.6954                   25228359.6564
        38.0004         31.0004
 -12972547.25047 -10086169.93446  22812272.1724                   22812271.7274
        45.5004         39.7504
   3586607.10546   2816210.58244  25344116.0084                   25344124.6174
        36.5004         27.0004
 25  8  8  1 49 30.0000000  0 10G03G27G16G09G04G26G08G06G07G30
  -7714430.65647  -5967815.48446  22271914.4844                   22271916.9104
        44.5004         41.0004
  -2047489.19146  -1500179.67644  24164575.8674                   24164580.2894
        37.7504         26.7504
 -25727768.42647 -18579457.12145  21007712.1094                   21007709.9064
        45.2504         34.7504
 -23738892.27047 -18474595.76248  20928599.1804                   20928599.6914
        47.5004         48.2504
 -24440687.35947 -19003837.46546  20414233.6804                   20414233.2934
        46.2504         38.5004
  -9332530.86746  -7226650.65645  23762608.2424                   23762611.8404
        37.7504         32.5004
   4374825.53546   2047001.92645  24644829.0784                   24644837.1524
        38.7504         35.2504
  -2358143.74646  -1818400.49245  25233986.9454                   25233992.8484
        38.0004         30.7504
 -13043898.27047 -10141768.03146  22798694.0004                   22798693.8364
        45.7504         40.0004
   3486978.07846   2738577.88744  25325156.6334                   25325165.4884
        37.7504         28.7504
 25  8  8  1 50  0.0000000  0 10G03G27G16G09G04G26G08G06G07G30
  -7634071.34047  -5905197.92646  22287206.2734                   22287209.6524
        45.0004         41.5004
  -2143995.60246  -1575379.39844  24146211.5784                   24146215.4304
        39.0004         29.5004
 -25713509.82047 -18568346.52045  21010425.3984                   21010423.5744
        46.0004         34.7504
 -23816118.70748 -18534772.17648  20913903.2194                   20913903.9654
        48.0004         48.2504
 -24454432.78947 -19014548.20346  20411618.3284                   20411617.3444
        46.5004         38.2504
  -9254001.69146  -7165459.15245  23777551.6954                   23777555.3524
        39.5004         33.2504
   4264634.34845   1961138.96144  24623860.6484                   24623867.7464
        34.2504         29.0004
  -2328239.29346  -1795098.42245  25239677.5944                   25239683.6454
        38.5004         31.5004
 -13115073.99647 -10197229.55946  22785150.0634                   22785149.3284
        45.7504         40.0004
   3387440.05146   2661016.12144  25306215.1644                   25306224.3754
        37.2504         28.7504
 25  8  8  1 50 30.0000000  0 10G03G27G16G09G04G26G08G06G07G30
  -7553440.00847  -5842368.41446  22302550.2194                   22302552.8284
        45.0004         41.7504
  -2240297.64546  -1650419.82045  24127885.8364                   24127890.0004
        40.2504         32.2504
 -25698618.57047 -18556742.94945  21013259.1954                   21013257.3444
        46.2504         34.5004
 -23893105.97348 -18594762.21548  20899253.1334                   20899253.3874
        48.0004         48.5004
 -24467840.22747 -19024995.56246  20409066.8364                   20409066.2464
        46.2504         39.0004
  -9175227.08246  -7104076.39545  23792542.9534                   23792545.6094
        38.7504         33.5004
                                  24602880.5314                   24602887.9534
        28.7504         21.2504
  -2298032.62146  -1771560.85244  25245426.0474                   25245431.9734
        37.0004         29.7504
 -13186073.74647 -10252553.96146  22771639.2504                   22771638.7624
        45.0004         40.0004
   3287994.75846   2583526.60544  25287291.8524                   25287299.8094
        36.5004         28.5004
 25  8  8  1 51  0.0000000  0 10G03G27G16G09G04G26G08G06G07G30
  -7472542.35547  -5779331.38346  22317944.1174                   22317947.3014
        44.0004         40.7504
  -2336395.02046  -1725300.77344  24109598.2424                   24109602.7384
        38.7504         28.7504
 -25683099.40647 -18544650.10245  21016212.1414                   21016210.2384
        45.5004         34.5004
 -23969855.17247 -18654566.73848  20884648.1484                   20884648.3794
        47.7504         48.5004
 -24480911.65247 -19035181.09446  20406579.2814                   20406578.6294
        47.0004         38.2504
  -9096212.78146  -7042506.87545  23807578.5314                   23807581.3324
        39.0004         32.5004
   4044073.25455   1789273.94152  24581889.3524                   24581897.0704
        32.2504         16.7504
  -2267529.24246  -1747792.09845  25251230.1564                   25251236.9494
        38.5004         32.0004
 -13256900.73047 -10307743.73846  22758161.0864                   22758160.5234
        45.5004         40.0004
   3188639.53146   2506107.29344  25268385.0704                   25268392.7424
        36.2504         27.5004
 25  8  8  1 51 30.0000000  0 10G03G27G16G09G04G26G08G06G07G30
  -7391378.57847  -5716086.99246  22333390.3444                   22333392.2624
        45.5004         41.5004
  -2432281.62546  -1800017.55144  24091351.8914                   24091355.7774
        38.5004         27.2504
 -25666950.91847 -18532066.87145  21019285.2664                   21019283.5904
        45.2504         35.2504
 -24046361.86748 -18714182.30948  20870089.4304                   20870089.7774
        48.5004         48.5004
 -24493643.37547 -19045101.93046  20404156.5394                   20404155.6764
        46.7504         38.7504
  -9016958.79746  -6980750.59445  23822659.5944                   23822663.1724
        38.2504         32.7504
   3933709.11746   1740546.49653  24560887.9064                   24560893.5164
        39.5004         21.5004
  -2236729.29746  -1723792.23045  25257091.0084                   25257097.7424
        37.5004         30.2504
 -13327552.39847 -10362796.91046  22744716.1724                   22744715.9454
        44.5004         39.7504
   3089377.28145   2428760.42644  25249494.8284                   25249503.4654
        35.7504         27.5004
 25  8  8  1 52  0.0000000  0 10G03G27G16G09G04G26G08G06G07G30
  -7309951.80147  -5652637.64146  22348884.0704                   22348887.7114
        44.5004         40.5004
  -2527954.40646  -1874567.64845  24073146.4774                   24073150.5824
        38.7504         30.7504
 -25650175.02747 -18518994.75845  21022477.6174                   21022475.5514
        45.7504         35.0004
 -24122624.56248 -18773607.75048  20855577.1254                   20855577.4024
        48.2504         48.5004
 -24506034.76247 -19054757.55946  20401798.6094                   20401798.1134
        46.7504         38.2504
  -8937468.18446  -6918809.92245  23837786.6644                   23837789.7424
        39.0004         32.0004
   3823293.79346   1654508.80945  24539875.8134                   24539883.2274
        41.0004         30.5004
  -2205635.75446  -1699563.60945  25263008.5864                   25263014.8284
        37.7504         30.0004
 -13398029.48047 -10417714.04346  22731305.0164                   22731304.6094
        45.0004         39.7504
   2990207.73846   2351485.80544  25230623.4844                   25230631.3094
        36.5004         28.2504
 25  8  8  1 52 30.0000000  0 10G03G27G16G09G04G26G08G06G07G30
  -7228265.91847  -5588986.41046  22364428.2424                   22364431.8244
        43.2504         41.0004
  -2623411.04746  -1948949.31245  24054981.0634                   24054985.5864
        39.0004         30.5004
 -25632774.61747 -18505435.99245  21025788.8524                   21025786.9534
        46.0004         34.5004
 -24198642.49247 -18832842.46148  20841111.2504                   20841111.4844
        47.7504         48.5004
 -24518085.85247 -19064148.03146  20399504.9144                   20399504.8164
        47.2504         38.2504
  -8857744.68046  -6856687.77745  23852957.4774                   23852960.6094
        38.5004         32.7504
   3712829.18046   1568432.70745  24518855.0004                   24518862.4494
        41.2504         34.0004
  -2174252.27746  -1675109.04745  25268980.0704                   25268986.4884
        37.5004         30.0004
 -13468333.78547 -10472496.53946  22717926.4534                   22717925.8284
        45.0004         39.5004
   2891130.04345   2274282.73844  25211769.4384                   25211777.4104
        34.7504         26.7504
 25  8  8  1 53  0.0000000  0 10G03G27G16G09G04G26G08G06G07G30
  -7146323.02747  -5525134.91846  22380022.5784                   22380025.3284
        44.5004         40.5004
  -2718647.46546  -2023159.37145  24036858.1484                   24036862.4734
        39.0004         30.0004
 -25614750.43047 -18491391.17645  21029218.5164                   21029216.8284
        46.5004         34.2504
 -24274413.12148 -18891884.47348  20826692.4924                   20826692.8404
        49.0004         48.5004
 -24529794.98047 -19073272.03546  20397277.0704                   20397276.4264
        47.0004         38.7504
  -8777790.35546  -6794385.77745  23868172.5864                   23868175.3244
        38.5004         32.0004
   3602319.00046   1482321.10945  24497825.4614                   24497832.5744
        39.7504         34.0004
  -2142580.95346  -1650430.19945  25275006.8444                   25275013.6884
        37.7504         30.5004
 -13538464.36747 -10527143.69146  22704580.9694                   22704580.3134
        45.0004         40.0004
   2792145.19545   2197152.03544  25192932.9924                   25192940.4064
        35.0004         28.5004
 25  8  8  1 53 30.0000000  0 10G03G27G16G09G04G26G08G06G07G30
  -7064126.26647  -5461085.58646  22395663.2034                   22395667.4384
        43.0004         40.2504
  -2813660.56646  -2097195.46144  24018778.0164                   24018781.5314
        40.0004         29.7504
 -25596104.39147 -18476861.79345  21032766.7814                   21032764.9964
        46.7504         34.5004
 -24349934.91848 -18950732.58648  20812321.5864                   20812321.6214
        49.0004         48.5004
 -24541161.42647 -19082129.01646  20395114.1024                   20395113.4144
        46.5004         38.7504
  -8697608.10546  -6731906.16845  23883430.3204                   23883434.2974
        38.5004         32.2504
   3491765.83645   1396176.01244  24476788.8134                   24476794.5514
        32.5004         27.2504
  -2110624.75446  -1625529.35945  25281088.2344                   25281095.1804
        38.0004         31.5004
 -13608422.24247 -10581656.24246  22691268.6174                   22691267.8714
        45.0004         39.7504
   2693252.96145   2120093.49644  25174114.4774                   25174121.7234
        34.7504         27.5004
 25  8  8  1 54  0.0000000  0  9G03G27G16G09G04G26G06G07G30
  -6981679.55947  -5396841.52046  22411353.0864                   22411355.7854
        44.2504         40.5004
  -2908448.14146  -2171055.82845  24000740.7114                   24000743.7074
        40.0004         30.0004
 -25576839.34847 -18461850.07845  21036432.9774                   21036430.8874
        46.2504         34.2504
 -24425207.16048 -19009386.25048  20797997.0944                   20797997.5634
        49.5004         48.7504
 -24552185.39848 -19090719.13346  20393016.3444                   20393015.7664
        48.0004         38.7504
  -8617201.82446  -6669251.99245  23898731.6174                   23898734.7274
        40.2504         32.0004
  -2078387.56246  -1600409.56645  25287223.3134                   25287229.5044
        38.0004         31.5004
 -13678208.93747 -10636035.41846  22677988.3594                   22677987.7384
        45.5004         40.0004
   2594452.50445   2043106.44944  25155313.1094                   25155320.6564
        34.2504         27.0004
 25  8  8  1 54 30.0000000  0 10G03G27G16G09G04G26G08G06G07G30
  -6898985.27747  -5332404.53546  22427090.6484                   22427091.8954
        44.2504         39.7504
  -3003006.23046  -2244737.35245  23982746.0314                   23982750.6564
        38.7504         31.2504
 -25556956.50847 -18446356.94945  21040216.5004                   21040214.7894
        46.5004         34.7504
 -24500227.47348 -19067843.60548  20783721.3914                   20783721.7424
        49.7504         48.7504
 -24562865.30547 -19099041.14546  20390984.2814                   20390983.5984
        47.0004         38.2504
  -8536573.66446  -6606424.90645  23914073.9224                   23914077.4264
        39.0004         32.0004
   4640703.26256   1328367.41455  24434689.8594                   24434695.9884
        37.7504         31.0004
  -2045871.48046  -1575072.46945  25293410.4064                   25293416.9144
        38.2504         30.2504
 -13747824.11347 -10690280.93746  22664741.4454                   22664740.5594
        45.7504         40.2504
   2495744.44545   1966191.41844  25136529.3204                   25136537.0864
        34.5004         26.7504
 25  8  8  1 55  0.0000000  0 10G03G27G16G09G04G26G08G06G07G30
  -6816048.29347  -5267778.38746  22442871.7344                   22442874.9344
        43.0004         40.2504
  -3097333.64146  -2318239.06245  23964796.2974                   23964800.7664
        38.7504         30.0004
 -25536459.59847 -18430385.32445  21044116.9454                   21044115.1334
        46.5004         34.2504
 -24574996.16848 -19126104.89848  20769493.3054                   20769493.6684
        49.5004         49.0004
 -24573202.37147 -19107096.00446  20389017.2424                   20389016.3834
        47.2504         38.2504
  -8455728.45346  -6543428.71145  23929459.1804                   23929462.1844
        39.5004         31.7504
   4530034.77747   1242132.44544  24413630.0554                   24413637.1374
        42.2504         28.5004
  -2013081.39546  -1549521.85545  25299650.7504                   25299657.1764
        38.2504         30.5004
 -13817270.03947 -10744394.58246  22651525.5864                   22651525.0984
        46.0004         40.0004
   2397126.87545   1889346.87944  25117761.8754                   25117770.3754
        35.0004         26.7504
 25  8  8  1 55 30.0000000  0 10G03G27G16G09G04G26G08G06G07G30
  -6732870.28146  -5202964.46946  22458699.6024                   22458703.4414
        41.7504         39.5004
  -3191425.78946  -2391557.49245  23946891.2504                   23946894.5124
        40.0004         30.0004
 -25515349.20347 -18413935.66845  21048134.2424                   21048132.0664
        47.0004         34.0004
 -24649510.21948 -19184167.76648  20755313.8754                   20755314.3554
        49.5004         49.0004
 -24583194.40247 -19114882.01646  20387115.6884                   20387115.0514
        47.0004         38.2504
  -8374667.64546  -6480264.50845  23944884.5394                   23944887.4694
        39.5004         31.7504
   4419333.85247   1155872.40643  24392563.8594                   24392573.9654
        42.5004         20.2504
  -1980018.87946  -1523758.97745  25305941.6484                   25305948.4924
        37.7504         30.2504
 -13886545.96147 -10798375.75046  22638343.3834                   22638342.3554
        46.0004         40.2504
   2298601.18045   1812573.93044  25099013.8054                   25099020.9734
        34.7504         26.0004
 25  8  8  1 56  0.0000000  0 10G03G27G16G09G04G26G08G06G07G30
  -6649454.89146  -5137965.59846  22474573.6884                   22474576.5904
        41.5004         39.5004
  -3285280.07046  -2464690.60245  23929031.2114                   23929034.8014
        40.0004         30.2504
 -25493628.10247 -18397010.13745  21052267.5474                   21052265.8054
        46.0004         34.2504
 -24723768.54348 -19242031.37548  20741182.5704                   20741183.2034
        49.7504         49.0004
 -24592841.34047 -19122399.11346  20385279.8204                   20385279.1884
        46.5004         38.2504
  -8293394.79746  -6416935.07845  23960349.8204                   23960353.5434
        39.5004         31.5004
   4308602.64846   1069588.75844  24371492.6334                   24371499.8874
        41.7504         27.0004
  -1946687.51646  -1497786.59445  25312284.6884                   25312292.3054
        38.5004         32.2504
 -13955653.47747 -10852225.69946  22625192.1954                   22625191.6564
        46.7504         40.0004
   2200166.57845   1735871.92244  25080281.6334                   25080289.6954
        33.0004         26.0004
 25  8  8  1 56 30.0000000  0 10G03G27G16G09G04G26G08G06G07G30
  -6565803.18747  -5072782.55946  22490492.5164                   22490494.8054
        43.0004         39.2504
  -3378891.35946  -2537634.37145  23911217.6174                   23911221.1524
        39.2504         30.5004
 -25471296.01247 -18379608.49645  21056516.8594                   21056515.1484
        46.2504         34.7504
 -24797767.48848 -19299692.86348  20727101.4224                   20727101.9064
        50.0004         49.0004
 -24602140.33247 -19129645.07846  20383510.2974                   20383509.8284
        47.0004         38.5004
  -8211910.71146  -6353441.04345  23975856.2894                   23975859.5124
        39.0004         31.5004
   4197846.12946    983285.19144  24350415.5864                   24350423.3874
        38.2504         29.0004
  -1913088.23046  -1471605.45745  25318678.3674                   25318685.5274
        39.0004         32.0004
 -14024590.99647 -10905943.18446  22612073.6334                   22612073.3484
        45.7504         40.2504
   2101825.25445   1659242.60244  25061567.7664                   25061575.0824
        34.2504         26.5004
 25  8  8  1 57  0.0000000  0 10G03G27G16G09G04G26G08G06G07G30
  -6481919.13746  -5007418.46946  22506453.8674                   22506457.6094
        41.5004         38.5004
  -3472257.52046  -2610387.05545  23893450.1254                   23893454.4734
        39.5004         32.0004
 -25448356.18047 -18361733.30545  21060882.5394                   21060880.4614
        47.0004         34.2504
 -24871506.40248 -19357151.74248  20713069.1564                   20713069.5164
        50.0004         49.0004
 -24611091.69947 -19136620.18446  20381806.9384                   20381806.4614
        47.5004         39.0004
  -8130219.33246  -6289785.48845  23991401.1334                   23991404.8834
        40.0004         32.5004
   4087065.97354    896963.22753  24329335.8984                   24329341.8444
        28.2504         23.2504
  -1879224.87546  -1445218.52745  25325123.1724                   25325129.2814
        39.5004         32.2504
 -14093360.13747 -10959529.46146  22598987.5554                   22598987.1214
        46.0004         40.5004
   2003576.04345   1582685.05544  25042871.2584                   25042878.9144
        33.5004         26.0004
 25  8  8  1 57 30.0000000  0  9G03G27G16G09G04G26G06G07G30
  -6397804.62946  -4941874.78146  22522460.2734                   22522464.9414
        41.5004         39.0004
  -3565374.03146  -2682945.26245  23875730.6644                   23875734.3954
        40.0004         32.0004
 -25424809.35547 -18343385.13345  21065362.9694                   21065361.2034
        46.5004         34.2504
 -24944982.30948 -19414405.67648  20699087.3914                   20699087.4264
        49.5004         49.2504
 -24619693.37947 -19143322.78946  20380170.1564                   20380169.5274
        47.0004         38.2504
  -8048322.18046  -6225969.59845  24006985.5164                   24006989.5044
        38.7504         31.7504
  -1845099.16846  -1418627.18445  25331616.8674                   25331623.3874
        38.7504         31.0004
 -14161960.10547 -11012983.92246  22585933.3524                   22585932.7974
        46.0004         40.5004
   1905420.12145   1506200.19944  25024192.0394                   25024200.3984
        33.5004         25.7504
 25  8  8  1 58  0.0000000  0 10G03G27G16G09G04G26G08G06G07G30
  -6313464.29346  -4876155.16446  22538510.3674                   22538514.1684
        41.0004         38.0004
  -3658239.51246  -2755307.89144  23858059.0314                   23858062.0634
        38.7504         29.0004
 -25400659.04747 -18324566.70745  21069959.0234                   21069956.8634
        45.7504         34.0004
 -25018195.32048 -19471454.75848  20685155.3284                   20685155.5314
        50.5004         49.5004
 -24627946.41447 -19149753.72746  20378599.8284                   20378598.8244
        47.2504         38.0004
  -7966223.92646  -6161996.98045  24022608.8754                   24022612.1804
        38.5004         31.0004
   4631695.61756    834791.10955  24287162.7114                   24287169.1174
        41.5004         35.2504
  -1810715.93446  -1391835.18745  25338160.3524                   25338166.4884
        38.0004         31.5004
 -14230393.32447 -11066308.44546  22572910.9224                   22572910.1884
        46.5004         40.7504
   1807355.84045   1429786.71944  25005532.6644                   25005538.7464
        34.0004         25.5004
 25  8  8  1 58 30.0000000  0 10G03G27G16G09G04G26G08G06G07G30
  -6228900.71946  -4810261.57446  22554601.8594                   22554606.2544
        41.0004         38.0004
  -3750850.28146  -2827471.99245  23840436.2584                   23840439.5314
        39.7504         31.5004
 -25375907.09847 -18305279.47745  21074668.9924                   21074667.2934
        46.5004         34.0004
 -25091143.21948 -19528297.26648  20671273.5704                   20671274.1024
        50.0004         49.2504
 -24635849.49647 -19155911.97346  20377095.4454                   20377094.8364
        47.7504         38.0004
  -7883926.84446  -6097869.44945  24038269.1724                   24038272.7274
        39.7504         31.5004
   4520863.11747    748428.30545  24266071.8284                   24266078.6724
        43.0004         33.2504
  -1776077.48046  -1364844.30545  25344751.4304                   25344758.2624
        37.5004         31.0004
 -14298659.50847 -11119502.81246  22559920.1564                   22559919.4264
        47.0004         41.0004
   1709383.64845   1353445.02044  24986888.1414                   24986895.2464
        33.5004         25.0004
 25  8  8  1 59  0.0000000  0 10G03G27G16G09G04G26G08G06G07G30
  -6144115.09446  -4744194.97746  22570736.3524                   22570740.2704
        41.5004         39.0004
  -3843201.23046  -2899433.64145  23822862.1804                   23822865.6804
        40.0004         32.5004
 -25350553.41847 -18285523.36345  21079493.7974                   21079491.4694
        46.5004         33.7504
 -25163822.42648 -19584930.39548  20657442.8914                   20657443.3134
        50.2504         49.2504
 -24643400.08247 -19161795.55146  20375659.0314                   20375658.1684
        47.5004         38.0004
  -7801431.87146  -6033587.69545  24053967.5394                   24053970.9844
        39.0004         31.0004
   4410020.53546    662057.64544  24244979.1484                   24244985.4104
        41.2504         26.0004
  -1741184.88346  -1337655.40245  25351391.8054                   25351398.1914
        38.5004         32.0004
 -14366757.30147 -11172565.97346  22546961.4614                   22546961.0864
        46.2504         41.0004
   1611505.36755   1277176.46953  24968262.7584                   24968269.2424
        33.5004         23.0004
 25  8  8  1 59 30.0000000  0 10G03G27G16G09G04G26G08G06G07G30
  -6059111.84846  -4677958.80946  22586912.5394                   22586916.1804
        41.5004         38.0004
  -3935290.73446  -2971191.55945  23805337.7194                   23805341.6174
        39.0004         30.2504
 -25324601.85247 -18265301.37145  21084432.3524                   21084430.2034
        47.0004         34.2504
 -25236232.74248 -19641354.00448  20643664.0164                   20643664.3714
        50.0004         49.2504
 -24650598.92647 -19167405.03946  20374288.7504                   20374288.4414
        47.5004         37.7504
  -7718743.37946  -5969155.15645  24069703.2664                   24069706.1484
        40.2504         30.0004
   4299169.25446    575679.85943  24223884.2274                   24223889.0234
        37.0004         18.2504
  -1706042.69546  -1310272.02345  25358078.7194                   25358085.7584
        38.7504         31.0004
 -14434689.11347 -11225499.80146  22534034.6254                   22534033.6994
        47.2504         41.2504
   1513719.37145   1200979.83643  24949653.5474                   24949660.8554
        33.7504         23.7504
 25  8  8  2  0  0.0000000  0 10G03G27G16G09G04G26G08G06G07G30
  -5973893.63347  -4611555.13346  22603129.2194                   22603132.8164
        42.5004         37.7504
  -4027115.11346  -3042742.92244  23787863.9534                   23787867.0004
        39.5004         29.5004
 -25298053.68047 -18244614.48045  21089484.1414                   21089481.8954
        46.2504         34.7504
 -25308371.98848 -19697566.38348  20629936.4924                   20629936.6764
        49.7504         49.2504
 -24657444.74647 -19172739.44546  20372986.1804                   20372985.4384
        47.0004         37.7504
  -7635863.64846  -5904573.61744  24085474.3134                   24085477.8054
        39.7504         29.5004
                                  24202787.1414                   24202795.2074
        31.2504         19.7504
  -1670653.25446  -1282695.95345  25364813.2814                   25364820.2074
        37.7504         31.2504
 -14502455.02047 -11278304.35246  22521139.0084                   22521138.3674
        46.7504         41.2504
   1416026.32845   1124855.60244  24931063.3594                   24931070.5594
        34.5004         25.7504
 25  8  8  2  0 30.0000000  0 10G03G27G16G09G04G26G08G06G07G30
  -5888463.24646  -4544986.12546  22619385.8284                   22619389.8244
        41.2504         37.5004
  -4118670.94546  -3114085.03145  23770441.7344                   23770445.2704
        40.7504         33.5004
 -25270911.41447 -18223464.68045  21094649.0784                   21094647.0354
        47.5004         34.7504
 -25380238.30948 -19753566.09448  20616260.7734                   20616260.8524
        49.2504         49.5004
 -24663936.70347 -19177798.11346  20371750.6564                   20371750.3554
        46.5004         38.0004
  -7552795.39846  -5839845.17245  24101281.5704                   24101285.4384
        40.0004         30.7504
   4077453.85246    402915.21545  24181692.8914                   24181699.3834
        40.7504         33.2504
  -1635019.60946  -1254929.58645  25371594.9304                   25371600.5204
        38.0004         31.2504
 -14570055.46947 -11330979.98046  22508275.1254                   22508274.2384
        45.7504         41.5004
   1318426.25845   1048803.87144  24912491.0004                   24912497.0784
        35.0004         24.7504
 25  8  8  2  1  0.0000000  0 10G03G27G16G09G04G26G08G06G07G30
  -5802823.98846  -4478254.37146  22635682.9844                   22635686.3754
        41.5004         37.5004
  -4209955.49646  -3185215.68745  23753070.7194                   23753074.1724
        39.2504         30.7504
 -25243177.32047 -18201853.71145  21099926.8054                   21099924.9574
        47.7504         34.0004
 -25451830.21548 -19809351.97348  20602637.2274                   20602637.3054
        50.0004         49.5004
 -24670074.32447 -19182580.67646  20370582.6254                   20370582.3094
        47.5004         38.0004
  -7469541.64846  -5774972.17645  24117124.9224                   24117128.1884
        39.5004         30.0004
   3966595.75846    316532.46945  24160597.0474                   24160603.7774
        41.5004         34.5004
  -1599144.77746  -1226975.32045  25378420.9534                   25378428.0824
        37.2504         30.0004
 -14637490.91047 -11383527.03146  22495442.7424                   22495441.8324
        46.0004         41.2504
   1220918.81345    972824.25044  24893936.4774                   24893942.1644
        33.5004         25.0004
 25  8  8  2  1 30.0000000  0 10G03G27G16G09G04G26G08G06G07G30
  -5716978.97346  -4411362.25046  22652018.4924                   22652022.6334
        40.0004         37.2504
  -4300965.47746  -3256132.43745  23735752.2274                   23735754.8874
        40.7504         30.2504
 -25214853.66047 -18179783.34045  21105316.6414                   21105314.3554
        47.5004         34.5004
 -25523146.09048 -19864922.76648  20589066.2034                   20589066.5124
        50.0004         49.5004
 -24675856.93047 -19187086.60546  20369482.4384                   20369481.5234
        47.7504         38.5004
  -7386105.23046  -5709956.83644  24133001.9534                   24133005.4574
        39.7504         29.5004
   3855741.16046    230152.47745  24139501.8524                   24139508.6804
        41.0004         33.0004
  -1563031.75846  -1198835.44145  25385293.8204                   25385300.3244
        38.0004         31.7504
 -14704762.21947 -11435946.18746  22482641.5084                   22482640.4844
        47.0004         41.5004
   1123503.94945    896916.81644  24875397.4694                   24875404.5594
        33.7504         25.2504
 25  8  8  2  2  0.0000000  0 10G03G27G16G09G04G26G08G06G07G30
  -5630931.91846  -4344312.72346  22668391.8674                   22668397.0634
        40.0004         37.0004
  -4391698.62146  -3326833.52745  23718485.6564                   23718488.3634
        41.2504         31.2504
 -25185943.13747 -18157255.67245  21110818.3914                   21110815.8674
        47.2504         34.5004
 -25594184.95348 -19920277.69948  20575548.0554                   20575548.3054
        50.0004         49.5004
 -24681284.64547 -19191315.98446  20368449.5164                   20368449.2194
        47.2504         38.2504
  -7302489.71146  -5644801.93444  24148914.1094                   24148917.2034
        39.5004         29.5004
   3744892.07845    143776.81644  24118407.6484                   24118414.0634
        34.7504         24.0004
  -1526684.44946  -1170512.99645  25392210.2504                   25392216.8524
        38.7504         31.7504
 -14771870.75847 -11488238.50846  22469870.9454                   22469869.9654
        46.5004         41.2504
   1026180.86345    821080.86744  24856877.8054                   24856884.2974
        34.2504         26.2504
 25  8  8  2  2 30.0000000  0 10G03G27G16G09G04G26G08G06G07G30
  -5544684.51247  -4277107.12546  22684806.7424                   22684809.3874
        42.7504         37.5004
  -4482150.28546  -3397315.19545  23701272.7504                   23701277.3014
        39.2504         32.5004
 -25156446.52347 -18134271.30945  21116431.4924                   21116429.1484
        47.5004         34.0004
 -25664943.70348 -19975414.36348  20562083.1414                   20562083.5354
        50.0004         49.5004
 -24686355.32848 -19195267.17246  20367485.2194                   20367484.0664
        48.0004         38.2504
  -7218696.49646  -5579508.56644  24164859.1094                   24164862.0354
        39.5004         29.5004
   3634052.84046     57408.66443  24097314.4304                   24097321.5704
        37.0004         18.5004
  -1490104.37146  -1142009.18745  25399171.3524                   25399178.1644
        37.2504         31.5004
 -14838815.74247 -11540403.38746  22457131.4774                   22457130.9964
        47.5004         41.5004
    928950.94145    745317.52744  24838375.6254                   24838381.8834
        34.7504         25.5004
 25  8  8  2  3  0.0000000  0 10G03G27G16G09G04G26G08G06G07G30
  -5458239.62147  -4209747.57046  22701255.1094                   22701259.7344
        42.0004         37.5004
  -4572317.16046  -3467574.94145  23684114.3754                   23684118.1094
        40.5004         32.0004
 -25126366.17648 -18110832.09045  21122155.3134                   21122153.4104
        48.0004         34.0004
 -25735420.37548 -20030331.22748  20548671.8364                   20548671.8914
        50.5004         49.5004
 -24691068.09447 -19198939.44946  20366588.2504                   20366587.3794
        47.0004         38.0004
  -7134728.19546  -5514078.76244  24180837.0864                   24180841.2664
        38.5004         29.7504
   3523226.96546    -28948.99245  24076226.7584                   24076232.0124
        41.5004         31.5004
  -1453294.31246  -1113326.17645  25406176.7274                   25406183.5354
        37.7504         31.5004
 -14905597.27747 -11592440.91046  22444423.5084                   22444422.6294
        46.2504         41.7504
    831814.30545    669626.84044  24819891.0634                   24819897.1604
        35.0004         26.2504
 25  8  8  2  3 30.0000000  0 10G03G27G16G09G04G26G08G06G07G30
  -5371599.97347  -4142236.30146  22717742.3284                   22717746.5274
        42.7504         36.7504
  -4662195.75046  -3537610.16445  23667011.6954                   23667013.7854
        40.0004         31.0004
 -25095703.93747 -18086939.45345  21127990.2034                   21127988.2194
        47.5004         34.0004
 -25805613.05948 -20085026.79348  20535314.4774                   20535314.9064
        50.5004         49.5004
 -24695422.00047 -19202332.10946  20365759.4224                   20365758.6454
        47.2504         37.7504
  -7050587.36346  -5448514.53144  24196848.9064                   24196852.7664
        40.5004         28.7504
   3412417.47347   -115293.85245  24055140.0864                   24055146.0984
        43.0004         35.2504
  -1416257.13346  -1084466.21145  25413224.6484                   25413231.3954
        38.7504         30.7504
 -14972215.67247 -11644351.31246  22431746.5944                   22431745.3204
        46.2504         41.5004
    734771.04345    594008.92244  24801424.3524                   24801430.3324
        35.2504         27.0004
 25  8  8  2  4  0.0000000  0 10G03G27G16G09G04G26G08G06G07G30
  -5284769.11347  -4074576.03946  22734267.0554                   22734269.3794
        44.0004         36.7504
  -4751783.54746  -3607418.67645  23649963.8914                   23649966.9304
        40.2504         33.2504
 -25064462.70747 -18062595.64545  21133934.9144                   21133933.1374
        47.5004         33.7504
 -25875520.53948 -20139500.12948  20522011.5784                   20522011.7504
        50.2504         49.5004
 -24699416.94547 -19205445.05546  20364999.1174                   20364998.5084
        47.5004         38.2504
  -6966277.25046  -5382818.39144  24212892.7344                   24212896.6174
        39.5004         28.0004
   3301626.85246   -201623.98045  24034056.9064                   24034063.2034
        40.5004         33.7504
  -1378996.25846  -1055431.89845  25420315.1804                   25420321.8444
        38.0004         31.5004
 -15038672.44947 -11696135.76646  22419099.6954                   22419099.1644
        46.5004         41.5004
    637820.66845    518463.37944  24782975.0234                   24782980.8984
        35.5004         26.0004
 25  8  8  2  4 30.0000000  0 10G03G27G16G09G04G26G08G06G07G30
  -5197750.20747  -4006769.22746  22750825.0864                   22750827.9454
        42.7504         36.2504
  -4841077.36746  -3676998.15245  23632971.5004                   23632974.7424
        41.0004         33.5004
 -25032644.84847 -18037802.51645  21139990.1644                   21139987.8984
        47.0004         34.0004
 -25945141.16848 -20193749.94948  20508763.3834                   20508763.5824
        50.0004         49.7504
 -24703052.25048 -19208277.75446  20364307.3284                   20364306.8794
        48.0004         37.7504
  -6881800.67646  -5316992.52744  24228968.0164                   24228972.0434
        39.7504         28.0004
   3190857.89845   -287937.20744  24012976.1174                   24012984.1724
        34.5004         26.2504
  -1341514.77346  -1026225.74245  25427447.9694                   25427454.8914
        37.7504         30.0004
 -15104967.76247 -11747794.41046  22406484.7424                   22406483.3484
        47.0004         41.2504
    540963.08646    442990.14144  24764542.7974                   24764549.5044
        36.2504         27.0004
 25  8  8  2  5  0.0000000  0 10G03G27G16G09G04G26G08G06G07G30
  -5110547.32047  -3938819.02046  22767419.0634                   22767422.6334
        42.5004         37.0004
  -4930075.25046  -3746347.07445  23616035.2814                   23616038.3914
        39.2504         31.0004
 -25000253.75447 -18012562.71545  21146153.8914                   21146151.5664
        47.5004         34.7504
 -26014474.28548 -20247775.72748  20495569.3914                   20495569.9144
        51.0004         49.7504
 -24706328.34447 -19210830.55146  20363683.9774                   20363683.0634
        47.5004         37.7504
  -6797161.48846  -5251039.96544  24245074.9694                   24245077.9454
        38.5004         27.0004
   3080112.64146   -374231.88344  23991902.7424                   23991909.4964
        37.0004         25.0004
  -1303816.71946   -996850.80545  25434621.0474                   25434628.3674
        37.0004         30.0004
 -15171103.19547 -11799328.46946  22393899.5164                   22393898.7424
        46.7504         41.5004
    444197.14846    367588.32444  24746129.2974                   24746134.4574
        36.2504         27.5004
 25  8  8  2  5 30.0000000  0 10G03G27G16G09G04G26G08G06G07G30
  -5023162.64147  -3870727.18446  22784047.8204                   22784051.9574
        42.0004         37.2504
  -5018773.20346  -3815462.23045  23599157.4064                   23599160.4804
        40.7504         35.0004
 -24967290.90247 -17986877.39145  21152426.4774                   21152424.1954
        46.5004         34.2504
 -26083517.29748 -20301575.44948  20482430.7034                   20482431.3674
        49.0004         49.5004
 -24709243.78148 -19213102.32846  20363129.6884                   20363128.7624
        48.5004         38.0004
  -6712361.60246  -5184962.16444  24261211.9534                   24261214.8714
        39.0004         27.0004
   2969394.98046   -460505.39543  23970834.7194                   23970838.2774
        41.2504         22.7504
  -1265904.29346   -967308.80545  25441835.7734                   25441843.2624
        38.5004         31.2504
 -15237079.05547 -11850738.19146  22381344.5084                   22381343.7584
        45.0004         41.5004
    347523.52345    292258.41444  24727732.3594                   24727738.2974
        35.0004         27.0004
 25  8  8  2  6  0.0000000  0 10G03G27G16G09G04G26G08G06G07G30
  -4935598.08647  -3802495.23446  22800711.6804                   22800715.5274
        43.2504         37.0004
  -5107166.89846  -3884340.31245  23582335.9694                   23582339.3634
        41.2504         32.7504
 -24933757.62947 -17960747.57045  21158807.7274                   21158805.7154
        47.0004         34.0004
 -26152267.41448 -20355146.94148  20469348.2734                   20469348.1604
        49.5004         49.5004
 -24711796.77748 -19215091.67646  20362643.6884                   20362642.6844
        48.2504         37.5004
  -6627402.69146  -5118760.46144  24277378.7344                   24277382.4844
        39.2504         27.0004
   2858709.05546   -546754.04345  23949771.9224                   23949777.2854
        41.7504         31.5004
  -1227779.43746   -937601.25445  25449090.5234                   25449098.1294
        38.0004         31.2504
 -15302894.52747 -11902022.93046  22368820.2424                   22368819.3714
        45.7504         41.5004
    250943.31346    217001.30144  24709353.1804                   24709359.8014
        37.2504         26.5004
 25  8  8  2  6 30.0000000  0  9G03G27G16G09G04G26G08G07G30
  -4847858.90247  -3734127.18746  22817408.3524                   22817411.6604
        43.7504         37.5004
  -5195255.46146  -3952980.65645  23565573.3594                   23565575.8444
        40.5004         33.0004
 -24899658.38747 -17934176.73845  21165296.3364                   21165294.4804
        47.2504         33.7504
 -26220724.97348 -20408490.47348  20456320.9924                   20456321.5394
        50.5004         49.7504
 -24713988.79348 -19216799.74246  20362226.1094                   20362225.8404
        48.5004         37.7504
  -6542289.53146  -5052438.56244  24293575.0864                   24293578.8404
        38.0004         27.2504
   2748055.72346   -632977.19145  23928714.9614                   23928721.4924
        39.0004         33.0004
 -15368552.23447 -11953184.73447  22356325.9384                   22356324.7734
        47.0004         42.0004
    154454.34846    141815.28944  24690991.7734                   24690998.7934
        36.2504         27.2504
 25  8  8  2  7  0.0000000  0  9G03G27G16G09G04G26G08G07G30
  -4759946.72347  -3665624.28946  22834136.1254                   22834141.4804
        43.2504         37.5004
  -5283034.31646  -4021379.64845  23548869.1724                   23548872.8554
        41.0004         33.7504
 -24864994.32447 -17907165.78545  21171892.7194                   21171890.8324
        47.0004         34.5004
 -26288886.94548 -20461603.68048  20443350.4454                   20443350.3754
        50.0004         49.7504
 -24715817.90648 -19218225.02746  20361878.3444                   20361877.8164
        48.0004         37.5004
  -6457023.55946  -4985997.57844  24309800.7664                   24309804.3874
        37.7504         25.5004
   2637439.24245   -719171.55144  23907663.1414                   23907671.3634
        34.7504         28.0004
 -15434051.50447 -12004223.07446  22343861.3754                   22343860.8594
        47.0004         41.7504
     58057.88346     66701.37144  24672648.5314                   24672654.4964
        36.7504         25.2504
 25  8  8  2  7 30.0000000  0  9G03G27G16G09G04G26G08G07G30
  -4671860.73847  -3596986.03946  22850899.7194                   22850903.7734
        42.2504         36.5004
  -5370496.68446  -4089532.01245  23532225.2974                   23532228.8244
        40.2504         32.5004
 -24829764.02747 -17879713.60945  21178596.7584                   21178595.0704
        46.5004         34.7504
 -26356747.84048 -20514482.27748  20430437.0554                   20430437.0984
        49.2504         49.7504
 -24717279.72748 -19219364.11346  20361600.1414                   20361599.4024
        48.0004         38.0004
  -6371603.77746  -4919436.73444  24326055.5234                   24326059.4384
        38.5004         26.2504
   2526866.38746   -805331.91845  23886622.8204                   23886629.5554
        38.7504         30.0004
 -15499389.01647 -12055135.36747  22331428.1954                   22331427.2584
        46.5004         42.0004
    -38242.47346     -8337.66444  24654322.9924                   24654329.0514
        37.7504         26.7504
 25  8  8  2  8  0.0000000  0  9G03G27G16G09G04G26G08G07G30
  -4583602.05547  -3528213.17646  22867695.0704                   22867698.9614
        43.5004         37.0004
  -5457637.36746  -4157433.75845  23515643.3364                   23515646.3524
        41.5004         34.0004
 -24793967.91047 -17851820.53545  21185408.7194                   21185406.9574
        45.7504         34.0004
 -26424303.84448 -20567123.30548  20417581.3054                   20417581.6684
        50.7504         49.7504
 -24718371.55547 -19220214.89846  20361392.1414                   20361391.8164
        47.7504         37.5004
  -6286030.81246  -4852756.52744  24342339.9384                   24342343.3284
        38.5004         27.0004
   2416342.59446   -891454.23845  23865592.0004                   23865595.7734
        41.7504         30.0004
 -15564563.40247 -12105920.55946  22319026.4534                   22319025.1454
        47.2504         41.5004
   -134444.66046    -83300.21944  24636016.2274                   24636022.2854
        36.7504         28.0004
 25  8  8  2  8 30.0000000  0  9G03G27G16G09G04G26G08G07G30
  -4495174.21147  -3459308.48046  22884521.0864                   22884526.1454
        42.5004         37.0004
  -5544453.80146  -4225082.79745  23499121.9064                   23499125.0004
        40.0004         32.2504
 -24757608.78147 -17823488.75045  21192327.5234                   21192325.9304
        46.5004         34.0004
 -26491553.71548 -20619525.78548  20404784.4224                   20404784.5704
        50.5004         50.0004
 -24719093.28948 -19220777.29746  20361255.0784                   20361254.7504
        48.5004         37.2504
  -6200307.88346  -4785959.43044  24358651.8054                   24358655.9964
        37.5004         25.2504
   2305870.21546   -977536.54744  23844569.7814                   23844573.9884
        40.7504         29.7504
 -15629575.77748 -12156579.50047  22306654.6954                   22306653.6094
        48.0004         42.0004
   -230549.32846   -158186.78144  24617728.1094                   24617734.1644
        37.5004         27.2504
 25  8  8  2  9  0.0000000  0  9G03G27G16G09G04G26G08G07G30
  -4406581.66847  -3390275.51646  22901380.9454                   22901384.9344
        42.7504         36.5004
  -5630944.39546  -4292477.94945  23482663.4774                   23482667.0784
        41.0004         34.2504
 -24720690.81247 -17794721.51245  21199352.9064                   21199350.9144
        45.5004         34.5004
 -26558497.32848 -20671689.63348  20392044.7664                   20392045.5124
        50.5004         50.0004
 -24719445.95747 -19221052.12146  20361187.7974                   20361187.0474
        47.7504         37.5004
  -6114439.34846  -4719048.92244  24374992.7344                   24374995.7774
        37.0004         25.7504
   2195450.59845  -1063577.57044  23823555.2424                   23823562.8134
        33.2504         27.2504
 -15694428.19147 -12207113.79346  22294313.1804                   22294312.4964
        47.2504         41.7504
   -326558.13346   -232998.64544  24599458.3364                   24599463.5784
        38.0004         26.7504
 25  8  8  2  9 30.0000000  0  9G03G27G16G09G04G26G08G07G30
  -4317829.20747  -3321117.89546  22918269.5004                   22918273.9494
        42.2504         36.7504
  -5717107.69546  -4359618.07045  23466267.2734                   23466269.9264
        41.2504         33.2504
 -24683218.08647 -17765521.98845  21206483.5164                   21206481.6334
        46.5004         33.5004
 -26625134.53148 -20723614.71948  20379364.6174                   20379364.7734
        50.0004         50.0004
 -24719430.50847 -19221040.10246  20361190.6954                   20361190.0664
        47.5004         37.0004
  -6028429.37146  -4652028.20344  24391359.0944                   24391363.4654
        37.0004         24.5004
   2085085.18846  -1149576.20745  23802554.3524                   23802560.7664
        37.0004         32.0004
 -15759122.90247 -12257525.20746  22282002.6884                   22282001.4144
        47.2504         41.5004
   -422472.73446   -307737.12544  24581205.8984                   24581211.9064
        37.5004         27.2504
 25  8  8  2 10  0.0000000  0  9G03G27G16G09G04G26G08G07G30
  -4228920.28547  -3251838.36345  22935188.8834                   22935193.0474
        42.0004         35.5004
  -5802941.15246  -4426501.20345  23449933.5474                   23449936.7664
        41.0004         34.5004
 -24645193.50847 -17735892.45345  21213719.5234                   21213717.5664
        46.5004         33.5004
 -26691464.01648 -20775300.02748  20366742.7034                   20366742.7464
        50.0004         50.0004
 -24719046.81247 -19220741.13746  20361263.7424                   20361262.9414
        47.5004         37.5004
  -5942281.21946  -4584899.80143  24407752.7584                   24407756.8204
        36.2504         23.2504
   1974776.93046  -1235530.44945  23781563.7194                   23781569.5664
        40.5004         33.5004
 -15823660.99648 -12307814.58246  22269721.5314                   22269720.5434
        48.0004         41.7504
   -518293.66846   -382402.62144  24562972.0234                   24562977.0434
        38.5004         28.2504
 25  8  8  2 10 30.0000000  0  9G03G27G16G09G04G26G08G07G30
  -4139858.32446  -3182439.59845  22952135.4924                   22952141.1884
        40.7504         35.5004
  -5888441.99247  -4493125.07845  23433663.3594                   23433666.9534
        42.0004         34.7504
 -24606620.00047 -17705835.17645  21221059.5944                   21221058.3554
        46.0004         34.2504
 -26757484.50848 -20826744.56248  20354179.2424                   20354179.2384
        49.2504         50.2504
 -24718294.75447 -19220155.13346  20361406.9774                   20361406.5474
        47.5004         37.5004
  -5855997.86746  -4517666.05544  24424172.1174                   24424175.9774
        36.5004         24.5004
   1864528.22346  -1321438.33644  23760583.2344                   23760588.8594
        40.2504         28.7504
 -15888043.32847 -12357982.60947  22257469.8914                   22257468.9654
        46.0004         42.2504
   -614021.53946   -456995.60244  24544754.9454                   24544761.1134
        38.5004         27.5004
 25  8  8  2 11  0.0000000  0  9G03G27G16G09G04G26G08G07G30
  -4050646.06247  -3112923.72346  22969113.7584                   22969117.6604
        42.2504         36.0004
  -5973606.85546  -4559487.24245  23417456.2814                   23417458.4884
        40.2504         31.7504
 -24567499.83647 -17675351.94145  21228504.0944                   21228502.0204
        47.0004         32.7504
 -26823193.89848 -20877946.68048  20341674.9384                   20341675.5704
        50.2504         50.2504
 -24717173.41448 -19219281.38346  20361620.3134                   20361619.6524
        48.5004         37.5004
  -5769581.78146  -4450328.85543  24440617.1094                   24440620.1484
        36.7504         23.7504
   1754342.48846  -1407297.28944  23739615.7814                   23739620.2154
        37.0004         24.7504
 -15952270.22347 -12408029.48447  22245247.7664                   22245246.7384
        46.7504         42.0004
   -709655.99646   -531515.80144  24526556.8984                   24526562.2034
        37.7504         27.7504
 25  8  8  2 11 30.0000000  0  9G03G27G16G09G04G26G08G07G30
  -3961287.79346  -3043294.04346  22986117.3754                   22986122.9654
        40.7504         36.2504
  -6058434.00847  -4625586.21946  23401315.4454                   23401318.4264
        42.2504         36.5004
 -24527837.02047 -17644445.85545  21236051.7114                   21236049.8444
        46.2504         33.7504
 -26888591.78948 -20928906.07848  20329230.2114                   20329230.7974
        50.5004         50.2504
 -24715683.52048 -19218120.43746  20361903.8674                   20361903.2734
        48.0004         37.0004
  -5683036.96146  -4382891.37143  24457085.1334                   24457089.5864
        36.0004         23.0004
   1644221.43046  -1493105.64545  23718660.0474                   23718666.0164
        38.5004         32.0004
 -16016343.53947 -12457956.69547  22233055.0554                   22233054.1454
        47.5004         42.2504
   -805198.58246   -605964.41444  24508375.0474                   24508380.4144
        38.2504         27.0004
 25  8  8  2 12  0.0000000  0  9G03G27G16G09G04G26G08G07G30
  -3871787.46147  -2973553.70746  23003149.7974                   23003154.1914
        42.5004         36.5004
  -6142921.40246  -4691420.38345  23385236.9224                   23385239.9414
        40.2504         32.2504
 -24487634.94947 -17613119.57845  21243702.1094                   21243699.8674
        46.0004         33.5004
 -26953677.31648 -20979622.07448  20316844.7034                   20316845.1294
        50.2504         50.2504
 -24713825.51248 -19216672.65646  20362257.5084                   20362256.7274
        48.0004         37.0004
  -5596366.89845  -4315356.25843  24473578.2424                   24473581.9694
        35.2504         22.7504
   1534167.39146  -1578861.82046  23697718.5234                   23697723.7584
        41.2504         36.0004
 -16080264.66047 -12507765.31246  22220891.4694                   22220890.0354
        47.5004         41.5004
   -900650.24246   -680342.19544  24490211.0314                   24490216.8244
        38.2504         28.5004
 25  8  8  2 12 30.0000000  0 10G03G27G16G09G04G26G08G21G07G30
  -3782148.65246  -2903705.43445  23020206.5234                   23020212.2584
        40.0004         35.5004
  -6227066.37147  -4756987.88745  23369225.0944                   23369228.4264
        42.2504         35.2504
 -24446896.96947 -17581375.70745  21251454.5164                   21251452.3524
        46.0004         33.2504
 -27018449.31248 -21030093.75848  20304519.1174                   20304519.0944
        48.5004         50.5004
 -24711599.34047 -19214938.00046  20362681.0784                   20362680.5354
        47.0004         37.0004
  -5509574.84045  -4247726.12144  24490095.0784                   24490098.0744
        35.7504         24.0004
   1424182.85546  -1664563.83245  23676787.9144                   23676793.6294
        39.2504         34.0004
   4542996.31356   3564766.60953  25092188.5004                   25092190.2544
        36.0004         21.0004
 -16144035.21547 -12557456.61347  22208756.1334                   22208754.9494
        45.7504         42.0004
   -996011.62146   -754649.62544  24472063.9534                   24472069.7234
        38.7504         28.5004
 25  8  8  2 13  0.0000000  0 10G03G27G16G09G04G26G08G21G07G30
  -3692377.27346  -2833753.91845  23037290.5394                   23037295.2814
        41.5004         35.0004
  -6310868.94146  -4822288.39845  23353277.2664                   23353281.8284
        41.2504         35.5004
 -24405628.05147 -17549218.12545  21259307.3834                   21259305.3554
        45.7504         33.5004
 -27082908.92248 -21080322.01648  20292252.9304                   20292253.2624
        48.5004         50.5004
 -24709007.35547 -19212918.28546  20363174.1174                   20363173.6214
        47.5004         37.2504
  -5422666.34845  -4180005.25844  24506632.9064                   24506636.5554
        35.0004         24.2504
   1314267.95346  -1750211.57044  23655871.2034                   23655877.2934
        36.0004         27.2504
   4427146.01245   3474493.68443  25070143.9694                   25070145.2114
        35.7504         19.0004
 -16207658.14547 -12607032.85246  22196648.7274                   22196647.8444
        45.2504         41.5004
  -1091285.70346   -828889.02744  24453933.9144                   24453939.5664
        38.0004         28.7504
 25  8  8  2 13 30.0000000  0 10G03G27G16G09G04G26G08G21G07G30
  -3602479.73446  -2763704.04746  23054398.1804                   23054401.9104
        41.0004         36.2504
  -6394329.28147  -4887322.39845  23337396.2114                   23337397.7114
        42.0004         34.2504
 -24363834.42647 -17516651.68045  21267260.5944                   21267258.4064
        46.2504         33.2504
 -27147057.66848 -21130308.04748  20280046.0554                   20280045.9454
        48.5004         50.5004
 -24706052.38347 -19210615.72746  20363736.5784                   20363736.0704
        47.5004         37.2504
  -5335647.44145  -4112198.36343  24523191.2194                   24523196.1054
        34.0004         22.2504
   1204422.60246  -1835805.21944  23634969.0234                   23634973.1214
        38.5004         29.0004
   4311526.83245   3384400.79343  25048141.5944                   25048143.2424
        35.7504         20.2504
 -16271137.36347 -12656497.13346  22184569.2274                   22184568.0164
        45.5004         41.7504
  -1186475.96946   -903063.11344  24435820.6094                   24435825.5354
        37.2504         29.2504
 25  8  8  2 14  0.0000000  0 10G03G27G16G09G04G26G08G21G07G30
  -3512459.01246  -2693558.18445  23071527.3444                   23071532.1954
        39.2504         35.0004
  -6477444.44546  -4952087.33646  23321579.0314                   23321582.7934
        41.2504         36.0004
 -24321518.84447 -17483678.51245  21275312.8834                   21275310.9574
        46.2504         33.0004
 -27210893.96548 -21180050.60548  20267898.3754                   20267898.4144
        49.2504         50.5004
 -24702733.91848 -19208029.92646  20364368.1334                   20364367.0904
        48.0004         37.2504
  -5248520.60545  -4044307.35543  24539771.3364                   24539775.5474
        33.2504         22.7504
   1094649.85946  -1921342.31245  23614079.9304                   23614084.8244
        39.5004         33.5004
   4196141.09045   3294489.84842  25026184.1954                   25026185.5314
        33.7504         17.7504
 -16334473.79747 -12705850.16047  22172516.8524                   22172515.1414
        46.7504         42.0004
  -1281582.54346   -977172.00444  24417721.6254                   24417727.3674
        38.0004         29.0004
 25  8  8  2 14 30.0000000  0 10G03G27G16G09G04G26G08G21G07G30
  -3422314.92646  -2623316.25045  23088681.4454                   23088686.0434
        40.2504         34.5004
  -6560208.17646  -5016578.43745  23305829.6334                   23305832.6094
        41.5004         35.2504
 -24278680.92647 -17450298.33645  21283464.5944                   21283462.5274
        46.2504         32.7504
 -27274412.75448 -21229545.75048  20255810.9694                   20255811.0594
        49.7504         50.5004
 -24699048.26247 -19205157.99246  20365069.5554                   20365068.7894
        47.2504         37.2504
  -5161285.31245  -3976331.85243  24556372.5944                   24556375.8014
        33.2504         22.0004
    984956.05946  -2006817.77345  23593205.4064                   23593211.1914
        38.0004         33.0004
   4080994.48845   3204765.24243  25004272.5234                   25004274.9344
        34.5004         19.0004
 -16397664.77747 -12755089.83247  22160491.9534                   22160490.7974
        47.2504         42.0004
  -1376602.27046  -1051213.19944  24399639.9144                   24399645.3204
        37.2504         29.0004
