     2.11           OBSERVATION DATA    G (GPS)             RINEX VERSION / TYPE
teqc  2019Feb25     K Rivera            20250820 07:10:46UTCPGM / RUN BY / DATE
Linux 2.6.32-573.12.1.x86_64|x86_64|gcc -static|Linux 64|=+ COMMENT
teqc  2019Feb25                         20250820 07:10:41UTCCOMMENT
BIT 2 OF LLI FLAGS DATA COLLECTED UNDER A/S CONDITION       COMMENT
J701                                                        MARKER NAME
                                                            MARKER NUMBER
Katie Baraggiotta   University of California, Riverside     OBSERVER / AGENCY
0220413516          TRIMBLE R7          2.32                REC # / TYPE / VERS
1441040465          TRM57971.00                             ANT # / TYPE
 -2421225.6053 -4595396.6929  3690372.3820                  APPROX POSITION XYZ
        0.8306        0.0000        0.0000                  ANTENNA: DELTA H/E/N
     1     1                                                WAVELENGTH FACT L1/2
     7    L1    L2    C1    P1    P2    S1    S2            # / TYPES OF OBSERV
    18                                                      LEAP SECONDS
 SNR is mapped to RINEX snr flag value [0-9]                COMMENT
  L1 & L2: min(max(int(snr_dBHz/6), 0), 9)                  COMMENT
  2025     8     8     0     0   30.0000000     GPS         TIME OF FIRST OBS
                                                            END OF HEADER
 25  8  8  0  0 30.0000000  0 10G02G26G09G03G16G04G06G28G31G01
 -40413987.68456 -31443736.47353  24676488.3134                   24676494.1914
        36.0004         20.7504
 -44119624.38757 -34326255.90257  21364610.2424                   21364608.9844
        44.5004         44.0004
 -14303479.39156 -11106880.02355  23597335.8754                   23597337.4734
        41.0004         32.5004
 -59948773.61757 -46671811.64158  19802861.3444                   19802858.9774
        47.0004         51.2504
 -23858848.91057 -20618655.54354  22148499.4304                   22148497.0274
        42.7504         29.7504
 -48718232.22357 -37920031.25456  21048507.4454                   21048504.7814
        46.7504         36.2504
  -5584262.94156  -4272429.47755  24872777.4534                   24872778.5864
        40.2504         31.0004
 -43572583.07457 -33877709.19954  24285867.1724                   24285865.3594
        42.2504         26.0004
 -64863898.78957 -50490120.19557  21531340.4064                   21531336.1564
        46.5004         44.2504
 -56262387.66457 -43794066.65254  22685485.6724                   22685485.2974
        42.2504         28.2504
 25  8  8  0  1  0.0000000  0 10G02G26G09G03G16G04G06G28G31G01
 -38840135.32845 -30217358.41443  24975982.2274                   24975988.2544
        35.5004         20.2504
 -42640224.17247 -33173476.48447  21646130.3204                   21646129.4654
        46.0004         44.0004
 -12893499.01246 -10008193.89545  23865647.0004                   23865647.5784
        41.0004         34.5004
 -58467133.71948 -45517287.03548  20084807.7894                   20084805.7384
        48.0004         51.2504
 -22460432.25447 -19528980.09044  22414609.3054                   22414606.2624
        42.5004         29.5004
 -47272835.75047 -36793748.24246  21323557.3754                   21323554.4884
        47.7504         36.2504
  -4149646.34046  -3154546.37145  25145775.4924                   25145776.7154
        40.2504         31.2504
 -41986188.45347 -32641557.61744  24587748.3134                   24587745.9224
        42.2504         25.5004
 -63293705.07047 -49266592.64147  21830138.1254                   21830133.6604
        46.7504         44.2504
 -54689372.20346 -42568340.44944  22984820.3444                   22984820.0784
        40.7504         26.7504
 25  8  8  0  1 30.0000000  0 10G02G26G09G03G16G04G06G28G31G01
 -38841821.24646 -30218672.50843  24975661.4224                   24975667.4534
        37.5004         21.7504
 -42735659.10547 -33247841.34047  21627969.7344                   21627968.6214
        46.0004         44.2504
 -13058947.43746 -10137114.59446  23834162.4224                   23834163.6994
        41.5004         36.0004
 -58560391.03548 -45589955.07048  20067061.0704                   20067059.3754
        48.5004         51.2504
 -22637147.14147 -19666679.87545  22380981.1484                   22380978.7194
        43.5004         30.0004
 -47402743.43047 -36894974.96146  21298836.6334                   21298833.7624
        47.5004         36.0004
  -4290009.10246  -3263919.91845  25119065.4844                   25119067.0084
        40.5004         31.0004
 -41975215.32846 -32633007.22344  24589836.6094                   24589834.0204
        41.5004         25.5004
 -63298688.93747 -49270476.19947  21829190.0234                   21829185.4574
        47.0004         44.0004
 -54691583.83246 -42570063.95344  22984399.1804                   22984399.5664
        40.0004         27.0004
 25  8  8  0  2  0.0000000  0 10G02G26G09G03G16G04G06G28G31G01
 -38843631.39846 -30220083.40243  24975318.1094                   24975323.1954
        37.7504         21.0004
 -42830508.80547 -33321750.17247  21609920.3914                   21609919.5204
        44.5004         44.0004
 -13224402.50046 -10266040.47346  23802677.3594                   23802678.7624
        41.0004         36.2504
 -58653124.95747 -45662215.25848  20049414.8444                   20049412.6804
        47.0004         51.0004
 -22813568.37147 -19804150.83244  22347409.5704                   22347407.5594
        43.5004         29.7504
 -47532534.16847 -36996110.57045  21274138.5554                   21274135.4574
        47.0004         35.5004
  -4429928.55946  -3372948.03144  25092439.1414                   25092441.3634
        40.7504         29.7504
 -41964249.42246 -32624462.41843  24591923.4064                   24591921.0554
        40.5004         23.0004
 -63303436.04747 -49274175.26647  21828286.1884                   21828281.7304
        46.5004         44.0004
 -54693609.18446 -42571642.31244  22984014.2274                   22984014.3714
        41.5004         26.5004
 25  8  8  0  2 30.0000000  0 10G02G26G09G03G16G04G06G28G31G01
 -38845566.36346 -30221591.52743  24974949.3594                   24974955.4454
        37.0004         21.2504
 -42924771.06247 -33395201.24647  21591982.9224                   21591981.9494
        44.5004         44.2504
 -13389862.39846 -10394970.11346  23771191.9224                   23771192.7424
        40.7504         36.2504
 -58745332.89847 -45734065.58648  20031867.9774                   20031865.7974
        47.0004         51.2504
 -22989690.53547 -19941388.76644  22313894.3204                   22313891.9804
        43.5004         29.5004
 -47662205.98847 -37097153.49646  21249462.3524                   21249459.8674
        47.0004         36.2504
  -4569401.62546  -3481628.32045  25065898.5554                   25065899.9144
        40.2504         30.7504
 -41953290.78546 -32615923.30543  24594008.6334                   24594006.8594
        39.7504         22.2504
 -63307947.85947 -49277690.98447  21827428.1954                   21827423.5864
        46.5004         43.5004
 -54695449.75446 -42573076.68744  22983664.1334                   22983664.2974
        41.0004         28.0004
 25  8  8  0  3  0.0000000  0 10G02G26G09G03G16G04G06G28G31G01
 -38847622.59846 -30223194.19143  24974558.9694                   24974565.0944
        37.7504         20.0004
 -43018439.04347 -33468189.25047  21574158.1954                   21574157.2194
        45.2504         44.5004
 -13555320.66046 -10523898.47345  23739705.0554                   23739706.7664
        39.2504         35.2504
 -58837007.68047 -45805500.48048  20014423.0634                   20014421.1644
        47.7504         51.2504
 -23165504.00847 -20078386.15245  22280438.0864                   22280435.4064
        43.5004         30.0004
 -47791752.24647 -37198098.59446  21224810.8674                   21224807.6604
        47.0004         36.2504
  -4708420.59446  -3589954.75844  25039444.5004                   25039445.5554
        40.2504         29.0004
 -41942334.92646 -32607386.34443  24596093.3054                   24596091.4884
        39.0004         21.5004
 -63312220.34447 -49281020.21947  21826614.7114                   21826610.6054
        46.2504         43.5004
 -54697102.39147 -42574364.62145  22983350.2114                   22983349.9734
        42.7504         30.2504
 25  8  8  0  3 30.0000000  0 10G02G26G09G03G16G04G06G28G31G01
 -38849802.25046 -30224892.99643  24974144.8444                   24974149.9774
        38.2504         20.0004
 -43111511.91847 -33540713.53947  21556447.4384                   21556446.2234
        46.0004         44.5004
 -13720776.75446 -10652825.12945  23708219.7974                   23708221.4304
        39.7504         35.7504
 -58928148.07448 -45876518.95748  19997079.8984                   19997077.7304
        49.2504         51.2504
 -23341005.03147 -20215140.07444  22247041.2894                   22247038.2234
        44.0004         29.7504
 -47921172.34047 -37298945.37545  21200182.9924                   21200179.9304
        47.0004         35.7504
  -4846983.58646  -3697925.89544  25013075.3834                   25013077.5164
        40.0004         28.7504
 -41931383.27046 -32598852.69143  24598176.3914                   24598175.8984
        37.2504         20.0004
 -63316255.65647 -49284164.64147  21825847.0784                   21825842.7154
        46.0004         43.5004
 -54698569.93447 -42575508.31245  22983071.0944                   22983070.9654
        43.0004         31.2504
 25  8  8  0  4  0.0000000  0 10G02G26G09G03G16G04G06G28G31G01
 -38852105.46946 -30226688.07043  24973706.3444                   24973712.4344
        38.0004         19.2504
 -43203987.01247 -33612772.02047  21538849.6724                   21538849.1134
        46.2504         44.2504
 -13886228.21546 -10781748.17646  23676735.4454                   23676736.8244
        39.5004         36.0004
 -59018751.00048 -45947118.63748  19979838.6024                   19979836.6414
        48.7504         51.5004
 -23516187.98847 -20351646.16845  22213704.9694                   22213702.3014
        44.0004         30.0004
 -48050463.70747 -37399691.85546  21175579.4064                   21175576.4574
        47.0004         36.2504
  -4985087.04746  -3805538.97344  24986796.0004                   24986797.6524
        39.2504         27.5004
 -41920435.31646 -32590321.89143  24600260.7504                   24600259.1524
        37.0004         19.7504
 -63320054.49647 -49287124.80147  21825124.1884                   21825119.7774
        46.2504         43.5004
 -54699853.30547 -42576508.50845  22982827.3204                   22982827.0084
        42.5004         30.0004
 25  8  8  0  4 30.0000000  0 10G02G26G09G03G16G04G06G28G31G01
 -38854533.75846 -30228580.59443  24973245.3444                   24973250.2934
        39.0004         20.0004
 -43295862.91047 -33684363.60547  21521366.6254                   21521365.6644
        45.0004         44.2504
 -14051674.03446 -10910666.83246  23645252.1414                   23645253.3714
        40.2504         36.5004
 -59108814.75448 -46017298.17648  19962700.2664                   19962697.8364
        48.5004         51.2504
 -23691048.68747 -20487901.14545  22180429.8204                   22180427.2894
        44.5004         30.0004
 -48179625.15247 -37500337.10246  21151000.7664                   21150998.0044
        46.5004         36.0004
  -5122728.69546  -3912792.18044  24960603.6884                   24960605.1564
        40.0004         26.0004
 -41909491.91046 -32581794.61743  24602342.8914                   24602341.6604
        37.0004         19.5004
 -63323618.15647 -49289901.70347  21824446.3834                   21824441.6024
        47.5004         43.0004
 -54700954.83247 -42577366.99645  22982617.9614                   22982617.5474
        42.5004         30.0004
 25  8  8  0  5  0.0000000  0 10G02G26G09G03G16G04G06G28G31G01
 -38857090.30546 -30230573.05543  24972758.8984                   24972764.5234
        39.2504         19.0004
 -43387139.65247 -33755488.31647  21503996.4534                   21503995.7344
        45.0004         44.5004
 -14217114.45346 -11039581.30546  23613770.0784                   23613770.8984
        41.5004         36.7504
 -59198338.92647 -46087057.26648  19945664.1884                   19945661.7304
        47.7504         51.2504
 -23865584.09847 -20623902.65245  22147217.2814                   22147214.2424
        44.0004         30.0004
 -48308656.73847 -37600881.15246  21126446.7424                   21126444.0594
        46.7504         36.0004
  -5259907.53146  -4019684.76244  24934499.0004                   24934500.7504
        39.5004         25.0004
 -41898555.29346 -32573272.67243  24604424.4694                   24604422.4964
        39.0004         19.7504
 -63326950.05947 -49292498.00447  21823811.6174                   21823807.6024
        46.2504         42.7504
 -54701878.06647 -42578086.56244  22982442.0704                   22982441.6804
        42.0004         27.2504
 25  8  8  0  5 30.0000000  0 10G02G26G09G03G16G04G06G28G31G01
 -38859773.06646 -30232663.85243  24972247.6804                   24972254.6994
        39.0004         19.5004
 -43477812.51247 -33826142.46547  21486742.4304                   21486741.4734
        45.5004         44.7504
 -14382544.87947 -11168488.00446  23582289.7504                   23582290.2664
        42.5004         37.5004
 -59287318.39548 -46156391.91048  19928731.7894                   19928729.6684
        49.0004         51.5004
 -24039786.53547 -20759644.70345  22114067.4534                   22114064.6684
        44.2504         30.2504
 -48437553.82447 -37701320.40246  21101918.6804                   21101916.0204
        47.0004         36.2504
  -5396617.82846  -4126212.25044  24908484.2584                   24908484.7974
        38.7504         25.5004
 -41887622.79746 -32564753.90243  24606504.8594                   24606503.0824
        38.5004         20.0004
 -63330048.42647 -49294912.33647  21823222.2274                   21823218.1564
        46.7504         42.7504
 -54702621.81646 -42578666.27344  22982300.1804                   22982300.2424
        41.2504         27.5004
 25  8  8  0  6  0.0000000  0 10G02G26G09G03G16G04G06G28G31G01
 -38862590.14146 -30234859.35543  24971712.3524                   24971719.8554
        37.5004         19.5004
 -43567886.58647 -33896330.03147  21469601.5704                   21469601.1804
        45.5004         44.7504
 -14547970.59047 -11297391.04346  23550810.2344                   23550810.9454
        43.0004         37.2504
 -59375757.85948 -46225305.77348  19911902.1174                   19911900.1214
        48.0004         51.2504
 -24213658.00047 -20895128.85544  22080980.9064                   22080977.7584
        44.7504         29.7504
 -48566321.50047 -37801658.82046  21077414.8444                   21077412.2624
        47.5004         36.5004
  -5532863.74646  -4232377.89144  24882557.3594                   24882558.2114
        39.2504         25.0004
 -41876701.57446 -32556243.92643  24608583.4534                   24608581.1374
        39.0004         22.0004
 -63332921.12947 -49297150.84047  21822675.8984                   21822671.3954
        46.0004         42.7504
 -54703194.67646 -42579112.82044  22982191.0394                   22982191.2504
        40.5004         26.0004
 25  8  8  0  6 30.0000000  0 10G02G26G09G03G16G04G06G28G31G01
 -38865540.13746 -30237158.42242  24971150.8914                   24971157.8134
        38.0004         17.2504
 -43657357.77047 -33966047.80547  21452575.9774                   21452575.1054
        45.0004         44.5004
 -14713387.64547 -11426287.34846  23519332.0864                   23519333.0664
        43.2504         38.2504
 -59463652.77348 -46293795.31648  19895176.9064                   19895174.7154
        48.0004         51.2504
 -24387191.82047 -21030349.90245  22047958.2894                   22047955.1414
        44.0004         30.5004
 -48694955.68447 -37901893.21146  21052936.6484                   21052933.9614
        47.2504         36.5004
  -5668640.21146  -4338177.71144  24856720.1024                   24856721.0704
        38.5004         24.0004
 -41865789.61746 -32547741.20743  24610659.8364                   24610658.0274
        39.5004         22.0004
 -63335567.13347 -49299212.68047  21822172.4534                   21822167.4494
        45.5004         43.0004
 -54703596.20346 -42579425.87544  22982115.5004                   22982114.9844
        40.7504         26.0004
 25  8  8  0  7  0.0000000  0 10G02G26G09G03G16G04G06G28G31G01
 -38868626.70746 -30239563.94543  24970563.9144                   24970570.6804
        38.5004         19.0004
 -43746227.18747 -34035296.68047  21435664.4694                   21435664.0634
        45.7504         44.5004
 -14878797.28147 -11555177.86346  23487855.7974                   23487856.2624
        43.0004         37.5004
 -59551003.89548 -46361861.12548  19878554.3754                   19878552.0354
        48.7504         51.2504
 -24560385.74247 -21165306.09045  22015000.4534                   22014997.1254
        44.2504         30.5004
 -48823457.47347 -38002024.43746  21028483.6334                   21028480.5044
        46.7504         37.0004
  -5803947.37546  -4443611.84444  24830971.8834                   24830973.4494
        38.2504         25.7504
 -41854890.01246 -32539248.03544  24612733.7194                   24612732.3404
        40.2504         24.5004
 -63337990.16047 -49301100.77347  21821711.1174                   21821706.8714
        46.7504         42.5004
 -54703830.95346 -42579608.98044  22982071.0784                   22982070.8984
        41.2504         28.5004
 25  8  8  0  7 30.0000000  0 10G02G26G09G03G16G04G06G28G31G01
 -38871853.59846 -30242078.77342  24969950.3754                   24969957.1994
        38.2504         17.2504
 -43834495.70347 -34104077.32047  21418867.8204                   21418866.8014
        46.2504         44.7504
 -15044200.34447 -11684063.25446  23456380.0864                   23456381.2424
        42.5004         37.0004
 -59637811.58248 -46429503.47748  19862035.0554                   19862033.2544
        48.7504         51.0004
 -24733237.35947 -21299995.54345  21982107.6024                   21982104.5744
        44.2504         30.0004
 -48951827.57847 -38102053.06246  21004055.5004                   21004052.3204
        47.0004         36.5004
  -5938785.07046  -4548680.17244  24805312.2664                   24805314.6174
        38.7504         25.5004
 -41844005.52346 -32530766.69943  24614804.8134                   24614803.6994
        40.7504         23.0004
 -63340193.98447 -49302818.06247  21821291.6804                   21821287.6914
        46.7504         42.7504
 -54703903.18047 -42579665.44544  22982057.5084                   22982057.1024
        42.0004         29.0004
 25  8  8  0  8  0.0000000  0 10G02G26G09G03G16G04G06G28G31G01
 -38875222.84446 -30244704.53143  24969309.2274                   24969316.0474
        38.2504         18.5004
 -43922162.40647 -34172389.00447  21402185.2424                   21402184.2854
        44.7504         44.5004
 -15209596.07046 -11812942.92246  23424906.2504                   23424907.3914
        41.0004         36.5004
 -59724074.57047 -46496721.39148  19845620.2974                   19845617.7544
        47.7504         51.2504
 -24905742.81247 -21434415.26245  21949280.8914                   21949277.5634
        44.5004         30.0004
 -49080065.05547 -38201978.33646  20979652.9694                   20979650.1054
        47.7504         36.2504
  -6073151.36346  -4653381.15244  24779744.2424                   24779745.3794
        38.7504         26.5004
 -41833137.23446 -32522297.94943  24616873.0004                   24616871.7854
        40.0004         22.7504
 -63342180.98047 -49304366.39547  21820913.7734                   21820909.3874
        47.0004         43.0004
 -54703815.44547 -42579597.24645  22982074.4304                   22982073.9694
        42.5004         30.0004
 25  8  8  0  8 30.0000000  0 10G02G26G09G03G16G04G06G28G31G01
 -38878734.86745 -30247441.52043  24968641.0864                   24968648.2154
        35.2504         18.2504
 -44009225.53547 -34240230.38347  21385618.1334                   21385617.1994
        46.7504         44.5004
 -15374982.62146 -11941815.43445  23393434.2034                   23393435.2034
        39.7504         35.7504
 -59809790.57848 -46563513.07848  19829308.6254                   19829306.6214
        49.7504         51.2504
 -25077897.41447 -21568561.59445  21916520.7344                   21916517.6644
        44.0004         30.0004
 -49208167.94147 -38301798.73846  20955275.5634                   20955272.5044
        47.0004         36.2504
  -6207043.46146  -4757712.63744  24754265.1094                   24754266.0434
        38.5004         27.2504
 -41822285.27346 -32513841.96543  24618938.5314                   24618936.5204
        40.5004         21.7504
 -63343951.81647 -49305746.29347  21820576.4924                   21820572.3834
        46.5004         42.5004
 -54703569.37147 -42579405.66845  22982120.9694                   22982121.1914
        43.5004         30.5004
 25  8  8  0  9  0.0000000  0 10G02G26G09G03G16G04G06G28G31G01
 -38882393.09046 -30250292.43743  24967945.4144                   24967952.8484
        37.0004         19.5004
 -44095685.64147 -34307601.87147  21369165.3594                   21369163.7734
        45.5004         44.5004
 -15540360.55946 -12070681.21945  23361963.6564                   23361964.9844
        39.0004         35.0004
 -59894959.78548 -46629878.69548  19813101.6884                   19813099.3524
        48.5004         51.2504
 -25249698.53547 -21702432.48045  21883827.9454                   21883825.0984
        44.2504         30.0004
 -49336136.63347 -38401514.57046  20930924.1724                   20930920.8874
        47.2504         36.7504
  -6340460.96146  -4861674.30144  24728876.9924                   24728877.7584
        39.0004         27.5004
 -41811451.98446 -32505400.51243  24621000.3054                   24620998.9064
        40.5004         21.2504
 -63345509.91047 -49306960.41847  21820280.1414                   21820275.9964
        46.2504         43.0004
 -54703168.86347 -42579093.78144  22982197.5634                   22982197.6914
        43.0004         29.5004
 25  8  8  0  9 30.0000000  0 11G02G26G09G03G16G04G06G28G07G31G01
 -38886202.51646 -30253261.23443  24967221.0394                   24967228.2774
        37.2504         19.2504
 -44181545.00847 -34374505.25047  21352826.4304                   21352825.3094
        47.2504         44.5004
 -15705732.00046 -12199541.94146  23330494.1254                   23330495.2464
        39.2504         36.5004
 -59979583.98848 -46695819.62148  19796997.8674                   19796995.7504
        49.5004         51.2504
 -25421145.30947 -21836027.26245  21851202.8524                   21851199.3674
        43.5004         30.2504
 -49463973.20747 -38501127.44946  20906597.4924                   20906594.3714
        47.7504         36.7504
  -6473405.03946  -4965267.09444  24703578.5394                   24703579.4774
        39.2504         28.7504
 -41800641.50846 -32496976.82843  24623056.6094                   24623055.9654
        39.5004         21.2504
   1336666.38356   1082392.08654  25103384.9224                   25103393.0044
        37.0004         25.2504
 -63346860.15647 -49308012.59447  21820023.7344                   21820019.1994
        47.0004         42.7504
 -54702619.58246 -42578665.96544  22982302.1174                   22982302.4264
        41.7504         28.5004
 25  8  8  0 10  0.0000000  0 11G02G26G09G03G16G04G06G28G07G31G01
 -37314746.55546 -29028750.46943  25266259.1414                   25266266.8014
        38.5004         19.2504
 -42691381.97747 -33213339.22747  21636395.0164                   21636394.0044
        46.2504         44.5004
 -14295672.54346 -11100794.17646  23598819.6414                   23598820.6914
        41.7504         36.7504
 -58488241.08648 -45533734.24248  20080791.1254                   20080789.1804
        48.0004         51.2504
 -24016809.84447 -20741739.77345  22118438.7664                   22118435.9614
        43.7504         30.0004
 -48016254.27747 -37373034.74646  21182089.1094                   21182086.1214
        47.2504         36.7504
  -5030451.47746  -3840887.68444  24978163.5394                   24978164.5864
        39.2504         28.7504
 -40214437.12546 -31260973.48843  24924902.1484                   24924900.6414
        38.5004         20.2504
   2737603.67646   2174031.98845  25369975.3834                   25369981.8914
        39.5004         30.7504
 -61772586.41047 -48081305.80947  22119597.8674                   22119593.1844
        46.7504         43.0004
 -53126506.00846 -41350525.71544  23282226.3674                   23282227.2934
        41.7504         28.0004
 25  8  8  0 10 30.0000000  0 11G02G26G09G03G16G04G06G28G07G31G01
 -37318875.39546 -29031968.09843  25265473.5704                   25265481.3204
        37.5004         19.5004
 -42776049.60547 -33279313.98047  21620283.3754                   21620282.3404
        47.2504         44.5004
 -14461040.41047 -11229652.12946  23567351.5704                   23567352.2664
        42.2504         37.2504
 -58571783.65248 -45598832.33648  20064893.5394                   20064891.5514
        49.2504         51.2504
 -24187547.77047 -20874782.19944  22085948.2424                   22085945.0434
        43.7504         29.7504
 -48143835.53947 -37472448.68446  21157811.2114                   21157807.8594
        47.2504         37.0004
  -5162455.36346  -3943747.83644  24953044.1414                   24953044.8674
        39.0004         29.7504
 -40203687.30546 -31252597.04343  24926947.9534                   24926946.1454
        38.7504         19.0004
   2563226.34446   2038154.03144  25336792.2734                   25336798.2424
        37.7504         28.0004
 -61773538.82847 -48082047.98447  22119417.1024                   22119412.3594
        46.2504         43.0004
 -53125678.75846 -41349881.29344  23282384.2664                   23282384.5354
        41.0004         27.7504
 25  8  8  0 11  0.0000000  0 11G02G26G09G03G16G04G06G28G07G31G01
 -37323169.73846 -29035314.71943  25264657.4534                   25264664.4654
        38.2504         19.0004
 -42860123.43447 -33344826.04347  21604284.8754                   21604283.6764
        46.5004         44.5004
 -14626408.26247 -11358510.09046  23535882.8444                   23535883.4144
        42.0004         37.0004
 -58654786.70348 -45663510.03548  20049098.6024                   20049096.7344
        49.5004         51.2504
 -24357928.77747 -21007546.49645  22053526.2664                   22053522.8244
        43.5004         31.0004
 -48271290.71547 -37571764.36346  21133556.9384                   21133554.1024
        47.5004         37.2504
  -5293989.62146  -4046242.03544  24928014.0314                   24928014.8134
        38.5004         28.5004
 -40192972.31246 -31244247.75443  24928987.3984                   24928985.4304
        39.0004         20.2504
   2388962.65246   1902364.62944  25303630.0474                   25303636.9924
        37.7504         29.5004
 -61774298.23447 -48082639.75847  22119271.9304                   22119267.9304
        46.7504         43.0004
 -53124719.48046 -41349134.01644  23282566.4844                   23282567.1294
        41.0004         26.0004
 25  8  8  0 11 30.0000000  0 11G02G26G09G03G16G04G06G28G07G31G01
 -37327625.61746 -29038787.18443  25263809.1254                   25263816.7734
        37.7504         19.0004
 -42943597.39847 -33409870.66847  21588400.0944                   21588399.0044
        44.7504         44.5004
 -14791769.89846 -11487363.19545  23504415.6254                   23504415.8714
        41.2504         35.0004
 -58737243.77048 -45727762.29348  20033407.5394                   20033405.3164
        48.0004         51.2504
 -24527943.55947 -21140025.43045  22021173.1484                   22021169.6914
        44.0004         31.0004
 -48398613.37547 -37670976.78946  21109328.4304                   21109325.5394
        47.2504         37.2504
  -5425047.07446  -4148364.69945  24903074.5004                   24903075.3834
        38.2504         30.0004
 -40182287.85946 -31235922.25443  24931020.5004                   24931018.0314
        39.0004         21.2504
   2214819.71946   1766669.32844  25270491.7734                   25270498.2114
        38.7504         29.7504
 -61774861.16447 -48083078.44147  22119165.0394                   22119160.7344
        46.0004         43.2504
 -53123625.32847 -41348281.63744  23282775.3524                   23282775.3714
        42.7504         27.7504
 25  8  8  0 12  0.0000000  0 11G02G26G09G03G16G04G06G28G07G31G01
 -37332233.35946 -29042377.98043  25262932.9774                   25262940.4924
        38.7504         19.2504
 -43026458.77047 -33474437.94947  21572632.1414                   21572630.9534
        45.5004         44.5004
 -14957112.40246 -11616201.38745  23472951.4614                   23472951.5944
        39.7504         33.2504
 -58819141.63748 -45791578.81648  20017822.8284                   20017820.6564
        48.5004         51.2504
 -24697575.84847 -21272206.32045  21988892.8284                   21988889.7384
        43.7504         31.0004
 -48525790.50847 -37770075.80546  21085127.4774                   21085124.4804
        47.0004         37.0004
  -5555613.98046  -4250105.11744  24878227.3674                   24878229.2854
        38.0004         29.0004
 -40171622.84046 -31227611.90643  24933050.2194                   24933048.0124
        40.0004         21.7504
   2040810.68846   1631078.37944  25237377.4614                   25237384.8524
        37.0004         28.2504
 -61775217.69947 -48083356.28947  22119096.8524                   22119092.7974
        46.2504         43.2504
 -53122386.79347 -41347316.72344  23283011.0004                   23283011.4884
        43.2504         25.7504
 25  8  8  0 12 30.0000000  0 10G26G09G03G16G04G06G28G07G31G01
 -43108710.23047 -33538529.97747  21556979.8594                   21556979.1374
        46.2504         44.5004
 -15122438.07846 -11745026.44945  23441490.1804                   23441491.2344
        38.5004         32.5004
 -58900482.43748 -45854961.25448  20002344.0554                   20002342.1134
        48.5004         51.2504
 -24866825.44947 -21404089.01245  21956685.8674                   21956682.8204
        42.7504         31.5004
 -48652824.25847 -37869063.10546  21060953.3754                   21060950.9734
        47.0004         36.7504
  -5685691.96946  -4351464.55544  24853474.8914                   24853476.3794
        37.5004         29.2504
 -40160981.51246 -31219319.97443  24935074.7424                   24935072.8984
        40.7504         21.0004
   1866934.19546   1495590.71544  25204290.3284                   25204296.0434
        37.0004         27.2504
 -61775372.42247 -48083476.89547  22119067.8054                   22119063.0634
        46.5004         42.5004
 -53121009.69147 -41346243.84444  23283273.0234                   23283273.9264
        42.7504         26.5004
 25  8  8  0 13  0.0000000  0 10G26G09G03G16G04G06G28G07G31G01
 -43190355.03547 -33602149.28947  21541443.8444                   21541442.4414
        45.5004         44.5004
 -15287749.94146 -11873840.72345  23410032.7344                   23410033.4264
        39.2504         33.2504
 -58981269.02748 -45917911.83648  19986971.1024                   19986969.1484
        48.5004         51.2504
 -25035691.90647 -21535673.13745  21924551.2664                   21924547.9774
        43.2504         31.2504
 -48779717.52347 -37967940.92646  21036807.0634                   21036803.7034
        47.2504         37.2504
  -5815283.18046  -4452444.69944  24828813.8284                   24828816.5124
        37.2504         29.2504
 -40150368.64546 -31211050.22743  24937094.6174                   24937092.3714
        40.5004         20.7504
   1693187.68046   1360204.31644  25171226.6804                   25171232.8244
        37.0004         27.2504
 -61775331.64147 -48083445.15647  22119075.5234                   22119071.3954
        45.2504         42.7504
 -53119500.39547 -41345067.96144  23283560.8594                   23283561.1414
        42.7504         26.0004
 25  8  8  0 13 30.0000000  0 10G26G09G03G16G04G06G28G07G31G01
 -43271391.48447 -33665294.55547  21526022.9774                   21526022.0824
        44.5004         44.5004
 -15453045.85246 -12002642.54745  23378578.1804                   23378578.6294
        39.5004         34.5004
 -59061499.10247 -45980428.78148  19971704.0084                   19971701.5434
        47.5004         51.0004
 -25204170.53947 -21666955.08245  21892491.0314                   21892487.4614
        44.5004         31.7504
 -48906468.06647 -38066707.53546  21012687.1174                   21012683.4224
        47.0004         37.0004
  -5944384.69946  -4553043.27744  24804246.7734                   24804248.5634
        37.5004         29.5004
 -40139784.07046 -31202802.53943  24939108.0704                   24939106.8524
        39.7504         20.7504
   1519573.57446   1224921.07444  25138188.8524                   25138195.1134
        37.5004         28.5004
 -61775095.77347 -48083261.40247  22119120.2274                   22119116.4844
        46.5004         42.7504
 -53117860.32447 -41343790.17244  23283873.0944                   23283873.3364
        42.5004         27.0004
 25  8  8  0 14  0.0000000  0 10G26G09G03G16G04G06G28G07G31G01
 -43351820.03947 -33727966.14147  21510717.9454                   21510716.7934
        45.7504         44.5004
 -15618325.98446 -12131432.09446  23347126.2734                   23347126.6844
        40.5004         36.0004
 -59141172.69148 -46042512.09448  19956542.4844                   19956540.3554
        48.5004         51.0004
 -25372258.49247 -21797932.60545  21860504.7814                   21860501.5904
        43.7504         31.0004
 -49033075.83647 -38165362.89146  20988594.2194                   20988590.7664
        47.0004         36.7504
  -6072996.02346  -4653259.87544  24779773.4454                   24779774.4614
        37.5004         29.0004
 -40129229.71946 -31194578.39843  24941117.1174                   24941115.0784
        40.0004         20.2504
   1346092.35546   1089741.39544  25105176.6254                   25105181.8364
        36.2504         26.7504
 -61774667.99247 -48082928.10547  22119202.0944                   22119197.9844
        45.5004         42.5004
 -53116093.06247 -41342413.28544  23284209.5234                   23284209.6644
        42.5004         27.0004
 25  8  8  0 14 30.0000000  0 10G26G09G03G16G04G06G28G07G31G01
 -43431639.17647 -33790162.85547  21495528.7894                   21495527.4304
        46.2504         44.5004
 -15783588.34846 -12260207.78546  23315677.8284                   23315678.3244
        41.0004         37.0004
 -59220287.73848 -46104160.18448  19941487.4064                   19941485.2234
        48.7504         51.0004
 -25539950.68047 -21928601.72345  21828594.5234                   21828590.6524
        43.7504         32.5004
 -49159538.73447 -38263905.36746  20964528.7734                   20964525.9104
        46.5004         36.7504
  -6201114.43446  -4753092.38344  24755393.6954                   24755394.3834
        36.2504         28.5004
 -40118705.49646 -31186377.76643  24943119.1484                   24943118.1214
        39.5004         19.5004
   1172746.93846    954667.51244  25072189.2664                   25072194.7464
        36.0004         24.5004
 -61774049.02747 -48082445.82447  22119319.6804                   22119315.6564
        46.7504         42.0004
 -53114200.09046 -41340938.44944  23284569.8754                   23284570.8204
        41.5004         27.7504
 25  8  8  0 15  0.0000000  0 10G26G09G03G16G04G06G28G07G31G01
 -43510856.00447 -33851890.23447  21480454.1174                   21480453.3204
        46.7504         44.5004
 -15948839.55146 -12388974.79346  23284231.0944                   23284232.1254
        40.2504         37.5004
 -59298850.81248 -46165378.16448  19926537.1724                   19926535.3594
        48.7504         51.0004
 -25707251.06647 -22058965.54745  21796757.6884                   21796754.4414
        43.5004         32.7504
 -49285863.25047 -38362340.01246  20940490.1954                   20940486.9344
        47.0004         36.5004
  -6328745.82046  -4852545.40644  24731105.9224                   24731107.0124
        36.0004         29.5004
 -40108219.85546 -31178207.13343  24945114.7424                   24945113.3874
        38.7504         20.5004
    999530.68045    819694.29344  25039226.4774                   25039232.1684
        35.7504         27.0004
 -61773248.28147 -48081821.90647  22119472.4384                   22119467.9774
        45.7504         42.0004
 -53112191.49646 -41339373.54344  23284952.0394                   23284952.8914
        39.2504         26.7504
 25  8  8  0 15 30.0000000  0 10G26G09G03G16G04G06G28G07G31G01
 -43589471.60247 -33913149.13347  21465494.2814                   21465493.1954
        46.2504         44.5004
 -16114080.23846 -12517733.60546  23252786.9774                   23252787.6174
        40.7504         36.5004
 -59376862.47348 -46226166.46948  19911692.0554                   19911690.0314
        49.0004         51.0004
 -25874157.21947 -22189022.19545  21764996.4064                   21764992.9534
        43.7504         32.2504
 -49412049.89547 -38460667.21946  20916477.4454                   20916474.5204
        47.0004         37.2504
  -6455890.28946  -4951619.01244  24706910.5394                   24706912.4924
        36.2504         29.7504
 -40097775.26246 -31170068.53543  24947102.2114                   24947101.2234
        37.5004         21.0004
    826443.77046    684821.86744  25006288.8834                   25006294.7384
        37.0004         26.0004
 -61772269.12547 -48081058.96546  22119658.3984                   22119654.1564
        46.5004         41.7504
 -53110071.29046 -41337721.68244  23285356.0394                   23285356.8284
        40.2504         25.5004
 25  8  8  0 16  0.0000000  0 10G26G09G03G16G04G06G28G07G31G01
 -43667490.55947 -33973943.10947  21450647.5314                   21450646.8954
        47.0004         44.5004
 -16279314.50846 -12646487.41045  23221343.5234                   23221344.0634
        40.0004         34.5004
 -59454326.76248 -46286528.25448  19896951.0864                   19896949.0554
        48.2504         51.0004
 -26040670.14847 -22318772.42645  21733310.2734                   21733306.9414
        45.2504         33.0004
 -49538102.53147 -38558890.00846  20892490.3284                   20892487.2424
        47.0004         36.5004
  -6582551.24246  -5050315.84445  24682808.1954                   24682810.1994
        36.5004         30.5004
 -40087377.61346 -31161966.51643  24949081.0554                   24949079.6644
        37.2504         19.7504
    653482.56346    550047.38744  24973375.2504                   24973380.9454
        36.7504         24.2504
 -61771118.48447 -48080162.40647  22119877.4224                   22119872.9384
        46.0004         42.0004
 -53107847.16846 -41335988.82844  23285779.0944                   23285779.8554
        40.5004         27.0004
 25  8  8  0 16 30.0000000  0 10G26G09G03G16G04G06G28G07G31G01
 -43744910.82047 -34034270.57447  21435915.0234                   21435914.0944
        46.5004         44.5004
 -16444539.75846 -12775234.18745  23189901.9304                   23189902.3834
        39.0004         33.7504
 -59531241.09448 -46346461.49248  19882314.9224                   19882312.5984
        48.0004         51.0004
 -26206784.54347 -22448212.10545  21701699.7034                   21701696.1844
        45.2504         32.5004
 -49664018.47348 -38657006.28146  20868529.7034                   20868526.7234
        48.0004         37.0004
  -6708725.41246  -5148633.36545  24658798.0864                   24658799.6484
        38.2504         30.5004
 -40077026.14546 -31153900.51643  24951051.2894                   24951049.5084
        36.7504         19.7504
    480650.35546    415373.40244  24940486.4924                   24940491.5394
        36.5004         26.0004
 -61769796.44547 -48079132.28546  22120129.1334                   22120124.5984
        44.5004         41.2504
 -53105519.89146 -41334175.60944  23286222.1804                   23286223.3484
        40.0004         25.2504
 25  8  8  0 17  0.0000000  0 10G26G09G03G16G04G06G28G07G31G01
 -43821736.61347 -34094134.80947  21421295.5394                   21421294.4144
        45.2504         44.5004
 -16609759.66646 -12903976.81845  23158461.8524                   23158461.7624
        40.0004         33.0004
 -59607609.21148 -46405969.11348  19867782.3134                   19867780.5634
        48.0004         51.0004
 -26372501.38747 -22577342.01245  21670164.6884                   21670161.3524
        45.7504         32.7504
 -49789801.16847 -38755018.73046  20844594.0474                   20844590.8324
        47.0004         37.0004
  -6834415.96146  -5246574.02045  24634879.5554                   24634881.5784
        38.2504         30.7504
 -40066726.34446 -31145874.71543  24953011.3984                   24953009.2194
        38.0004         19.7504
    307943.80546    280797.30544  24907620.4694                   24907626.2814
        36.2504         24.7504
 -61768309.33647 -48077973.53146  22120411.6414                   22120408.3244
        45.5004         41.5004
 -53103096.60546 -41332287.57444  23286683.2664                   23286684.1214
        41.2504         25.7504
 25  8  8  0 17 30.0000000  0 10G26G09G03G16G04G06G28G07G31G01
 -43897966.95747 -34153535.05947  21406789.5084                   21406788.4884
        44.5004         44.5004
 -16774972.43746 -13032713.89145  23127023.2814                   23127022.8984
        41.5004         34.5004
 -59683429.48447 -46465049.84048  19853354.5634                   19853352.2624
        47.7504         51.0004
 -26537815.77747 -22706158.32045  21638706.3364                   21638702.9574
        45.7504         32.5004
 -49915448.84447 -38852925.97746  20820684.1414                   20820680.7624
        47.2504         37.0004
  -6959620.65646  -5344136.10545  24611054.6024                   24611055.4414
        37.5004         30.7504
 -40056478.30546 -31137889.31643  24954961.3054                   24954959.9264
        37.5004         19.7504
    135364.69545    146320.48444  24874779.0004                   24874785.2074
        35.5004         25.2504
 -61766658.49647 -48076687.20346  22120725.7114                   22120721.5664
        45.5004         41.2504
 -53100579.21147 -41330326.19944  23287162.7814                   23287163.8014
        42.0004         26.7504
 25  8  8  0 18  0.0000000  0 10G26G09G03G16G04G06G28G07G31G01
 -43973604.06247 -34212473.05547  21392396.1334                   21392395.0004
        45.5004         44.7504
 -16940179.84047 -13161446.77746  23095585.0394                   23095585.1484
        42.2504         36.2504
 -59758703.72348 -46523705.09448  19839029.7114                   19839028.1334
        48.0004         51.0004
 -26702726.68047 -22834660.23045  21607324.7114                   21607321.4534
        45.5004         32.7504
 -50040962.98847 -38950729.16846  20796799.4454                   20796796.2344
        47.7504         36.7504
  -7084340.61346  -5441320.45745  24587319.8524                   24587322.4964
        37.5004         30.2504
 -40046285.57846 -31129946.97343  24956901.3444                   24956899.3834
        37.7504         20.0004
    -37087.82046     11942.33644  24841962.7114                   24841968.3594
        37.5004         25.5004
 -61764848.39547 -48075276.77046  22121070.2974                   22121066.3874
        46.2504         40.7504
 -53097972.74647 -41328295.40644  23287659.1644                   23287660.2624
        42.7504         26.0004
 25  8  8  0 18 30.0000000  0 10G26G09G03G16G04G06G28G07G31G01
 -44048649.07847 -34270949.66847  21378115.2194                   21378114.7274
        46.2504         44.5004
 -17105382.25047 -13290175.77346  23064147.4694                   23064147.5594
        43.2504         38.2504
 -59833432.41448 -46581935.23448  19824809.6804                   19824807.5434
        48.5004         51.0004
 -26867232.00447 -22962846.10545  21576020.6254                   21576016.6024
        45.5004         33.0004
 -50166343.89147 -39048428.54346  20772940.0864                   20772937.1094
        46.7504         37.2504
  -7208575.77346  -5538127.04745  24563678.5784                   24563680.9614
        37.2504         31.2504
 -40036150.30146 -31122049.42243  24958829.9384                   24958827.9224
        36.7504         19.7504
   -209413.53946   -122337.03544  24809170.4384                   24809174.9614
        37.2504         26.7504
 -61762881.96947 -48073744.53146  22121444.9614                   22121440.7854
        46.0004         40.7504
 -53095281.10947 -41326198.23044  23288171.2814                   23288172.3094
        43.7504         25.7504
 25  8  8  0 19  0.0000000  0 10G26G09G03G16G04G06G28G07G31G01
 -42547676.15247 -33101360.36747  21663741.0394                   21663740.1844
        47.0004         44.5004
 -15695150.13747 -12191293.45746  23332505.9534                   23332506.0514
        43.0004         38.5004
 -58332189.26648 -45412135.37948  20110487.1724                   20110484.9454
        48.7504         51.0004
 -25455899.16047 -21863106.13345  21844587.8054                   21844584.1564
        45.7504         34.0004
 -48716163.19547 -37918417.57846  21048900.3674                   21048897.1914
        47.2504         37.2504
  -5756897.52046  -4406949.14845  24839925.2344                   24839926.2704
        36.5004         31.2504
 -38450650.64146 -29886595.18743  25260540.6484                   25260538.9384
        37.0004         18.5004
   1193817.68046    971090.31344  25076195.2664                   25076200.6054
        37.5004         25.0004
 -60185338.19947 -46844489.68046  22421641.8594                   22421637.3284
        45.5004         41.0004
 -51517083.92247 -40096434.40644  23588492.7114                   23588493.5004
        43.2504         26.0004
 25  8  8  0 19 30.0000000  0 10G26G09G03G16G04G06G28G07G31G01
 -42621533.12947 -33158911.23447  21649686.8594                   21649685.9494
        46.5004         44.7504
 -15860336.50446 -12320009.95346  23301071.8754                   23301071.9654
        40.7504         38.5004
 -58405821.39848 -45469511.06648  20096475.1644                   20096473.1884
        48.2504         51.0004
 -25619578.39547 -21990648.29745  21813440.7734                   21813437.2734
        45.5004         34.0004
 -48841271.09447 -38015904.22346  21025093.0474                   21025089.8014
        46.7504         37.2504
  -5880155.66446  -4502994.44545  24816470.0474                   24816471.5554
        36.5004         31.7504
 -38440629.69146 -29878786.71543  25262447.6254                   25262445.7384
        37.0004         18.2504
   1021752.23846    837013.76244  25043452.1024                   25043457.2774
        36.7504         25.5004
 -60183061.24247 -46842715.46546  22422074.6414                   22422070.4844
        46.0004         40.5004
 -51514226.42647 -40094207.99644  23589036.0634                   23589037.7304
        43.2504         26.7504
 25  8  8  0 20  0.0000000  0 10G26G09G03G16G04G06G28G07G31G01
 -42694799.25047 -33216001.70347  21635744.5084                   21635743.1644
        47.2504         45.0004
 -16025516.86346 -12448721.76246  23269639.2194                   23269639.0634
        40.5004         38.2504
 -58478907.56248 -45526461.33248  20082567.2814                   20082565.1684
        49.0004         51.0004
 -25782842.46547 -22117866.96545  21782372.3674                   21782368.7544
        46.0004         33.7504
 -48966244.26647 -38113285.88346  21001311.4384                   21001308.1884
        47.0004         37.5004
  -6002926.71146  -4598660.16445  24793108.1174                   24793108.5044
        38.0004         31.5004
 -38430670.64546 -29871026.47343  25264342.5474                   25264340.9494
        37.0004         19.2504
    849815.74646    703037.64544  25010733.6414                   25010738.3954
        37.7504         24.5004
 -60180635.61747 -46840825.40246  22422536.6174                   22422531.9224
        45.7504         40.7504
 -51511293.27347 -40091922.65244  23589594.5084                   23589595.6094
        42.0004         25.5004
 25  8  8  0 20 30.0000000  0 10G26G09G03G16G04G06G28G07G31G01
 -42767473.57847 -33272631.03147  21621915.2424                   21621914.0234
        47.2504         45.0004
 -16190689.39546 -12577427.46546  23238207.6094                   23238207.8364
        40.0004         37.7504
 -58551446.22348 -45582984.96148  20068763.7344                   20068761.8324
        48.5004         51.0004
 -25945686.96147 -22244758.68745  21751384.3754                   21751380.9494
        46.5004         32.7504
 -49091080.78947 -38210561.07046  20977555.9144                   20977552.9024
        47.2504         37.7504
  -6125208.46946  -4693944.62145  24769837.5864                   24769839.4494
        37.2504         31.7504
 -38420773.43446 -29863314.45343  25266226.2114                   25266224.2114
        37.5004         19.2504
    678010.00446    569163.41044  24978040.1024                   24978044.5704
        38.7504         26.2504
 -60178062.08247 -46838820.09046  22423026.1954                   22423021.8054
        46.0004         40.5004
 -51508286.10546 -40089579.65244  23590166.5864                   23590168.2544
        41.2504         26.0004
 25  8  8  0 21  0.0000000  0 10G26G09G03G16G04G06G28G07G31G01
 -42839555.48048 -33328798.73047  21608198.3134                   21608197.2344
        48.0004         44.5004
 -16355852.61747 -12706125.93446  23206777.8204                   23206777.8014
        42.0004         38.2504
 -58623436.20748 -45639081.05948  20055064.5394                   20055062.2384
        48.7504         51.0004
 -26108107.77347 -22371320.27345  21720476.5704                   21720472.9804
        46.0004         34.0004
 -49215778.99647 -38307728.47746  20953826.6094                   20953823.0394
        47.0004         38.0004
  -6246999.08646  -4788846.37545  24746661.8914                   24746662.9064
        37.5004         31.2504
 -38410938.46946 -29855650.85243  25268097.1954                   25268096.2034
        36.5004         19.2504
    506337.17846    435392.76144  24945370.9924                   24945375.9494
        38.5004         26.7504
 -60175341.87547 -46836700.49246  22423543.7894                   22423539.4964
        46.0004         40.5004
 -51505206.96546 -40087180.58644  23590753.4454                   23590755.3404
        41.2504         26.7504
 25  8  8  0 21 30.0000000  0 10G26G09G03G16G04G06G28G07G31G01
 -42911045.34047 -33384505.10547  21594594.3524                   21594593.0164
        47.2504         44.5004
 -16521006.06646 -12834816.82046  23175350.0554                   23175349.6484
        41.7504         38.0004
 -58694877.27748 -45694749.43048  20041469.7814                   20041467.3834
        49.0004         51.0004
 -26270101.34447 -22497548.94545  21689650.2584                   21689646.1724
        45.2504         33.7504
 -49340338.30547 -38404787.65646  20930123.5634                   20930120.3324
        47.7504         37.2504
  -6368297.80946  -4883364.82845  24723579.2584                   24723580.6764
        36.5004         32.2504
 -38401166.95746 -29848036.78143  25269956.8134                   25269955.6334
        36.5004         19.5004
    334798.00846    301726.25844  24912728.2034                   24912732.7734
        40.2504         28.5004
 -60172477.31647 -46834468.40646  22424089.3284                   22424084.9844
        45.5004         40.7504
 -51502058.87946 -40084727.79744  23591352.1334                   23591354.2234
        40.0004         26.0004
 25  8  8  0 22  0.0000000  0 10G26G09G03G16G04G06G28G07G31G01
 -42981943.55547 -33439750.44547  21581102.5704                   21581101.4104
        47.0004         45.0004
 -16686149.20747 -12963499.68046  23143924.8834                   23143923.9694
        43.2504         38.2504
 -58765769.27748 -45749989.94548  20027979.3284                   20027977.4494
        49.0004         51.0004
 -26431664.62147 -22623442.32045  21658905.3054                   21658901.5164
        45.7504         33.5004
 -49464757.98447 -38501738.02346  20906447.4924                   20906444.3714
        47.0004         37.5004
  -6489103.81246  -4977499.34845  24700590.5164                   24700591.8714
        38.5004         32.2504
 -38391460.21546 -29840473.10243  25271803.5474                   25271802.6214
        37.7504         20.5004
    163393.48446    168164.66444  24880110.5864                   24880115.2034
        40.2504         27.5004
 -60169470.72347 -46832125.65246  22424661.0084                   22424656.9844
        46.0004         41.0004
 -51498844.83246 -40082223.62544  23591963.9454                   23591966.1724
        39.5004         26.7504
 25  8  8  0 22 30.0000000  0 10G26G09G03G16G04G06G28G07G31G01
 -43052247.73847 -33494532.91847  21567724.2344                   21567723.2344
        47.0004         44.7504
 -16851278.63747 -13092171.87546  23112501.3204                   23112500.8794
        43.5004         38.5004
 -58836109.25848 -45804800.32448  20014593.8984                   20014591.8364
        48.7504         51.0004
 -26592791.73447 -22748995.82445  21628243.5864                   21628240.1804
        45.0004         33.2504
 -49589034.59847 -38598576.91046  20882798.2814                   20882795.0474
        47.0004         37.5004
  -6609413.50846  -5071247.13745  24677696.5314                   24677697.9344
        37.7504         32.0004
 -38381816.64146 -29832958.66443  25273638.4774                   25273637.7934
        38.7504         21.0004
     -7872.91046     34710.70344  24847519.7814                   24847523.4064
        39.7504         27.5004
 -60166321.35547 -46829671.64146  22425260.5394                   22425256.2704
        46.2504         41.0004
 -51495564.99646 -40079668.18444  23592588.7584                   23592590.3014
        40.0004         27.0004
 25  8  8  0 23  0.0000000  0 10G26G09G03G16G04G06G28G07G31G01
 -43121963.19547 -33548856.63747  21554457.9774                   21554457.0044
        47.5004         44.5004
 -17016398.64147 -13220836.69946  23081079.8674                   23081079.6564
        43.5004         38.5004
 -58905901.84048 -45859184.15248  20001312.9924                   20001310.6134
        49.2504         50.7504
 -26753484.27047 -22874210.69945  21597665.0864                   21597661.5314
        45.7504         32.5004
 -49713172.25847 -38695307.53146  20859175.4224                   20859172.3244
        47.5004         37.2504
  -6729230.88346  -5164611.29345  24654895.1884                   24654897.5004
        37.2504         33.0004
 -38372242.39546 -29825498.27743  25275461.1954                   25275459.7544
        38.7504         20.7504
   -179005.00046    -98638.59844  24814953.8054                   24814958.1054
        40.5004         28.2504
 -60163035.83647 -46827111.53546  22425885.7274                   22425881.8634
        45.7504         41.0004
 -51492227.14546 -40077067.50844  23593223.7664                   23593226.0164
        41.2504         26.2504
 25  8  8  0 23 30.0000000  0 10G26G09G03G16G04G06G28G07G31G01
 -43191092.19947 -33602723.38747  21541303.2894                   21541302.2194
        47.0004         44.5004
 -17181510.57847 -13349495.24246  23049660.2814                   23049660.2344
        42.0004         38.7504
 -58975148.78548 -45913142.82048  19988135.6804                   19988133.5514
        49.2504         50.7504
 -26913740.83647 -22999085.86345  21567169.5864                   21567165.0124
        45.5004         33.2504
 -49837172.10247 -38791930.75446  20835579.2894                   20835575.9144
        47.0004         37.0004
  -6848557.04346  -5257592.68045  24632188.3054                   24632189.8014
        37.5004         33.2504
 -38362740.41046 -29818094.19943  25277269.3054                   25277267.9384
        40.5004         22.2504
   -350003.91046   -231884.14544  24782413.5944                   24782417.9734
        40.0004         27.7504
 -60159619.00847 -46824449.12146  22426536.3284                   22426532.3754
        45.5004         40.2504
 -51488836.12947 -40074425.44144  23593868.7504                   23593871.2344
        42.2504         26.5004
 25  8  8  0 24  0.0000000  0 10G26G09G03G16G04G06G28G07G31G01
 -43259631.27047 -33656130.44547  21528260.5704                   21528259.3134
        46.5004         44.2504
 -17346609.81647 -13478143.87546  23018242.6484                   23018242.6094
        42.0004         39.5004
 -59043846.02348 -45966673.13748  19975063.0704                   19975061.1174
        49.0004         50.7504
 -27073554.52747 -23123615.93045  21536757.5004                   21536753.7774
        45.2504         33.2504
 -49961029.45747 -38888442.94946  20812010.1024                   20812006.9144
        46.5004         38.0004
  -6967387.27346  -5350187.63345  24609576.4384                   24609577.4144
        37.0004         33.0004
 -38353307.90646 -29810744.24643  25279064.7034                   25279062.8754
        40.0004         21.0004
   -520864.84846   -365022.18044  24749899.5084                   24749903.7424
        40.5004         28.2504
 -60156068.88747 -46821682.83646  22427211.7424                   22427207.7664
        45.5004         41.0004
 -51485390.91047 -40071741.11744  23594525.3754                   23594527.1804
        42.5004         28.0004
 25  8  8  0 24 30.0000000  0 10G26G09G03G16G04G06G28G07G31G01
 -43327580.90647 -33709078.20347  21515329.6954                   21515328.9024
        46.5004         44.0004
 -17511695.78147 -13606782.17246  22986827.2584                   22986827.8204
        42.5004         39.0004
 -59111993.37948 -46019774.97748  19962094.7894                   19962093.1644
        48.2504         51.0004
 -27232921.58247 -23247797.96545  21506431.0004                   21506427.0824
        44.7504         34.0004
 -50084743.51247 -38984843.48446  20788467.4694                   20788464.6414
        46.5004         37.5004
  -7085720.79346  -5442395.54745  24587057.7344                   24587059.2734
        38.2504         32.7504
 -38343946.06646 -29803449.35543  25280845.0864                   25280844.1804
        39.5004         19.2504
   -691586.73046   -498051.87544  24717412.8834                   24717415.9534
        41.0004         27.5004
 -60152387.39847 -46818814.19146  22427912.3834                   22427908.2624
        45.5004         40.7504
 -51481894.33247 -40069016.76244  23595191.0634                   23595192.6414
        42.5004         26.5004
 25  8  8  0 25  0.0000000  0 10G26G09G03G16G04G06G28G07G31G01
 -43394943.71547 -33761568.70347  21502511.4454                   21502510.1604
        47.0004         44.2504
 -17676769.87947 -13735411.23846  22955415.0944                   22955414.8404
        42.0004         39.0004
 -59179592.87948 -46072449.91448  19949231.4454                   19949229.3524
        48.7504         51.0004
 -27391841.39147 -23371631.50445  21476189.5784                   21476185.5634
        44.7504         33.2504
 -50208315.63347 -39081133.41846  20764953.1954                   20764949.7734
        46.5004         37.5004
  -7203558.95346  -5534217.45745  24564633.7504                   24564635.3874
        38.0004         32.5004
 -38334658.21546 -29796212.09043  25282613.1414                   25282612.0124
        40.2504         20.0004
   -862170.87546   -630974.23444  24684950.6094                   24684954.4304
        41.0004         29.0004
 -60148578.74247 -46815846.46546  22428636.9454                   22428633.3594
        45.5004         40.5004
 -51478351.42247 -40066256.30944  23595865.3284                   23595867.3054
        42.0004         24.5004
 25  8  8  0 25 30.0000000  0 10G26G09G03G16G04G06G28G07G31G01
 -43461718.19147 -33813600.76247  21489804.7274                   21489803.4304
        45.7504         44.0004
 -17841829.48047 -13864029.01246  22924005.3984                   22924004.9884
        42.7504         39.2504
 -59246642.38347 -46124696.28548  19936472.1954                   19936470.0984
        47.7504         50.7504
 -27550308.71547 -23495112.44945  21446033.8674                   21446030.2274
        44.5004         33.5004
 -50331743.02747 -39177310.57446  20741465.2584                   20741462.2974
        45.7504         37.5004
  -7320899.05546  -5625651.28145  24542304.6804                   24542306.4454
        38.0004         31.7504
 -38325443.40246 -29789031.75843  25284366.4144                   25284365.4024
        40.5004         19.0004
  -1032614.46146   -763787.07044  24652516.4774                   24652519.8984
        40.5004         29.0004
 -60144643.02347 -46812779.72346  22429385.8204                   22429381.9924
        45.2504         40.5004
 -51474763.02746 -40063460.41444  23596547.9534                   23596549.6454
        41.5004         26.0004
 25  8  8  0 26  0.0000000  0 10G26G09G03G16G04G06G28G07G31G01
 -43527904.09047 -33865174.18047  21477210.0784                   21477209.0314
        44.7504         44.0004
 -18006873.14547 -13992634.37946  22892598.0234                   22892598.0904
        43.0004         39.0004
 -59313141.14847 -46176513.50448  19923818.1644                   19923815.6684
        47.5004         50.7504
 -27708319.55147 -23618237.68445  21415965.5634                   21415961.5864
        44.7504         33.0004
 -50455024.17247 -39273373.77046  20718005.8284                   20718002.5824
        46.0004         38.2504
  -7437739.60946  -5716695.83645  24520071.0944                   24520072.3634
        38.2504         32.5004
 -38316301.89846 -29781908.53143  25286106.2344                   25286105.2894
        41.2504         19.7504
  -1202915.89146   -896489.09444  24620108.7344                   24620112.4454
        40.2504         28.5004
 -60140581.85247 -46809615.22346  22430158.6254                   22430154.6764
        45.7504         41.5004
 -51471131.35246 -40060630.78543  23597239.6954                   23597241.1884
        41.0004         22.5004
 25  8  8  0 26 30.0000000  0 10G26G09G03G16G04G06G28G07G31G01
 -43593503.12947 -33916290.30947  21464727.2114                   21464725.4224
        44.5004         44.0004
 -18171901.31647 -14121227.66446  22861194.3134                   22861194.1454
        43.0004         38.5004
 -59379090.18447 -46227902.36348  19911268.2664                   19911266.3014
        47.2504         50.7504
 -27865871.97347 -23741005.73045  21385984.5234                   21385980.4694
        44.7504         33.2504
 -50578159.30147 -39369323.19146  20694574.0084                   20694570.7734
        45.7504         37.5004
  -7554080.98046  -5807351.42245  24497932.3204                   24497933.0514
        38.5004         33.2504
 -38307235.94146 -29774844.15242  25287831.3594                   25287830.4144
        41.0004         17.7504
  -1373075.21146  -1029080.38344  24587728.1564                   24587731.3444
        40.2504         29.0004
 -60136398.22747 -46806355.30546  22430954.8834                   22430951.5084
        45.0004         40.5004
 -51467460.26646 -40057770.46943  23597938.4454                   23597940.5864
        40.5004         22.0004
 25  8  8  0 27  0.0000000  0 10G26G09G03G16G04G06G28G07G31G01
 -43658516.96947 -33966950.44947  21452355.1094                   21452353.8634
        45.0004         44.2504
 -18336914.46947 -14249809.23446  22829793.2894                   22829793.0944
        42.2504         38.7504
 -59444490.55947 -46278863.70348  19898822.6724                   19898820.9264
        47.0004         50.7504
 -28022963.85247 -23863414.90245  21356090.8444                   21356086.5864
        44.0004         33.5004
 -50701148.75847 -39465159.09046  20671169.5944                   20671166.2384
        45.5004         37.5004
  -7669923.67146  -5897618.42545  24475888.2274                   24475889.1724
        39.2504         34.0004
 -38298247.69946 -29767840.34042  25289542.5554                   25289541.1414
        40.5004         16.7504
  -1543092.90646  -1161561.30144  24555374.8364                   24555377.5124
        40.0004         27.5004
 -60132095.40647 -46803002.51246  22431773.6804                   22431769.9774
        45.5004         40.7504
 -51463753.86346 -40054882.64543  23598643.9064                   23598646.5004
        39.0004         21.7504
 25  8  8  0 27 30.0000000  0 10G26G09G03G16G04G06G28G07G31G01
 -42147525.30147 -32789554.33647  21739887.1484                   21739885.9654
        45.5004         44.2504
 -16926487.55947 -13150775.16846  23098189.0314                   23098188.4774
        42.0004         39.5004
 -57933921.29348 -45101796.74248  20186274.6254                   20186272.5204
        48.2504         50.7504
 -26604167.97747 -22757859.59445  21626078.4774                   21626074.3634
        45.0004         33.5004
 -49248568.84847 -38333278.60546  20947586.4694                   20947583.2034
        45.7504         37.5004
  -6209844.45346  -4759894.32845  24753731.9534                   24753733.1804
        40.0004         34.0004
 -36713919.80146 -28533299.14142  25591029.1804                   25591028.7424
        41.5004         17.2504
   -137543.55146    -66327.67244  24822841.2894                   24822844.2154
        39.7504         29.0004
 -58552256.68047 -45571959.39546  22732407.5314                   22732403.4104
        44.5004         41.0004
 -49884596.21546 -38824370.47343  23899147.8364                   23899149.3054
        39.2504         21.5004
 25  8  8  0 28  0.0000000  0  9G26G09G03G16G04G06G07G31G01
 -42211371.90247 -32839304.93747  21727737.5474                   21727736.6524
        46.2504         44.2504
 -17091469.75447 -13279332.59446  23066793.7584                   23066793.1564
        42.5004         39.5004
 -57998225.57048 -45151903.98048  20174038.0704                   20174035.7304
        48.5004         50.7504
 -26760330.56247 -22879544.64545  21596361.6174                   21596357.7384
        44.5004         34.0004
 -49371265.69947 -38428886.51646  20924238.1564                   20924234.6884
        45.2504         38.0004
  -6324689.05146  -4849383.59045  24731877.6884                   24731878.7894
        39.7504         33.7504
   -307276.27346   -198586.54344  24790541.5554                   24790544.8244
        39.7504         27.5004
 -58547722.53547 -45568426.34446  22733269.8594                   22733265.7544
        45.0004         39.7504
 -49880828.81646 -38821435.10943  23899864.6954                   23899866.8054
        38.5004         21.7504
 25  8  8  0 28 30.0000000  0  9G26G09G03G16G04G06G07G31G01
 -42274634.54747 -32888600.49247  21715699.4384                   21715698.1294
        45.7504         44.5004
 -17256434.12947 -13407876.14546  23035401.4924                   23035401.3594
        43.0004         39.5004
 -58061980.61748 -45201583.25048  20161905.5784                   20161903.6054
        48.5004         50.5004
 -26916022.52347 -23000862.97745  21566734.5234                   21566730.2774
        45.2504         34.0004
 -49493813.68047 -38524378.42246  20900917.9144                   20900914.5164
        45.7504         37.5004
  -6439032.37946  -4938482.25845  24710118.3594                   24710119.6914
        39.7504         34.0004
   -476864.09846   -330732.50844  24758270.1804                   24758272.9654
        39.2504         27.7504
 -58543074.50447 -45564804.55146  22734154.6484                   22734150.7934
        45.0004         39.7504
 -49877033.85946 -38818478.29343  23900587.3674                   23900589.4184
        39.2504         22.2504
 25  8  8  0 29  0.0000000  0  9G26G09G03G16G04G06G07G31G01
 -42337313.40647 -32937441.15647  21703771.7194                   21703770.8794
        45.2504         44.2504
 -17421379.39547 -13536404.81246  23004013.4224                   23004013.3244
        43.2504         40.0004
 -58125185.90248 -45250834.12548  20149878.1724                   20149875.9694
        48.0004         50.5004
 -27071240.22747 -23121811.75845  21537197.1334                   21537193.3714
        44.2504         33.2504
 -49616211.48847 -38619753.30546  20877626.3204                   20877622.8404
        45.7504         37.5004
  -6552873.30546  -5027189.44945  24688455.0234                   24688456.6844
        39.5004         34.2504
   -646305.59046   -462764.48044  24726026.4304                   24726029.1764
        39.5004         28.0004
 -58538314.36347 -45561095.39146  22735060.7194                   22735056.6454
        45.2504         40.0004
 -49873213.75046 -38815501.86343  23901313.7974                   23901316.4574
        38.5004         22.2504
 25  8  8  0 29 30.0000000  0  9G26G09G03G16G04G06G07G31G01
 -42399399.09847 -32985819.60947  21691957.5234                   21691956.4224
        46.0004         44.0004
 -17586294.73047 -13664910.16446  22972631.0164                   22972630.8054
        43.5004         39.0004
 -58187831.41848 -45299648.82848  20137957.3284                   20137954.7814
        48.0004         50.5004
 -27225970.49647 -23242380.72745  21507753.5314                   21507749.0514
        44.5004         33.7504
 -49738448.14847 -38715002.61746  20854365.5234                   20854362.5234
        45.5004         37.7504
  -6666201.16446  -5115496.82845  24666890.0394                   24666890.7344
        38.0004         34.0004
   -815589.83246   -594673.88344  24693811.8834                   24693815.2774
        38.5004         27.7504
 -58533433.61747 -45557292.25046  22735989.1414                   22735985.3984
        44.7504         40.0004
 -49869361.18046 -38812500.15643  23902047.6644                   23902050.2344
        39.2504         22.5004
 25  8  8  0 30  0.0000000  0  9G26G09G03G16G04G06G07G31G01
 -42460894.34047 -33033737.97347  21680255.3284                   21680254.1374
        45.7504         44.0004
 -17751181.49647 -13793393.25046  22941254.6954                   22941253.9264
        42.5004         38.5004
 -58249919.28147 -45348028.98848  20126142.4384                   20126140.3204
        47.5004         50.5004
 -27380212.49247 -23362569.21945  21478401.8284                   21478397.5004
        44.5004         33.7504
 -49860524.76247 -38810127.23046  20831135.0164                   20831131.7154
        46.0004         37.5004
  -6779017.47746  -5203405.61345  24645421.4224                   24645422.8794
        39.7504         33.5004
   -984718.14846   -726461.79744  24661627.5554                   24661630.4694
        38.0004         26.0004
 -58528436.55547 -45553398.47746  22736940.2274                   22736936.0314
        45.5004         40.0004
 -49865481.00446 -38809476.94943  23902786.0394                   23902789.1564
        40.7504         22.0004
 25  8  8  0 30 30.0000000  0  9G26G09G03G16G04G06G07G31G01
 -42521803.59847 -33081199.72747  21668664.2424                   21668663.1254
        45.2504         44.0004
 -17916042.60247 -13921856.33646  22909881.6174                   22909882.0124
        42.0004         37.5004
 -58311453.28547 -45395977.57848  20114432.5554                   20114430.4884
        47.0004         50.5004
 -27533966.77747 -23482377.68445  21449143.1804                   21449139.1254
        45.2504         34.0004
 -49982444.16447 -38905129.33246  20807934.6484                   20807931.4734
        45.5004         38.0004
  -6891325.34846  -5290918.20745  24624050.4384                   24624051.2974
        40.0004         33.5004
  -1153692.94546   -858130.09444  24629472.5474                   24629475.3094
        38.2504         27.2504
 -58523328.94547 -45549418.55146  22737911.9384                   22737908.1374
        45.0004         39.7504
 -49861579.69946 -38806437.28944  23903529.0864                   23903531.8014
        39.7504         24.5004
 25  8  8  0 31  0.0000000  0  9G26G09G03G16G04G06G07G31G01
 -42582133.23047 -33128209.83247  21657184.0394                   21657183.0634
        44.5004         43.7504
 -18080882.78147 -14050303.11346  22878513.6094                   22878513.6954
        42.5004         39.0004
 -58372439.11747 -45443499.01648  20102827.6254                   20102825.5354
        47.0004         50.5004
 -27687235.76647 -23601807.99245  21419977.4844                   21419973.0554
        45.0004         34.0004
 -50104211.04347 -39000012.59846  20784763.3364                   20784759.6764
        45.0004         37.5004
  -7003129.75046  -5378038.48845  24602774.6334                   24602775.5234
        40.2504         34.0004
  -1322519.43046   -989682.82044  24597345.2894                   24597348.4654
        37.5004         26.0004
 -58518118.26247 -45545358.31646  22738903.4064                   22738899.7734
        44.7504         39.5004
 -49857665.53946 -38803387.57044  23904274.3524                   23904277.3714
        40.0004         25.0004
 25  8  8  0 31 30.0000000  0  9G26G09G03G16G04G06G07G31G01
 -42641885.87947 -33174770.33647  21645813.3364                   21645812.1684
        44.7504         43.7504
 -18245703.24247 -14178734.52346  22847149.6334                   22847149.1484
        43.5004         39.2504
 -58432878.81247 -45490594.89148  20091326.1094                   20091324.3714
        47.0004         50.5004
 -27840018.39147 -23720859.30945  21390903.4774                   21390899.1214
        45.0004         34.0004
 -50225826.36347 -39094777.76246  20761620.3134                   20761616.6054
        44.7504         37.7504
  -7114432.17646  -5464767.62545  24581594.3524                   24581595.3674
        40.0004         34.5004
  -1491198.41846  -1121120.62944  24565246.5864                   24565249.3164
        38.2504         27.0004
 -58512808.29747 -45541220.72346  22739914.0004                   22739910.2074
        45.7504         40.0004
 -49853743.28946 -38800331.59444  23905020.7034                   23905023.8594
        40.5004         25.7504
 25  8  8  0 32  0.0000000  0  9G26G09G03G16G04G06G07G31G01
 -42701062.23447 -33220881.78947  21634552.3984                   21634551.4344
        45.7504         43.7504
 -18410503.01247 -14307149.82046  22815789.0864                   22815788.9264
        43.5004         40.0004
 -58492772.44947 -45537265.26648  20079929.1024                   20079926.8244
        47.0004         50.5004
 -27992311.50047 -23839529.19145  21361923.2274                   21361918.7424
        44.5004         34.5004
 -50347289.11347 -39189424.04746  20738506.6564                   20738503.5944
        45.0004         37.5004
  -7225231.97746  -5551105.08645  24560509.7894                   24560511.0314
        39.5004         34.0004
  -1659729.16446  -1252442.93444  24533176.0554                   24533179.0164
        38.5004         27.5004
 -58507400.82847 -45537007.14846  22740943.5314                   22740939.0704
        45.5004         39.5004
 -49849815.57846 -38797271.35944  23905768.6174                   23905771.9104
        40.5004         25.5004
 25  8  8  0 32 30.0000000  0  9G26G09G03G16G04G06G07G31G01
 -42759665.90647 -33266546.98447  21623400.2664                   21623399.7304
        44.7504         43.7504
 -18575284.08647 -14435550.55546  22784432.2504                   22784431.7664
        43.7504         39.5004
 -58552122.99647 -45583512.46148  20068634.9064                   20068633.0554
        47.5004         50.5004
 -28144114.77047 -23957817.38745  21333035.7814                   21333031.6604
        44.5004         34.0004
 -50468601.18447 -39283952.91446  20715422.1254                   20715418.4964
        45.5004         38.0004
  -7335531.53946  -5637052.76445  24539520.3914                   24539521.4694
        40.2504         34.2504
  -1828113.53546  -1383651.17644  24501133.3914                   24501136.2464
        39.0004         29.2504
 -58501900.47347 -45532721.18046  22741990.1884                   22741986.3524
        45.2504         39.2504
 -49845887.98846 -38794211.22743  23906516.2194                   23906519.0864
        39.7504         22.5004
 25  8  8  0 33  0.0000000  0  9G26G09G03G16G04G06G07G31G01
 -42817697.18047 -33311766.16447  21612357.5314                   21612356.6374
        44.5004         43.7504
 -18740045.05147 -14563935.62546  22753079.3134                   22753078.5864
        43.2504         38.7504
 -58610930.04347 -45629336.14148  20057444.6024                   20057442.5394
        47.0004         50.5004
 -28295424.50047 -24075721.00445  21304241.9844                   21304238.3324
        45.0004         34.7504
 -50589760.98447 -39378363.13346  20692366.0164                   20692363.0744
        45.5004         38.2504
  -7445329.68446  -5722609.73045  24518626.8674                   24518627.5314
        40.5004         34.2504
  -1996349.94946  -1514744.14145  24469118.2344                   24469121.5784
        39.7504         31.0004
 -58496308.62147 -45528363.92646  22743054.4454                   22743050.2384
        45.0004         39.0004
 -49841962.62546 -38791152.78943  23907262.7584                   23907266.1604
        39.0004         21.5004
 25  8  8  0 33 30.0000000  0  9G26G09G03G16G04G06G07G31G01
 -42875157.66447 -33356540.56647  21601423.4144                   21601422.4144
        44.5004         43.5004
 -18904785.85247 -14692304.98046  22721730.1254                   22721729.2504
        43.2504         38.7504
 -58669194.58647 -45674737.09448  20046357.2424                   20046355.0234
        47.0004         50.5004
 -28446238.85947 -24193238.61345  21275543.5554                   21275539.3054
        45.2504         34.7504
 -50710768.34047 -39472654.57446  20669338.8134                   20669335.6094
        45.0004         37.5004
  -7554626.90246  -5807776.36345  24497827.8754                   24497828.9454
        41.5004         34.5004
  -2164438.69146  -1645722.03145  24437132.3674                   24437134.6994
        39.7504         30.5004
 -58490628.02347 -45523937.52346  22744135.1334                   22744131.1214
        44.5004         39.2504
 -49838043.02046 -38788098.86743  23908009.0394                   23908011.7344
        39.0004         21.7504
 25  8  8  0 34  0.0000000  0  9G26G09G03G16G04G06G07G31G01
 -42932047.82847 -33400870.56647  21590597.5864                   21590596.5234
        45.7504         43.5004
 -19069505.20347 -14820657.62146  22690385.0634                   22690384.3284
        43.2504         39.0004
 -58726916.46547 -45719715.18448  20035373.0634                   20035371.0124
        47.0004         50.5004
 -28596554.26647 -24310367.43445  21246939.3284                   21246935.2894
        46.0004         35.2504
 -50831621.88347 -39566826.14846  20646341.1884                   20646338.1524
        45.7504         38.2504
  -7663422.28546  -5892551.95745  24477124.6024                   24477125.8404
        40.5004         34.7504
  -2332378.09046  -1776583.56645  24405174.8134                   24405176.9414
        40.5004         32.0004
 -58484860.03547 -45519443.02046  22745232.7894                   22745229.0434
        44.5004         39.5004
 -49834131.44146 -38785051.19543  23908753.9614                   23908756.6804
        39.5004         21.7504
 25  8  8  0 34 30.0000000  0  9G26G09G03G16G04G06G07G31G01
 -42988369.38347 -33444757.49647  21579879.9614                   21579878.8834
        45.0004         43.5004
 -19234203.04347 -14948993.51246  22659043.8754                   22659043.3204
        43.7504         39.7504
 -58784096.68747 -45764271.21148  20024491.6884                   20024489.8204
        47.2504         50.5004
 -28746368.59847 -24427105.80145  21218430.3594                   21218426.7194
        45.5004         35.0004
 -50952321.45347 -39660877.75846  20623372.8754                   20623369.3054
        45.5004         37.5004
  -7771716.24646  -5976936.83245  24456516.6884                   24456518.0554
        41.2504         34.0004
  -2500168.57846  -1907329.05945  24373245.0864                   24373246.9104
        41.0004         32.5004
 -58479007.44147 -45514882.59046  22746346.0234                   22746342.6294
        43.7504         38.0004
 -49830231.41846 -38782012.53143  23909495.4694                   23909499.2774
        38.5004         21.2504
 25  8  8  0 35  0.0000000  0  9G26G09G03G16G04G06G07G31G01
 -43044123.20747 -33488202.03147  21569270.4304                   21569269.1294
        45.5004         43.5004
 -19398878.53147 -15077311.98046  22627707.2194                   22627706.9414
        44.7504         40.2504
 -58840735.54747 -45808405.38748  20013713.8984                   20013711.6644
        47.5004         50.2504
 -28895678.65247 -24543451.22745  21190017.5474                   21190013.5314
        45.2504         35.5004
 -51072866.05147 -39754808.59846  20600434.1954                   20600430.5594
        45.2504         37.2504
  -7879508.32447  -6060930.63345  24436004.5784                   24436006.0394
        42.0004         33.5004
  -2667809.13347  -2037957.72745  24341343.6094                   24341345.7194
        42.0004         32.5004
 -58473072.08647 -45510257.68046  22747476.0084                   22747471.9304
        43.0004         39.2504
 -49826345.62146 -38778984.94543  23910235.3134                   23910239.1804
        39.2504         21.5004
 25  8  8  0 35 30.0000000  0  9G26G09G03G16G04G06G07G31G01
 -43099312.05547 -33531206.32447  21558768.4224                   21558767.3874
        44.5004         43.5004
 -19563532.51247 -15205613.68746  22596374.6644                   22596373.8284
        44.2504         40.0004
 -58896835.12547 -45852119.34848  20003038.5704                   20003036.5984
        47.0004         50.5004
 -29044483.54747 -24659403.02745  21161700.7734                   21161696.6134
        45.0004         35.2504
 -51193256.40647 -39848619.25046  20577524.3834                   20577521.3794
        46.0004         38.0004
  -7986800.05546  -6144534.55145  24415587.9384                   24415589.1724
        41.2504         34.0004
  -2835300.71947  -2168470.32045  24309470.9224                   24309472.6684
        42.5004         32.7504
 -58467057.51647 -45505571.04746  22748620.8754                   22748616.3954
        44.0004         38.5004
 -49822478.62546 -38775972.03143  23910971.1564                   23910975.1054
        39.0004         22.2504
 25  8  8  0 36  0.0000000  0  9G26G09G03G16G04G06G07G31G01
 -43153933.71947 -33573768.65647  21548374.0864                   21548372.9104
        46.5004         43.2504
 -19728160.98047 -15333895.52046  22565046.4224                   22565045.8914
        44.5004         40.5004
 -58952392.59447 -45895410.89848  19992466.1724                   19992464.2034
        47.0004         50.2504
 -29192777.26247 -24774956.50845  21133481.9304                   21133477.2344
        45.5004         35.2504
 -51313488.39847 -39942306.50846  20554645.3524                   20554642.0434
        46.0004         38.0004
  -8093587.90246  -6227745.83245  24395266.5944                   24395267.7274
        41.5004         35.2504
  -3002639.30547  -2298863.69145  24277627.1724                   24277629.0084
        43.2504         33.2504
 -58460962.32047 -45500821.58646  22749780.3444                   22749776.1484
        44.5004         38.5004
 -49818629.82446 -38772973.27343  23911705.1174                   23911707.8794
        39.5004         22.2504
 25  8  8  0 36 30.0000000  0  9G26G09G03G16G04G06G07G31G01
 -41632567.53947 -32388288.50847  21837880.6644                   21837878.9574
        46.0004         43.2504
 -18317337.60247 -14234552.53946  22833517.4064                   22833516.8404
        43.7504         39.7504
 -57431986.53948 -44710678.91848  20281789.6564                   20281787.6024
        48.2504         50.2504
 -27765131.93447 -23662505.53145  21405153.5554                   21405149.3094
        45.0004         35.5004
 -49858137.19547 -38808266.58646  20831589.4454                   20831586.0274
        45.5004         38.0004
  -6624448.13746  -5082961.57845  24674835.0004                   24674835.7234
        40.7504         34.7504
  -1594398.69547  -1201533.02345  24545605.9064                   24545607.8794
        43.0004         34.7504
 -56879368.57047 -44268410.91046  23050748.1954                   23050743.8674
        44.5004         38.5004
 -48239382.25046 -37542391.06643  24212225.9224                   24212228.9384
        39.5004         22.5004
 25  8  8  0 37  0.0000000  0  9G26G09G03G16G04G06G07G31G01
 -41686060.73447 -32429971.51647  21827700.8674                   21827699.7034
        46.0004         43.2504
 -18481915.16047 -14362794.69946  22802199.2664                   22802198.5084
        44.2504         40.2504
 -57486463.62948 -44753128.60248  20271422.8984                   20271421.2814
        48.7504         50.2504
 -27912397.06647 -23777257.52045  21377129.5554                   21377125.2854
        45.7504         35.0004
 -49978052.34447 -38901706.94146  20808770.1414                   20808766.7664
        46.5004         38.0004
  -6730230.14546  -5165389.09445  24654705.4924                   24654705.9884
        41.5004         34.7504
  -1761431.91447  -1331688.45745  24513820.5234                   24513822.5944
        43.0004         34.5004
 -56873120.53547 -44263542.34446  23051936.8364                   23051932.6454
        44.5004         38.0004
 -48235580.83646 -37539429.25844  24212949.4064                   24212952.9024
        39.2504         24.5004
 25  8  8  0 37 30.0000000  0  9G26G09G03G16G04G06G07G31G01
 -41738990.44947 -32471215.43747  21817628.9694                   21817627.6644
        45.7504         43.0004
 -18646465.07847 -14491015.32846  22770886.5864                   22770885.5634
        44.0004         40.2504
 -57540400.35248 -44795157.23448  20261159.4224                   20261157.4614
        48.0004         50.2504
 -28059142.55147 -23891604.58645  21349205.0234                   21349200.6884
        45.5004         35.2504
 -50097806.72747 -38995022.03146  20785982.2034                   20785978.2894
        45.5004         38.0004
  -6835508.10546  -5247423.85945  24634671.3524                   24634672.3284
        40.7504         35.0004
  -1928310.60547  -1461723.47745  24482064.2504                   24482066.1414
        42.5004         33.2504
 -56866798.24747 -44258615.93146  23053140.2584                   23053135.8914
        43.7504         38.7504
 -48231806.40646 -37536488.46144  24213668.0864                   24213671.9654
        39.5004         26.5004
 25  8  8  0 38  0.0000000  0  9G26G09G03G16G04G06G07G31G01
 -41791360.87147 -32512023.55147  21807663.3054                   21807661.7114
        44.2504         43.0004
 -18810989.58247 -14619216.16446  22739578.3834                   22739577.3524
        44.0004         40.2504
 -57593800.22747 -44836767.53548  20250997.5164                   20250995.7424
        47.0004         50.2504
 -28205369.52747 -24005547.60946  21321378.9064                   21321374.7034
        45.2504         36.0004
 -50217402.48047 -39088213.50846  20763223.5164                   20763220.3284
        46.5004         38.2504
  -6940284.80146  -5329068.02745  24614732.9454                   24614734.3754
        41.2504         34.2504
  -2095036.94547  -1591639.78945  24450337.4924                   24450338.6804
        42.5004         32.7504
 -56860406.07047 -44253635.06646  23054356.1884                   23054352.4534
        44.5004         38.0004
 -48228064.60546 -37533573.08644  24214380.4534                   24214383.8164
        39.5004         25.5004
 25  8  8  0 38 30.0000000  0  9G26G09G03G16G04G06G07G31G01
 -41843167.21147 -32552392.12547  21797804.4304                   21797803.6134
        45.7504         42.7504
 -18975481.87147 -14747391.89146  22708276.0084                   22708275.4804
        44.5004         40.5004
 -57646657.74248 -44877955.22748  20240939.4454                   20240937.0744
        48.0004         50.2504
 -28351068.93047 -24119079.55545  21293652.9304                   21293648.9734
        45.7504         35.0004
 -50336832.67647 -39181275.96946  20740496.3754                   20740492.8954
        46.2504         38.5004
  -7044554.17246  -5410316.88345  24594891.1174                   24594892.0594
        41.2504         34.7504
  -2261604.37147  -1721432.28145  24418640.3834                   24418641.4344
        42.2504         32.2504
 -56853940.16047 -44248596.77046  23055587.0474                   23055583.0634
        43.2504         38.0004
 -48224352.36346 -37530680.75444  24215087.1484                   24215090.3834
        40.0004         26.5004
 25  8  8  0 39  0.0000000  0  9G26G09G03G16G04G06G07G31G01
 -41894414.93747 -32592325.41447  21788052.7424                   21788051.1214
        44.0004         42.7504
 -19139945.34847 -14875545.15646  22676980.0234                   22676979.1134
        43.5004         40.2504
 -57698977.77347 -44918724.09848  20230983.2894                   20230981.3164
        47.5004         50.5004
 -28496241.98047 -24232201.35245  21266027.6254                   21266023.0824
        45.5004         35.2504
 -50456100.64147 -39274212.03146  20717800.6484                   20717796.8714
        46.2504         38.0004
  -7148320.36346  -5491173.64845  24575145.1954                   24575146.5554
        41.0004         34.2504
  -2428016.32047  -1851103.62945  24386973.3054                   24386973.9694
        42.0004         31.2504
 -56847406.86347 -44243505.94546  23056830.1024                   23056826.2544
        42.2504         38.0004
 -48220676.58246 -37527816.83644  24215786.9774                   24215790.4694
        39.2504         25.5004
 25  8  8  0 39 30.0000000  0  9G26G09G03G16G04G06G07G31G01
 -41945104.59447 -32631823.84047  21778406.5784                   21778405.2774
        45.7504         42.5004
 -19304378.49247 -15003674.78546  22645689.5944                   22645688.6254
        43.5004         40.5004
 -57750760.20748 -44959074.06648  20221129.3134                   20221127.1294
        48.0004         50.2504
 -28640885.47347 -24344910.50046  21238502.7114                   21238498.2704
        46.5004         36.0004
 -50575204.72347 -39367020.38346  20695135.7034                   20695132.3874
        46.7504         38.0004
  -7251582.64146  -5571637.76245  24555495.3674                   24555496.2504
        40.5004         33.5004
  -2594271.89546  -1980653.12945  24355335.4694                   24355336.2034
        41.0004         30.5004
 -56840807.07447 -44238363.31646  23058086.0234                   23058081.9924
        42.5004         37.2504
 -48217039.32446 -37524982.93744  24216479.0554                   24216483.3754
        37.7504         24.2504
 25  8  8  0 40  0.0000000  0  9G26G09G03G16G04G06G07G31G01
 -41995238.26247 -32670889.03547  21768866.2504                   21768865.0314
        43.7504         42.5004
 -19468781.29347 -15131780.77746  22614404.1254                   22614403.0594
        44.0004         40.5004
 -57802006.45748 -44999006.23048  20211377.6024                   20211375.6604
        48.0004         50.2504
 -28784997.48047 -24457205.51245  21211079.4304                   21211074.6174
        46.5004         35.5004
 -50694144.84047 -39459700.96946  20672502.1644                   20672498.7734
        47.0004         38.2504
  -7354341.74246  -5651709.78545  24535940.9844                   24535941.3984
        40.7504         33.5004
  -2760371.12946  -2110080.82044  24323727.1564                   24323728.2234
        41.0004         29.2504
 -56834143.64147 -44233171.09846  23059354.1024                   23059350.1214
        42.7504         37.7504
 -48213444.16846 -37522181.85943  24217163.3914                   24217167.9024
        36.5004         23.7504
 25  8  8  0 40 30.0000000  0  9G26G09G03G16G04G06G07G31G01
 -42044812.10947 -32709518.01647  21759432.7584                   21759431.4264
        44.5004         42.7504
 -19633147.73047 -15259858.44146  22583126.4304                   22583125.6174
        43.7504         40.7504
 -57852712.02747 -45038517.08248  20201728.5084                   20201726.3164
        47.0004         50.2504
 -28928570.68447 -24569080.66445  21183757.9844                   21183753.6174
        45.5004         35.2504
 -50812914.89147 -39552249.03546  20649900.5864                   20649897.6954
        46.0004         38.0004
  -7456592.56646  -5731385.74645  24516482.7664                   24516483.9574
        40.5004         34.0004
  -2926308.27746  -2239382.20344  24292150.3364                   24292151.0984
        40.2504         27.2504
 -56827413.31247 -44227926.75046  23060634.7034                   23060631.2384
        43.0004         37.7504
 -48209888.71146 -37519411.73443  24217839.7114                   24217844.7344
        36.0004         22.0004
 25  8  8  0 41  0.0000000  0  9G26G09G03G16G04G06G07G31G01
 -42093829.58647 -32747713.45747  21750105.0234                   21750103.9184
        46.2504         42.5004
 -19797479.12147 -15387908.79346  22551855.4384                   22551853.9454
        44.0004         41.2504
 -57902879.79348 -45077608.86348  20192181.8284                   20192180.0044
        49.0004         50.0004
 -29071604.30947 -24680535.38345  21156539.1954                   21156535.1724
        45.7504         35.5004
 -50931516.12147 -39644665.55946  20627331.5474                   20627328.4064
        47.0004         38.0004
  -7558337.23846  -5810667.30945  24497121.7424                   24497122.5554
        40.5004         34.0004
  -3092084.62546  -2368558.30144  24260603.8834                   24260604.3554
        39.0004         27.5004
 -56820619.78947 -44222633.16046  23061927.8054                   23061923.9774
        43.0004         38.0004
 -48206377.91845 -37516676.43043  24218508.1094                   24218513.4104
        35.0004         21.0004
 25  8  8  0 41 30.0000000  0  9G26G09G03G16G04G06G07G31G01
 -42142292.52047 -32785476.78147  21740882.8984                   21740881.7424
        45.7504         43.0004
 -19961775.10547 -15515931.54746  22520590.4694                   22520589.8364
        43.7504         41.0004
 -57952510.87148 -45116282.44948  20182737.4844                   20182735.4104
        48.7504         50.2504
 -29214096.35247 -24791568.08646  21129423.9534                   21129419.6094
        45.7504         36.2504
 -51049948.06247 -39736950.17246  20604795.2114                   20604791.5554
        46.0004         37.5004
  -7659576.34446  -5889554.93045  24477856.3054                   24477857.2154
        40.7504         34.2504
  -3257700.22346  -2497609.13344  24229087.8204                   24229088.5554
        38.5004         27.0004
 -56813765.69547 -44217292.37946  23063232.1094                   23063228.2344
        43.2504         38.0004
 -48202914.97345 -37513978.41843  24219167.9064                   24219172.2194
        35.7504         20.5004
 25  8  8  0 42  0.0000000  0  9G26G09G03G16G04G06G07G31G01
 -42190201.01247 -32822808.07847  21731766.0394                   21731765.2464
        44.5004         43.0004
 -20126033.50847 -15643925.00846  22489332.8984                   22489332.3244
        43.5004         40.7504
 -58001604.66447 -45154537.37148  20173395.3444                   20173393.2464
        47.7504         50.2504
 -29356042.69947 -24902175.57445  21102412.5864                   21102408.1134
        46.0004         35.5004
 -51168208.45347 -39829101.09446  20582290.4614                   20582287.5704
        47.0004         38.0004
  -7760308.61346  -5968047.61745  24458687.6024                   24458688.9534
        41.5004         34.0004
  -3423153.30546  -2626533.34844  24197602.8444                   24197604.3634
        38.5004         25.5004
 -56806851.37147 -44211904.66846  23064547.3914                   23064543.8914
        43.2504         37.5004
 -48199501.16845 -37511318.69943  24219816.9774                   24219822.1484
        35.0004         20.0004
 25  8  8  0 42 30.0000000  0  9G26G09G03G16G04G06G07G31G01
 -42237557.50847 -32859709.24247  21722754.1954                   21722753.4304
        45.0004         42.7504
 -20290254.49247 -15771889.30946  22458082.5554                   22458082.1174
        43.0004         41.5004
 -58050163.03548 -45192375.08648  20164154.9774                   20164153.0084
        48.7504         50.2504
 -29497442.46947 -25012357.15645  21075504.7974                   21075500.7584
        45.7504         35.0004
 -51286297.45747 -39921118.48446  20559819.2424                   20559815.8204
        46.2504         38.0004
  -7860535.23846  -6046146.30545  24439614.9924                   24439616.6954
        41.0004         35.0004
  -3588444.33646  -2755331.28544  24166148.7274                   24166149.2734
        38.0004         25.7504
 -56799879.76647 -44206472.32446  23065874.9454                   23065870.9264
        43.5004         38.0004
 -48196140.45746 -37508700.33643  24220457.6884                   24220461.9734
        36.0004         19.5004
 25  8  8  0 43  0.0000000  0  9G26G09G03G16G04G06G07G31G01
 -42284364.30947 -32896182.07847  21713847.6174                   21713846.6484
        46.0004         42.7504
 -20454438.14147 -15899824.52346  22426839.7274                   22426838.7304
        43.0004         41.7504
 -58098187.63748 -45229796.86748  20155016.2734                   20155014.1414
        49.0004         50.0004
 -29638293.67647 -25122111.28945  21048701.9454                   21048697.4184
        46.7504         35.5004
 -51404214.98847 -40013002.25446  20537380.2664                   20537376.8674
        47.2504         39.0004
  -7960257.19947  -6123851.74645  24420638.6174                   24420640.1334
        42.0004         34.0004
  -3753573.59446  -2884003.14544  24134725.4774                   24134726.7624
        37.7504         28.2504
 -56792853.59847 -44200997.46546  23067211.8524                   23067208.3364
        44.0004         37.5004
 -48192836.48046 -37506126.12543  24221087.0234                   24221091.1914
        38.5004         20.7504
 25  8  8  0 43 30.0000000  0  9G26G09G03G16G04G06G07G31G01
 -42330615.51647 -32932221.97747  21705046.1484                   21705044.9654
        46.0004         42.5004
 -20618576.14147 -16027724.16846  22395605.3834                   22395604.0554
        43.2504         41.5004
 -58145671.81247 -45266797.54348  20145980.4224                   20145978.2584
        47.7504         50.2504
 -29778586.47347 -25231430.29345  21022005.3134                   21022000.3284
        46.5004         35.2504
 -51521952.66047 -40104745.87546  20514975.1564                   20514972.0824
        45.0004         38.5004
  -8059467.21546  -6201158.27345  24401759.9224                   24401760.5124
        41.7504         34.0004
  -3918532.98046  -3012542.62144  24103334.3134                   24103335.9414
        38.7504         28.2504
 -56785767.23047 -44195475.69946  23068560.4144                   23068556.9024
        43.2504         38.0004
 -48189584.48846 -37503592.46943  24221705.8204                   24221710.2854
        38.7504         20.7504
 25  8  8  0 44  0.0000000  0  9G26G09G03G16G04G06G07G31G01
 -42376319.95347 -32967835.83247  21696349.1414                   21696348.0274
        45.7504         42.5004
 -20782675.03547 -16155593.34846  22364378.3284                   22364377.2074
        42.0004         41.2504
 -58192623.84848 -45303383.56648  20137045.6954                   20137043.7934
        48.0004         50.0004
 -29918325.86347 -25340318.07845  20995413.5944                   20995409.2424
        46.0004         35.7504
 -51639516.99247 -40196354.42646  20492603.9064                   20492600.4454
        46.2504         38.7504
  -8158172.93446  -6278071.82845  24382976.5554                   24382977.8014
        41.2504         34.0004
  -4083329.46146  -3140955.19144  24071974.8364                   24071975.2074
        38.7504         29.2504
 -56778630.00847 -44189914.29746  23069918.6254                   23069914.8014
        43.7504         38.0004
 -48186394.57846 -37501107.16843  24222312.3594                   24222317.6684
        40.0004         20.7504
 25  8  8  0 44 30.0000000  0  9G26G09G03G16G04G06G07G31G01
 -42421478.10947 -33003024.01647  21687756.0474                   21687754.6954
        46.5004         42.5004
 -20946732.89147 -16283430.53147  22333158.4844                   22333158.0944
        42.2504         42.0004
 -58239043.56648 -45339554.79748  20128212.2344                   20128210.4414
        48.2504         50.2504
 -30057508.47747 -25448772.00845  20968928.1484                   20968923.2894
        46.5004         35.2504
 -51756905.93747 -40287826.30546  20470265.1174                   20470261.8674
        45.7504         38.5004
  -8256373.48046  -6354591.74245  24364289.5474                   24364291.0784
        40.5004         34.2504
  -4247961.61746  -3269239.71445  24040645.8674                   24040646.8054
        39.0004         30.5004
 -56771442.54747 -44184313.75046  23071286.5004                   23071282.6994
        44.5004         38.0004
 -48183268.50846 -37498671.63743  24222908.2974                   24222912.1254
        40.7504         19.5004
 25  8  8  0 45  0.0000000  0  9G26G09G03G16G04G06G07G31G01
 -42466096.27747 -33037791.43047  21679265.0704                   21679264.1764
        45.2504         42.0004
 -21110753.67247 -16411238.83246  22301946.5634                   22301945.8244
        42.7504         41.7504
 -58284936.59048 -45375315.61348  20119479.1644                   20119477.0704
        48.5004         50.0004
 -30196136.75047 -25556793.98445  20942547.7424                   20942543.3204
        46.5004         35.5004
 -51874123.38747 -40379164.56246  20447959.8834                   20447955.9884
        45.5004         39.0004
  -8354073.89546  -6430721.95745  24345698.4534                   24345699.0474
        41.0004         33.7504
  -4412433.46546  -3397399.31245  24009348.2664                   24009348.7624
        40.0004         32.2504
 -56764211.38747 -44178679.14546  23072662.3054                   23072658.8754
        44.5004         38.7504
 -48180213.77346 -37496291.66443  24223490.1334                   24223494.6334
        41.0004         18.2504
 25  8  8  0 45 30.0000000  0  9G26G09G03G16G04G06G07G31G01
 -40934748.21947 -31844533.21147  21970671.0164                   21970670.1644
        43.5004         42.5004
 -19699304.59047 -15311408.28146  22570536.4844                   22570535.5164
        43.0004         41.7504
 -56754875.95747 -44183060.59848  20410639.9694                   20410637.8204
        47.0004         50.0004
 -28758776.87547 -24436773.25045  21216068.7274                   21216063.4614
        47.0004         35.5004
 -50415738.06247 -39242760.39146  20725481.0394                   20725477.6884
        46.2504         39.0004
  -6875844.88746  -5278855.21945  24626995.9144                   24626996.7154
        40.0004         33.2504
  -3001313.09446  -2297824.70745  24277875.7114                   24277875.6994
        40.5004         32.5004
 -55181512.13747 -42945407.07446  23373840.1334                   23373836.6484
        44.5004         38.0004
 -46601806.76247 -36266364.47342  24523850.9224                   24523855.2734
        42.0004         17.7504
 25  8  8  0 46  0.0000000  0  9G26G09G03G16G04G06G07G31G01
 -40978280.14547 -31878454.20347  21962387.3914                   21962386.0044
        43.5004         42.2504
 -19863237.43447 -15439148.06247  22539340.9534                   22539340.2774
        44.0004         42.5004
 -56799707.35247 -44217994.17248  20402109.1254                   20402106.8594
        47.0004         50.0004
 -28896278.08647 -24543916.99645  21189902.8364                   21189898.1134
        47.0004         35.2504
 -50532598.55147 -39333820.49246  20703243.2584                   20703240.0234
        46.5004         38.7504
  -6972534.88346  -5354198.09845  24608596.0004                   24608597.5554
        40.7504         32.2504
  -3165452.12546  -2425724.96945  24246640.1024                   24246641.0004
        40.2504         33.0004
 -55174188.03547 -42939700.05146  23375233.6174                   23375230.1094
        43.7504         37.7504
 -46598891.71947 -36264093.31643  24524405.2664                   24524410.4694
        42.5004         19.7504
 25  8  8  0 46 30.0000000  0  9G26G09G03G16G04G06G07G31G01
 -41021273.98447 -31911955.90247  21954206.0474                   21954204.5234
        43.5004         42.7504
 -20027127.64547 -15566854.62947  22508153.9384                   22508152.9574
        43.2504         42.0004
 -56844012.02047 -44252517.31248  20393678.2114                   20393676.2114
        47.0004         50.0004
 -29033215.03947 -24650621.07045  21163844.5554                   21163839.8364
        46.5004         35.5004
 -50649281.83647 -39424742.51646  20681039.0394                   20681035.5474
        47.0004         39.0004
  -7068722.76246  -5429149.71145  24590292.3444                   24590293.1024
        40.7504         32.2504
  -3329426.95746  -2553497.27045  24215437.1954                   24215436.8634
        40.0004         33.7504
 -55166822.63347 -42933960.84846  23376635.3364                   23376631.8954
        43.7504         37.0004
 -46596053.27346 -36261881.93043  24524946.1484                   24524950.7814
        41.7504         20.2504
 25  8  8  0 47  0.0000000  0  9G26G09G03G16G04G06G07G31G01
 -41063730.75447 -31945039.11747  21946126.3914                   21946125.6414
        45.5004         42.2504
 -20190973.66847 -15694526.76647  22476974.9384                   22476973.8364
        43.2504         42.5004
 -56887790.34848 -44286630.30948  20385347.2814                   20385345.3484
        48.5004         50.2504
 -29169584.87147 -24756883.23046  21137894.1564                   21137889.3364
        46.0004         36.2504
 -50765786.32047 -39515525.20746  20658869.0784                   20658865.3014
        46.2504         38.7504
  -7164408.30546  -5503709.89145  24572084.2114                   24572084.9184
        39.7504         32.5004
  -3493236.43046  -2681140.73445  24184265.0234                   24184264.9384
        40.0004         34.0004
 -55159417.43747 -42928190.63746  23378044.9694                   23378041.4184
        43.7504         37.5004
 -46593293.55146 -36259731.87943  24525471.5164                   24525476.2114
        41.0004         21.0004
 25  8  8  0 47 30.0000000  0  9G26G09G03G16G04G06G07G31G01
 -41105650.39847 -31977703.79747  21938149.2894                   21938148.1254
        45.2504         42.0004
 -20354772.94547 -15822162.47347  22445804.9774                   22445803.1954
        42.2504         42.2504
 -56931041.62548 -44320332.62548  20377117.1024                   20377114.9884
        49.0004         50.0004
 -29305383.60947 -24862700.38745  21112052.0394                   21112047.8984
        45.7504         35.7504
 -50882109.39847 -39606166.55146  20636733.4614                   20636730.0664
        47.5004         38.7504
  -7259590.14546  -5577877.58245  24553971.1254                   24553972.2774
        38.5004         33.0004
  -3656878.37146  -2808653.66445  24153124.7814                   24153124.9264
        39.7504         33.5004
 -55151972.25847 -42922389.25446  23379461.0394                   23379457.9064
        43.0004         37.0004
 -46590613.46546 -36257643.88343  24525982.3754                   24525987.0204
        40.7504         21.2504
 25  8  8  0 48  0.0000000  0  9G26G09G03G16G04G06G07G31G01
 -41147034.27747 -32009950.98847  21930274.4454                   21930272.8674
        46.2504         42.0004
 -20518524.21547 -15949760.78147  22414643.9064                   22414642.7234
        43.0004         42.7504
 -56973766.53148 -44353624.78548  20368986.5474                   20368984.8164
        48.5004         50.0004
 -29440608.60547 -24968070.46545  21086319.8524                   21086314.7734
        46.2504         35.5004
 -50998249.66047 -39696665.43046  20614632.6724                   20614629.1374
        46.0004         39.0004
  -7354268.28546  -5651652.78545  24535954.9774                   24535956.2624
        38.7504         34.0004
  -3820351.68046  -2936035.17645  24122016.1804                   24122016.6954
        41.2504         33.2504
 -55144488.28147 -42916557.64546  23380886.2114                   23380882.2894
        43.7504         36.7504
 -46588015.29746 -36255619.73043  24526476.1724                   24526482.0944
        40.2504         21.0004
 25  8  8  0 48 30.0000000  0  9G26G09G03G16G04G06G07G31G01
 -41187885.34047 -32041783.00047  21922500.8524                   21922499.0704
        44.5004         42.0004
 -20682227.85547 -16077321.97747  22383492.0944                   22383490.7234
        44.0004         42.2504
 -57015967.44148 -44386508.62948  20360956.3284                   20360954.2584
        48.5004         50.0004
 -29575259.03947 -25072992.84045  21060696.6484                   21060692.0474
        46.5004         35.2504
 -51114207.52747 -39787022.19546  20592566.8134                   20592563.2974
        47.0004         39.0004
  -7448444.56246  -5725036.91445  24518033.3204                   24518035.1524
        40.0004         33.5004
  -3983657.48846  -3063286.17645  24090940.2734                   24090940.3954
        40.2504         33.5004
 -55136969.18047 -42910698.65646  23382316.7274                   23382312.7544
        43.7504         36.7504
 -46585503.14846 -36253662.59843  24526955.5314                   24526960.5204
        40.0004         22.2504
 25  8  8  0 49  0.0000000  0  9G26G09G03G16G04G06G07G31G01
 -41228203.93447 -32073200.10247  21914828.6024                   21914827.0084
        43.7504         42.0004
 -20845881.56647 -16204844.26647  22352349.8284                   22352348.9534
        43.2504         42.7504
 -57057644.05147 -44418983.93048  20353025.2584                   20353023.3284
        47.5004         50.0004
 -29709331.52347 -25177464.85945  21035183.5944                   21035178.5554
        45.7504         35.5004
 -51229980.61747 -39877234.96146  20570535.6564                   20570532.3554
        47.0004         38.5004
  -7542117.95746  -5798029.19145  24500207.9614                   24500209.7974
        38.2504         33.2504
  -4146794.03546  -3190405.29345  24059896.0704                   24059896.2154
        41.5004         33.0004
 -55129414.96147 -42904812.29746  23383754.2894                   23383750.7424
        44.2504         37.0004
 -46583078.30946 -36251773.53143  24527416.6334                   24527421.8834
        40.0004         21.5004
 25  8  8  0 49 30.0000000  0  9G26G09G03G16G04G06G07G31G01
 -41267991.67647 -32104203.54347  21907257.4694                   21907255.6414
        44.7504         42.5004
 -21009484.28147 -16332326.81647  22321217.2974                   22321216.1294
        44.0004         42.2504
 -57098797.35247 -44451051.46148  20345194.1484                   20345192.1954
        47.5004         50.0004
 -29842823.63747 -25281484.64846  21009780.9924                   21009776.1134
        46.0004         36.5004
 -51345567.82047 -39967302.89846  20548540.2114                   20548536.2854
        47.5004         38.5004
  -7635288.81646  -5870629.89145  24482478.0004                   24482480.1684
        39.5004         34.2504
  -4309760.44547  -3317391.84845  24028884.4694                   24028884.0274
        42.0004         33.7504
 -55121827.32047 -42898899.90246  23385197.9694                   23385194.2704
        43.0004         36.2504
 -46580743.27046 -36249954.44543  24527861.3834                   24527867.3484
        38.5004         22.0004
 25  8  8  0 50  0.0000000  0  9G26G09G03G16G04G06G07G31G01
 -41307250.45347 -32134794.80547  21899786.1884                   21899785.1174
        43.7504         42.5004
 -21173035.19147 -16459769.00047  22290094.4384                   22290093.0664
        44.5004         43.0004
 -57139428.54347 -44482712.14848  20337462.1804                   20337460.6844
        47.0004         50.0004
 -29975733.40647 -25385050.66045  20984488.7114                   20984484.0274
        46.5004         35.5004
 -51460968.28947 -40057225.31646  20526580.4144                   20526576.7234
        46.2504         38.5004
  -7727957.84046  -5942839.55145  24464843.7974                   24464845.1254
        39.0004         32.7504
  -4472556.83246  -3444245.91445  23997905.2734                   23997905.0824
        40.7504         33.2504
 -55114207.83247 -42892962.69945  23386647.5864                   23386644.3714
        43.2504         35.5004
 -46578500.82846 -36248207.51243  24528287.7274                   24528294.4024
        37.0004         21.5004
 25  8  8  0 50 30.0000000  0  9G26G09G03G16G04G06G07G31G01
 -41345983.53147 -32164976.43747  21892415.8284                   21892414.5984
        45.5004         42.7504
 -21336534.83247 -16587171.24247  22258981.5164                   22258979.8284
        44.0004         42.2504
 -57179540.33648 -44513968.11748  20329829.6484                   20329827.2384
        48.2504         50.0004
 -30108060.41447 -25488162.57846  20959307.9064                   20959303.3054
        47.2504         36.0004
 -51576182.59047 -40147002.68046  20504655.7894                   20504652.1524
        47.5004         38.5004
  -7820127.02346  -6014659.72345  24447304.6174                   24447305.8714
        38.0004         32.0004
  -4635184.29746  -3570968.36745  23966957.7894                   23966957.3094
        41.2504         33.7504
 -55106560.02047 -42887003.41845  23388103.2504                   23388099.8364
        42.0004         35.0004
 -46576355.17646 -36246536.03143  24528697.4694                   24528703.0704
        36.7504         21.5004
 25  8  8  0 51  0.0000000  0  9G26G09G03G16G04G06G07G31G01
 -41384188.66447 -32194746.68747  21885145.7894                   21885144.3444
        46.0004         42.5004
 -21499978.22347 -16714529.65247  22227878.7814                   22227877.6914
        44.5004         42.5004
 -57219129.80548 -44544817.07448  20322295.6804                   20322293.7114
        48.0004         49.7504
 -30239798.23047 -25590815.38746  20934238.6564                   20934234.1604
        45.7504         36.5004
 -51691205.58247 -40236630.96546  20482767.9304                   20482764.0434
        47.7504         38.5004
  -7911792.72346  -6086087.58245  24429860.6254                   24429862.4734
        37.7504         33.0004
  -4797637.96547  -3697555.40245  23936043.9304                   23936043.1294
        42.5004         34.5004
 -55098881.16847 -42881019.95745  23389564.5164                   23389560.9774
        43.2504         34.2504
 -46574304.90646 -36244938.85943  24529087.0234                   24529093.3554
        36.0004         21.7504
 25  8  8  0 51 30.0000000  0  9G26G09G03G16G04G06G07G31G01
 -41421874.61347 -32224112.37147  21877973.8674                   21877972.7074
        45.2504         42.0004
 -21663371.29347 -16841848.85547  22196786.5394                   22196784.8484
        44.0004         42.5004
 -57258205.07848 -44575265.36748  20314859.8054                   20314858.2194
        48.2504         49.7504
 -30370951.76647 -25693012.91046  20909281.0394                   20909276.4574
        46.5004         36.0004
 -51806043.34047 -40326114.90646  20460914.6024                   20460911.4264
        47.5004         38.7504
  -8002962.62946  -6157129.10245  24412512.4614                   24412513.7504
        38.0004         33.0004
  -4959924.82847  -3824012.48045  23905161.6884                   23905160.9344
        42.7504         34.5004
 -55091180.18446 -42875019.23845  23391029.8284                   23391026.5204
        41.7504         34.5004
 -46572359.58645 -36243423.47743  24529457.9224                   24529464.6914
        35.0004         20.2504
 25  8  8  0 52  0.0000000  0  9G26G09G03G16G04G06G07G31G01
 -41459040.57047 -32253072.86747  21870901.5784                   21870900.4924
        45.0004         42.7504
 -21826710.49647 -16969126.09047  22165703.7974                   22165702.5164
        44.7504         43.0004
 -57296764.80948 -44605311.93448  20307522.2274                   20307520.1564
        48.5004         50.0004
 -30501516.62547 -25794751.72346  20884435.6254                   20884430.4804
        45.7504         36.0004
 -51920692.21547 -40415451.67246  20439097.5474                   20439094.0864
        47.5004         38.7504
  -8093634.68046  -6227782.69145  24395258.2274                   24395259.8244
        38.0004         32.5004
  -5122042.02047  -3950337.35245  23874311.6884                   23874310.9654
        43.2504         35.0004
 -55083455.89546 -42869000.35545  23392499.8594                   23392496.3834
        41.5004         33.5004
 -46570519.22345 -36241989.90243  24529808.2814                   24529815.0164
        35.0004         21.2504
 25  8  8  0 52 30.0000000  0  9G26G09G03G16G04G06G07G31G01
 -41495686.23047 -32281627.93447  21863928.5004                   21863927.1454
        44.2504         42.0004
 -21989992.68047 -17096358.88747  22134632.3524                   22134630.7034
        45.7504         42.5004
 -57334807.98047 -44634955.98848  20300282.8524                   20300280.7034
        46.7504         49.7504
 -30631488.43447 -25896028.41446  20859703.0164                   20859697.7234
        46.0004         36.2504
 -52035148.94547 -40504638.72346  20417317.5944                   20417313.6684
        47.5004         38.7504
  -8183807.16046  -6298046.99645  24378098.3284                   24378100.6334
        39.0004         33.5004
  -5283986.68047  -4076527.78945  23843494.2664                   23843493.8874
        43.0004         35.0004
 -55075707.99646 -42862963.09045  23393974.2894                   23393970.8204
        41.7504         33.0004
 -46568784.27045 -36240638.44143  24530139.1414                   24530145.5434
        35.5004         19.2504
 25  8  8  0 53  0.0000000  0  9G26G09G03G16G04G06G07G31G01
 -41531811.90247 -32309777.81647  21857053.2894                   21857052.6954
        44.5004         42.5004
 -22153215.27747 -17223545.26647  22103572.1174                   22103570.4694
        45.2504         42.5004
 -57372334.35947 -44664197.35548  20293141.7734                   20293139.9884
        47.5004         49.5004
 -30760863.81647 -25996840.36746  20835083.2114                   20835078.5084
        45.7504         36.2504
 -52149411.11347 -40593674.15246  20395574.2194                   20395570.1134
        47.5004         39.0004
  -8273479.34046  -6367921.44945  24361035.5864                   24361036.6604
        38.7504         34.0004
  -5445756.80947  -4202582.22345  23812709.9694                   23812709.7894
        43.0004         35.2504
 -55067936.54347 -42856907.46945  23395453.7424                   23395449.7814
        42.5004         34.0004
 -46567155.71945 -36239369.88743  24530449.7504                   24530455.5394
        34.2504         19.0004
 25  8  8  0 53 30.0000000  0  9G26G09G03G16G04G06G07G31G01
 -41567422.45347 -32337526.31247  21850277.3984                   21850276.0944
        45.5004         42.2504
 -22316380.30947 -17350686.78147  22072522.6484                   22072521.0744
        45.5004         43.2504
 -57409348.17248 -44693039.31648  20286098.3984                   20286096.5354
        49.0004         49.5004
 -30889643.90247 -26097188.44946  20810577.0784                   20810572.4574
        46.5004         36.5004
 -52263480.59047 -40682559.44946  20373867.3134                   20373863.6254
        47.2504         39.0004
  -8362654.75046  -6437408.81645  24344065.2194                   24344067.0204
        37.5004         34.0004
  -5607355.27046  -4328502.90645  23781958.8524                   23781958.3014
        41.7504         35.5004
 -55060146.21147 -42850837.14145  23396935.6254                   23396932.6524
        42.2504         34.2504
 -46565639.18045 -36238188.59043  24530737.5634                   24530743.8554
        33.5004         19.0004
 25  8  8  0 54  0.0000000  0  9G26G09G03G16G04G06G07G31G01
 -40027092.87947 -31137269.51247  22143392.1954                   22143391.2734
        45.0004         42.0004
 -20904055.48047 -16250173.85947  22341279.1334                   22341277.5124
        45.0004         42.7504
 -55870423.71148 -43493877.42248  20578946.1024                   20578943.7504
        48.2504         49.5004
 -29442396.55147 -24969463.20746  21085979.5314                   21085974.7274
        46.7504         36.7504
 -50801926.80947 -39543686.35946  20651991.5314                   20651987.8674
        47.0004         38.5004
  -6875905.32846  -5278902.80545  24626985.0164                   24626986.0204
        37.7504         33.5004
  -4193350.57046  -3226680.87945  24051034.4534                   24051034.3914
        41.7504         35.5004
 -53476912.96546 -41617148.96145  23698215.3914                   23698211.7584
        41.5004         34.7504
 -44988811.50046 -35009492.12143  24830800.2894                   24830805.3324
        36.0004         20.0004
 25  8  8  0 54 30.0000000  0  9G26G09G03G16G04G06G07G31G01
 -40061671.03947 -31164213.55147  22136812.4064                   22136811.0944
        43.7504         42.0004
 -21067094.34047 -16377217.06247  22310253.7974                   22310252.0164
        46.0004         42.2504
 -55906408.26647 -43521917.36748  20572098.1564                   20572096.4774
        46.7504         49.5004
 -29569972.31247 -25068872.85246  21061702.4924                   21061697.7464
        45.7504         37.2504
 -50915599.98447 -39632262.84046  20630360.2974                   20630356.5784
        47.5004         39.0004
  -6964081.36746  -5347611.43745  24610204.7894                   24610206.3244
        40.0004         34.2504
  -4354596.91847  -3352327.19545  24020350.3444                   24020349.8594
        42.7504         35.0004
 -53469081.50847 -41611046.60545  23699705.9144                   23699702.3484
        42.5004         35.2504
 -44987518.90246 -35008485.32043  24831045.8134                   24831051.7584
        38.0004         20.5004
 25  8  8  0 55  0.0000000  0  9G26G09G03G16G04G06G07G31G01
 -40095738.65247 -31190759.75447  22130329.3524                   22130328.3244
        43.7504         42.2504
 -21230071.32847 -16504212.06247  22279240.2974                   22279238.6134
        45.5004         42.7504
 -55941883.05148 -43549560.08648  20565347.6884                   20565345.8484
        48.0004         49.5004
 -29696945.55947 -25167813.01646  21037539.9304                   21037535.3954
        46.5004         36.5004
 -51029076.25447 -39720685.89846  20608766.2424                   20608762.6414
        47.5004         39.0004
  -7051761.60546  -5415933.72345  24593520.4144                   24593521.6294
        39.2504         34.5004
  -4515669.27747  -3477837.93745  23989699.3594                   23989698.8484
        42.2504         34.5004
 -53461234.72746 -41604932.29745  23701198.6954                   23701195.7114
        41.7504         35.2504
 -44986344.91446 -35007570.92643  24831268.9304                   24831275.6254
        37.2504         20.5004
 25  8  8  0 55 30.0000000  0  9G26G09G03G16G04G06G07G31G01
 -40129294.20347 -31216906.94947  22123943.9614                   22123942.9064
        43.7504         42.0004
 -21392981.99247 -16631155.38347  22248239.2344                   22248237.8444
        45.2504         43.0004
 -55976845.90247 -43576803.90648  20558694.3984                   20558692.7234
        47.0004         49.2504
 -29823311.35547 -25266279.83246  21013493.3134                   21013488.6334
        46.5004         36.7504
 -51142351.08647 -39808951.98446  20587210.9064                   20587207.2894
        47.0004         38.5004
  -7138943.27346  -5483867.53145  24576930.1564                   24576931.7934
        38.7504         35.0004
  -4676563.65647  -3603209.96945  23959081.7664                   23959081.1604
        42.0004         34.5004
 -53453370.89847 -41598804.73045  23702695.6254                   23702691.9304
        43.0004         35.0004
 -44985288.61346 -35006748.22343  24831471.2504                   24831476.5984
        38.2504         20.7504
 25  8  8  0 56  0.0000000  0  9G26G09G03G16G04G06G07G31G01
 -40162342.27347 -31242658.70747  22117655.3594                   22117654.1684
        45.0004         42.2504
 -21555827.82047 -16758048.16847  22217250.6644                   22217249.0984
        45.2504         43.0004
 -56011300.71948 -43603651.84448  20552138.2664                   20552136.1214
        48.5004         49.2504
 -29949070.45747 -25364273.90646  20989562.1884                   20989557.6294
        46.5004         37.0004
 -51255425.99247 -39897062.28946  20565693.7344                   20565689.8324
        47.0004         39.2504
  -7225629.65246  -5551415.39545  24560434.3754                   24560435.7344
        39.0004         35.5004
  -4837282.39146  -3728445.14545  23928497.8134                   23928497.5274
        41.2504         33.7504
 -53445493.95347 -41592666.93046  23704194.4534                   23704190.9844
        42.5004         36.0004
 -44984355.15246 -35006021.25043  24831647.7584                   24831655.4884
        37.5004         20.5004
 25  8  8  0 56 30.0000000  0  9G26G09G03G16G04G06G07G31G01
 -40194882.81247 -31268014.98847  22111463.1564                   22111461.7544
        44.2504         42.0004
 -21718605.80147 -16884888.09847  22186274.9454                   22186273.5274
        45.0004         42.5004
 -56045246.93047 -43630103.46948  20545678.3594                   20545676.7194
        47.0004         49.0004
 -30074219.05147 -25461792.26246  20965747.1724                   20965742.5274
        47.0004         36.2504
 -51368297.99647 -39985014.49246  20544214.8834                   20544211.1374
        47.2504         38.7504
  -7311819.65646  -5618576.46545  24544033.0864                   24544034.2934
        39.5004         35.2504
  -4997823.60246  -3853541.99245  23897947.4144                   23897947.1454
        40.0004         32.0004
 -53437603.26647 -41586518.42646  23705696.1094                   23705692.5824
        42.7504         36.7504
 -44983545.15246 -35005390.52043  24831802.2034                   24831809.3674
        37.5004         19.7504
 25  8  8  0 57  0.0000000  0  9G26G09G03G16G04G06G07G31G01
 -40226918.00047 -31292977.49246  22105366.9384                   22105365.7774
        43.7504         41.7504
 -21881315.00047 -17011674.43047  22155312.2194                   22155310.8914
        45.2504         42.5004
 -56078686.09847 -43656159.99248  20539314.6024                   20539313.1524
        47.7504         49.2504
 -30198755.31647 -25558833.47346  20942049.0474                   20942044.1914
        47.2504         36.5004
 -51480966.18748 -40072807.87546  20522774.5784                   20522771.1134
        48.0004         39.0004
  -7397514.10946  -5685351.40245  24527725.6484                   24527727.2424
        39.7504         35.5004
  -5158187.18446  -3978500.41845  23867431.7814                   23867430.7544
        40.5004         31.7504
 -53429700.98047 -41580360.87946  23707199.6414                   23707196.1684
        43.5004         36.2504
 -44982861.15646 -35004857.95743  24831933.3754                   24831940.2814
        38.2504         19.2504
 25  8  8  0 57 30.0000000  0  9G26G09G03G16G04G06G07G31G01
 -40258450.25847 -31317548.10247  22099366.7274                   22099365.4144
        44.5004         42.0004
 -22043954.79747 -17138406.69547  22124363.0554                   22124361.6804
        45.5004         42.7504
 -56111620.05548 -43681822.84848  20533048.0784                   20533045.9024
        48.0004         49.2504
 -30322678.09447 -25655396.63346  20918467.2114                   20918462.1134
        46.2504         36.5004
 -51593429.91447 -40160441.94546  20501373.1884                   20501369.7154
        47.0004         39.0004
  -7482714.41046  -5751741.28145  24511512.7114                   24511514.0354
        40.2504         35.0004
  -5318372.85946  -4103320.19945  23836948.8754                   23836948.2584
        41.0004         32.5004
 -53421789.13747 -41574195.88746  23708705.2194                   23708702.2464
        44.0004         37.5004
 -44982306.21146 -35004425.89143  24832038.6724                   24832046.1604
        37.5004         19.2504
 25  8  8  0 58  0.0000000  0  9G26G09G03G16G04G06G07G31G01
 -40289480.20347 -31341727.30146  22093461.2734                   22093460.9734
        43.7504         41.7504
 -22206522.59847 -17265082.85547  22093427.3444                   22093425.6604
        45.2504         43.2504
 -56144048.80548 -43707092.03548  20526877.1954                   20526875.2664
        48.0004         49.2504
 -30445984.52047 -25751479.52346  20895002.9844                   20894998.0004
        46.2504         36.7504
 -51705686.66847 -40247914.73046  20480011.6804                   20480008.1524
        47.0004         38.5004
  -7567419.93446  -5817745.62545  24495393.8984                   24495395.3404
        39.5004         35.2504
  -5478379.04346  -4228000.13345  23806500.5784                   23806500.2584
        41.5004         32.5004
 -53413867.67647 -41568023.40246  23710213.0164                   23710209.6914
        44.7504         38.0004
 -44981881.46146 -35004095.31243  24832120.0084                   24832127.8094
        37.7504         19.0004
 25  8  8  0 58 30.0000000  0  9G26G09G03G16G04G06G07G31G01
 -40320010.78147 -31365517.38346  22087651.9924                   22087650.9224
        44.5004         41.7504
 -22369018.36347 -17391702.89147  22062505.6954                   22062503.9494
        45.7504         43.5004
 -56175974.81647 -43731969.48048  20520801.8054                   20520799.6024
        47.5004         49.2504
 -30568673.58647 -25847081.34846  20871655.7274                   20871650.5124
        46.2504         37.5004
 -51817736.37947 -40335226.18046  20458689.2424                   20458685.8874
        47.0004         39.0004
  -7651632.46546  -5883365.81645  24479369.3364                   24479370.6454
        40.5004         35.7504
  -5638206.28147  -4352540.62545  23776086.6024                   23776085.4774
        42.7504         33.2504
 -53405938.74647 -41561845.09446  23711722.1334                   23711718.5634
        44.0004         37.5004
 -44981590.30146 -35003868.82843  24832175.9774                   24832183.2544
        37.7504         19.7504
 25  8  8  0 59  0.0000000  0  9G26G09G03G16G04G06G07G31G01
 -40350043.32047 -31388919.38346  22081936.7424                   22081935.7464
        44.5004         41.7504
 -22531440.12147 -17518265.25447  22031597.7194                   22031596.1214
        45.5004         42.7504
 -56207398.74248 -43756455.68748  20514821.7974                   20514820.1024
        48.0004         49.0004
 -30690742.86347 -25942200.23046  20848426.6804                   20848421.7704
        47.0004         37.0004
 -51929577.18047 -40422374.85246  20437406.7194                   20437403.0394
        47.0004         39.5004
  -7735352.12946  -5948601.95346  24463437.8284                   24463438.8834
        39.5004         36.0004
  -5797853.58647  -4476940.92245  23745707.1724                   23745705.3834
        42.5004         32.2504
 -53398003.24647 -41555661.66046  23713231.7274                   23713228.8364
        44.5004         37.0004
 -44981434.25446 -35003747.61343  24832205.7734                   24832213.6994
        38.5004         19.7504
 25  8  8  0 59 30.0000000  0  9G26G09G03G16G04G06G07G31G01
 -40379580.40647 -31411935.31646  22076316.0634                   22076315.2274
        44.0004         41.5004
 -22693787.30547 -17644769.50447  22000704.1254                   22000702.5514
        44.5004         43.2504
 -56238322.60947 -43780552.23448  20508937.2894                   20508935.8554
        47.5004         49.0004
 -30812191.32447 -26036835.35246  20825315.8594                   20825310.7664
        47.0004         37.2504
 -52041208.51247 -40509360.29346  20416164.1954                   20416160.8364
        47.2504         39.0004
  -7818580.34446  -6013455.16046  24447599.6254                   24447601.4064
        40.7504         36.2504
  -5957321.16047  -4601201.17645  23715361.2584                   23715359.4844
        42.0004         33.0004
 -53390063.27047 -41549474.74246  23714743.0704                   23714739.6294
        43.7504         36.7504
 -44981416.59446 -35003734.21543  24832209.2814                   24832217.8444
        37.7504         18.5004
 25  8  8  1  0  0.0000000  0  9G26G09G03G16G04G06G07G31G01
 -40408627.29347 -31434569.28146  22070788.7664                   22070788.0434
        43.0004         41.5004
 -22856061.95747 -17771217.23447  21969824.3834                   21969822.4804
        46.2504         43.7504
 -56268751.15247 -43804262.82048  20503147.1564                   20503144.9494
        47.0004         49.0004
 -30933020.26247 -26130987.72746  20802322.8524                   20802317.7974
        47.5004         36.7504
 -52152632.44547 -40596184.12146  20394960.7344                   20394957.0864
        47.2504         40.0004
  -7901321.25447  -6077928.62945  24431854.7584                   24431856.1454
        42.0004         35.5004
  -6116612.00047  -4725323.71545  23685048.7974                   23685046.9844
        43.2504         32.5004
 -53382123.38347 -41543287.89546  23716254.3444                   23716250.9414
        43.5004         37.0004
 -44981542.86345 -35003833.00843  24832185.1884                   24832193.5824
        35.5004         19.5004
 25  8  8  1  0 30.0000000  0  9G26G09G03G16G04G06G07G31G01
 -40437181.33247 -31456819.20746  22065355.0784                   22065354.5634
        43.5004         41.7504
 -23018258.11347 -17897603.80547  21938958.9614                   21938957.7304
        46.0004         43.5004
 -56298680.97348 -43827584.79348  20497451.7894                   20497450.0664
        48.5004         49.0004
 -31053223.78147 -26224652.77346  20779448.7664                   20779444.1454
        46.7504         36.7504
 -52263843.06647 -40682841.74646  20373797.8524                   20373794.5004
        47.5004         39.2504
  -7983570.91846  -6142019.32446  24416203.3984                   24416204.5664
        41.5004         36.0004
  -6275720.77347  -4849304.37945  23654771.3284                   23654769.5904
        43.2504         33.2504
 -53374180.61347 -41537098.81646  23717764.9454                   23717762.5904
        42.0004         36.0004
 -44981810.66446 -35004042.12542  24832135.9144                   24832142.5864
        37.5004         16.7504
 25  8  8  1  1  0.0000000  0  9G26G09G03G16G04G06G07G31G01
 -40465246.82447 -31478688.44946  22060014.1174                   22060013.4304
        44.0004         41.0004
 -23180377.00047 -18023930.15647  21908108.8914                   21908107.0004
        46.0004         43.5004
 -56328116.02748 -43850521.23048  20491850.4454                   20491848.6294
        48.5004         49.0004
 -31172802.50847 -26317830.97746  20756693.3444                   20756688.7504
        47.2504         37.2504
 -52374841.64147 -40769334.12946  20352675.7664                   20352672.1214
        47.5004         39.0004
  -8065332.66846  -6205729.81946  24400644.3524                   24400645.9804
        41.5004         36.5004
  -6434650.23047  -4973145.32845  23624527.6414                   23624526.3054
        44.0004         34.0004
 -53366238.37146 -41530910.14845  23719276.3054                   23719273.7344
        41.7504         34.0004
 -44982224.91845 -35004365.26243  24832056.4924                   24832064.5234
        35.2504         18.2504
 25  8  8  1  1 30.0000000  0  9G26G09G03G16G04G06G07G31G01
 -40492823.73847 -31500176.98446  22054766.5944                   22054765.6254
        44.5004         40.5004
 -23342415.14147 -18150193.58247  21877274.1414                   21877272.2624
        45.7504         43.7504
 -56357055.66847 -43873071.63348  20486343.2274                   20486341.5434
        47.5004         49.0004
 -31291752.63347 -26410519.35246  20734058.0864                   20734053.2774
        46.2504         37.0004
 -52485624.79347 -40855658.64146  20331594.2344                   20331590.7854
        47.5004         39.0004
  -8146605.35546  -6269059.23446  24385179.1334                   24385180.4844
        41.7504         37.0004
  -6593397.43447  -5096844.25445  23594319.1884                   23594317.6564
        43.7504         34.7504
 -53358295.82846 -41524721.25845  23720788.1804                   23720785.0234
        40.5004         34.5004
 -44982785.57846 -35004802.46142  24831950.3524                   24831958.6604
        36.0004         17.2504
 25  8  8  1  2  0.0000000  0  9G26G09G03G16G04G06G07G31G01
 -40519918.57047 -31521289.87146  22049610.7734                   22049609.5704
        43.7504         40.5004
 -23504375.77747 -18276396.61747  21846453.4224                   21846452.1094
        45.7504         44.5004
 -56385505.82048 -43895240.61348  20480929.5474                   20480927.6334
        48.0004         48.7504
 -31410077.06647 -26502720.18046  20711541.8444                   20711537.0514
        45.7504         36.7504
 -52596195.81247 -40941817.86746  20310552.9924                   20310549.1334
        47.7504         38.7504
  -8227394.19547  -6332011.61746  24369805.2584                   24369806.9454
        42.2504         37.2504
  -6751966.43447  -5220404.32445  23564144.2894                   23564142.6174
        43.2504         35.0004
 -53350358.66446 -41518536.53945  23722298.4924                   23722295.5354
        41.0004         33.5004
 -44983499.61345 -35005359.29342  24831814.7504                   24831823.1454
        35.7504         17.7504
 25  8  8  1  2 30.0000000  0  9G26G09G03G16G04G06G07G31G01
 -40546532.41047 -31542027.96146  22044546.3524                   22044545.3054
        44.5004         41.0004
 -23666256.67647 -18402537.50847  21815649.0944                   21815647.6884
        46.2504         44.0004
 -56413466.98048 -43917028.56648  20475608.5864                   20475606.9494
        48.2504         49.0004
 -31527773.10947 -26594431.35946  20689145.1564                   20689140.1294
        47.0004         36.7504
 -52706552.51647 -41027810.09046  20289553.1564                   20289549.6684
        47.7504         39.0004
  -8307699.25847  -6394587.04346  24354523.4454                   24354525.4304
        42.0004         36.7504
  -6910356.16447  -5343824.66045  23534003.2734                   23534002.3634
        43.2504         35.0004
 -53342427.64146 -41512356.60945  23723807.7194                   23723804.9924
        40.7504         34.0004
 -44984368.42246 -35006036.60542  24831649.5164                   24831658.5984
        38.0004         17.2504
 25  8  8  1  3  0.0000000  0  9G26G09G03G16G04G06G07G31G01
 -38997244.63347 -30334790.75846  22339366.5704                   22339365.2114
        43.0004         40.7504
 -22252629.24247 -17301009.56247  22084653.3364                   22084652.0314
        46.0004         44.5004
 -54865517.96147 -42710834.56248  20770173.4454                   20770171.9104
        47.5004         48.7504
 -30069413.64847 -25458047.34046  20966660.8674                   20966656.4964
        46.5004         37.0004
 -51241268.13747 -39886030.03946  20568387.4064                   20568383.8874
        47.7504         38.7504
  -6812096.95346  -5229182.69546  24639127.2974                   24639129.1644
        41.5004         36.5004
  -5493138.71547  -4239499.16845  23803690.6724                   23803689.2154
        42.0004         35.5004
 -51759082.20746 -40278581.01645  24025108.5864                   24025105.6174
        41.0004         32.7504
 -43409972.31246 -33779234.79342  25131246.7584                   25131255.7194
        38.0004         17.2504
 25  8  8  1  3 30.0000000  0  9G26G09G03G16G04G06G07G31G01
 -39022900.64547 -30354782.48846  22334483.9844                   22334483.0824
        44.2504         40.2504
 -22414344.61347 -17427021.47747  22053879.8284                   22053878.0864
        46.7504         45.0004
 -54892503.70347 -42731862.44948  20765038.4064                   20765036.3794
        47.7504         48.5004
 -30185846.57447 -25548774.26646  20944504.7974                   20944499.9734
        47.5004         36.7504
 -51351190.43747 -39971683.77346  20547469.7814                   20547466.3594
        47.7504         39.0004
  -6891435.20746  -5291004.75446  24624030.2894                   24624031.4574
        41.0004         36.2504
  -5651166.45347  -4362637.46145  23773618.6174                   23773617.3794
        43.5004         35.2504
 -51751164.59846 -40272411.51645  24026615.0474                   24026612.1644
        39.0004         32.5004
 -43411155.22746 -33780156.89542  25131022.3444                   25131030.4144
        39.0004         17.7504
 25  8  8  1  4  0.0000000  0  9G26G09G03G16G04G06G07G31G01
 -39048083.08647 -30374405.19946  22329692.1174                   22329691.0594
        45.0004         40.0004
 -22575977.59047 -17552969.16847  22023122.3594                   22023120.8204
        46.2504         44.5004
 -54919006.30548 -42752513.85948  20759995.0634                   20759993.6214
        48.2504         48.5004
 -30301648.05547 -25639009.14846  20922468.5234                   20922463.3134
        47.0004         36.2504
 -51460895.95347 -40057168.57446  20526593.6884                   20526589.7034
        47.2504         39.0004
  -6970293.80946  -5352453.06646  24609023.6564                   24609025.4804
        41.5004         36.7504
  -5809015.02347  -4485636.13745  23743580.9694                   23743579.2934
        43.0004         35.5004
 -51743257.99246 -40266250.59445  24028119.4064                   24028116.4574
        39.0004         32.0004
 -43412501.01246 -33781205.91443  25130767.2344                   25130774.4574
        37.5004         18.5004
 25  8  8  1  4 30.0000000  0  9G26G09G03G16G04G06G07G31G01
 -39072797.23447 -30393663.02346  22324988.3594                   22324988.1054
        44.5004         40.2504
 -22737529.99247 -17678854.08247  21992379.4844                   21992377.7154
        46.5004         44.7504
 -54945030.49248 -42772792.48848  20755042.8054                   20755041.1174
        48.5004         48.7504
 -30416819.66047 -25728753.23046  20900552.1174                   20900547.3134
        46.5004         36.5004
 -51570386.64847 -40142485.98846  20505758.1254                   20505754.8554
        47.0004         39.2504
  -7048676.86346  -5413530.81645  24594108.2424                   24594109.3134
        41.2504         35.5004
  -5966687.17247  -4608497.35946  23713576.6564                   23713575.5594
        43.7504         36.7504
 -51735366.98046 -40260101.83645  24029621.3284                   24029618.4964
        38.5004         31.5004
 -43414015.02046 -33782385.98442  25130478.5394                   25130487.6374
        37.0004         17.2504
 25  8  8  1  5  0.0000000  0  9G26G09G03G16G04G06G07G31G01
 -39097041.88747 -30412554.98846  22320375.4924                   22320374.1484
        44.2504         40.2504
 -22898997.11347 -17804672.53947  21961653.6334                   21961651.3914
        46.7504         44.7504
 -54970574.50047 -42792696.94948  20750182.0164                   20750180.4064
        47.5004         48.5004
 -30531356.49247 -25818002.68046  20878756.6094                   20878751.8674
        47.0004         36.5004
 -51679657.86747 -40227632.37946  20484964.7034                   20484961.1134
        47.7504         39.2504
  -7126582.08646  -5474236.22745  24579283.0784                   24579284.5634
        40.2504         35.5004
  -6124179.30547  -4731218.32046  23683606.8444                   23683605.4454
        44.2504         36.7504
 -51727489.27046 -40253963.42645  24031120.0554                   24031117.1844
        38.5004         30.5004
 -43415696.03546 -33783696.21543  25130159.1564                   25130167.9734
        38.5004         19.5004
 25  8  8  1  5 30.0000000  0  9G26G09G03G16G04G06G07G31G01
 -39120817.71547 -30431081.64846  22315851.5474                   22315849.9844
        42.5004         39.7504
 -23060376.23047 -17930422.43047  21930944.0634                   21930942.0784
        47.0004         45.0004
 -54995638.48447 -42812227.35948  20745412.8444                   20745410.7304
        47.0004         48.5004
 -30645255.98047 -25906755.49646  20857082.3204                   20857077.2234
        46.7504         36.7504
 -51788706.98847 -40312605.71146  20464213.4774                   20464209.6294
        47.0004         39.2504
  -7204009.13746  -5534569.03945  24564549.0474                   24564550.7424
        40.5004         35.5004
  -6281489.69547  -4853797.66446  23653672.2504                   23653670.2424
        44.0004         37.0004
 -51719625.01246 -40247835.49245  24032617.2894                   24032614.1054
        38.0004         30.0004
 -43417545.01246 -33785137.27343  25129807.1254                   25129816.0824
        36.0004         19.2504
 25  8  8  1  6  0.0000000  0  9G26G09G03G16G04G06G07G31G01
 -39144130.13747 -30449247.20746  22311414.9614                   22311413.9344
        44.0004         40.0004
 -23221669.21947 -18056105.20747  21900250.7734                   21900248.9264
        46.7504         44.7504
 -55020227.37947 -42831387.57448  20740733.3054                   20740731.6954
        47.7504         48.2504
 -30758519.96147 -25995013.11746  20835528.7504                   20835523.6054
        46.0004         36.2504
 -51897535.99247 -40397407.52346  20443503.7814                   20443500.3204
        47.0004         38.7504
  -7280962.32046  -5594532.59845  24549905.1724                   24549907.1994
        40.2504         35.0004
  -6438621.30147  -4976237.71546  23623770.5084                   23623768.9264
        44.5004         36.7504
 -51711778.17246 -40241721.11744  24034110.8834                   24034107.3444
        39.2504         28.2504
 -43419567.49246 -33786713.58243  25129422.5704                   25129431.8324
        37.5004         20.5004
 25  8  8  1  6 30.0000000  0  9G26G09G03G16G04G06G07G31G01
 -39166977.22347 -30467050.16446  22307067.1254                   22307066.0394
        43.7504         39.5004
 -23382870.74647 -18181716.72347  21869575.1484                   21869573.1804
        46.5004         45.0004
 -55044338.71947 -42850175.67648  20736145.4454                   20736143.5314
        47.2504         48.2504
 -30871143.14147 -26082771.41846  20814097.4224                   20814092.2074
        46.5004         36.7504
 -52006139.62147 -40482033.72346  20422837.2584                   20422833.6884
        47.2504         39.2504
  -7357438.69546  -5654124.62145  24535352.9064                   24535354.1334
        39.7504         34.7504
  -6595569.89847  -5098535.18046  23593904.3054                   23593902.2464
        44.2504         36.7504
 -51703946.31246 -40235618.41844  24035600.8984                   24035597.6024
        40.5004         29.7504
 -43421761.65646 -33788423.65643  25129005.6414                   25129015.2114
        36.5004         18.5004
 25  8  8  1  7  0.0000000  0  9G26G09G03G16G04G06G07G31G01
 -39189362.55147 -30484493.30946  22302807.4144                   22302806.3404
        43.0004         39.7504
 -23543980.81247 -18307256.96147  21838916.8524                   21838914.8444
        46.7504         45.0004
 -55067975.61747 -42868594.07048  20731647.5234                   20731646.0124
        46.5004         48.2504
 -30983125.43747 -26170030.32446  20792787.8674                   20792782.6644
        47.0004         37.0004
 -52114518.04747 -40566484.43446  20402214.0314                   20402210.2734
        47.5004         39.5004
  -7433440.76646  -5713347.05545  24520889.6564                   24520891.7974
        40.2504         34.7504
  -6752336.30547  -5220690.68745  23564072.1644                   23564070.2424
        44.2504         35.5004
 -51696131.88746 -40229529.28945  24037087.5784                   24037084.7974
        41.2504         30.2504
 -43424131.18046 -33790270.34442  25128554.8914                   25128564.1604
        37.0004         17.7504
 25  8  8  1  7 30.0000000  0  8G26G09G03G16G04G06G07G31
 -39211287.93047 -30501578.05546  22298635.4384                   22298634.4924
        44.0004         40.0004
 -23704997.63347 -18432724.54747  21808275.9454                   21808274.4184
        47.2504         45.2504
 -55091139.31247 -42886643.74648  20727239.4224                   20727237.8364
        47.7504         48.2504
 -31094465.27347 -26256788.61346  20771600.2194                   20771595.2384
        46.0004         36.7504
 -52222669.56647 -40650758.33246  20381633.1094                   20381629.1334
        47.0004         39.5004
  -7508969.29346  -5772200.48445  24506516.8524                   24506519.1134
        39.2504         34.5004
  -6908919.91447  -5342703.76645  23534275.5394                   23534273.6094
        43.7504         35.2504
 -51688335.82446 -40223454.47345  24038571.3134                   24038568.2624
        41.2504         31.2504
 25  8  8  1  8  0.0000000  0  8G26G09G03G16G04G06G07G31
 -39232750.27347 -30518301.99246  22294551.2344                   22294550.4224
        42.5004         39.2504
 -23865914.57847 -18558114.31647  21777654.6024                   21777652.9734
        46.5004         45.0004
 -55113826.23447 -42904321.90248  20722922.6334                   20722921.0514
        46.7504         48.2504
 -31205156.19547 -26343041.25846  20750536.5474                   20750531.6524
        46.2504         37.2504
 -52330587.67647 -40734850.35946  20361097.0784                   20361093.0514
        47.2504         39.5004
  -7584020.18746  -5830681.74245  24492235.4614                   24492237.3984
        39.5004         34.0004
  -7065315.52047  -5464570.35245  23504513.7894                   23504512.4534
        42.5004         35.2504
 -51680553.79347 -40217390.58645  24040052.7734                   24040049.4384
        42.2504         33.0004
 25  8  8  1  8 30.0000000  0  8G26G09G03G16G04G06G07G31
 -39253754.48047 -30534668.94146  22290554.4694                   22290553.3404
        43.0004         39.7504
 -24026732.94147 -18683427.26647  21747052.2274                   21747050.3634
        46.5004         45.0004
 -55136040.78547 -42921631.98048  20718695.4694                   20718693.7194
        47.5004         48.0004
 -31315199.78547 -26428789.48446  20729596.1174                   20729591.1684
        46.7504         37.0004
 -52438273.82847 -40818761.64146  20340604.8284                   20340600.9064
        47.0004         39.0004
  -7658597.27746  -5888793.81245  24478043.6884                   24478045.5514
        38.0004         32.2504
  -7221525.27747  -5586292.10945  23474788.1724                   23474786.4064
        42.2504         34.7504
 -51672789.89546 -40211340.84845  24041530.2194                   24041526.6254
        41.7504         33.0004
 25  8  8  1  9  0.0000000  0  8G26G09G03G16G04G06G07G31
 -39274299.81247 -30550678.32446  22286644.8204                   22286643.8954
        42.7504         40.0004
 -24187448.46147 -18808660.08247  21716468.9064                   21716466.8554
        46.5004         45.2504
 -55157781.81647 -42938573.08248  20714558.1644                   20714556.3954
        47.2504         48.0004
 -31424591.62947 -26514029.85246  20708779.2034                   20708774.5784
        47.0004         37.2504
 -52545723.82447 -40902488.89546  20320157.8364                   20320154.1094
        46.5004         39.0004
  -7732698.86746  -5946535.35945  24463942.9454                   24463944.9184
        38.5004         32.2504
  -7377546.04747  -5707866.60245  23445098.4534                   23445096.7664
        42.2504         35.0004
 -51665042.03146 -40205303.60545  24043004.6724                   24043001.2034
        41.2504         33.7504
 25  8  8  1  9 30.0000000  0  8G26G09G03G16G04G06G07G31
 -39294384.11347 -30566328.46946  22282822.4454                   22282821.8954
        42.5004         39.5004
 -24348055.23447 -18933808.15647  21685906.3674                   21685904.0234
        46.7504         45.0004
 -55179046.51247 -42955143.01647  20710511.4224                   20710509.8444
        46.5004         47.7504
 -31533326.20347 -26598758.06246  20688087.7504                   20688082.6174
        47.2504         37.5004
 -52652931.94547 -40986027.68046  20299756.5944                   20299753.1094
        47.0004         38.7504
  -7806321.68746  -6003903.83245  24449932.5474                   24449934.5664
        38.5004         31.7504
  -7533373.29747  -5829290.30145  23415445.6024                   23415443.5664
        42.5004         35.5004
 -51657307.36746 -40199276.65245  24044476.3984                   24044473.4534
        41.7504         34.7504
 25  8  8  1 10  0.0000000  0  8G26G09G03G16G04G06G07G31
 -39314014.82447 -30581625.16446  22279087.2424                   22279086.3014
        44.5004         40.2504
 -24508557.16047 -19058874.54347  21655363.6254                   21655361.8874
        46.0004         45.0004
 -55199842.03947 -42971347.36747  20706554.3914                   20706552.5594
        46.5004         47.7504
 -31641407.87947 -26682977.53146  20667520.5394                   20667515.6174
        46.5004         36.7504
 -52759902.24647 -41069381.15246  20279400.8984                   20279397.4454
        47.0004         39.5004
  -7879472.34446  -6060904.38745  24436012.2194                   24436014.6334
        37.7504         31.0004
  -7689012.07447  -5950567.12546  23385828.1094                   23385826.6564
        42.5004         36.0004
 -51649592.40647 -40193265.04345  24045944.8204                   24045941.6954
        42.2504         35.2504
 25  8  8  1 10 30.0000000  0  8G26G09G03G16G04G06G07G31
 -39333196.01247 -30596571.57446  22275437.3754                   22275436.0204
        44.0004         39.7504
 -24668954.56647 -19183859.48047  21624840.8444                   21624839.4844
        46.5004         45.0004
 -55220171.83647 -42987188.80948  20702685.5314                   20702684.1254
        46.5004         48.0004
 -31748837.25847 -26766688.70746  20647077.3594                   20647072.5744
        47.0004         37.0004
 -52866635.14547 -41152549.63746  20259090.1174                   20259086.6214
        47.0004         39.2504
  -7952153.82446  -6117539.34845  24422182.2894                   24422183.9264
        36.7504         30.2504
  -7844463.53947  -6071698.00046  23356246.7894                   23356244.9694
        43.2504         37.0004
 -51641899.45347 -40187270.58646  24047408.6254                   24047405.6954
        43.2504         36.2504
 25  8  8  1 11  0.0000000  0  8G26G09G03G16G04G06G07G31
 -39351931.93747 -30611171.03946  22271871.9064                   22271870.7504
        43.5004         39.7504
 -24829248.02347 -19308763.42247  21594337.9774                   21594336.1294
        46.5004         45.0004
 -55240039.76647 -43002670.34847  20698905.0084                   20698903.0044
        47.0004         47.7504
 -31855615.23447 -26849892.29746  20626758.3594                   20626753.3054
        47.5004         37.5004
 -52973131.42247 -41235533.73846  20238824.6484                   20238821.0084
        46.2504         38.7504
  -8024369.35246  -6173811.23845  24408439.8204                   24408441.6764
        37.0004         30.0004
  -7999729.55947  -6192684.36346  23326700.6954                   23326698.5824
        44.5004         38.0004
 -51634232.09847 -40181296.07446  24048867.3674                   24048865.2154
        42.7504         36.5004
 25  8  8  1 11 30.0000000  0  8G26G09G03G16G04G06G07G31
 -37794809.46947 -29397828.89546  22568182.8914                   22568181.6294
        43.0004         40.5004
 -23414015.99247 -18205985.16447  21863648.2114                   21863645.5744
        46.2504         45.0004
 -53684032.18447 -41790196.94947  20995003.7034                   20995001.6454
        46.0004         47.7504
 -30386322.49247 -25704988.83646  20906355.5634                   20906350.3164
        47.5004         37.2504
 -51503971.49647 -40090733.78146  20518396.3594                   20518393.1094
        46.7504         39.0004
  -6520703.16046  -5002123.34845  24694577.8984                   24694579.7344
        37.0004         30.0004
  -6579390.35547  -5085926.39146  23596982.0784                   23596980.4454
        44.5004         38.0004
 -50051176.96947 -38947746.66846  24350113.0634                   24350110.1644
        42.5004         37.0004
 25  8  8  1 12  0.0000000  0  8G26G09G03G16G04G06G07G31
 -37812670.85947 -29411746.89846  22564783.4144                   22564782.4104
        42.5004         39.7504
 -23574106.43047 -18330730.90247  21833183.5164                   21833181.5514
        46.5004         45.2504
 -53702990.94947 -41804970.05548  20991395.6484                   20991394.1954
        46.5004         48.0004
 -30491803.81247 -25787182.04346  20886283.0234                   20886277.9494
        47.0004         37.0004
 -51609999.88747 -40173353.29746  20498220.1334                   20498216.4454
        46.2504         39.0004
  -6592000.08246  -5057679.43745  24681010.9454                   24681012.9384
        37.5004         30.5004
  -6734294.46947  -5206630.74646  23567504.5004                   23567502.1844
        44.7504         37.7504
 -50043573.11347 -38941821.64545  24351560.0704                   24351557.3094
        42.5004         35.5004
 25  8  8  1 12 30.0000000  0  8G26G09G03G16G04G06G07G31
 -37830100.00447 -29425328.09046  22561466.9614                   22561466.2424
        44.5004         39.7504
 -23734094.77347 -18455397.09447  21802738.7734                   21802736.8874
        47.0004         45.0004
 -53721499.47347 -41819392.32848  20987873.7194                   20987872.0984
        47.5004         48.0004
 -30596637.03547 -25868870.25046  20866333.6024                   20866328.5634
        47.0004         37.2504
 -51715793.99247 -40255790.25846  20478087.8444                   20478084.5394
        46.7504         39.2504
  -6662841.19546  -5112880.37545  24667530.7584                   24667531.9844
        37.7504         30.0004
  -6889018.74647  -5327194.96546  23538061.0084                   23538059.2894
        45.0004         37.7504
 -50036004.22747 -38935923.86345  24353000.6724                   24352997.3754
        42.0004         34.0004
 25  8  8  1 13  0.0000000  0  8G26G09G03G16G04G06G07G31
 -37847098.57847 -29438573.76646  22558232.5234                   22558231.8364
        43.7504         40.0004
 -23893978.97747 -18579982.14147  21772313.8834                   21772311.7934
        46.5004         45.2504
 -53739559.03947 -41833464.76647  20984437.1724                   20984435.6414
        47.7504         47.7504
 -30700820.48447 -25950052.13746  20846508.4384                   20846503.6724
        47.2504         37.2504
 -51821351.98847 -40338043.23446  20458000.8834                   20457997.5084
        47.0004         39.5004
  -6733227.32046  -5167726.74645  24654135.9384                   24654137.9614
        37.5004         30.7504
  -7043562.51647  -5447618.52746  23508652.5084                   23508650.1604
        44.0004         36.7504
 -50028470.70746 -38930053.64145  24354433.6024                   24354431.1724
        41.2504         32.2504
 25  8  8  1 13 30.0000000  0  8G26G09G03G16G04G06G07G31
 -37863669.72347 -29451486.38746  22555078.8674                   22555078.1214
        42.5004         39.7504
 -24053758.34847 -18704485.49247  21741908.8364                   21741906.5864
        45.5004         45.2504
 -53757172.26647 -41847189.39547  20981085.3914                   20981084.1334
        47.0004         47.7504
 -30804354.19547 -26030727.73046  20826806.1484                   20826801.4064
        47.0004         37.0004
 -51926673.31647 -40420111.79746  20437959.1884                   20437955.7624
        47.0004         38.7504
  -6803160.69146  -5222220.32045  24640828.1724                   24640830.6484
        37.5004         30.7504
  -7197926.28947  -5567901.83246  23479278.1414                   23479276.0664
        43.7504         36.0004
 -50020974.60246 -38924212.57045  24355860.3284                   24355857.5164
        39.2504         31.2504
 25  8  8  1 14  0.0000000  0  8G26G09G03G16G04G06G07G31
 -37879813.62547 -29464066.09046  22552006.8444                   22552005.8324
        44.0004         39.7504
 -24213429.32847 -18828904.37947  21711524.4614                   21711522.2154
        45.5004         45.5004
 -53774339.02348 -41860566.13347  20977818.7664                   20977817.1254
        48.5004         47.7504
 -30907235.23047 -26110894.75046  20807228.7194                   20807223.7034
        46.7504         37.0004
 -52031754.62547 -40501993.33646  20417962.6724                   20417959.0704
        47.2504         39.0004
  -6872640.51246  -5276360.49245  24627606.9224                   24627608.9654
        38.0004         30.7504
  -7352107.75047  -5688043.06645  23449937.9064                   23449935.3914
        42.2504         34.7504
 -50013514.88346 -38918399.87145  24357279.9304                   24357276.5984
        38.5004         30.5004
 25  8  8  1 14 30.0000000  0  8G26G09G03G16G04G06G07G31
 -37895530.35247 -29476312.92646  22549016.2584                   22549015.3484
        43.0004         39.0004
 -24372988.10247 -18953235.84447  21681161.6094                   21681159.3874
        46.0004         45.5004
 -53791058.81248 -41873594.57847  20974637.1024                   20974635.5904
        48.0004         47.7504
 -31009460.19147 -26190550.55146  20787776.2734                   20787771.2504
        45.2504         37.0004
 -52136592.28947 -40583685.01646  20398012.8524                   20398008.8834
        45.0004         39.5004
  -6941665.90646  -5330146.57845  24614471.7344                   24614473.7854
        38.5004         31.7504
  -7506104.62546  -5808040.46945  23420632.9224                   23420630.5314
        41.2504         34.5004
 -50006090.25846 -38912614.52044  24358692.1334                   24358690.0944
        38.0004         28.7504
 25  8  8  1 15  0.0000000  0  8G26G09G03G16G04G06G07G31
 -37910828.80547 -29488233.83246  22546104.5634                   22546103.9694
        44.0004         39.0004
 -24532439.73847 -19077483.82047  21650818.8754                   21650816.6094
        45.7504         45.5004
 -53807340.15648 -41886281.38747  20971539.0784                   20971537.4184
        48.2504         47.5004
 -31111035.09047 -26269699.79746  20768447.0004                   20768441.7074
        47.2504         37.7504
 -52241191.61747 -40665190.98446  20378107.9844                   20378104.4964
        46.7504         39.5004
  -7010244.98846  -5383584.88345  24601421.9614                   24601423.8674
        38.0004         32.0004
  -7659922.85947  -5927898.67645  23391362.6564                   23391360.0664
        43.0004         34.7504
 -49998708.05546 -38906862.23444  24360097.4924                   24360094.9574
        38.5004         29.0004
 25  8  8  1 15 30.0000000  0  8G26G09G03G16G04G06G07G31
 -37925708.50047 -29499828.43746  22543273.1644                   22543272.7344
        43.5004         39.0004
 -24691779.95347 -19201644.97347  21620497.1804                   21620495.3524
        46.5004         45.5004
 -53823182.15647 -41898625.84847  20968524.1644                   20968522.8754
        47.7504         47.5004
 -31211956.31247 -26348339.68746  20749242.1334                   20749237.1994
        47.5004         37.5004
 -52345548.44947 -40746507.99246  20358249.7424                   20358246.1644
        47.0004         39.7504
  -7078376.29746  -5436674.27745  24588457.3054                   24588458.5784
        38.2504         33.0004
  -7813559.98447  -6047615.76645  23362126.1334                   23362123.6914
        42.5004         34.5004
 -49991366.72746 -38901141.76245  24361495.0784                   24361492.0514
        39.5004         30.0004
 25  8  8  1 16  0.0000000  0  8G26G09G03G16G04G06G07G31
 -37940172.34447 -29511099.00446  22540520.7974                   22540520.3874
        42.0004         38.5004
 -24851007.78147 -19325718.54347  21590197.0004                   21590194.9104
        46.5004         45.5004
 -53838587.34447 -41910629.93047  20965592.7504                   20965591.0904
        47.5004         47.5004
 -31312223.53547 -26426469.95746  20730162.0944                   20730157.2464
        47.5004         37.2504
 -52449662.11747 -40827635.53146  20338437.7114                   20338433.9104
        47.0004         40.0004
  -7146061.95346  -5489416.41445  24575577.2664                   24575578.7934
        38.0004         32.7504
  -7967016.23447  -6167191.91446  23332924.4454                   23332921.6214
        43.5004         36.5004
 -49984068.12546 -38895454.59444  24362883.5474                   24362880.5434
        40.0004         29.7504
 25  8  8  1 16 30.0000000  0  8G26G09G03G16G04G06G07G31
 -37954222.83247 -29522047.47746  22537846.9144                   22537846.4924
        43.7504         38.5004
 -25010121.82447 -19449703.46147  21559918.6724                   21559916.3204
        46.5004         46.0004
 -53853557.79348 -41922295.26247  20962744.1334                   20962742.7154
        48.0004         47.2504
 -31411835.88748 -26504089.95346  20711206.3204                   20711201.1914
        48.0004         37.5004
 -52553531.45747 -40908572.67246  20318672.1254                   20318668.6604
        47.7504         39.2504
  -7213303.50046  -5541812.49645  24562781.8984                   24562783.5634
        38.2504         33.0004
  -8120291.49647  -6286627.03546  23303757.1804                   23303754.5864
        44.2504         37.0004
 -49976813.13346 -38889801.41045  24364264.2974                   24364261.3714
        40.0004         31.0004
 25  8  8  1 17  0.0000000  0  9G27G26G09G03G16G04G06G07G31
  13943448.32455  10900795.11753  24994945.9614                   24994949.4304
        35.2504         22.0004
 -37967862.94547 -29532676.16846  22535251.3204                   22535250.8484
        43.5004         38.0004
 -25169121.11747 -19573598.96547  21529661.8284                   21529660.1024
        46.5004         46.0004
 -53868096.08248 -41933623.83247  20959977.8134                   20959976.0634
        48.5004         47.5004
 -31510793.93448 -26581200.09446  20692375.1484                   20692370.2074
        48.0004         37.2504
 -52657155.70347 -40989318.83646  20298952.8984                   20298949.3204
        47.0004         39.2504
  -7280103.05146  -5593864.14845  24550069.5474                   24550071.9804
        38.2504         34.0004
  -8273386.27747  -6405921.52746  23274624.1414                   23274621.1604
        44.2504         38.5004
 -49969603.23446 -38884183.35945  24365636.4384                   24365633.3834
        41.5004         32.5004
 25  8  8  1 17 30.0000000  0  9G27G26G09G03G16G04G06G07G31
  13771242.79745  10766609.22343  24962176.5394                   24962179.8134
        35.7504         20.7504
 -37981096.29347 -29542987.90246  22532733.6884                   22532733.0984
        43.5004         37.5004
 -25328005.41047 -19697404.85547  21499427.5084                   21499425.1804
        46.5004         45.7504
 -53882205.41848 -41944618.17247  20957292.5554                   20957291.2854
        48.2504         47.2504
 -31609098.18448 -26657800.78946  20673668.4844                   20673663.4884
        48.0004         36.7504
 -52760534.84847 -41069874.00846  20279280.6954                   20279276.7424
        47.7504         39.5004
  -7346463.39146  -5645573.57445  24537441.8054                   24537443.8554
        38.2504         33.5004
  -8426301.66847  -6525076.23846  23245525.5004                   23245522.7814
        45.2504         39.5004
 -49962440.73046 -38878602.23445  24366999.4924                   24366996.7304
        41.2504         32.0004
 25  8  8  1 18  0.0000000  0  9G27G26G09G03G16G04G06G07G31
  13599005.97346  10632398.94144  24929399.9774                   24929403.7544
        37.5004         27.2504
 -37993932.51247 -29552990.17646  22530290.6334                   22530290.3404
        43.5004         37.5004
 -25486780.33247 -19821125.51647  21469213.2734                   21469211.1644
        46.0004         46.0004
 -53895895.03948 -41955285.45747  20954687.6884                   20954686.1214
        48.7504         47.0004
 -31706754.93448 -26733896.94146  20655085.1804                   20655080.1414
        48.0004         37.0004
 -52863674.73047 -41150242.74246  20259653.5314                   20259649.7854
        47.5004         39.5004
  -7412393.28946  -5696947.59645  24524896.2344                   24524897.9104
        38.5004         34.5004
  -8579044.70747  -6644096.65646  23216458.7504                   23216456.6604
        44.7504         39.2504
 -49955334.10546 -38873064.66845  24368351.3444                   24368349.2934
        41.5004         32.2504
 25  8  8  1 18 30.0000000  0  9G27G26G09G03G16G04G06G07G31
  13426740.78146  10498166.53943  24896618.9614                   24896622.9144
        37.0004         22.7504
 -38006374.32447 -29562685.13346  22527922.9924                   22527922.5744
        43.5004         38.2504
 -25645444.74247 -19944760.07047  21439020.5554                   21439018.3984
        46.2504         46.5004
 -53909167.38348 -41965627.58647  20952161.8914                   20952160.5514
        48.7504         47.0004
 -31803763.99647 -26809488.39846  20636625.2034                   20636619.9804
        47.0004         36.7504
 -52966574.44947 -41230424.34846  20240072.4844                   20240069.0554
        47.5004         39.2504
  -7477894.64146  -5747987.67645  24512431.9304                   24512433.3954
        38.5004         34.5004
  -8731615.71147  -6762983.02346  23187425.4774                   23187423.0394
        43.5004         38.0004
 -49948284.32046 -38867571.40245  24369693.0634                   24369690.5474
        41.2504         32.7504
 25  8  8  1 19  0.0000000  0  9G27G26G09G03G16G04G06G07G31
  13254455.17246  10363918.19943  24863834.2194                   24863837.8484
        36.5004         23.2504
 -38018419.46147 -29572070.98446  22525631.5474                   22525630.9384
        42.5004         38.2504
 -25803992.36347 -20068303.61347  21408850.0944                   21408847.4734
        45.5004         46.5004
 -53922019.67248 -41975642.39847  20949716.5554                   20949714.9414
        48.2504         46.7504
 -31900120.25847 -26884571.18446  20618289.0634                   20618284.0824
        47.0004         37.0004
 -53069228.01648 -41310414.12546  20220538.0554                   20220534.4024
        48.0004         39.7504
  -7542964.37546  -5798691.42245  24500048.7974                   24500051.0314
        37.7504         34.0004
  -8884009.74647  -6881731.49246  23158425.7114                   23158423.2734
        43.0004         37.0004
 -49941287.52046 -38862119.39845  24371024.9694                   24371022.3014
        40.7504         31.0004
 25  8  8  1 19 30.0000000  0  9G27G26G09G03G16G04G06G07G31
  13082155.44546  10229658.82444  24831046.9694                   24831049.5864
        38.5004         24.0004
 -38030067.40646 -29581147.34046  22523414.9144                   22523414.0984
        41.5004         38.0004
 -25962418.68047 -20191752.64147  21378702.3754                   21378700.1844
        46.2504         46.5004
 -53934451.03147 -41985329.21947  20947351.1884                   20947349.3324
        47.0004         46.5004
 -31995819.99647 -26959142.39146  20600077.8054                   20600072.7464
        47.0004         37.0004
 -53171631.16847 -41390208.78546  20201051.6024                   20201047.5044
        47.5004         39.2504
  -7607601.21546  -5849057.85945  24487748.9774                   24487751.2424
        37.7504         33.5004
  -9036223.81247  -7000339.72346  23129459.7344                   23129457.4924
        42.2504         36.0004
 -49934341.70746 -38856707.12945  24372346.5864                   24372344.0984
        41.0004         30.5004
 25  8  8  1 20  0.0000000  0  9G27G26G09G03G16G04G06G07G31
  14485268.34446  11322993.76244  25098049.6484                   25098053.1254
        38.7504         27.7504
 -36465902.43747 -28362317.51646  22821065.3754                   22821065.3404
        43.0004         38.0004
 -24545299.09847 -19087503.57047  21648370.7734                   21648369.0274
        46.2504         47.0004
 -52371045.40247 -40767091.12147  21244857.0784                   21244855.7234
        47.5004         46.7504
 -30515442.28947 -25805601.29746  20881784.4694                   20881779.3204
        47.0004         37.0004
 -51698361.46147 -40242206.40646  20481405.3754                   20481401.7074
        46.7504         39.0004
  -6096386.75446  -4671488.22345  24775323.1954                   24775326.1134
        37.5004         34.0004
  -7612834.71146  -5891205.23445  23400321.8444                   23400319.4964
        41.7504         35.5004
 -48352030.81646 -37623737.66844  24673449.7664                   24673447.8444
        40.0004         28.5004
 25  8  8  1 20 30.0000000  0  9G27G26G09G03G16G04G06G07G31
  14312949.57046  11188719.56344  25065259.0234                   25065261.5084
        39.7504         28.0004
 -36476763.79347 -28370780.93746  22818998.5784                   22818997.9454
        44.0004         37.7504
 -24703478.63347 -19210760.30947  21618270.8204                   21618268.5944
        46.5004         46.7504
 -52382641.73847 -40776127.27347  21242650.3284                   21242648.9304
        47.7504         46.5004
 -30609828.77047 -25879149.18746  20863823.0944                   20863817.7894
        47.5004         37.2504
 -51800260.46147 -40321608.20746  20462014.3914                   20462010.6174
        46.5004         39.2504
  -6160163.08246  -4721184.13345  24763187.2664                   24763189.7504
        38.0004         34.5004
  -7764689.08647  -6009533.20746  23371424.8204                   23371422.0234
        43.0004         36.0004
 -48345191.10546 -37618408.08244  24674751.9304                   24674749.4454
        40.0004         28.7504
 25  8  8  1 21  0.0000000  0  9G27G26G09G03G16G04G06G07G31
  14140634.73046  11054448.41444  25032467.8984                   25032471.3914
        39.5004         28.0004
 -36487227.05947 -28378934.16046  22817007.8134                   22817006.9104
        43.0004         38.0004
 -24861524.01647 -19333912.50847  21588195.7344                   21588193.5004
        46.2504         47.0004
 -52393815.24648 -40784833.95347  21240524.4064                   21240522.8484
        48.0004         46.5004
 -30703549.35947 -25952178.19946  20845989.0314                   20845983.6294
        46.2504         37.2504
 -51901896.99247 -40400805.49646  20442673.4844                   20442670.1174
        46.7504         39.5004
  -6223503.26646  -4770540.18445  24751135.0084                   24751136.4304
        37.7504         34.0004
  -7916355.07447  -6127714.41046  23342563.9454                   23342561.0274
        44.2504         36.5004
 -48338397.10946 -37613114.10544  24676044.8054                   24676042.4024
        39.7504         28.0004
 25  8  8  1 21 30.0000000  0  9G27G26G09G03G16G04G06G07G31
  13968321.49646  10920178.56644  24999677.7424                   24999681.1294
        38.7504         28.2504
 -36497300.42247 -28386783.55146  22815090.4144                   22815090.1844
        42.7504         37.5004
 -25019439.28147 -19456963.32847  21558145.0474                   21558142.8164
        45.7504         46.7504
 -52404573.70347 -40793217.21547  21238477.1024                   21238475.1954
        47.2504         46.5004
 -30796609.41047 -26024692.52046  20828279.7974                   20828274.9184
        46.2504         37.0004
 -52003275.42647 -40479801.65646  20423382.1024                   20423378.2854
        46.5004         39.2504
  -6286414.65646  -4819562.10945  24739162.8134                   24739165.0554
        38.5004         34.2504
  -8067838.15647  -6245753.10546  23313737.9614                   23313734.7544
        44.5004         37.5004
 -48331655.50846 -37607860.96144  24677327.9454                   24677324.9804
        39.2504         27.7504
 25  8  8  1 22  0.0000000  0  9G27G26G09G03G16G04G06G07G31
  13796015.14146  10785914.06344  24966888.3444                   24966891.7304
        40.0004         28.0004
 -36506984.30547 -28394329.45746  22813247.8594                   22813247.1524
        43.0004         37.5004
 -25177220.87947 -19579909.99247  21528120.3364                   21528117.8834
        46.5004         47.0004
 -52414917.28947 -40801277.20747  21236508.4384                   21236507.2304
        46.5004         46.0004
 -30889006.50448 -26096690.23846  20810697.7034                   20810692.4924
        48.2504         37.7504
 -52104392.52347 -40558594.18746  20404139.8984                   20404136.5234
        46.5004         39.2504
  -6348896.94946  -4868249.67245  24727272.8444                   24727274.9844
        37.5004         34.0004
  -8219136.55147  -6363647.87946  23284946.5944                   23284943.2934
        44.5004         37.7504
 -48324965.55146 -37602648.04344  24678601.2034                   24678598.3794
        40.5004         28.5004
 25  8  8  1 22 30.0000000  0  9G27G26G09G03G16G04G06G07G31
  13623719.34046  10651657.75844  24934102.4534                   24934104.8204
        38.5004         28.2504
 -36516280.93747 -28401573.60946  22811478.2974                   22811478.0354
        43.0004         37.5004
 -25334866.90247 -19702751.01247  21498121.0634                   21498119.1484
        45.7504         47.0004
 -52424847.79747 -40809015.31647  21234619.1024                   21234617.7854
        46.0004         46.0004
 -30980740.13348 -26168170.97346  20793241.0004                   20793235.4964
        48.0004         36.7504
 -52205246.60947 -40637181.76646  20384948.1884                   20384944.5944
        46.5004         39.0004
  -6410951.64146  -4916604.03145  24715463.9144                   24715466.2584
        37.0004         33.0004
  -8370249.42647  -6481398.09446  23256190.5944                   23256187.7854
        45.0004         38.5004
 -48318327.49246 -37597475.55945  24679864.3364                   24679861.4454
        41.5004         30.0004
 25  8  8  1 23  0.0000000  0  9G27G26G09G03G16G04G06G07G31
  13451436.59446  10517411.66444  24901317.1094                   24901320.0084
        39.0004         29.5004
 -36525193.51647 -28408518.49646  22809782.9064                   22809782.0044
        43.0004         37.2504
 -25492376.48447 -19825485.71947  21468148.1564                   21468146.1094
        46.2504         47.0004
 -52434368.15647 -40816433.82847  21232807.1254                   21232805.9924
        46.0004         45.7504
 -31071810.60548 -26239134.95746  20775910.8834                   20775905.6844
        48.5004         37.5004
 -52305837.21547 -40715564.03946  20365806.3054                   20365802.4844
        46.0004         39.7504
  -6472581.12946  -4964627.07845  24703736.6954                   24703738.8284
        36.5004         32.5004
  -8521177.67647  -6599004.44546  23227469.8834                   23227466.8014
        45.2504         38.7504
 -48311743.11746 -37592344.91844  24681116.9774                   24681114.6054
        41.5004         29.5004
 25  8  8  1 23 30.0000000  0  9G27G26G09G03G16G04G06G07G31
  13279170.63746  10383178.62145  24868536.6804                   24868539.1804
        39.5004         30.5004
 -36533724.17247 -28415165.77746  22808159.2114                   22808158.9104
        43.0004         37.7504
 -25649747.67247 -19948112.58247  21438201.2584                   21438199.1724
        46.0004         47.0004
 -52443480.21947 -40823534.19947  21231073.0864                   21231072.0514
        46.0004         45.7504
 -31162217.65647 -26309581.99646  20758706.8984                   20758702.0824
        47.7504         37.2504
 -52406162.63747 -40793739.67646  20346715.0864                   20346711.5394
        46.5004         39.2504
  -6533786.89545  -5012319.95345  24692089.6414                   24692091.8634
        35.0004         32.2504
  -8671920.93047  -6716466.62546  23198784.4064                   23198781.1054
        43.7504         39.2504
 -48305212.74647 -37587256.35545  24682359.5554                   24682357.2154
        42.0004         30.7504
 25  8  8  1 24  0.0000000  0  9G27G26G09G03G16G04G06G07G31
  13106921.67246  10248958.86345  24835757.8834                   24835761.2154
        39.7504         30.5004
 -36541878.61746 -28421519.91846  22806607.7974                   22806607.4964
        41.5004         37.5004
 -25806982.05147 -20070632.83647  21408280.7584                   21408278.9104
        46.0004         47.0004
 -52452189.33247 -40830320.57047  21229416.1724                   21229414.9264
        45.5004         46.0004
 -31251963.92247 -26379514.13346  20741628.9774                   20741623.6294
        46.5004         37.7504
 -52506224.85547 -40871710.21546  20327674.1564                   20327670.1484
        46.2504         39.5004
  -6594573.92645  -5059686.53945  24680521.7814                   24680524.3014
        35.2504         31.0004
  -8822482.44547  -6833787.18746  23170132.7584                   23170130.3524
        43.5004         38.2504
 -48298740.64547 -37582213.18744  24683591.1954                   24683588.3284
        42.0004         29.5004
 25  8  8  1 24 30.0000000  0  9G27G26G09G03G16G04G06G07G31
  12934695.42246  10114756.80144  24802985.0394                   24802987.2734
        38.7504         28.7504
 -36549656.93446 -28427580.96546  22805127.7424                   22805127.1024
        41.5004         37.0004
 -25964075.55947 -20193043.32847  21378386.7034                   21378384.6414
        46.0004         47.0004
 -52460495.23847 -40836792.77047  21227835.3984                   21227834.5274
        46.2504         45.7504
 -31341046.84847 -26448929.39146  20724676.9844                   20724672.1174
        46.5004         37.0004
 -52606020.12147 -40949472.73846  20308683.5234                   20308679.6134
        45.5004         39.5004
  -6654941.63745  -5106726.41045  24669035.2344                   24669037.0394
        34.7504         31.2504
  -8972859.81247  -6950964.25046  23141516.7114                   23141514.8954
        43.5004         38.5004
 -48292325.01246 -37577214.01244  24684812.3284                   24684809.5354
        41.2504         28.5004
 25  8  8  1 25  0.0000000  0  9G27G26G09G03G16G04G06G07G31
  12762493.74646   9980573.88345  24770215.7114                   24770218.1334
        38.7504         30.0004
 -36557063.10547 -28433352.04346  22803718.5314                   22803717.3754
        42.2504         36.7504
 -26121028.12147 -20315343.99247  21348520.0004                   21348517.4384
        46.7504         47.2504
 -52468401.75047 -40842953.74647  21226331.2664                   21226330.1644
        46.0004         45.7504
 -31429468.00847 -26517828.98846  20707851.2034                   20707846.0594
        46.0004         36.7504
 -52705548.65647 -41027027.43046  20289743.7734                   20289739.9414
        46.0004         39.5004
  -6714893.29345  -5153442.06644  24657626.2344                   24657628.8014
        34.0004         29.7504
  -9123054.44147  -7067998.92646  23112935.8754                   23112933.6684
        44.2504         38.5004
 -48285968.53146 -37572260.93044  24686022.0784                   24686019.3794
        41.0004         29.0004
 25  8  8  1 25 30.0000000  0  9G27G26G09G03G16G04G06G07G31
  12590321.33246   9846413.76644  24737451.9924                   24737454.3164
        37.5004         28.2504
 -36564098.22747 -28438833.98846  22802379.8284                   22802378.7344
        43.2504         37.0004
 -26277836.61347 -20437532.40247  21318680.0314                   21318677.6884
        46.7504         47.2504
 -52475909.58647 -40848804.05947  21224902.2814                   21224901.0554
        46.2504         46.0004
 -31517225.59847 -26586211.51246  20691151.4304                   20691146.0124
        46.5004         37.0004
 -52804807.73047 -41104372.15246  20270855.6024                   20270851.7774
        46.0004         39.2504
  -6774429.34045  -5199833.88744  24646297.5314                   24646299.0314
        32.7504         29.5004
  -9273064.63747  -7184889.89846  23084389.8444                   23084387.3284
        43.0004         39.0004
 -48279670.58646 -37567353.48044  24687220.7424                   24687217.4924
        41.5004         28.7504
 25  8  8  1 26  0.0000000  0  9G27G26G09G03G16G04G06G07G31
  12418182.61746   9712279.90244  24704694.1804                   24704697.2734
        38.0004         28.7504
 -36570763.94147 -28444028.07446  22801111.7194                   22801110.5514
        43.0004         37.2504
 -26434498.51647 -20559606.58647  21288868.3444                   21288865.6804
        46.7504         47.0004
 -52483020.10247 -40854344.78147  21223549.8134                   21223548.3014
        47.0004         46.0004
 -31604319.19147 -26654076.63746  20674577.7034                   20674573.0474
        47.0004         37.5004
 -52903795.16447 -41181505.20746  20252019.0084                   20252014.9454
        46.5004         39.2504
  -6833550.64545  -5245902.53144  24635046.1564                   24635048.9184
        32.5004         27.7504
  -9422889.69147  -7301636.61746  23055878.8834                   23055876.6414
        44.5004         39.2504
 -48273431.05946 -37562491.53944  24688407.5394                   24688405.2664
        40.5004         29.0004
 25  8  8  1 26 30.0000000  0  9G27G26G09G03G16G04G06G07G31
  12246076.45746   9578171.41444  24671944.7894                   24671946.7194
        37.5004         28.5004
 -36577067.17247 -28448939.69546  22799911.3364                   22799910.3594
        43.2504         36.7504
 -26591016.57047 -20681568.67647  21259083.5554                   21259081.6524
        47.0004         47.2504
 -52489739.95347 -40859581.09047  21222270.9384                   21222269.3014
        46.0004         46.0004
 -31690752.50847 -26721427.26246  20658129.8284                   20658125.2274
        47.7504         37.0004
 -53002514.12147 -41258429.06646  20233233.0004                   20233229.3484
        45.7504         39.7504
  -6892263.62545  -5291652.97744  24623874.3524                   24623876.5204
        32.0004         27.7504
  -9572534.14147  -7418242.61746  23027403.0554                   23027399.8244
        45.0004         39.0004
 -48267255.01646 -37557679.08644  24689583.2504                   24689580.5744
        40.7504         29.0004
 25  8  8  1 27  0.0000000  0  9G27G26G09G03G16G04G06G07G31
  12074009.21146   9444093.24645  24639200.6644                   24639203.5164
        38.2504         31.0004
 -36583007.53547 -28453568.57446  22798781.4304                   22798780.7664
        42.5004         36.5004
 -26747386.23047 -20803415.13747  21229327.8594                   21229325.2894
        47.0004         47.0004
 -52496068.53147 -40864512.51647  21221066.7114                   21221065.4494
        46.5004         45.7504
 -31776522.68748 -26788261.15246  20641808.3134                   20641803.6564
        48.0004         36.7504
 -53100960.36347 -41335140.41446  20214499.6024                   20214495.7544
        45.5004         39.2504
  -6950567.21945  -5337084.45744  24612779.5704                   24612781.8754
        32.0004         27.5004
  -9721994.60547  -7534705.25446  22998961.5554                   22998958.3404
        44.7504         39.0004
 -48261140.49246 -37552914.56644  24690747.4534                   24690744.5164
        40.5004         29.7504
 25  8  8  1 27 30.0000000  0  9G27G26G09G03G16G04G06G07G31
  11901985.56646   9310049.04745  24606464.9844                   24606468.1334
        37.2504         31.5004
 -36588586.23847 -28457915.64146  22797719.3834                   22797718.9924
        43.0004         36.5004
 -26903604.48447 -20925143.61747  21199599.7584                   21199597.8554
        46.2504         47.5004
 -52502006.66047 -40869139.69547  21219936.3674                   21219935.8014
        47.5004         45.7504
 -31861628.38748 -26854577.27046  20625613.8594                   20625608.6644
        48.0004         37.2504
 -53199131.21147 -41411637.18046  20195818.3204                   20195814.1454
        45.5004         40.0004
  -7008461.94145  -5382197.31244  24601762.0944                   24601764.7114
        33.0004         27.5004
  -9871270.12147  -7651023.77046  22970554.9304                   22970551.8484
        44.0004         38.0004
 -48255087.08646 -37548197.68745  24691898.8594                   24691896.5234
        41.0004         30.2504
 25  8  8  1 28  0.0000000  0  9G27G26G09G03G16G04G06G07G31
  11730006.95745   9176039.94144  24573738.4304                   24573740.9224
        35.2504         29.2504
 -36593807.69947 -28461984.34446  22796726.4844                   22796725.4734
        42.0004         36.7504
 -27059671.59047 -21046754.31647  21169901.6334                   21169898.9384
        46.7504         47.2504
 -52507558.67247 -40873465.99647  21218880.0234                   21218878.9144
        46.5004         45.7504
 -31946071.94547 -26920377.43446  20609544.3054                   20609539.6134
        47.7504         37.7504
 -53297027.39147 -41487919.91846  20177189.2344                   20177185.7774
        46.2504         40.5004
  -7065951.67245  -5426994.59044  24590822.8204                   24590824.6764
        34.0004         27.5004
 -10020362.79747  -7767199.82046  22942183.6954                   22942180.6524
        45.0004         38.2504
 -48249097.75446 -37543530.71545  24693038.0944                   24693035.5554
        39.7504         30.0004
 25  8  8  1 28 30.0000000  0  9G27G26G09G03G16G04G06G07G31
  13133502.48445  10269673.05144  24840814.0314                   24840817.1414
        35.5004         28.2504
 -35023254.38347 -27238176.60246  23095592.6094                   23095592.2664
        42.0004         36.2504
 -25640160.66047 -19940641.87147  21440025.0554                   21440023.6094
        46.0004         47.2504
 -50937306.64847 -39649893.05147  21517689.2814                   21517688.3714
        46.0004         46.0004
 -30454430.49247 -25758059.39546  20893394.4304                   20893389.2304
        47.7504         37.2504
 -51819224.35547 -40336385.08246  20458406.0704                   20458402.4574
        45.7504         39.7504
  -5547616.46145  -4243876.31244  24879751.6024                   24879754.3094
        33.5004         27.0004
  -8593847.36347  -6655629.27746  23213640.2734                   23213637.5554
        43.0004         38.5004
 -46667752.94946 -36311314.05145  24993958.4614                   24993955.6644
        40.5004         30.2504
 25  8  8  1 29  0.0000000  0  9G27G26G09G03G16G04G06G07G31
  12961624.23845  10135742.14144  24808107.2344                   24808110.1334
        35.0004         28.5004
 -35027769.10546 -27241694.61746  23094732.8364                   23094732.5944
        41.0004         36.5004
 -25795920.38347 -20062013.06247  21410385.3364                   21410382.9844
        46.5004         47.2504
 -50942093.17647 -39653622.88347  21516778.4454                   21516777.5314
        46.2504         45.7504
 -30537549.61747 -25822827.53546  20877577.5634                   20877572.0594
        47.7504         36.7504
 -51916567.24247 -40412236.69546  20439882.1954                   20439877.9884
        45.7504         39.7504
  -5604301.96945  -4288046.92644  24868964.8834                   24868967.5704
        34.0004         27.7504
  -8742573.71947  -6771519.84846  23185338.3524                   23185336.2424
        43.2504         38.5004
 -46661893.25046 -36306748.10944  24995073.3524                   24995071.1454
        39.0004         29.2504
 25  8  8  1 29 30.0000000  0  9G27G26G09G03G16G04G06G07G31
  12789800.54746  10001853.73045  24775410.3524                   24775413.3754
        37.2504         30.2504
 -35031934.93046 -27244940.75846  23093940.5164                   23093940.2274
        41.2504         36.5004
 -25951524.58647 -20183263.06647  21380774.5704                   21380772.6134
        46.0004         47.5004
 -50946501.16047 -39657057.74647  21515939.0004                   21515938.8324
        46.0004         45.7504
 -30620007.47348 -25887080.39846  20861885.5634                   20861880.8444
        48.0004         37.5004
 -52013632.25847 -40487871.77746  20421410.8594                   20421407.0664
        46.2504         39.5004
  -5660589.10245  -4331907.10544  24858254.1024                   24858256.7154
        35.0004         29.2504
  -8891117.76247  -6887268.36346  23157071.4304                   23157069.1134
        43.7504         39.0004
 -46656100.15246 -36302234.04744  24996176.3984                   24996173.4924
        37.5004         28.5004
 25  8  8  1 30  0.0000000  0  9G27G26G09G03G16G04G06G07G31
  12618034.82446   9868010.48045  24742724.8134                   24742727.0434
        38.0004         30.5004
 -35035754.40646 -27247917.00846  23093213.1174                   23093213.4384
        40.7504         36.0004
 -26106971.59447 -20304390.58647  21351194.2894                   21351191.8674
        46.5004         47.5004
 -50950532.87947 -39660199.41047  21515172.4614                   21515171.4614
        45.7504         45.2504
 -30701804.13348 -25950818.04746  20846320.5784                   20846315.5394
        48.0004         37.5004
 -52110418.15647 -40563289.35546  20402993.1954                   20402989.9104
        46.2504         39.7504
  -5716479.75846  -4375458.32444  24847618.7274                   24847620.8594
        37.0004         28.5004
  -9039479.77047  -7002875.04346  23128839.2034                   23128836.5234
        44.7504         39.7504
 -46650374.62546 -36297772.64144  24997265.2664                   24997263.1484
        36.0004         27.7504
 25  8  8  1 30 30.0000000  0  9G27G26G09G03G16G04G06G07G31
  12446328.91046   9734213.80944  24710049.9304                   24710051.9184
        36.5004         29.7504
 -35039231.80946 -27250626.71946  23092552.4224                   23092551.9614
        40.7504         36.0004
 -26262261.30547 -20425395.53147  21321644.0004                   21321640.9454
        46.2504         47.5004
 -50954192.32047 -39663050.98847  21514476.2344                   21514475.0704
        45.0004         45.0004
 -30782941.30148 -26014041.79746  20830880.7504                   20830875.8284
        48.0004         37.0004
 -52206925.21547 -40638489.66846  20384628.8834                   20384625.3874
        45.7504         39.7504
  -5771977.59446  -4418703.43444  24837058.1094                   24837060.0984
        37.0004         29.5004
  -9187661.07847  -7118340.91846  23100640.9384                   23100638.3164
        44.2504         40.2504
 -46644719.19545 -36293365.85944  24998340.9144                   24998339.2304
        35.5004         27.0004
 25  8  8  1 31  0.0000000  0  9G27G26G09G03G16G04G06G07G31
  12274686.05545   9600466.29744  24677386.9924                   24677388.8634
        34.5004         28.2504
 -35042369.73046 -27253071.89745  23091954.7664                   23091954.3204
        40.2504         35.5004
 -26417392.10947 -20546276.65247  21292123.3754                   21292120.7234
        46.0004         47.5004
 -50957481.97347 -39665614.42247  21513850.1024                   21513849.1564
        45.5004         45.2504
 -30863419.60947 -26076752.14846  20815566.2034                   20815560.9104
        47.5004         37.0004
 -52303152.32847 -40713471.83646  20366317.2584                   20366313.5004
        46.5004         39.2504
  -5827084.71946  -4461644.11344  24826571.3834                   24826573.6524
        37.5004         29.5004
  -9335661.70347  -7233666.02346  23072477.8754                   23072474.7704
        44.7504         40.5004
 -46639134.45346 -36289014.16044  24999404.5314                   24999402.1684
        37.7504         28.0004
 25  8  8  1 31 30.0000000  0  9G27G26G09G03G16G04G06G07G31
  12103111.55146   9466772.03544  24644737.3834                   24644739.0514
        36.2504         29.5004
 -35045168.98846 -27255253.18446  23091422.1484                   23091422.1524
        40.0004         36.5004
 -26572360.39547 -20667031.14148  21262633.7034                   21262631.5434
        47.0004         48.0004
 -50960402.30147 -39667890.06647  21513294.4844                   21513293.3914
        45.7504         45.0004
 -30943237.38348 -26138947.80146  20800377.4924                   20800372.0784
        48.0004         37.7504
 -52399096.27047 -40788233.35246  20348059.8914                   20348056.0314
        45.5004         39.5004
  -5881801.33246  -4504280.49644  24816159.2894                   24816161.2704
        37.7504         29.0004
  -9483480.10547  -7348849.11746  23044348.7424                   23044345.7704
        45.7504         40.2504
 -46633619.29346 -36284716.66444  25000454.3204                   25000451.9924
        36.2504         29.0004
 25  8  8  1 32  0.0000000  0  9G27G26G09G03G16G04G06G07G31
  11931606.84045   9333132.14544  24612100.7504                   24612102.8364
        34.5004         27.7504
 -35047634.05146 -27257174.05946  23090953.3204                   23090952.9774
        40.5004         37.0004
 -26727166.58247 -20787659.30948  21233175.2274                   21233172.7774
        46.7504         48.0004
 -50962957.78547 -39669881.42247  21512808.3914                   21512807.0044
        45.2504         44.7504
 -31022396.84047 -26200630.47746  20785313.8754                   20785308.8444
        47.7504         37.0004
 -52494757.90247 -40862774.88346  20329855.9694                   20329852.0944
        46.7504         40.0004
  -5936131.52046  -4546615.76644  24805820.0394                   24805823.0394
        37.5004         28.7504
  -9631118.56247  -7463892.00446  23016254.1884                   23016250.8634
        45.5004         39.5004
 -46628176.69546 -36280475.71544  25001489.7034                   25001487.2424
        36.7504         29.2504
 25  8  8  1 32 30.0000000  0  9G27G26G09G03G16G04G06G07G31
  11760174.22345   9199548.46944  24579478.0164                   24579480.6454
        34.2504         27.0004
 -35049768.60946 -27258837.39146  23090546.9924                   23090547.0434
        40.2504         36.2504
 -26881809.85947 -20908160.54748  21203747.6564                   21203745.3324
        46.7504         48.0004
 -50965151.74247 -39671591.06647  21512390.8284                   21512389.5514
        45.0004         44.5004
 -31100899.47348 -26261801.35246  20770375.3524                   20770369.9734
        48.0004         37.7504
 -52590136.94547 -40937096.21146  20311706.1644                   20311702.4264
        46.5004         39.5004
  -5990078.37546  -4588652.31644  24795554.3834                   24795557.0864
        38.5004         28.7504
  -9778577.85947  -7578795.28546  22988193.4384                   22988190.3594
        45.0004         39.0004
 -46622808.33246 -36276292.62544  25002510.9144                   25002509.1724
        38.0004         29.5004
 25  8  8  1 33  0.0000000  0  9G27G26G09G03G16G04G06G07G31
  11588817.32045   9066023.76644  24546870.6094                   24546871.8714
        35.0004         28.5004
 -35051575.12946 -27260245.13346  23090203.3914                   23090203.6764
        40.5004         36.5004
 -27036288.48847 -21028533.46948  21174350.9064                   21174348.7774
        46.5004         48.2504
 -50966986.58647 -39673020.87947  21512041.7274                   21512040.7854
        44.7504         44.2504
 -31178745.40648 -26322460.50446  20755561.4774                   20755556.5434
        48.0004         37.2504
 -52685232.03547 -41011196.27346  20293609.7344                   20293606.1094
        47.2504         39.5004
  -6043643.95746  -4630391.79744  24785361.5864                   24785364.2704
        38.7504         28.5004
  -9925858.14847  -7693559.09046  22960166.1724                   22960163.4884
        45.0004         38.5004
 -46617514.89146 -36272167.91444  25003518.2034                   25003516.4844
        38.2504         29.5004
 25  8  8  1 33 30.0000000  0  9G27G26G09G03G16G04G06G07G31
  11417542.72345   8932563.19144  24514277.0004                   24514279.5314
        35.7504         26.7504
 -35053053.02046 -27261396.76646  23089922.5944                   23089922.0474
        40.7504         37.2504
 -27190597.43747 -21148774.17248  21144986.7584                   21144984.5394
        47.0004         48.0004
 -50968461.40247 -39674170.16047  21511761.3524                   21511760.3984
        45.0004         44.0004
 -31255931.83248 -26382605.75846  20740873.6484                   20740868.2974
        48.7504         37.2504
 -52780038.65647 -41085071.55546  20275568.8444                   20275565.2664
        46.5004         39.5004
  -6096827.03146  -4671833.23044  24775241.4694                   24775244.0394
        40.0004         27.7504
 -10072956.19547  -7808180.86746  22932175.0084                   22932171.6094
        44.2504         38.2504
 -46612293.41046 -36268099.27744  25004512.3054                   25004510.0984
        38.0004         28.0004
 25  8  8  1 34  0.0000000  0  9G27G26G09G03G16G04G06G07G31
  11246353.12146   8799168.84444  24481701.5944                   24481703.0204
        36.0004         28.2504
 -35054205.65646 -27262295.00046  23089702.7584                   23089702.5164
        40.5004         36.7504
 -27344735.80147 -21268881.93748  21115654.9614                   21115652.8554
        47.2504         48.0004
 -50969579.45747 -39675041.43747  21511548.1804                   21511547.1174
        44.5004         43.7504
 -31332460.27348 -26442238.29346  20726310.7974                   20726305.4224
        48.7504         37.0004
 -52874556.41047 -41158721.75046  20257582.6414                   20257578.7464
        46.7504         39.5004
  -6149630.69946  -4712978.98444  24765193.5314                   24765195.5204
        38.7504         27.0004
 -10219872.68047  -7922661.16046  22904217.2894                   22904214.3984
        44.5004         38.7504
 -46607145.87546 -36264088.27344  25005492.0164                   25005489.4574
        37.7504         28.5004
 25  8  8  1 34 30.0000000  0  9G27G26G09G03G16G04G06G07G31
  11075247.41046   8665839.87144  24449140.2664                   24449142.6484
        36.0004         28.5004
 -35055040.12046 -27262945.27346  23089544.0314                   23089543.5084
        40.2504         36.7504
 -27498706.35247 -21388858.94948  21086355.5944                   21086353.3054
        47.0004         48.2504
 -50970347.73447 -39675640.16447  21511402.5474                   21511401.0864
        45.0004         43.7504
 -31408335.36748 -26501361.73046  20711872.0314                   20711867.0514
        48.5004         36.7504
 -52968788.53547 -41232149.37146  20239650.9534                   20239647.1294
        45.7504         39.5004
  -6202061.45746  -4753834.17244  24755216.5164                   24755218.4414
        40.0004         27.2504
 -10366612.50847  -8037003.81246  22876293.6954                   22876290.5984
        45.0004         39.5004
 -46602077.66446 -36260139.05144  25006456.0084                   25006454.2464
        38.5004         29.7504
 25  8  8  1 35  0.0000000  0  9G27G26G09G03G16G04G06G07G31
  10904233.08646   8532582.09844  24416597.2894                   24416599.9384
        36.5004         27.7504
 -35055555.09446 -27263346.60546  23089446.4694                   23089446.0824
        40.7504         36.7504
 -27652503.34047 -21508700.70348  21057088.9924                   21057086.5084
        46.7504         48.2504
 -50970764.62947 -39675965.08647  21511322.8524                   21511322.0744
        44.5004         43.5004
 -31483553.71148 -26559973.42246  20697558.3674                   20697553.0984
        48.7504         37.2504
 -53062729.84447 -41305350.38346  20221774.5164                   20221770.8284
        46.0004         39.2504
  -6254117.42646  -4794397.32444  24745311.1024                   24745312.5634
        39.7504         27.2504
 -10513171.81247  -8151205.77746  22848404.5084                   22848401.3284
        45.7504         40.2504
 -46597085.10246 -36256248.79344  25007406.5084                   25007404.0704
        39.5004         29.5004
 25  8  8  1 35 30.0000000  0  9G27G26G09G03G16G04G06G07G31
  10733314.41446   8399398.88345  24384072.7584                   24384074.5044
        39.2504         30.0004
 -35055752.20346 -27263500.24646  23089409.3134                   23089408.7304
        40.7504         36.7504
 -27806124.06647 -21628405.09848  21027855.7424                   21027853.4344
        46.5004         48.2504
 -50970831.69547 -39676017.41447  21511310.3754                   21511309.4024
        44.2504         44.0004
 -31558115.05548 -26618073.16046  20683370.3204                   20683364.8324
        48.0004         37.0004
 -53156378.02347 -41378322.98046  20203954.2194                   20203950.5124
        47.0004         39.2504
  -6305799.93746  -4834669.47344  24735475.9224                   24735477.6844
        40.0004         27.0004
 -10659549.54347  -8265266.25446  22820550.2344                   22820547.0004
        45.7504         40.7504
 -46592167.61746 -36252417.03744  25008342.2664                   25008339.9924
        39.7504         29.7504
 25  8  8  1 36  0.0000000  0  9G27G26G09G03G16G04G06G07G31
  10562493.93446   8266292.14544  24351566.5084                   24351568.1844
        39.0004         29.5004
 -35055634.98846 -27263408.95346  23089431.5004                   23089431.0554
        40.7504         37.5004
 -27959567.76247 -21747971.55148  20998656.5004                   20998654.0354
        47.5004         48.5004
 -50970552.34847 -39675799.80147  21511363.6094                   21511362.5474
        44.7504         43.7504
 -31632020.82448 -26675662.05946  20669306.3054                   20669300.9144
        48.2504         37.2504
 -53249732.92647 -41451067.05146  20186188.8284                   20186185.4264
        47.7504         39.2504
  -6357112.08646  -4874652.99644  24725711.0944                   24725713.3364
        40.0004         27.0004
 -10805746.77347  -8379186.08246  22792729.1024                   22792726.1174
        45.7504         41.5004
 -46587327.14146 -36248645.30144  25009263.2814                   25009261.2894
        40.0004         28.0004
 25  8  8  1 36 30.0000000  0  9G27G26G09G03G16G04G06G07G31
  10391773.84446   8133263.64145  24319080.1724                   24319081.2344
        40.7504         31.5004
 -35055207.48046 -27263075.87546  23089512.6724                   23089512.3444
        40.7504         37.5004
 -28112834.02047 -21867399.73448  20969490.9144                   20969488.7854
        47.5004         48.7504
 -50969930.39847 -39675315.23847  21511481.7734                   21511480.7424
        44.7504         43.7504
 -31705272.95748 -26732741.64146  20655366.8054                   20655361.6094
        48.5004         36.7504
 -53342794.54747 -41523582.59046  20168479.4144                   20168476.5274
        47.2504         39.2504
  -6408057.44146  -4914350.74644  24716016.3524                   24716018.7734
        40.2504         27.5004
 -10951765.34047  -8492966.69946  22764942.9924                   22764939.9264
        46.0004         40.5004
 -46582565.96546 -36244935.32044  25010169.3054                   25010167.0354
        41.0004         29.7504
 25  8  8  1 37  0.0000000  0  9G27G26G09G03G16G04G06G07G31
  10221159.87546   8000317.83245  24286612.9304                   24286614.3874
        40.7504         30.7504
 -35054469.76246 -27262501.09046  23089652.9384                   23089652.8524
        41.0004         36.7504
 -28265918.57447 -21986686.32848  20940360.0864                   20940357.4804
        47.2504         48.5004
 -50968965.91447 -39674563.75847  21511665.3364                   21511664.9184
        45.0004         44.0004
 -31777869.40647 -26789310.29746  20641551.7584                   20641546.9804
        47.7504         37.2504
 -53435559.25047 -41595866.77346  20150827.3984                   20150823.6764
        47.2504         39.7504
  -6458635.73046  -4953762.48044  24706392.0474                   24706394.1604
        40.2504         28.7504
 -11097602.65647  -8606606.06646  22737191.0634                   22737187.4844
        45.2504         39.5004
 -46577882.06246 -36241285.58244  25011060.9454                   25011058.2584
        41.2504         29.0004
 25  8  8  1 37 30.0000000  0  9G27G26G09G03G16G04G06G07G31
  11626078.62546   9095059.85245  24553960.3284                   24553961.4104
        41.0004         31.0004
 -33478007.17646 -26034088.73845  23389643.6414                   23389643.5664
        40.7504         35.5004
 -26843397.24647 -20878228.08648  21211056.6414                   21211054.2894
        47.2504         48.7504
 -49392244.05147 -38445949.39147  21811705.6954                   21811704.7774
        45.0004         44.0004
 -30274391.43448 -25617769.00846  20927654.3134                   20927649.4924
        48.0004         37.0004
 -51952605.35947 -40440318.27746  20433024.3204                   20433020.6334
        47.5004         40.2504
  -4933430.23846  -3765290.73044  24996628.6094                   24996630.5084
        40.7504         28.7504
  -9667836.54347  -7492502.50446  23009266.2424                   23009262.2114
        45.0004         38.7504
 -44997858.88346 -35010098.73444  25311729.1884                   25311726.8674
        41.7504         29.0004
 25  8  8  1 38  0.0000000  0  9G27G26G09G03G16G04G06G07G31
  11455681.89846   8962283.31645  24521534.1564                   24521535.5124
        41.2504         31.2504
 -33476662.52746 -26033041.01246  23389899.6724                   23389899.3014
        41.2504         36.5004
 -26996118.66848 -20997231.72348  21181994.7274                   21181992.4384
        48.0004         48.7504
 -49390607.47747 -38444674.19947  21812017.0704                   21812016.3284
        44.7504         43.7504
 -30345684.72748 -25673322.21546  20914087.9534                   20914082.4884
        48.0004         37.2504
 -52044778.05547 -40512141.15246  20415484.1334                   20415480.5704
        47.5004         40.0004
  -4983286.70746  -3804140.00444  24987142.6644                   24987143.7304
        40.2504         29.7504
  -9813317.01247  -7605863.80546  22981582.2424                   22981578.5594
        45.0004         39.2504
 -44993337.05946 -35006575.23844  25312589.7584                   25312587.6454
        41.2504         29.2504
 25  8  8  1 38 30.0000000  0  9G27G26G09G03G16G04G06G07G31
  11285397.30146   8829594.14845  24489130.1174                   24489131.2774
        41.0004         31.2504
 -33475019.98446 -26031761.15645  23390212.5004                   23390212.0164
        41.7504         35.2504
 -27148657.50847 -21116093.08648  21152967.3754                   21152965.0204
        47.0004         49.0004
 -49388640.27047 -38443141.37947  21812391.8754                   21812390.5274
        45.0004         44.0004
 -30416328.88347 -25728369.60946  20900644.7504                   20900639.5984
        47.2504         37.0004
 -52136654.55547 -40583733.22346  20398000.6564                   20397997.0514
        46.5004         39.5004
  -5032787.28546  -3842711.95745  24977721.4844                   24977724.4304
        40.5004         30.5004
  -9958621.19547  -7719087.74646  22953931.6884                   22953928.0084
        45.0004         39.5004
 -44988898.91846 -35003116.98444  25313434.0554                   25313432.5904
        40.5004         28.7504
 25  8  8  1 39  0.0000000  0  9G27G26G09G03G16G04G06G07G31
  11115228.96146   8696995.59845  24456748.0084                   24456749.1214
        41.0004         30.0004
 -33473081.54746 -26030250.73445  23390581.7424                   23390581.2734
        41.2504         35.5004
 -27301011.34847 -21234810.29348  21123975.3444                   21123973.1414
        47.2504         48.7504
 -49386344.36747 -38441352.44547  21812828.8754                   21812827.5864
        46.0004         43.7504
 -30486324.20747 -25782911.41846  20887324.9774                   20887319.6954
        47.5004         37.0004
 -52228233.00847 -40655093.05946  20380573.8834                   20380569.8754
        47.0004         39.7504
  -5081933.59046  -3881007.85544  24968369.0944                   24968372.2274
        40.2504         29.5004
 -10103748.83647  -7832174.12946  22926314.3204                   22926311.1644
        45.5004         39.5004
 -44984544.14146 -34999723.65244  25314262.7034                   25314260.7624
        40.7504         26.5004
 25  8  8  1 39 30.0000000  0 10G27G26G09G03G16G04G06G08G07G31
  10945174.00046   8564485.34444  24424387.4694                   24424388.6254
        41.2504         28.5004
 -33470856.13347 -26028516.69945  23391005.1644                   23391005.0474
        42.0004         35.0004
 -27453184.69147 -21353386.87148  21095018.2194                   21095015.7274
        46.7504         49.0004
 -49383728.53147 -38439314.20347  21813326.3674                   21813325.4104
        45.0004         44.0004
 -30555677.67648 -25836953.08646  20874127.1414                   20874122.2344
        48.5004         37.0004
 -52319518.51647 -40726224.61346  20363202.9534                   20363199.4844
        47.0004         40.0004
  -5130734.27046  -3919034.42245  24959083.6174                   24959086.0634
        39.7504         30.2504
  18610197.03956  14540412.12553  24916290.1954                   24916295.0204
        36.0004         22.2504
 -10248706.08647  -7945127.74246  22898730.3204                   22898726.5784
        45.5004         40.0004
 -44980280.16446 -34996401.06244  25315074.0864                   25315072.4144
        41.2504         27.2504
 25  8  8  1 40  0.0000000  0 10G27G26G09G03G16G04G06G08G07G31
  10775235.74646   8432066.06344  24392048.9774                   24392050.7734
        40.7504         29.2504
 -33468346.47746 -26026561.18045  23391483.1884                   23391482.4184
        41.5004         35.5004
 -27605175.81648 -21471821.45748  21066095.1564                   21066092.3524
        48.0004         49.0004
 -49380795.44947 -38437028.75847  21813884.8754                   21813883.8524
        46.0004         44.0004
 -30624390.34047 -25890495.41846  20861051.8204                   20861046.8324
        47.5004         37.2504
 -52410509.89547 -40797126.98446  20345887.9144                   20345884.3484
        46.7504         40.0004
  -5179191.59446  -3956793.44544  24949862.0704                   24949864.9184
        39.5004         29.5004
  18431710.52346  14401332.04343  24882325.1484                   24882329.4384
        36.2504         22.7504
 -10393493.22347  -8057948.80546  22871178.1414                   22871174.4614
        46.0004         40.5004
 -44976107.55946 -34993149.64844  25315868.2734                   25315866.3674
        41.0004         26.5004
 25  8  8  1 40 30.0000000  0 10G27G26G09G03G16G04G06G08G07G31
  10605421.29346   8299743.21144  24359734.3204                   24359734.7424
        40.2504         27.5004
 -33465551.62946 -26024383.42645  23392015.1094                   23392014.3404
        41.5004         35.2504
 -27756979.37147 -21590109.89848  21037207.2504                   21037204.5004
        47.5004         48.7504
 -49377544.04747 -38434495.26647  21814503.3364                   21814502.7664
        45.0004         44.0004
 -30692459.41848 -25943536.25046  20848098.7344                   20848093.4804
        48.0004         37.0004
 -52501202.36747 -40867796.44146  20328629.5554                   20328625.9224
        47.0004         39.2504
  -5227304.38746  -3994284.00844  24940706.9844                   24940709.5314
        39.5004         29.5004
  18253095.71946  14262151.84443  24848334.6724                   24848339.4024
        36.0004         21.5004
 -10538106.51647  -8170634.40646  22843659.0314                   22843655.2974
        45.7504         40.5004
 -44972022.78146 -34989966.70343  25316645.4064                   25316643.9454
        38.7504         22.7504
 25  8  8  1 41  0.0000000  0  9G27G26G09G03G16G04G06G08G07
  10435734.69546   8167519.99244  24327443.7504                   24327445.1954
        41.0004         29.0004
 -33462473.59446 -26021985.00445  23392599.7584                   23392599.5904
        41.7504         34.0004
 -27908592.95747 -21708250.31648  21008356.4774                   21008353.7384
        47.0004         49.0004
 -49373976.35947 -38431715.32847  21815182.1724                   21815181.5434
        45.2504         43.0004
 -30759885.03148 -25996075.68446  20835268.3364                   20835263.2974
        48.0004         36.5004
 -52591594.19947 -40938231.64146  20311428.1254                   20311424.4614
        46.2504         39.5004
  -5275074.35546  -4031507.43745  24931617.2504                   24931619.7114
        40.0004         30.7504
  18074356.10245  14122874.49243  24814321.1954                   24814326.7464
        35.0004         21.5004
 -10682545.89547  -8283184.49246  22816172.8204                   22816169.6724
        46.0004         40.5004
 25  8  8  1 41 30.0000000  0  9G27G26G09G03G16G04G06G08G07
  10266181.53146   8035400.74644  24295179.0314                   24295180.0474
        40.2504         28.0004
 -33459112.89546 -26019366.33645  23393239.2664                   23393239.7934
        40.0004         33.7504
 -28060012.62147 -21826239.62548  20979542.2814                   20979539.2894
        46.7504         49.0004
 -49370092.72347 -38428689.19947  21815921.6024                   21815920.9304
        45.0004         43.0004
 -30826666.02747 -26048112.82046  20822559.9224                   20822554.8914
        47.5004         36.2504
 -52681681.98847 -41008429.91446  20294285.3524                   20294281.6884
        46.2504         39.2504
  -5322501.67246  -4068463.86345  24922592.1174                   24922594.6134
        39.5004         30.2504
  17895496.82846  13983503.87944  24780285.1094                   24780291.0904
        36.7504         24.7504
 -10826809.37547  -8395597.51646  22788720.3834                   22788717.0164
        45.0004         40.2504
 25  8  8  1 42  0.0000000  0  9G27G26G09G03G16G04G06G08G07
  10096773.46546   7903394.54744  24262942.4534                   24262942.2544
        40.5004         28.0004
 -33455463.96946 -26016523.07845  23393934.5554                   23393934.2074
        39.5004         33.0004
 -28211228.31647 -21944070.00448  20950766.7894                   20950764.2114
        47.0004         49.0004
 -49365887.59047 -38425412.55547  21816721.5554                   21816720.4574
        44.0004         43.0004
 -30892795.12147 -26099641.97346  20809976.2814                   20809971.3594
        47.5004         36.7504
 -52771456.35547 -41078383.96946  20277202.2584                   20277198.2274
        47.5004         39.7504
  -5369580.57446  -4105148.79745  24913632.7814                   24913635.4024
        39.0004         30.0004
  17716528.88746  13844048.65644  24746229.1484                   24746234.4574
        37.2504         24.0004
 -10970888.80547  -8507867.12946  22761302.8594                   22761299.5354
        45.0004         40.2504
 25  8  8  1 42 30.0000000  0 10G27G26G09G03G16G04G06G08G07G30
   9927513.95346   7771504.11744  24230732.9774                   24230733.3484
        39.0004         28.5004
 -33451529.50446 -26013457.32045  23394682.9694                   23394682.8834
        40.0004         33.5004
 -28362238.28547 -22061740.09048  20922030.8134                   20922028.0704
        47.5004         49.2504
 -49361363.57047 -38421887.42647  21817582.8054                   21817581.7624
        45.0004         43.5004
 -30958273.18747 -26150663.84046  20797516.3364                   20797511.0394
        47.5004         37.0004
 -52860916.17247 -41148092.91846  20260178.3444                   20260174.7854
        45.2504         39.7504
  -5416313.38746  -4141564.04745  24904740.3054                   24904742.5704
        38.5004         30.2504
  17537455.10546  13704510.90244  24712152.2344                   24712157.0084
        38.5004         24.2504
 -11114784.39147  -8619993.48046  22733920.2034                   22733916.8524
        45.0004         40.0004
  18596370.72756  14526329.92254  25320424.8914                   25320430.5904
        37.0004         27.2504
 25  8  8  1 43  0.0000000  0 10G27G26G09G03G16G04G06G08G07G30
   9758401.37946   7639728.18044  24198551.3674                   24198552.5434
        38.7504         27.7504
 -33447317.15646 -26010175.03145  23395484.4144                   23395484.5704
        39.7504         32.2504
 -28513045.80147 -22179252.41048  20893332.3914                   20893330.0634
        47.0004         49.2504
 -49356528.32447 -38418119.78947  21818502.7894                   21818502.1294
        45.5004         42.7504
 -31023106.65647 -26201183.41446  20785178.4224                   20785173.3554
        47.2504         37.0004
 -52950065.28147 -41217559.75846  20243213.5314                   20243209.8484
        45.0004         39.5004
  -5462707.57446  -4177715.45745  24895910.6644                   24895914.0634
        38.2504         30.5004
  17358273.27046  13564888.86744  24678054.6024                   24678059.3554
        38.5004         26.5004
 -11258501.94147  -8731981.11346  22706571.6024                   22706568.5084
        45.5004         40.2504
  18424998.91046  14392793.97344  25287812.5474                   25287819.6764
        36.7504         26.7504
 25  8  8  1 43 30.0000000  0 10G27G26G09G03G16G04G06G08G07G30
   9589434.62146   7508065.85544  24166398.1644                   24166399.3754
        39.2504         29.2504
 -33442834.23846 -26006681.90245  23396337.8134                   23396337.2934
        39.5004         31.5004
 -28663653.62147 -22296609.13748  20864673.0864                   20864670.4574
        46.7504         49.5004
 -49351389.01647 -38414115.21547  21819480.8444                   21819480.6174
        45.5004         42.2504
 -31087301.07847 -26251205.03146  20772962.8914                   20772957.7544
        46.2504         37.0004
 -53038907.04747 -41286787.11346  20226307.4144                   20226303.8284
        45.2504         39.2504
  -5508770.11746  -4213608.43445  24887146.3284                   24887148.8984
        38.5004         30.5004
  17178981.83346  13425181.46644  24643935.9924                   24643940.9884
        38.0004         27.5004
 -11402045.74247  -8843833.36346  22679256.3284                   22679252.8444
        46.0004         40.5004
  18253710.43446  14259322.93444  25255216.9924                   25255223.8364
        37.7504         28.2504
 25  8  8  1 44  0.0000000  0 10G27G26G09G03G16G04G06G08G07G30
   9420612.55546   7376516.29344  24134271.5554                   24134273.2734
        38.2504         29.2504
 -33438087.90646 -26002983.51645  23397240.9454                   23397240.5864
        39.5004         30.7504
 -28814064.46547 -22413812.37548  20836050.6804                   20836048.0944
        46.5004         49.2504
 -49345952.92247 -38409879.38747  21820515.1954                   21820514.7154
        45.2504         42.2504
 -31150861.93447 -26300732.97346  20760867.2974                   20760862.4534
        47.0004         37.0004
 -53127445.00447 -41355777.72746  20209459.5164                   20209455.9804
        45.0004         39.2504
  -5554508.02046  -4249248.43445  24878442.5864                   24878445.4694
        39.2504         30.0004
  16999579.06346  13285387.41044  24609797.0314                   24609802.1294
        39.0004         29.5004
 -11545420.42247  -8955553.84046  22651972.9224                   22651969.2814
        46.2504         40.2504
  18082501.02746  14125913.48044  25222636.7734                   25222643.1294
        37.2504         28.5004
 25  8  8  1 44 30.0000000  0 10G27G26G09G03G16G04G06G08G07G30
   9251946.58246   7245088.37944  24102175.8364                   24102177.5084
        38.0004         29.0004
 -33433072.89546 -25999075.76245  23398194.8204                   23398194.9614
        39.0004         30.7504
 -28964268.57847 -22530854.52348  20807467.8364                   20807465.4144
        46.5004         49.5004
 -49340214.64547 -38405408.09047  21821607.4384                   21821606.9614
        45.7504         43.0004
 -31213782.52047 -26349761.99646  20748894.4144                   20748889.0434
        46.0004         36.7504
 -53215669.98847 -41424524.46546  20192670.7114                   20192667.3204
        45.7504         39.0004
  -5599915.76246  -4284631.18045  24869802.1414                   24869804.8714
        40.0004         31.2504
  16820075.86346  13145515.05945  24575639.1174                   24575643.7704
        38.2504         30.7504
 -11688618.52347  -9067136.72746  22624723.1334                   22624719.7114
        46.0004         40.5004
  17911378.85546  13992571.98044  25190073.1334                   25190079.3054
        37.0004         28.7504
 25  8  8  1 45  0.0000000  0 10G27G26G09G03G16G04G06G08G07G30
   9083434.91046   7113780.69945  24070109.2974                   24070110.5864
        37.5004         30.2504
 -33427797.03146 -25994964.75045  23399198.8524                   23399198.7074
        39.5004         31.5004
 -29114269.42247 -22647738.28148  20778923.5944                   20778920.6214
        47.0004         49.5004
 -49334182.09847 -38400707.48047  21822755.2584                   21822754.6024
        45.0004         42.0004
 -31276069.05147 -26398296.94546  20737041.4224                   20737036.4804
        46.2504         37.0004
 -53303586.06247 -41493030.50046  20175941.0234                   20175937.1764
        46.5004         39.0004
  -5645001.04746  -4319762.66845  24861222.4454                   24861225.4304
        38.2504         30.0004
  16640469.81346  13005562.57444  24541460.0164                   24541465.4924
        37.7504         29.2504
 -11831645.78147  -9178586.47746  22597505.8444                   22597502.1174
        45.2504         40.5004
  17740339.18046  13859294.75044  25157525.3364                   25157531.1134
        37.2504         29.2504
 25  8  8  1 45 30.0000000  0 10G27G26G09G03G16G04G06G08G07G30
   8915086.67246   6982600.36345  24038073.7974                   24038074.9384
        37.5004         30.7504
 -33422257.42246 -25990648.21945  23400253.4304                   23400253.2274
        39.5004         33.0004
 -29264059.38347 -22764457.70748  20750419.4694                   20750416.7774
        47.2504         49.5004
 -49327852.23447 -38395775.21147  21823959.9694                   21823959.3364
        45.0004         42.5004
 -31337717.02347 -26446334.32046  20725310.3754                   20725305.0314
        46.5004         37.0004
 -53391186.40247 -41561290.50046  20159271.2034                   20159267.7464
        46.0004         39.5004
  -5689760.58446  -4354640.31645  24852704.8284                   24852708.0744
        39.7504         30.7504
  16460769.60246  12865536.70344  24507263.9384                   24507269.0704
        38.7504         29.7504
 -11974496.56247  -9289898.71146  22570322.0234                   22570318.8204
        45.5004         41.0004
  17569387.94146  13726086.41444  25124994.2504                   25125000.0274
        37.5004         28.0004
 25  8  8  1 46  0.0000000  0 10G27G26G09G03G16G04G06G08G07G30
  10322331.65246   8079155.00044  24305862.8284                   24305864.5004
        37.0004         29.7504
 -31841036.12946 -24758527.78945  23701149.8674                   23701150.1414
        39.7504         33.0004
 -27838211.06647 -21653407.05948  21021749.1804                   21021746.5704
        46.5004         49.2504
 -47745807.20347 -37163012.93746  22125013.1254                   22125012.4534
        45.5004         41.5004
 -29823304.93047 -25266272.94946  21013493.2584                   21013487.9264
        46.0004         37.0004
 -51903046.25847 -40401700.78146  20442454.6564                   20442451.0164
        45.0004         39.2504
  -4158774.68746  -3161664.39545  25144042.3284                   25144044.6414
        39.0004         30.7504
  17856404.87946  13953044.94145  24772844.2274                   24772849.1214
        38.2504         31.5004
 -10541745.55947  -8173469.32046  22842965.7424                   22842962.0984
        46.0004         41.0004
  18973951.81346  14820552.18844  25392272.4694                   25392278.9184
        36.0004         26.7504
 25  8  8  1 46 30.0000000  0 10G27G26G09G03G16G04G06G08G07G30
  10154320.02346   7948236.96945  24273892.1884                   24273892.9964
        37.5004         30.5004
 -31834977.45746 -24753806.78945  23702302.7034                   23702302.7544
        39.7504         33.7504
 -27987574.53547 -21769794.16448  20993326.6884                   20993323.9454
        47.2504         49.5004
 -47738891.35547 -37157624.05947  22126329.6094                   22126328.6214
        45.0004         42.0004
 -29883680.10947 -25313318.54746  21002004.4774                   21001999.3484
        45.5004         36.5004
 -51990012.37947 -40469466.58246  20425905.8134                   20425901.9964
        45.0004         39.2504
  -4202890.93446  -3196040.78945  25135646.6724                   25135650.0124
        38.5004         30.5004
  17676524.45346  13812878.64145  24738614.2814                   24738619.3204
        38.5004         30.7504
 -10684244.66847  -8284507.51246  22815848.7504                   22815845.4414
        46.0004         41.0004
  18803177.82845  14687481.94144  25359775.9064                   25359781.2584
        35.5004         27.0004
 25  8  8  1 47  0.0000000  0 10G27G26G09G03G16G04G06G08G07G30
   9986480.91046   7817453.36745  24241952.2894                   24241954.3284
        37.5004         30.7504
 -31828664.25446 -24748887.46545  23703504.1414                   23703503.8444
        40.2504         33.7504
 -28136722.96547 -21886013.69548  20964944.1024                   20964941.4804
        47.7504         49.5004
 -47731687.40647 -37152010.68747  22127700.2194                   22127699.7304
        45.5004         42.0004
 -29943421.66047 -25359870.41046  20990636.1884                   20990630.5984
        47.0004         37.0004
 -52076660.63747 -40536984.71546  20409417.4064                   20409413.6644
        46.5004         39.5004
  -4246690.12546  -3230170.14545  25127312.8594                   25127315.5664
        38.0004         30.5004
  17496557.46546  13672644.86745  24704367.7584                   24704372.5044
        37.5004         31.0004
 -10826569.24247  -8395409.70346  22788765.3364                   22788761.6294
        46.5004         41.0004
  18632492.05946  14554480.41444  25327295.2344                   25327300.5164
        37.0004         27.7504
 25  8  8  1 47 30.0000000  0 10G27G26G09G03G16G04G06G08G07G30
   9818816.59446   7686805.98445  24210047.3364                   24210048.6174
        37.5004         32.0004
 -31822100.23446 -24743772.69945  23704753.6484                   23704753.1374
        40.7504         34.2504
 -28285655.67647 -22002065.13748  20936603.6644                   20936601.1954
        47.7504         49.7504
 -47724199.29747 -37146175.88747  22129125.7274                   22129124.8444
        45.2504         42.0004
 -30002532.02347 -25405930.43746  20979387.2114                   20979381.9694
        45.5004         37.2504
 -52162991.09847 -40604255.19946  20392989.1024                   20392985.2934
        45.7504         39.2504
  -4290176.02746  -3264055.34845  25119038.1484                   25119040.2344
        38.0004         30.0004
  17316505.67646  13532345.08645  24670104.7424                   24670109.3014
        36.0004         30.2504
 -10968720.86747  -8506177.12546  22761714.7034                   22761711.4414
        46.0004         41.0004
  18461893.57046  14421546.92244  25294830.8984                   25294836.3204
        36.7504         28.0004
 25  8  8  1 48  0.0000000  0 10G27G26G09G03G16G04G06G08G07G30
   9651332.00046   7556298.63345  24178175.9064                   24178176.8674
        38.0004         32.7504
 -31815286.70346 -24738463.50845  23706050.0634                   23706050.3524
        40.0004         34.7504
 -28434369.33647 -22117945.88348  20908303.9384                   20908301.7504
        47.0004         49.7504
 -47716428.17647 -37140120.56246  22130603.7424                   22130603.9184
        45.2504         41.7504
 -30061011.24247 -25451498.66846  20968259.2584                   20968254.2624
        46.7504         36.7504
 -52249001.16047 -40671276.02346  20376622.0944                   20376618.2504
        44.7504         39.5004
  -4333349.64546  -3297697.24245  25110821.7734                   25110824.5864
        38.2504         31.5004
  17136373.37945  13391982.56344  24635826.0084                   24635830.6844
        34.5004         29.2504
 -11110698.15247  -8616808.71146  22734697.5164                   22734693.7274
        46.0004         41.0004
  18291384.14146  14288682.80944  25262383.8674                   25262389.3094
        36.7504         26.5004
 25  8  8  1 48 30.0000000  0 10G27G26G09G03G16G04G06G08G07G30
   9484031.62146   7425934.82445  24146339.4454                   24146340.9494
        38.0004         32.0004
 -31808225.22346 -24732961.11745  23707393.7584                   23707393.9494
        39.2504         34.7504
 -28582861.11347 -22233653.73848  20880047.1024                   20880044.7234
        46.7504         49.7504
 -47708375.75047 -37133846.03146  22132136.6644                   22132136.4964
        45.5004         41.5004
 -30118859.36347 -25496575.12146  20957251.1334                   20957245.5274
        46.2504         36.5004
 -52334688.68047 -40738045.52746  20360316.5634                   20360312.3364
        45.2504         39.5004
  -4376212.57446  -3331097.04345  25102664.8834                   25102668.1524
        38.2504         30.0004
  16956164.66845  13251560.46145  24601532.8364                   24601537.7544
        34.5004         30.7504
 -11252500.20347  -8727303.75046  22707713.2584                   22707709.6294
        46.2504         41.0004
  18120965.18045  14155889.15244  25229953.6804                   25229959.0204
        35.7504         26.2504
 25  8  8  1 49  0.0000000  0 10G27G26G09G03G16G04G06G08G07G30
   9316912.99646   7295712.64145  24114537.6414                   24114539.3524
        38.2504         32.2504
 -31800924.31646 -24727272.16845  23708783.1024                   23708782.9494
        40.2504         35.0004
 -28731134.94548 -22349191.75848  20851831.5234                   20851829.1054
        48.0004         50.0004
 -47700050.56247 -37127358.97746  22133720.8754                   22133720.5664
        45.0004         41.7504
 -30176083.66847 -25541165.48846  20946361.7274                   20946356.3834
        45.7504         36.2504
 -52420058.43047 -40804567.41046  20344070.5864                   20344067.5164
        45.5004         39.0004
  -4418773.06246  -3364261.15644  25094565.9774                   25094569.4414
        37.0004         29.2504
  16775876.66045  13111076.56644  24567224.5634                   24567230.2154
        33.2504         28.0004
 -11394133.44147  -8837667.23846  22680761.7194                   22680757.5594
        46.2504         41.5004
  17950631.10246  14023161.63344  25197540.0314                   25197545.1254
        36.5004         27.0004
 25  8  8  1 49 30.0000000  0 10G27G26G09G03G16G04G06G08G07G30
   9149985.43846   7165639.34045  24082772.3834                   24082773.5354
        39.0004         33.5004
 -31793380.78546 -24721394.13745  23710218.4144                   23710218.7774
        40.0004         35.2504
 -28879183.18747 -22464553.98848  20823658.9694                   20823655.9184
        47.2504         50.0004
 -47691449.43747 -37120656.89546  22135357.8914                   22135357.5434
        43.7504         41.0004
 -30232679.74647 -25585266.33646  20935591.9534                   20935586.6564
        45.7504         36.5004
 -52505103.40647 -40870836.23046  20327887.4304                   20327883.5554
        46.0004         39.0004
  -4461027.84846  -3397187.05545  25086526.1254                   25086529.1094
        37.2504         30.0004
  16595518.13345  12970537.71944  24532904.4694                   24532908.7114
        33.0004         28.5004
 -11535592.34847  -8947894.86746  22653842.6254                   22653839.2544
        46.2504         41.5004
  17780387.93045  13890504.97744  25165144.0864                   25165148.6844
        35.5004         26.7504
 25  8  8  1 50  0.0000000  0 10G27G26G09G03G16G04G06G08G07G30
   8983250.82046   7035716.36345  24051043.6884                   24051045.1094
        39.5004         34.2504
 -31785598.86346 -24715330.35945  23711700.2274                   23711699.8984
        41.0004         35.5004
 -29027005.56647 -22579740.21948  20795529.0314                   20795526.5164
        47.2504         50.0004
 -47682576.68047 -37113743.15246  22137046.0084                   22137046.0204
        44.5004         41.2504
 -30288650.45347 -25628879.88746  20924940.8594                   20924935.9494
        46.5004         36.2504
 -52589824.17247 -40936852.41046  20311765.4614                   20311761.6884
        45.0004         39.5004
  -4502981.10246  -3429878.00044  25078542.4534                   25078546.1294
        37.2504         29.5004
  16415090.62145  12829945.09844  24498570.4064                   24498574.1884
        33.7504         28.0004
 -11676878.35547  -9057987.78146  22626956.8594                   22626953.0164
        46.2504         41.5004
  17610234.47346  13757918.18444  25132764.4924                   25132769.2384
        36.2504         27.0004
 25  8  8  1 50 30.0000000  0 10G27G26G09G03G16G04G06G08G07G30
   8816711.84046   6905945.85245  24019352.5084                   24019353.9184
        39.7504         34.7504
 -31777581.98046 -24709083.48446  23713225.7504                   23713225.0944
        41.7504         36.0004
 -29174600.93747 -22694749.56648  20767442.3754                   20767439.9534
        47.7504         50.0004
 -47673435.75047 -37106620.44946  22138785.9454                   22138785.4344
        44.7504         41.0004
 -30343998.07047 -25672007.89846  20914408.3524                   20914403.6374
        46.2504         36.5004
 -52674220.29747 -41002615.62546  20295705.2344                   20295701.5004
        45.5004         39.0004
  -4544636.16046  -3462336.57845  25070615.9694                   25070619.0944
        37.0004         30.5004
  16234596.25445  12689300.37544  24464223.1024                   24464226.9924
        32.5004         28.2504
 -11817993.10547  -9167947.24646  22600103.5474                   22600099.8594
        46.5004         41.7504
  17440170.24245  13625400.93844  25100403.0784                   25100406.5234
        35.5004         25.5004
 25  8  8  1 51  0.0000000  0 10G27G26G09G03G16G04G06G08G07G30
   8650372.42246   6776330.83645  23987698.9534                   23987700.8404
        41.0004         35.2504
 -31769332.21546 -24702655.14545  23714794.9694                   23714795.1454
        40.5004         35.0004
 -29321966.93447 -22809580.18448  20739399.4774                   20739397.1954
        47.5004         50.2504
 -47664028.89847 -37099290.53946  22140575.6644                   22140575.4614
        44.2504         41.2504
 -30398723.73447 -25714651.28946  20903994.8674                   20903989.6524
        46.0004         36.0004
 -52758290.25047 -41068124.68746  20279706.8984                   20279703.6254
        45.0004         39.2504
  -4585995.07046  -3494564.39544  25062745.3364                   25062748.5514
        36.7504         29.0004
  16054038.68445  12548606.42244  24429864.1564                   24429867.7814
        33.2504         26.5004
 -11958936.21547  -9277772.96147  22573282.7034                   22573279.3524
        45.7504         42.0004
  17270196.02046  13492953.82044  25068056.3594                   25068061.6804
        36.2504         27.0004
 25  8  8  1 51 30.0000000  0 10G27G26G09G03G16G04G06G08G07G30
   8484238.06646   6646875.60545  23956085.1254                   23956086.2034
        40.5004         34.7504
 -31760850.23846 -24696045.87545  23716409.5634                   23716409.3754
        40.2504         35.0004
 -29469099.65648 -22924229.00848  20711401.1334                   20711398.7774
        48.5004         50.2504
 -47654356.72747 -37091753.88346  22142416.2274                   22142416.4884
        44.2504         41.5004
 -30452826.60547 -25756809.37546  20893699.3754                   20893694.2624
        46.2504         36.7504
 -52842030.85247 -41133377.10946  20263772.3364                   20263768.2774
        46.0004         39.2504
  -4627058.35546  -3526561.85545  25054931.0394                   25054934.5634
        37.5004         30.0004
  15873423.01645  12407867.18044  24395493.1804                   24395497.6524
        32.2504         27.0004
 -12099705.67647  -9387463.36346  22546495.1724                   22546491.6524
        45.7504         41.7504
  17100314.16846  13360578.67644  25035729.0634                   25035733.4184
        36.0004         26.0004
 25  8  8  1 52  0.0000000  0 10G27G26G09G03G16G04G06G08G07G30
   8318308.25046   6517579.75445  23924508.9844                   23924510.4694
        41.0004         34.5004
 -31752142.60246 -24689260.77045  23718066.5704                   23718065.9414
        39.7504         34.2504
 -29616001.23448 -23038697.74248  20683446.9614                   20683444.1804
        48.0004         50.2504
 -47644426.01647 -37084015.77346  22144306.1334                   22144306.4144
        44.2504         41.0004
 -30506312.25847 -25798486.50846  20883520.8674                   20883515.9144
        46.5004         36.5004
 -52925445.07047 -41198375.20746  20247898.6334                   20247895.5314
        46.0004         39.5004
  -4667832.68746  -3558334.16445  25047172.6564                   25047175.6954
        38.0004         30.5004
  15692748.05945  12267081.70744  24361112.1484                   24361116.1684
        32.0004         27.2504
 -12240305.89547  -9497021.89547  22519739.7344                   22519736.0274
        46.5004         42.2504
  16930520.90645  13228272.56644  25003417.1724                   25003422.6764
        35.0004         26.0004
 25  8  8  1 52 30.0000000  0 10G27G26G09G03G16G04G06G08G07G30
   8152586.98046   6388446.38345  23892973.5474                   23892974.3634
        41.7504         34.5004
 -31743211.38346 -24682301.44545  23719765.7114                   23719766.3834
        39.0004         33.7504
 -29762669.15648 -23152984.40248  20655536.9064                   20655534.0474
        48.7504         50.2504
 -47634238.88347 -37076077.84846  22146244.9924                   22146244.8094
        44.0004         41.5004
 -30559181.73447 -25839683.51646  20873460.6804                   20873455.5354
        46.7504         36.2504
 -53008531.21947 -41263117.66446  20232088.1804                   20232084.2304
        45.7504         38.7504
  -4708319.91446  -3589882.76644  25039468.5704                   25039471.6484
        38.2504         29.7504
  15512017.53145  12126252.93444  24326720.1564                   24326724.4924
        32.5004         26.2504
 -12380736.89147  -9606448.57047  22493016.4064                   22493012.7774
        46.2504         42.2504
  16760817.06345  13096036.12544  24971124.1254                   24971128.9384
        35.2504         26.5004
 25  8  8  1 53  0.0000000  0 10G27G26G09G03G16G04G06G08G07G30
   7987079.78146   6259479.86345  23861478.8054                   23861479.9494
        41.2504         34.5004
 -31734057.12146 -24675168.33245  23721508.6174                   23721508.0864
        38.2504         32.7504
 -29909099.46148 -23267085.90648  20627672.1484                   20627669.3364
        48.0004         50.2504
 -47623795.88747 -37067940.55946  22148232.1564                   22148232.6094
        43.7504         41.0004
 -30611434.48047 -25880399.94146  20863517.1564                   20863512.0354
        47.0004         36.5004
 -53091286.08647 -41327601.97746  20216340.4144                   20216337.0354
        45.7504         39.2504
  -4748520.64146  -3621208.10244  25031817.4224                   25031821.3754
        36.7504         28.5004
  15331236.84845  11985385.07844  24292317.8444                   24292322.8324
        34.2504         28.7504
 -12520996.36747  -9715741.59847  22466325.7034                   22466322.2424
        46.0004         42.2504
  16591205.07845  12963871.27744  24938847.8364                   24938852.8014
        34.7504         25.5004
 25  8  8  1 53 30.0000000  0 10G27G26G09G03G16G04G06G08G07G30
   7821787.37946   6130680.71145  23830023.8594                   23830025.3054
        41.2504         34.5004
 -31724685.15646 -24667865.58245  23723291.0554                   23723291.8364
        38.2504         30.7504
 -30055293.02748 -23381002.93748  20599852.3984                   20599849.6684
        49.2504         50.2504
 -47613102.64847 -37059608.27746  22150267.4924                   22150267.0704
        44.0004         41.0004
 -30663074.74647 -25920639.12146  20853690.6954                   20853685.0474
        47.2504         36.5004
 -53173711.46147 -41391829.55146  20200655.4304                   20200651.9344
        46.0004         39.0004
  -4788440.29345  -3652314.44544  25024221.6564                   25024225.2154
        35.7504         28.5004
  15150406.01645  11844478.16844  24257906.8674                   24257911.6724
        35.0004         27.7504
 -12661087.74647  -9824903.62947  22439667.3674                   22439663.5164
        45.5004         42.5004
  16421682.46545  12831776.07844  24906587.4774                   24906592.8914
        35.5004         25.5004
 25  8  8  1 54  0.0000000  0 10G27G26G09G03G16G04G06G08G07G30
   7656715.17246   6002053.13345  23798612.2974                   23798612.6604
        41.7504         34.5004
 -31715096.21146 -24660393.75445  23725115.8134                   23725116.1334
        38.2504         31.5004
 -30201246.00048 -23494732.50048  20572078.2664                   20572076.2034
        49.2504         50.5004
 -47602159.86347 -37051081.54346  22152349.7664                   22152349.5354
        44.2504         40.7504
 -30714102.27047 -25960400.82845  20843980.5554                   20843975.2704
        47.2504         35.7504
 -53255804.29747 -41455797.99646  20185033.6334                   20185029.7974
        46.2504         39.2504
  -4828079.49245  -3683202.24244  25016677.6024                   25016682.1564
        35.7504         27.7504
  14969530.23446  11703536.22344  24223487.8134                   24223491.8364
        36.0004         27.7504
 -12801009.35547  -9933933.37947  22413041.2894                   22413037.4654
        46.0004         42.0004
  16252251.33245  12699752.14844  24874347.2034                   24874351.3204
        34.5004         25.2504
 25  8  8  1 54 30.0000000  0 10G27G26G09G03G16G04G06G08G07G30
   9067294.32046   7101205.81345  24067036.3674                   24067037.2624
        41.5004         35.0004
 -30129870.94146 -23425153.36745  24026774.7504                   24026774.9614
        38.5004         31.5004
 -28771529.34448 -22380667.54748  20844144.4454                   20844141.6524
        48.7504         50.2504
 -46015548.41847 -35814761.05546  22454271.8674                   22454271.5664
        43.7504         40.7504
 -29189094.78148 -24772083.30546  21134179.7814                   21134174.1804
        48.0004         36.0004
 -51762138.49247 -40291902.57446  20469268.4774                   20469265.1334
        46.5004         39.5004
  -3292017.28146  -2486270.76644  25308981.3524                   25308984.4454
        36.7504         26.0004
  16364040.74646  12790168.01644  24488853.4534                   24488857.5784
        36.7504         28.5004
 -11365334.51647  -8815225.64547  22686241.0784                   22686237.7194
        46.7504         42.0004
  17658339.89845  13795405.91444  25141916.6254                   25141920.5274
        35.5004         25.5004
 25  8  8  1 55  0.0000000  0 10G27G26G09G03G16G04G06G08G07G30
   8902677.15247   6972932.80145  24035710.8204                   24035711.4494
        42.0004         34.7504
 -30119851.52346 -23417346.09845  24028681.8834                   24028681.2704
        37.7504         30.0004
 -28916991.05148 -22494014.31248  20816464.2114                   20816461.6094
        49.0004         50.5004
 -46004110.45347 -35805848.46546  22456448.3674                   22456448.0394
        43.0004         41.0004
 -29238897.32447 -24810890.47345  21124702.4384                   21124697.5944
        47.2504         35.5004
 -51843558.62547 -40355346.83646  20453775.1484                   20453771.0124
        46.0004         39.0004
  -3331099.05145  -2516724.20744  25301544.6644                   25301548.1954
        35.5004         28.2504
  16183088.56346  12649166.50444  24454419.8364                   24454423.6644
        38.0004         29.7504
 -11504912.68447  -8923987.78146  22659679.9924                   22659676.7894
        45.5004         41.7504
  17489097.00445  13663528.68044  25109710.0554                   25109714.2624
        35.7504         26.7504
 25  8  8  1 55 30.0000000  0 10G27G26G09G03G16G04G06G08G07G30
   8738284.46147   6844834.71945  24004427.3444                   24004428.5394
        42.0004         35.0004
 -30109628.87146 -23409380.48045  24030627.2584                   24030626.6484
        39.5004         30.2504
 -29062212.47348 -22607173.84848  20788829.1564                   20788826.4804
        48.7504         50.5004
 -45992437.21547 -35796752.54746  22458669.7114                   22458669.9694
        44.0004         40.5004
 -29288098.04747 -24849228.70346  21115339.7894                   21115334.9064
        47.2504         36.0004
 -51924649.05947 -40418534.19146  20438343.8364                   20438340.4384
        46.5004         39.0004
  -3369914.38746  -2546970.05144  25294158.9144                   25294161.5274
        36.7504         27.5004
  16002094.54746  12508132.39844  24419977.8984                   24419981.2734
        39.2504         29.7504
 -11644327.72747  -9032622.81246  22633150.3524                   22633146.4694
        46.5004         41.7504
  17319940.32846  13531718.60944  25077520.4694                   25077524.2074
        36.5004         28.2504
 25  8  8  1 56  0.0000000  0 10G27G26G09G03G16G04G06G08G07G30
   8574124.18447   6716917.73445  23973189.4844                   23973189.3284
        42.0004         34.5004
 -30099201.28946 -23401255.14844  24032610.8134                   24032611.0314
        38.0004         29.7504
 -29207187.18748 -22720141.13748  20761241.4454                   20761238.7544
        49.0004         50.5004
 -45980526.95347 -35787471.94946  22460936.3524                   22460936.1684
        43.2504         40.0004
 -29336694.35947 -24887095.95746  21106092.4144                   21106087.1884
        47.0004         36.0004
 -52005404.30147 -40481460.35946  20422976.7974                   20422973.1484
        46.2504         39.2504
  -3408461.26646  -2577006.69944  25286824.3204                   25286826.7704
        36.5004         27.7504
  15821066.34446  12367071.66445  24385529.4064                   24385533.0824
        39.2504         30.5004
 -11783575.89547  -9141127.82446  22606652.5944                   22606648.4454
        46.5004         41.7504
  17150874.58646  13399979.39544  25045348.6024                   25045352.0204
        38.2504         28.5004
 25  8  8  1 56 30.0000000  0 10G27G26G09G03G16G04G06G08G07G30
   8410199.18847   6589184.07845  23941994.7974                   23941995.6684
        42.2504         34.5004
 -30088571.80146 -23392972.50844  24034634.2194                   24034633.7934
        39.0004         29.5004
 -29351913.87548 -22832915.16048  20733701.1094                   20733698.3164
        49.0004         50.5004
 -45968382.99647 -35778009.24246  22463247.6724                   22463247.5744
        43.0004         40.5004
 -29384688.36347 -24924493.88345  21096959.3444                   21096953.9884
        46.0004         35.7504
 -52085823.83247 -40544124.94146  20407673.6564                   20407669.7814
        45.2504         39.2504
  -3446743.10546  -2606836.81644  25279539.2424                   25279542.2624
        36.7504         27.7504
  15640006.51246  12225986.24244  24351074.5084                   24351077.6254
        40.0004         28.5004
 -11922657.96147  -9249503.39847  22580185.6564                   22580181.7584
        46.7504         42.2504
  16981899.47746  13268310.77044  25013192.6644                   25013196.7344
        38.2504         27.5004
 25  8  8  1 57  0.0000000  0 10G27G26G09G03G16G04G06G08G07G30
   8246512.98847   6461636.51245  23910846.4224                   23910846.9414
        42.0004         34.2504
 -30077743.00046 -23384534.53944  24036694.5634                   24036694.9574
        37.2504         29.5004
 -29496390.53948 -22945494.36748  20706207.8674                   20706205.0664
        49.0004         50.7504
 -45956007.99247 -35768366.50446  22465602.2424                   22465602.4964
        42.7504         40.2504
 -29432081.90647 -24961423.92645  21087940.7734                   21087935.4144
        46.7504         35.7504
 -52165906.56647 -40606527.07046  20392433.9304                   20392430.6994
        46.7504         38.7504
  -3484762.33646  -2636462.30544  25272304.2424                   25272307.7624
        36.2504         27.7504
  15458918.30546  12084878.74644  24316614.4454                   24316617.8954
        41.0004         29.0004
 -12061574.18747  -9357749.75447  22553750.7274                   22553747.1294
        46.7504         42.2504
  16813015.33646  13136713.02744  24981055.0704                   24981058.7424
        38.0004         29.0004
 25  8  8  1 57 30.0000000  0 10G27G26G09G03G16G04G06G08G07G30
   8083070.73847   6334279.03145  23879744.3204                   23879744.9574
        42.0004         33.2504
 -30066715.69946 -23375941.90645  24038793.3204                   24038793.0164
        39.2504         30.0004
 -29640613.48448 -23057875.87148  20678763.4454                   20678760.4304
        49.0004         50.7504
 -45943402.99247 -35758544.54346  22468001.2504                   22468001.0554
        43.0004         40.5004
 -29478875.00847 -24997886.07845  21079036.1954                   21079031.1174
        46.5004         35.5004
 -52245649.75047 -40668664.60946  20377259.8444                   20377255.9654
        47.2504         38.7504
  -3522519.92646  -2665883.93044  25265119.9454                   25265122.3984
        36.5004         26.5004
  15277806.53546  11943752.87144  24282150.1094                   24282153.3794
        41.0004         29.7504
 -12200323.04347  -9465865.69147  22527347.5784                   22527343.7624
        46.5004         42.7504
  16644224.03946  13005187.60944  24948934.4454                   24948938.5204
        38.0004         29.0004
 25  8  8  1 58  0.0000000  0 10G27G26G09G03G16G04G06G08G07G30
   7919873.52046   6207112.48045  23848689.1884                   23848689.4654
        41.2504         33.2504
 -30055494.85246 -23367198.44944  24040928.0164                   24040928.5204
        38.2504         29.7504
 -29784583.16848 -23170060.02748  20651366.3834                   20651363.9184
        49.0004         50.7504
 -45930573.07447 -35748547.32446  22470442.5944                   22470442.5904
        42.7504         40.0004
 -29525071.58647 -25033883.41045  21070245.4774                   21070239.7894
        46.5004         35.7504
 -52325054.72747 -40730538.62546  20362149.4774                   20362145.7504
        46.5004         39.2504
  -3560020.94946  -2695105.63344  25257983.1954                   25257986.6564
        37.0004         27.2504
  15096672.00846  11802609.28144  24247680.3204                   24247684.3984
        40.5004         28.5004
 -12338907.34047  -9573853.39547  22500976.1564                   22500972.1484
        46.2504         42.5004
  16475523.59446  12873732.98844  24916831.8674                   24916836.1724
        38.0004         27.7504
 25  8  8  1 58 30.0000000  0 10G27G26G09G03G16G04G06G08G07G30
   7756926.51246   6080140.90645  23817680.8754                   23817681.2704
        40.2504         32.0004
 -30044081.32446 -23358304.82445  24043100.3674                   24043100.5744
        40.0004         30.7504
 -29928295.88348 -23282043.95348  20624018.8754                   20624016.0904
        49.0004         50.5004
 -45917519.27747 -35738375.64846  22472926.7814                   22472927.1134
        43.2504         40.5004
 -29570671.97747 -25069416.18046  21061567.8914                   21061562.9654
        46.5004         36.0004
 -52404118.66047 -40792146.88746  20347103.9064                   20347100.1954
        46.2504         39.0004
  -3597266.26246  -2724128.10244  25250895.2664                   25250899.1174
        36.7504         28.0004
  14915519.63346  11661451.75044  24213208.6804                   24213211.1804
        41.0004         28.2504
 -12477325.30947  -9681711.48447  22474635.7584                   22474631.8674
        46.0004         42.2504
  16306915.80546  12742350.55944  24884746.7814                   24884750.4384
        38.0004         28.5004
 25  8  8  1 59  0.0000000  0 10G27G26G09G03G16G04G06G08G07G30
   7594231.60546   5953365.78145  23786720.7974                   23786720.9184
        39.5004         31.5004
 -30032479.12946 -23349264.18445  24045308.1564                   24045308.2034
        41.2504         31.5004
 -30071751.22748 -23393827.32848  20596720.1564                   20596717.6914
        49.2504         50.5004
 -45904245.84447 -35728032.84046  22475452.8984                   22475453.1994
        42.5004         40.2504
 -29615679.23047 -25104486.76646  21053003.4144                   21052998.0354
        46.0004         36.5004
 -52482842.15247 -40853489.87546  20332123.3914                   20332119.6254
        47.0004         38.7504
  -3634260.19946  -2752954.69144  25243856.3054                   25243859.2154
        36.0004         29.0004
  14734351.03146  11520281.61744  24178733.1724                   24178736.0664
        40.7504         27.2504
 -12615578.76247  -9789441.39547  22448326.9694                   22448323.5204
        46.5004         42.0004
  16138399.52346  12611039.42244  24852679.3204                   24852682.2664
        38.5004         29.0004
 25  8  8  1 59 30.0000000  0 10G27G26G09G03G16G04G06G08G07G30
   7431790.15246   5826788.14145  23755808.1804                   23755809.4884
        39.5004         31.7504
 -30020692.99646 -23340080.23445  24047550.9844                   24047551.3134
        40.7504         31.7504
 -30214949.34048 -23505410.26248  20569470.7664                   20569467.8324
        49.5004         50.5004
 -45890757.66447 -35717522.69546  22478019.8284                   22478019.8984
        43.0004         39.7504
 -29660097.51647 -25139098.41846  21044550.9144                   21044545.7544
        47.0004         36.0004
 -52561226.25847 -40914568.39146  20317207.4614                   20317203.6054
        47.5004         39.5004
  -3671007.53946  -2781589.14144  25236863.2344                   25236866.7504
        36.2504         28.5004
  14553167.28546  11379099.65244  24144255.2974                   24144257.2704
        40.7504         26.7504
 -12753670.41047  -9897045.22747  22422049.0084                   22422045.7194
        47.0004         42.0004
  15969972.80946  12479798.06644  24820628.6954                   24820631.9144
        39.0004         29.5004
 25  8  8  2  0  0.0000000  0 10G27G26G09G03G16G04G06G08G07G30
   7269608.18046   5700412.69145  23724946.8674                   23724947.1994
        38.7504         31.0004
 -30008722.84046 -23330752.89845  24049828.2664                   24049829.0514
        40.5004         32.7504
 -30357885.70348 -23616789.23448  20542270.8134                   20542267.8484
        49.0004         50.7504
 -45877054.87147 -35706845.32046  22480627.2664                   22480627.5394
        43.0004         39.7504
 -29703925.89847 -25173250.41445  21036210.6334                   21036205.0084
        47.0004         35.0004
 -52639267.39547 -40975379.66846  20302356.4454                   20302352.9734
        47.5004         38.5004
  -3707508.32045  -2810031.44144  25229917.9064                   25229921.0704
        35.2504         27.2504
  14371974.14846  11237910.33244  24109775.2114                   24109777.6604
        40.0004         27.5004
 -12891598.15647 -10004521.34847  22395802.7664                   22395798.4184
        47.5004         42.2504
  15801638.41046  12348628.64145  24788595.0394                   24788599.0784
        39.0004         30.0004
 25  8  8  2  0 30.0000000  0 10G27G26G09G03G16G04G06G08G07G30
   7107687.47746   5574240.85545  23694134.1174                   23694134.5664
        39.5004         31.2504
 -29996572.90646 -23321285.48045  24052141.0394                   24052141.1914
        41.5004         33.0004
 -30500559.96548 -23727963.96148  20515120.7814                   20515117.6994
        49.0004         51.0004
 -45863141.88347 -35696004.14846  22483274.6724                   22483275.0234
        43.0004         39.0004
 -29747168.26247 -25206945.76645  21027981.6644                   21027976.7814
        47.0004         35.7504
 -52716966.12947 -41035924.14146  20287570.7114                   20287567.5314
        47.0004         39.0004
  -3743766.84045  -2838284.98044  25223018.1484                   25223021.4344
        35.0004         27.0004
  14190773.22746  11096714.96544  24075293.3284                   24075296.0704
        40.0004         29.0004
 -13029363.80547 -10111871.15647  22369586.3984                   22369582.3754
        47.0004         42.2504
  15633395.03546  12217530.14145  24756580.1254                   24756582.9774
        39.5004         30.7504
 25  8  8  2  1  0.0000000  0 10G27G26G09G03G16G04G06G08G07G30
   6946034.62546   5448277.71145  23663372.3594                   23663373.2814
        38.7504         31.7504
 -29984242.46546 -23311677.39845  24054487.7034                   24054487.6884
        41.5004         34.0004
 -30642967.03148 -23838930.48448  20488021.7504                   20488018.9384
        49.2504         51.0004
 -45849018.25847 -35684998.85946  22485962.7974                   22485963.0824
        43.0004         39.5004
 -29789823.29747 -25240183.46545  21019864.5394                   21019859.6024
        47.0004         35.2504
 -52794318.38347 -41096198.62546  20272851.3444                   20272847.7624
        47.2504         38.5004
  -3779782.69545  -2866349.43044  25216164.1884                   25216168.0044
        34.7504         27.0004
  14009570.85246  10955518.49644  24040811.4924                   24040814.6564
        39.7504         29.2504
 -13166964.24648 -10219092.24647  22343401.9304                   22343397.6764
        48.0004         42.2504
  15465245.94146  12086505.10244  24724581.8754                   24724585.2544
        39.2504         29.2504
 25  8  8  2  1 30.0000000  0 10G27G26G09G03G16G04G06G08G07G30
   6784652.61346   5322525.63345  23632662.0784                   23632663.2704
        39.0004         31.0004
 -29971734.59046 -23301931.05145  24056867.5314                   24056867.8714
        41.5004         34.2504
 -30785105.39548 -23949687.62948  20460973.5554                   20460970.6564
        49.2504         51.0004
 -45834687.20747 -35673831.93046  22488690.0944                   22488690.2894
        43.2504         38.7504
 -29831893.38747 -25272965.35545  21011858.8134                   21011854.0434
        47.7504         35.5004
 -52871323.59447 -41156202.67646  20258198.0234                   20258194.0864
        47.2504         38.5004
  -3815559.00046  -2894227.24244  25209355.6724                   25209360.1454
        36.7504         28.5004
  13828369.80546  10814323.05544  24006329.8204                   24006332.8444
        38.7504         28.2504
 -13304400.50047 -10326185.38347  22317248.1414                   22317244.4454
        46.5004         42.0004
  15297191.00446  11955553.43044  24692601.8984                   24692605.1724
        38.5004         28.7504
 25  8  8  2  2  0.0000000  0 10G27G26G09G03G16G04G06G08G07G30
   6623542.27046   5196985.22745  23602004.2504                   23602005.0124
        38.7504         30.5004
 -29959054.37546 -23292050.40245  24059280.5784                   24059281.0394
        41.2504         34.5004
 -30926975.63348 -24060235.84448  20433976.4384                   20433974.0084
        49.2504         51.0004
 -45820154.06647 -35662507.54746  22491455.5084                   22491455.7074
        43.2504         39.0004
 -29873382.84047 -25305294.80145  21003963.7814                   21003958.8134
        47.5004         35.0004
 -52947983.36747 -41215937.56646  20243610.1484                   20243606.4344
        47.2504         39.2504
  -3851101.02746  -2921922.49244  25202593.5864                   25202597.1414
        37.0004         29.2504
  13647170.73246  10673129.15144  23971849.0474                   23971852.4614
        38.2504         29.0004
 -13441675.49647 -10433152.86347  22291126.0784                   22291122.1804
        46.0004         42.0004
  15129227.82446  11824673.23444  24660639.1254                   24660642.9694
        38.0004         29.0004
 25  8  8  2  2 30.0000000  0 10G27G26G09G03G16G04G06G08G07G30
   6462710.26246   5071661.71545  23571398.7034                   23571399.1254
        38.7504         31.2504
 -29946201.05546 -23282034.86745  24061726.8444                   24061726.9694
        40.0004         33.5004
 -31068572.49648 -24170571.03148  20407031.4534                   20407028.2154
        49.2504         51.0004
 -45805418.30947 -35651025.25846  22494259.5394                   22494259.8524
        42.7504         38.7504
 -29914290.27347 -25337170.73845  20996179.1024                   20996174.3874
        47.2504         35.5004
 -53024293.40647 -41275399.92646  20229088.5474                   20229085.0554
        47.0004         39.0004
  -3886408.32446  -2949434.83644  25195874.7034                   25195877.9414
        36.2504         27.0004
  13465980.08646  10531941.83644  23937368.8984                   23937372.1174
        38.0004         28.2504
 -13578786.30947 -10539992.40647  22265034.1414                   22265030.5044
        47.0004         42.5004
  14961359.89546  11693867.28544  24628695.0084                   24628698.3444
        38.2504         28.5004
 25  8  8  2  3  0.0000000  0 10G27G26G09G03G16G04G06G08G07G30
   7877582.37546   6174159.59045  23840639.4064                   23840640.4964
        38.5004         32.2504
 -28357760.62946 -22044289.13745  24363997.0394                   24363997.0394
        40.2504         33.7504
 -29634472.37948 -23053090.37948  20679931.6174                   20679928.7664
        49.0004         51.0004
 -44215066.27047 -34411790.02746  22796893.6334                   22796893.8404
        43.0004         38.5004
 -28379199.66047 -24140996.23045  21288297.4614                   21288292.3244
        47.2504         35.2504
 -51524833.30147 -40106989.46546  20514426.1644                   20514422.7734
        47.2504         38.7504
  -2346065.23446  -1749167.63744  25488991.5944                   25488996.0704
        36.0004         29.5004
  14860224.21146  11618366.02344  24202685.0704                   24202687.6604
        37.2504         29.0004
 -12140311.50047  -9419102.89847  22538767.1724                   22538762.9844
        46.2504         42.5004
  16369009.98846  12790737.68044  24896561.7344                   24896564.6524
        37.7504         28.5004
 25  8  8  2  3 30.0000000  0 10G27G26G09G03G16G04G06G08G07G30
   7717311.97346   6049273.67645  23810141.2274                   23810141.5634
        39.7504         32.2504
 -28344574.07446 -22034013.94945  24366506.4454                   24366506.4024
        39.5004         32.0004
 -29775522.00048 -23162999.14848  20653090.4454                   20653087.8594
        48.7504         51.0004
 -44199938.95747 -34400002.64146  22799772.3444                   22799772.7424
        43.2504         38.5004
 -28418954.89147 -24171974.34045  21280732.3524                   21280727.0744
        47.7504         35.5004
 -51600446.46147 -40165908.80546  20500037.6414                   20500034.1024
        47.0004         39.0004
  -2380916.30546  -1776324.49244  25482360.3134                   25482364.3674
        36.7504         28.7504
  14679054.86746  11477195.32844  24168209.1644                   24168212.0314
        37.2504         28.5004
 -12277099.82847  -9525691.16847  22512737.2894                   22512733.5944
        47.2504         42.5004
  16201327.74646  12660076.40644  24864651.8444                   24864655.2934
        36.5004         29.0004
 25  8  8  2  4  0.0000000  0 10G27G26G09G03G16G04G06G08G07G30
   7557327.15646   5924610.29245  23779697.7584                   23779697.6254
        39.0004         31.7504
 -28331224.92646 -22023612.08245  24369046.2114                   24369047.0204
        38.0004         31.2504
 -29916295.35948 -23272692.63748  20626302.2734                   20626299.7894
        49.5004         51.2504
 -44184620.30147 -34388066.16046  22802687.6094                   22802688.0944
        43.0004         38.5004
 -28458137.35247 -24202506.14545  21273275.8834                   21273271.1684
        47.5004         35.0004
 -51675710.02747 -40224555.75446  20485715.7194                   20485712.0044
        47.0004         39.0004
  -2415543.68746  -1803307.01644  25475771.3444                   25475775.0474
        36.5004         28.7504
  14497900.77346  11336036.51244  24133736.4924                   24133739.6134
        36.2504         29.5004
 -12413728.11747  -9632154.73047  22486737.2584                   22486733.4224
        45.5004         42.0004
  16033738.38346  12529487.48044  24832761.2344                   24832764.0864
        37.5004         27.5004
 25  8  8  2  4 30.0000000  0 10G27G26G09G03G16G04G06G08G07G30
   7397628.59846   5800169.96145  23749307.6884                   23749307.6684
        40.0004         33.5004
 -28317718.31646 -22013087.50444  24371616.8054                   24371617.1094
        37.7504         28.7504
 -30056793.14548 -23382171.40648  20599566.6024                   20599563.8134
        49.5004         51.2504
 -44169115.71947 -34375984.79746  22805638.3834                   22805638.6134
        43.7504         39.0004
 -28496751.77747 -24232595.30945  21265927.8444                   21265922.7934
        47.0004         35.5004
 -51750625.68447 -40282931.59046  20471459.7114                   20471455.8404
        47.0004         39.2504
  -2449952.85546  -1830119.52344  25469222.7814                   25469227.4304
        36.5004         28.2504
  14316762.50445  11194890.02044  24099266.8444                   24099269.8954
        35.7504         29.5004
 -12550198.86347  -9738495.52747  22460767.9224                   22460764.0784
        46.5004         42.2504
  15866239.41446  12398969.01244  24800887.2974                   24800889.5744
        37.5004         26.7504
 25  8  8  2  5  0.0000000  0 10G27G26G09G03G16G04G06G08G07G30
   7238221.51646   5675956.77045  23718973.6884                   23718973.3484
        40.5004         33.7504
 -28304055.16445 -22002440.96144  24374216.0004                   24374217.3244
        35.7504         27.2504
 -30197011.69948 -23491432.59048  20572884.1024                   20572880.7114
        49.2504         51.5004
 -44153426.32847 -34363759.42246  22808623.9614                   22808624.3554
        43.2504         37.7504
 -28534798.52047 -24262242.12945  21258688.0474                   21258682.7464
        46.5004         34.7504
 -51825190.81247 -40341034.29746  20457270.4064                   20457267.0314
        46.7504         39.7504
  -2484144.82046  -1856762.74644  25462716.6954                   25462721.3554
        37.2504         29.7504
  14135644.93045  11053759.66044  24064800.8594                   24064804.0084
        35.7504         28.7504
 -12686510.70747  -9844712.50047  22434828.5164                   22434824.7974
        46.2504         42.2504
  15698832.66446  12268522.39544  24769030.5084                   24769033.1294
        36.5004         28.7504
 25  8  8  2  5 30.0000000  0 10G27G26G09G03G16G04G06G08G07G30
   7079111.54746   5551975.09045  23688695.3524                   23688695.8014
        39.5004         33.5004
 -28290235.52345 -21991672.48044  24376845.4614                   24376847.0784
        33.5004         27.0004
 -30336946.64848 -23600472.77748  20546255.0084                   20546252.4064
        50.0004         51.5004
 -44137552.47747 -34351390.32846  22811644.1484                   22811645.0824
        42.5004         38.0004
 -28572277.34447 -24291446.41445  21251555.6804                   21251550.8244
        47.0004         35.0004
 -51899402.19147 -40398861.35246  20443148.2894                   20443144.8674
        47.2504         38.5004
  -2518120.02746  -1883237.08644  25456251.9694                   25456255.8634
        36.0004         27.5004
  13954553.68046  10912649.82844  24030340.2274                   24030343.2934
        36.5004         28.5004
 -12822662.18047  -9950804.51247  22408920.0004                   22408915.8014
        46.5004         42.2504
  15531520.75446  12138149.68444  24737191.2894                   24737194.4184
        36.0004         27.7504
 25  8  8  2  6  0.0000000  0 10G27G26G09G03G16G04G06G08G07G30
   6920300.00046   5428225.94545  23658474.7814                   23658474.7624
        40.5004         34.5004
 -28276264.01245 -21980785.67244  24379505.6884                   24379505.6524
        35.0004         27.0004
 -30476598.13748 -23709292.09448  20519680.2114                   20519677.7154
        50.0004         51.5004
 -44121499.07447 -34338881.32446  22814699.9384                   22814700.3634
        42.7504         38.2504
 -28609192.49647 -24320211.47745  21244531.6254                   21244525.9414
        47.0004         35.5004
 -51973260.92247 -40456413.61346  20429093.9454                   20429089.8524
        47.5004         39.2504
  -2551883.20746  -1909546.21144  25449826.9614                   25449830.4264
        36.7504         29.0004
  13773490.00846  10771561.47345  23995884.9454                   23995888.1724
        36.0004         30.7504
 -12958655.43447 -10056773.23447  22383041.3984                   22383037.0704
        46.5004         42.5004
  15364301.66445  12007849.29344  24705370.8444                   24705373.7424
        35.0004         26.7504
 25  8  8  2  6 30.0000000  0 10G27G26G09G03G16G04G06G08G07G30
   6761790.42246   5304712.10545  23628310.6724                   23628311.1214
        40.0004         34.7504
 -28262142.96546 -21969782.29344  24382192.8984                   24382193.1804
        37.2504         28.2504
 -30615964.08248 -23817888.90648  20493160.0084                   20493156.9344
        48.5004         51.5004
 -44105268.73447 -34326234.44946  22817788.6804                   22817788.9884
        42.5004         38.5004
 -28645545.97347 -24348538.87145  21237613.6644                   21237608.3524
        47.0004         34.7504
 -52046765.98847 -40513690.30546  20415105.9534                   20415102.4064
        47.0004         38.7504
  -2585437.05546  -1935692.19544  25443442.0164                   25443446.4574
        36.0004         28.2504
  13592457.28546  10630497.23845  23961435.5164                   23961438.9924
        36.5004         30.5004
 -13094490.60547 -10162618.78147  22357192.6094                   22357188.4654
        45.5004         42.7504
  15197175.80945  11877621.55144  24673567.7274                   24673570.6174
        34.7504         26.0004
 25  8  8  2  7  0.0000000  0 10G27G26G09G03G16G04G06G08G07G30
   6603585.86746   5181435.93845  23598206.0234                   23598206.1804
        40.7504         35.5004
 -28247875.14546 -21958664.56244  24384908.3914                   24384907.8674
        38.5004         29.5004
 -30755042.69948 -23926261.83648  20466693.8754                   20466691.1024
        49.7504         51.5004
 -44088864.46546 -34313452.05546  22820909.7814                   22820910.5704
        41.2504         37.5004
 -28681340.19947 -24376430.47745  21230802.0394                   21230796.8954
        46.5004         35.0004
 -52119916.74647 -40570690.91046  20401186.0084                   20401182.1804
        46.0004         39.2504
  -2618784.48845  -1961677.37544  25437096.5164                   25437100.8484
        35.7504         29.5004
  13411458.59046  10489459.51645  23926992.2734                   23926995.2274
        36.5004         30.0004
 -13230168.32047 -10268341.62547  22331374.2114                   22331369.9884
        46.2504         42.5004
  15030143.05145  11747466.33644  24641782.3914                   24641784.9884
        35.0004         26.7504
 25  8  8  2  7 30.0000000  0 10G27G26G09G03G16G04G06G08G07G30
   6445697.28146   5058405.98446  23568160.1644                   23568161.0984
        41.0004         36.2504
 -28233455.44146 -21947428.47744  24387650.7664                   24387652.3794
        38.0004         29.7504
 -30893824.49648 -24034403.48448  20440284.6724                   20440281.9384
        49.5004         51.5004
 -44072281.48046 -34300530.40246  22824065.4844                   22824066.4024
        41.2504         38.0004
 -28716569.77747 -24403882.10545  21224098.1174                   21224093.0234
        45.7504         35.5004
 -52192704.75847 -40627408.85546  20387334.9454                   20387331.1684
        46.7504         38.5004
  -2651920.91045  -1987498.13344  25430790.8594                   25430795.2114
        35.0004         28.2504
  13230504.70346  10348456.71145  23892556.9844                   23892560.6024
        37.5004         32.0004
 -13365681.29347 -10373936.09847  22305586.6334                   22305582.5664
        46.7504         43.0004
  14863211.08645  11617389.68844  24610015.5394                   24610019.0204
        34.5004         27.2504
 25  8  8  2  8  0.0000000  0 10G27G26G09G03G16G04G06G08G07G30
   6288118.40247   4935617.36346  23538174.4454                   23538174.5124
        42.0004         36.5004
 -28218895.87146 -21936083.39145  24390422.0164                   24390422.5124
        39.2504         30.5004
 -31032317.07048 -24142319.75848  20413930.4694                   20413927.4304
        50.0004         51.5004
 -44055532.16447 -34287479.14546  22827253.5864                   22827254.0274
        42.0004         38.0004
 -28751246.50847 -24430902.94545  21217499.5164                   21217494.6134
        46.5004         35.0004
 -52265138.69547 -40683850.90246  20373550.9844                   20373547.6414
        47.0004         38.5004
  -2684858.55545  -2013164.00844  25424523.6954                   25424527.4774
        35.2504         28.5004
  13049589.44146  10207484.00445  23858131.3134                   23858133.1334
        37.2504         32.5004
 -13501039.54347 -10479410.00847  22279828.9694                   22279824.7704
        46.5004         43.0004
  14696370.57445  11487384.29344  24578266.8754                   24578270.0904
        34.7504         27.7504
 25  8  8  2  8 30.0000000  0  9G27G26G09G03G16G04G08G07G30
   6130857.63746   4813076.61346  23508249.2584                   23508248.7234
        41.7504         36.7504
 -28204193.93046 -21924627.37145  24393220.2504                   24393220.3874
        39.2504         31.0004
 -31170513.40648 -24250005.19948  20387632.4694                   20387629.3754
        49.2504         51.5004
 -44038614.28547 -34274296.52746  22830472.5784                   22830473.6374
        42.2504         38.0004
 -28785367.38747 -24457490.64845  21211006.4924                   21211001.1524
        46.5004         35.0004
 -52337212.60547 -40740012.40246  20359835.9694                   20359832.3594
        46.7504         38.5004
  12868721.02746  10066547.81645  23823712.7894                   23823715.3754
        38.7504         33.0004
 -13636238.45747 -10584759.76247  22254101.0864                   22254096.9574
        47.7504         43.0004
  14529626.57045  11357454.10544  24546537.0164                   24546540.0084
        33.2504         27.0004
 25  8  8  2  9  0.0000000  0  9G27G26G09G03G16G04G08G07G30
   5973916.97347   4690785.29746  23478383.6484                   23478383.4884
        42.5004         37.5004
 -28189353.34446 -21913063.31645  24396044.1564                   24396044.4964
        39.0004         30.7504
 -31308412.87147 -24357459.31648  20361391.0864                   20361388.3794
        47.5004         51.5004
 -44021531.87946 -34260985.72746  22833723.1414                   22833724.3594
        40.7504         38.0004
 -28818936.18447 -24483648.16445  21204618.8674                   21204613.5554
        46.5004         35.0004
 -52408927.04347 -40795893.80546  20346189.0234                   20346185.3134
        47.5004         39.2504
  12687901.48446   9925649.67645  23789303.7814                   23789306.3134
        39.0004         34.0004
 -13771279.57847 -10689986.55947  22228403.9924                   22228399.7274
        45.0004         43.2504
  14362978.06645  11227598.33244  24514824.5784                   24514827.2424
        33.7504         27.7504
 25  8  8  2  9 30.0000000  0  9G27G26G09G03G16G04G08G07G30
   5817306.00046   4568750.88346  23448581.4534                   23448581.6414
        41.2504         37.2504
 -28174370.34446 -21901388.28545  24398895.3364                   24398895.5904
        38.7504         30.5004
 -31446007.18748 -24464675.66848  20335207.8754                   20335205.0354
        49.5004         52.0004
 -44004281.42246 -34247543.98046  22837005.7974                   22837007.1914
        41.5004         37.5004
 -28851948.81647 -24509372.29745  21198335.9224                   21198331.3984
        46.5004         35.0004
 -52480274.81647 -40851489.49646  20332612.2034                   20332608.4964
        47.0004         38.7504
  12507140.35546   9784797.09045  23754905.4224                   23754908.7234
        39.0004         33.5004
 -13906157.08247 -10795085.86747  22202736.9844                   22202733.5474
        47.7504         43.5004
  14196431.35945  11097821.88344  24483130.9534                   24483133.8364
        35.0004         29.0004
 25  8  8  2 10  0.0000000  0  9G27G26G09G03G16G04G08G07G30
   5661030.17246   4446977.63346  23418843.0634                   23418842.7774
        41.0004         37.2504
 -28159245.17246 -21889602.48844  24401773.1024                   24401773.8284
        38.5004         29.7504
 -31583292.31248 -24571651.07848  20309083.5704                   20309080.2304
        49.5004         51.7504
 -43986863.72347 -34233971.91446  22840320.7734                   22840321.6884
        42.2504         38.0004
 -28884405.43447 -24534663.17645  21192159.8204                   21192154.8674
        46.5004         34.5004
 -52551252.96947 -40906797.15646  20319105.4454                   20319101.6214
        46.2504         38.5004
  12326443.08646   9643994.22745  23720519.9924                   23720522.4304
        40.5004         34.0004
 -14040869.28548 -10900056.36347  22177102.3284                   22177098.5514
        48.0004         43.5004
  14029988.73045  10968126.53545  24451458.5554                   24451460.7854
        35.7504         30.2504
 25  8  8  2 10 30.0000000  0  9G27G26G09G03G16G04G08G07G30
   5505095.27346   4325470.02746  23389169.5314                   23389168.9964
        41.0004         37.2504
 -28143977.83646 -21877705.88744  24404678.6644                   24404679.0554
        38.2504         27.7504
 -31720263.74648 -24678382.05948  20283018.5784                   20283015.7854
        50.0004         51.5004
 -43969278.96147 -34220269.65646  22843667.5474                   22843668.3554
        42.2504         38.7504
 -28916305.73047 -24559520.56245  21186089.8054                   21186084.7734
        47.2504         34.7504
 -52621858.18747 -40961814.22746  20305669.5944                   20305665.9574
        47.2504         38.5004
  12145815.45346   9503245.63345  23686147.5314                   23686150.0004
        40.5004         34.5004
 -14175413.85947 -11004896.26247  22151499.5784                   22151495.3794
        47.5004         43.2504
  13863652.82845  10838514.32045  24419805.6254                   24419808.2544
        35.7504         31.5004
 25  8  8  2 11  0.0000000  0  9G27G26G09G03G16G04G08G07G30
   5349498.42646   4204225.84846  23359560.8834                   23359560.2074
        41.0004         37.0004
 -28128576.90646 -21865705.19944  24407609.2814                   24407609.6954
        37.2504         27.7504
 -31856925.71548 -24784871.89848  20257012.2734                   20257009.5124
        50.0004         51.7504
 -43951536.13746 -34206444.24246  22847043.2894                   22847045.0084
        41.5004         38.0004
 -28947658.35547 -24583951.18745  21180123.3754                   21180118.2704
        47.0004         35.2504
 -52692095.82447 -41016544.86746  20292303.9064                   20292300.1954
        46.5004         38.7504
  11965254.64846   9362549.10945  23651787.5084                   23651790.1174
        40.2504         35.0004
 -14309797.48847 -11109610.73047  22125926.8444                   22125923.1604
        47.5004         43.2504
  13697417.63746  10708980.59045  24388171.4774                   24388174.0044
        36.7504         31.7504
 25  8  8  2 11 30.0000000  0  9G27G26G09G03G16G04G08G07G30
   6769665.93046   5310849.99246  23629808.8984                   23629809.2154
        40.2504         37.2504
 -26537627.57846 -20626004.44144  24710356.6724                   24710357.3204
        37.2504         27.5004
 -30417853.83648 -23663517.18448  20530858.7194                   20530855.6914
        49.5004         51.7504
 -42358220.71946 -32964899.93446  23150241.5004                   23150242.7774
        41.0004         38.0004
 -27403046.84447 -23380357.82045  21474053.3284                   21474048.2384
        46.2504         35.0004
 -51186544.83647 -39843388.26646  20578800.8134                   20578797.3674
        47.2504         38.7504
  13360187.84046  10449510.25045  23917234.7974                   23917236.8594
        41.5004         34.7504
 -12868598.11748  -9986598.18747  22400178.2504                   22400174.3134
        48.0004         43.5004
  15106706.62946  11807128.03945  24656351.1644                   24656352.7234
        38.0004         32.5004
 25  8  8  2 12  0.0000000  0  9G27G26G09G03G16G04G08G07G30
   6614746.07846   5190133.34446  23600329.2894                   23600328.4104
        41.2504         36.7504
 -26521975.79346 -20613808.25844  24713335.6024                   24713335.9694
        38.7504         29.0004
 -30553899.85948 -23769527.06248  20504970.2344                   20504967.1914
        50.0004         51.7504
 -42340178.91846 -32950841.55946  23153675.4384                   23153676.1134
        41.7504         38.0004
 -27433320.12947 -23403947.40245  21468292.5704                   21468287.7194
        45.7504         35.0004
 -51256053.79747 -39897551.10246  20565573.7194                   20565570.5904
        46.7504         39.0004
  13179761.70746  10308918.64845  23882900.4144                   23882903.0744
        40.5004         34.2504
 -13002669.61347 -10091069.43747  22374665.3134                   22374661.2624
        47.0004         43.5004
  14940664.18846  11677744.48845  24624753.8054                   24624756.3164
        38.2504         33.2504
 25  8  8  2 12 30.0000000  0 10G27G26G09G03G16G04G21G08G07G30
   6460164.30146   5069680.12146  23570912.6644                   23570912.9304
        40.0004         37.2504
 -26506207.47746 -20601521.25844  24716335.4844                   24716336.1094
        39.0004         27.0004
 -30689640.29348 -23875298.82448  20479139.7424                   20479136.8524
        50.0004         51.7504
 -42321997.23846 -32936674.18046  23157134.7894                   23157135.9884
        41.5004         38.2504
 -27463062.80547 -23427123.53545  21462632.3914                   21462627.4844
        45.5004         35.5004
 -51325202.52747 -39951433.23446  20552415.0864                   20552411.5704
        46.7504         38.5004
  24868484.05156  19417101.68053  25265926.2894                   25265924.7274
        40.0004         19.0004
  12999402.51246  10168379.21545  23848579.0314                   23848581.4574
        40.0004         34.0004
 -13136591.38347 -10195424.02347  22349180.6414                   22349176.4104
        47.7504         43.5004
  14774713.02046  11548432.06345  24593174.2504                   24593176.4024
        38.7504         34.0004
 25  8  8  2 13  0.0000000  0 10G27G26G09G03G16G04G21G08G07G30
   6305919.37546   4949489.37946  23541560.6484                   23541560.6524
        40.7504         37.5004
 -26490329.67646 -20589148.97344  24719357.5704                   24719358.3204
        40.0004         28.5004
 -30825077.65648 -23980834.41448  20453366.7734                   20453363.8634
        50.0004         52.0004
 -42303682.91046 -32922403.43746  23160620.3834                   23160621.2344
        41.7504         36.5004
 -27492281.23447 -23449891.15645  21457072.8834                   21457067.7074
        46.0004         34.0004
 -51393994.76247 -40005037.58646  20539324.5234                   20539320.8714
        46.7504         38.7504
  24681011.43846  19271019.14143  25230251.4774                   25230248.8874
        40.0004         20.0004
  12819109.17246  10027891.10245  23814270.2034                   23814272.2344
        40.2504         32.5004
 -13270367.82448 -10299665.34447  22323723.9774                   22323719.8284
        48.0004         43.7504
  14608848.68846  11419187.29345  24561611.5394                   24561613.8714
        38.7504         34.5004
 25  8  8  2 13 30.0000000  0 10G27G26G09G03G16G04G21G08G07G30
   6152011.10546   4829560.95746  23512272.6484                   23512272.8754
        41.5004         37.2504
 -26474348.09046 -20576695.81644  24722399.1094                   24722399.4694
        39.5004         29.0004
 -30960213.42648 -24086135.00848  20427651.3134                   20427648.5044
        49.7504         51.7504
 -42285242.15246 -32908034.18446  23164129.4614                   23164130.6054
        41.0004         36.5004
 -27520981.47747 -23472255.00445  21451611.2734                   21451606.0124
        46.7504         34.5004
 -51462433.16047 -40058366.21546  20526300.9774                   20526297.6804
        47.0004         38.5004
  24493761.15646  19125109.82443  25194619.1414                   25194617.1054
        40.2504         20.7504
  12638881.55946   9887454.20745  23779974.4924                   23779975.4224
        39.0004         31.7504
 -13404002.66447 -10403796.34847  22298293.9384                   22298289.9304
        47.7504         44.2504
  14443067.87546  11290007.59045  24530063.3524                   24530065.8914
        40.0004         34.5004
 25  8  8  2 14  0.0000000  0 10G27G26G09G03G16G04G21G08G07G30
   5998444.62546   4709898.87546  23483049.7814                   23483049.9384
        41.7504         37.5004
 -26458263.40246 -20564162.30144  24725459.2424                   24725460.3324
        40.2504         28.7504
 -31095043.81248 -24191197.62548  20401994.0474                   20401991.3014
        49.7504         51.7504
 -42266675.85246 -32893567.11746  23167662.3444                   23167663.7974
        40.5004         37.2504
 -27549164.25047 -23494215.63345  21446248.0704                   21446243.1844
        46.2504         35.0004
 -51530515.10947 -40111417.08646  20513345.4924                   20513342.0594
        47.2504         38.5004
  24306737.67646  18979377.26643  25159029.1724                   25159027.6804
        38.2504         21.5004
  12458724.89846   9747072.57845  23745691.3754                   23745692.6914
        38.5004         32.0004
 -13537494.80548 -10507816.15647  22272891.3524                   22272887.4414
        48.0004         44.2504
  14277372.60946  11160894.54345  24498533.3594                   24498535.2464
        39.7504         35.0004
