     2.11           OBSERVATION DATA    G (GPS)             RINEX VERSION / TYPE
teqc  2019Feb25     K Baraggiotta       20250819 21:03:48UTCPGM / RUN BY / DATE
Linux 2.6.32-573.12.1.x86_64|x86_64|gcc -static|Linux 64|=+ COMMENT
teqc  2019Feb25                         20250819 21:03:25UTCCOMMENT
BIT 2 OF LLI FLAGS DATA COLLECTED UNDER A/S CONDITION       COMMENT
RITA                                                        MARKER NAME
                                                            MARKER NUMBER
Katie Baraggiotta   University of California, Riverside     OBSERVER / AGENCY
0220413523          TRIMBLE R7          2.32                REC # / TYPE / VERS
12606420            TRM41249.00                             ANT # / TYPE
 -2405689.2714 -4505259.4976  3810979.4773                  APPROX POSITION XYZ
        0.9299        0.0000        0.0000                  ANTENNA: DELTA H/E/N
     1     1                                                WAVELENGTH FACT L1/2
     7    L1    L2    C1    P1    P2    S1    S2            # / TYPES OF OBSERV
    18                                                      LEAP SECONDS
 SNR is mapped to RINEX snr flag value [0-9]                COMMENT
  L1 & L2: min(max(int(snr_dBHz/6), 0), 9)                  COMMENT
  2025     8     6     0     0   30.0000000     GPS         TIME OF FIRST OBS
                                                            END OF HEADER
 25  8  6  0  0 30.0000000  0 10G01G02G03G04G16G26G28G31G06G09
   1383081.27757   1070757.28554  22781310.9384                   22781313.1954
        44.5004         29.7504
   2312364.31356   1784013.38353  24806919.6484                   24806926.6484
        37.2504         20.0004
  -4856926.02058  -3745783.01658  20087738.8674                   20087740.1764
        48.7504         50.7504
  -6266114.21157  -4839750.26255  21386060.8914                   21386061.5164
        45.5004         34.7504
  -9439992.48057  -7274997.14154  22821950.4534                   22821951.9614
        43.2504         26.2504
  -5593737.59057  -4321681.71157  21712713.2344                   21712715.8014
        46.0004         42.0004
   2685047.99656   2074306.97353  24171117.2504                   24171118.6994
        37.0004         19.7504
    812318.21157    630647.24657  21496884.6724                   21496883.2464
        46.5004         44.0004
  -3715644.77756  -2865863.69953  25189133.3674                   25189138.5944
        37.5004         22.7504
  -8148148.43756  -6277707.64855  24046304.5084                   24046310.3484
        38.0004         31.0004
 25  8  6  0  1  0.0000000  0 10G01G02G03G04G16G26G28G31G06G09
   1413230.10247   1094249.75444  22787047.8594                   22787050.8954
        44.0004         28.2504
   2347267.36746   1811210.19543  24813561.9144                   24813568.3324
        38.7504         19.7504
  -4921845.19148  -3796369.37548  20075385.4924                   20075386.5394
        49.7504         50.7504
  -6365064.86747  -4916854.62145  21367230.9844                   21367231.8794
        46.2504         34.7504
  -9589558.76647  -7391542.09844  22793488.6954                   22793490.5864
        43.2504         26.5004
  -5669034.15247  -4380354.29747  21698384.8914                   21698387.9614
        46.5004         42.5004
   2729619.74646   2109038.10943  24179598.4304                   24179600.9264
        38.2504         20.2504
    835127.42647    648420.64547  21501225.0864                   21501223.8914
        46.7504         44.0004
  -3828703.80146  -2953961.66443  25167619.0554                   25167624.0704
        37.0004         22.0004
  -8281537.97746  -6381647.37945  24020920.3984                   24020926.4734
        37.7504         32.0004
 25  8  6  0  1 30.0000000  0 10G01G02G03G04G16G26G28G31G06G09
   1443578.96947   1117898.09444  22792822.5784                   22792825.6564
        44.2504         29.0004
   2382051.19946   1838314.18043  24820180.5394                   24820188.7274
        36.0004         19.7504
  -4986284.07048  -3846581.48448  20063122.7974                   20063124.2344
        50.0004         50.7504
  -6463918.55147  -4993883.43045  21348419.9304                   21348420.5084
        46.5004         35.0004
  -9738933.52347  -7507937.85244  22765063.6174                   22765065.3524
        42.2504         26.7504
  -5743793.07047  -4438607.95347  21684158.6174                   21684161.5554
        46.5004         42.7504
   2774200.05146   2143775.97743  24188082.3284                   24188083.7814
        38.0004         19.2504
    858205.00847    666403.16047  21505616.6884                   21505615.3914
        46.2504         43.7504
  -3941367.96546  -3041751.98443  25146180.3674                   25146185.2464
        37.0004         22.5004
  -8414958.89846  -6485611.56645  23995532.0474                   23995536.9574
        38.5004         32.0004
 25  8  6  0  2  0.0000000  0 10G01G02G03G04G16G26G28G31G06G09
   1474123.22347   1141698.68844  22798635.4304                   22798638.0004
        43.0004         28.0004
   2416712.04746   1865322.30543  24826777.6484                   24826784.2544
        38.5004         20.5004
  -5050243.04748  -3896419.63748  20050952.0314                   20050953.1254
        49.7504         50.5004
  -6562676.51247  -5070837.63745  21329626.4774                   21329627.5744
        46.2504         34.5004
  -9888114.45747  -7624182.56644  22736675.2194                   22736676.8134
        43.0004         27.0004
  -5818014.66447  -4496442.90647  21670034.6174                   21670037.7504
        46.7504         42.7504
   2818785.50846   2178517.80943  24196568.0004                   24196567.5434
        39.7504         19.2504
    881546.75847    684591.52347  21510058.4844                   21510057.4104
        46.2504         43.5004
  -4053636.95345  -3129234.31244  25124816.4064                   25124820.4734
        35.7504         24.0004
  -8548412.58646  -6589601.30545  23970135.9924                   23970142.0004
        38.5004         32.5004
 25  8  6  0  2 30.0000000  0 10G01G02G03G04G16G26G28G31G06G09
   1504859.14147   1165648.62544  22804484.2274                   22804487.1134
        43.5004         28.0004
   2451246.33246   1892231.82443  24833349.5004                   24833356.2664
        37.5004         21.0004
  -5113721.61348  -3945883.44948  20038872.2194                   20038873.6334
        50.7504         50.7504
  -6661339.14547  -5147717.55145  21310851.9064                   21310852.6174
        46.5004         34.5004
 -10037099.18047  -7740274.39844  22708324.2974                   22708325.9844
        43.0004         27.2504
  -5891698.39147  -4553858.75447  21656012.6954                   21656015.8164
        46.0004         42.2504
   2863373.52046   2213261.68843  24205051.4454                   24205052.4884
        40.0004         20.2504
    905149.71147    702983.41047  21514549.8754                   21514548.8324
        46.7504         43.7504
  -4165509.68445  -3216407.88743  25103526.6724                   25103531.9454
        34.7504         22.7504
  -8681899.48446  -6693616.90645  23944734.1094                   23944740.5354
        37.5004         31.7504
 25  8  6  0  3  0.0000000  0 10G01G02G03G04G16G26G28G31G06G09
   1535787.66847   1189748.64544  22810370.1724                   22810373.0314
        43.5004         29.2504
   2485655.87546   1919044.14143  24839897.5084                   24839904.1604
        37.5004         18.5004
  -5176714.53948  -3994968.83648  20026884.7664                   20026886.6994
        50.0004         50.7504
  -6759902.04347  -5224519.76645  21292095.3754                   21292096.0824
        46.7504         34.2504
 -10185879.96547  -7856207.28144  22680012.3594                   22680013.9184
        43.5004         26.2504
  -5964839.03947  -4610851.42247  21642094.6724                   21642097.6254
        46.2504         42.5004
   2907966.18846   2248009.13343  24213537.6094                   24213538.5594
        38.7504         20.7504
    929015.30947    721579.96147  21519091.5234                   21519090.5164
        47.2504         43.7504
  -4276980.26245  -3303268.07444  25082315.0394                   25082319.8244
        35.5004         26.0004
  -8815415.32846  -6797655.03945  23919326.8524                   23919332.6454
        37.7504         31.0004
 25  8  6  0  3 30.0000000  0 10G01G02G03G04G16G26G28G31G06G09
   1566906.85547   1213997.21544  22816291.9064                   22816295.3914
        43.5004         28.0004
   2519939.00446   1945757.96543  24846422.1884                   24846429.1094
        39.0004         21.5004
  -5239219.60248  -4043674.07848  20014990.6724                   20014992.1454
        50.0004         50.7504
  -6858363.77347  -5301243.14145  21273359.4224                   21273359.5744
        45.7504         34.2504
 -10334452.15247  -7971977.63744  22651739.4614                   22651741.2664
        42.5004         27.0004
  -6037434.31647  -4667419.12547  21628280.1884                   21628283.0944
        45.7504         42.5004
   2952562.82846   2282759.69943  24222024.3054                   24222025.1454
        39.2504         21.5004
    953142.07447    740380.01647  21523682.5004                   21523681.4064
        47.5004         44.0004
  -4388045.87945  -3389812.69144  25061179.6484                   25061184.7464
        35.5004         26.2504
  -8948958.69146  -6901714.62945  23893913.8834                   23893919.9534
        37.5004         30.5004
 25  8  6  0  4  0.0000000  0 10G01G02G03G04G16G26G28G31G06G09
   1598211.97346   1238390.68444  22822248.8444                   22822252.4224
        41.7504         27.7504
   2554091.44946   1972369.88743  24852920.2504                   24852928.7074
        36.5004         20.5004
  -5301237.35548  -4091999.59048  20003189.2344                   20003190.8594
        50.0004         50.7504
  -6956725.71547  -5377888.75445  21254641.4384                   21254641.8364
        47.0004         34.7504
 -10482813.77347  -8087583.92244  22623507.3834                   22623509.0944
        42.0004         26.5004
  -6109484.78547  -4723562.29747  21614569.2344                   21614572.3674
        46.2504         42.5004
   2997159.75846   2317510.48043  24230510.7114                   24230511.5634
        39.7504         20.7504
    977525.71547    759380.24247  21528322.8754                   21528321.6094
        47.0004         43.7504
  -4498706.42645  -3476041.66044  25040121.7974                   25040126.8364
        34.7504         26.7504
  -9082531.12546  -7005796.87545  23868496.7814                   23868501.4844
        38.7504         31.5004
 25  8  6  0  4 30.0000000  0 10G01G02G03G04G16G26G28G31G06G09
   1629699.50447   1262926.29344  22828240.7734                   22828244.2114
        42.2504         27.0004
   2588110.62946   1998878.06643  24859394.4454                   24859401.9384
        38.0004         18.5004
  -5362767.17248  -4139944.89848  19991480.2114                   19991481.9654
        49.7504         50.7504
  -7054987.97347  -5454456.68745  21235942.5004                   21235943.4654
        46.7504         35.0004
 -10630962.00447  -8203023.92244  22595315.4694                   22595317.0824
        42.2504         27.0004
  -6180989.81247  -4779280.45747  21600962.4694                   21600965.4804
        46.0004         42.7504
   3041754.76246   2352259.77343  24238996.2814                   24238997.8554
        41.2504         20.7504
   1002163.22347    778578.27347  21533011.1254                   21533010.0434
        47.2504         43.5004
  -4608960.64546  -3561954.00444  25019141.6414                   25019146.5864
        36.2504         28.0004
  -9216132.76246  -7109901.91445  23843072.6174                   23843077.1254
        39.2504         31.5004
 25  8  6  0  5  0.0000000  0 10G01G02G03G04G16G26G28G31G06G09
   1661369.11746   1287603.77344  22834267.8594                   22834270.9384
        41.7504         27.5004
   2621996.95346   2025282.71143  24865843.6024                   24865851.0084
        37.2504         19.7504
  -5423805.10248  -4187506.91448  19979865.2974                   19979867.0314
        49.5004         50.7504
  -7153147.34447  -5530944.45745  21217263.7894                   21217263.8914
        46.0004         35.0004
 -10778890.38346  -8318292.61744  22567165.3834                   22567166.8364
        41.5004         27.0004
  -6251945.45347  -4834570.50447  21587460.1174                   21587463.2274
        45.7504         42.5004
   3086348.74646   2387008.30943  24247482.3284                   24247484.0744
        41.2504         22.2504
   1027054.59848    797974.12147  21537747.9844                   21537746.5704
        48.0004         43.5004
  -4718803.97746  -3647546.18044  24998238.4064                   24998244.0004
        36.5004         29.2504
  -9349760.50046  -7214027.28145  23817644.0084                   23817649.0664
        40.2504         32.7504
 25  8  6  0  5 30.0000000  0 10G01G02G03G04G16G26G28G31G06G09
   1693219.81646   1312422.37944  22840328.6414                   22840332.0234
        41.7504         27.0004
   2655749.69146   2051583.16843  24872266.3054                   24872273.8984
        37.7504         18.2504
  -5484348.13748  -4234683.30548  19968344.2664                   19968345.7734
        50.0004         50.7504
  -7251201.53947  -5607350.26245  21198604.3204                   21198604.9224
        46.5004         35.2504
 -10926593.51247  -8433385.78544  22539058.5164                   22539059.6954
        42.0004         27.5004
  -6322348.71547  -4889430.14547  21574062.6804                   21574065.8874
        46.2504         42.5004
   3130941.88746   2421756.18043  24255968.3754                   24255969.6454
        41.2504         22.7504
   1052199.27747    817567.35947  21542532.3754                   21542531.4804
        47.5004         43.0004
  -4828232.75046  -3732815.31644  24977415.4694                   24977420.8714
        37.7504         29.5004
  -9483412.21946  -7318171.31245  23792211.3674                   23792215.6134
        40.0004         33.0004
 25  8  6  0  6  0.0000000  0 10G01G02G03G04G16G26G28G31G06G09
   1725248.32846   1337379.52344  22846423.3054                   22846426.7974
        41.5004         27.0004
   2689366.16845   2077777.62542  24878663.5234                   24878671.0784
        35.2504         16.2504
  -5544395.35248  -4281473.32848  19956917.7114                   19956919.2544
        48.7504         50.7504
  -7349150.29747  -5683673.90245  21179965.2344                   21179965.9264
        46.7504         34.7504
 -11074068.03546  -8548300.82844  22510995.0474                   22510996.3794
        40.7504         26.7504
  -6392198.70747  -4943858.66447  21560770.8134                   21560773.4384
        46.0004         42.7504
   3175532.20746   2456501.84044  24264453.6094                   24264455.0594
        41.5004         24.7504
   1077594.57847    837355.88347  21547365.5474                   21547364.0904
        47.7504         43.2504
  -4937245.40646  -3817760.19945  24956671.3444                   24956675.9494
        39.7504         32.2504
  -9617087.62946  -7422333.83245  23766773.0394                   23766778.5084
        40.7504         34.5004
 25  8  6  0  6 30.0000000  0 10G01G02G03G04G16G26G28G31G06G09
   1757452.81646   1362473.80144  22852551.9224                   22852555.3134
        41.2504         27.7504
   2722845.16846   2103864.79743  24885035.5394                   24885042.3714
        37.0004         19.0004
  -5603944.42248  -4327875.19948  19945585.8524                   19945587.1334
        50.0004         50.7504
  -7446992.00047  -5759914.13345  21161346.8674                   21161347.2034
        46.7504         35.5004
 -11221309.03146  -8663033.90244  22482975.1484                   22482977.2274
        40.7504         27.0004
  -6461493.13347  -4997854.27347  21547584.1484                   21547587.3834
        45.7504         42.5004
   3220119.14546   2491244.83243  24272938.6094                   24272940.1094
        40.0004         22.5004
   1103239.52347    857338.93047  21552245.1414                   21552244.1174
        47.5004         43.0004
  -5045838.94546  -3902378.54345  24936006.8204                   24936011.3984
        40.2504         34.0004
  -9750785.28946  -7526513.66845  23741331.5394                   23741337.1254
        41.5004         33.5004
 25  8  6  0  7  0.0000000  0 10G01G02G03G04G16G26G28G31G06G09
   1789833.60246   1387705.44144  22858713.8914                   22858717.2934
        40.7504         27.5004
   2756187.78546   2129845.77343  24891379.9304                   24891386.8874
        37.0004         19.2504
  -5662991.00048  -4373885.51248  19934349.6484                   19934350.9844
        50.5004         51.0004
  -7544722.91447  -5836068.02045  21142748.6884                   21142749.4344
        47.0004         35.0004
 -11368309.44946  -8777579.50444  22455002.0634                   22455003.5354
        41.0004         26.5004
  -6530227.66447  -5051413.60247  21534504.3594                   21534507.6024
        46.5004         42.7504
   3264704.23846   2525986.41044  24281423.1564                   24281424.7424
        41.0004         26.0004
   1129134.52747    877516.82047  21557173.1484                   21557172.4414
        47.7504         42.7504
  -5154008.44546  -3986666.45745  24915421.9224                   24915427.1024
        40.7504         34.2504
  -9884501.55146  -7630707.98045  23715886.0944                   23715891.4384
        40.7504         33.7504
 25  8  6  0  7 30.0000000  0 10G01G02G03G04G16G26G28G31G06G09
   1822386.03946   1413070.84844  22864908.2894                   22864911.5394
        41.5004         27.0004
   2789389.88346   2155717.27043  24897697.7504                   24897705.7274
        36.7504         19.2504
  -5721535.73848  -4419504.77748  19923209.0164                   19923210.3014
        49.7504         50.7504
  -7642344.28547  -5912136.55945  21124171.7504                   21124172.5044
        46.7504         35.0004
 -11515067.90247  -8891936.56644  22427074.7664                   22427076.3524
        42.0004         26.0004
  -6598402.98847  -5104537.18447  21521530.7894                   21521534.4574
        46.0004         42.5004
   3309284.03146   2560723.84044  24289906.5944                   24289907.7234
        41.0004         24.2504
   1155275.60947    897886.46547  21562147.3204                   21562146.4344
        47.7504         43.0004
  -5261753.85246  -4070623.89845  24894918.8834                   24894924.0744
        41.0004         34.0004
 -10018237.75446  -7734917.84045  23690436.3134                   23690441.5664
        40.5004         33.0004
 25  8  6  0  8  0.0000000  0 10G01G02G03G04G16G26G28G31G06G09
   1855105.25447   1438566.21944  22871134.7734                   22871138.3284
        42.2504         27.2504
   2822447.16846   2181475.83843  24903989.5474                   24903996.5984
        38.2504         22.5004
  -5779579.30548  -4464733.52048  19912163.7974                   19912164.9694
        49.0004         50.7504
  -7739857.38747  -5988120.73045  21105616.3364                   21105616.7624
        47.2504         35.5004
 -11661582.35546  -9006103.51244  22399193.4844                   22399195.3054
        41.5004         27.0004
  -6666019.85947  -5157225.60547  21508663.9144                   21508667.1454
        46.2504         42.7504
   3353855.07846   2595454.48044  24298387.9844                   24298389.4104
        41.5004         26.7504
   1181658.51647    918444.54347  21567167.9534                   21567167.0434
        47.5004         43.0004
  -5369075.20346  -4154250.89845  24874496.6804                   24874501.4264
        41.2504         34.2504
 -10151995.27046  -7839144.30945  23664982.8284                   23664988.3094
        39.7504         31.7504
 25  8  6  0  8 30.0000000  0 10G01G02G03G04G16G26G28G31G06G09
   1887987.43446   1464188.55544  22877391.9534                   22877395.9024
        41.0004         27.7504
   2855356.52046   2207119.11743  24910251.1254                   24910259.3014
        38.0004         20.5004
  -5837121.57848  -4509571.64848  19901213.6804                   19901215.1254
        50.5004         50.5004
  -7837262.69947  -6064020.90645  21087080.2504                   21087080.6524
        47.0004         35.5004
 -11807849.82847  -9120077.99644  22371360.2974                   22371361.6024
        42.0004         25.7504
  -6733078.18447  -5209478.79747  21495903.4064                   21495906.2934
        45.7504         42.5004
   3398414.79746   2630176.23843  24306867.6724                   24306868.9144
        39.7504         22.7504
   1208279.89147    939188.45347  21572233.9774                   21572232.6804
        47.5004         43.0004
  -5475971.69546  -4237546.85245  24854154.8364                   24854160.0784
        40.7504         33.7504
 -10285774.66046  -7943387.79345  23639525.9924                   23639530.7774
        39.7504         32.5004
 25  8  6  0  9  0.0000000  0 10G01G02G03G04G16G26G28G31G06G09
   1921033.19947   1489938.36744  22883680.8524                   22883683.8554
        43.0004         27.0004
   2888119.47746   2232648.41843  24916486.3204                   24916494.5984
        40.2504         21.5004
  -5894157.90248  -4554015.53148  19890360.2814                   19890361.5004
        50.0004         50.5004
  -7934556.02347  -6139833.82445  21068566.1414                   21068566.7664
        47.2504         35.5004
 -11953863.46547  -9233854.71144  22343574.5634                   22343575.3054
        42.2504         27.7504
  -6799573.36347  -5261293.17647  21483249.3984                   21483252.4924
        46.0004         42.5004
   3442965.09046   2664890.70343  24315344.5634                   24315346.8674
        36.7504         21.0004
   1235140.43847    960118.71947  21577345.4064                   21577344.0434
        47.5004         43.0004
  -5582438.01246  -4320507.59445  24833894.9384                   24833900.1604
        40.0004         32.5004
 -10419571.86346  -8047645.17245  23614064.2034                   23614069.4344
        39.5004         32.2504
 25  8  6  0  9 30.0000000  0 10G01G02G03G04G16G26G28G31G06G09
   1954236.37546   1515810.85244  22889999.1334                   22890002.1804
        41.5004         26.7504
   2920730.16846   2258059.08244  24922693.1334                   24922700.8984
        40.5004         24.0004
  -5950690.41448  -4598066.82448  19879602.3204                   19879603.4884
        49.5004         50.5004
  -8031740.09847  -6215561.61745  21050072.6804                   21050072.8324
        47.5004         34.7504
 -12099622.68447  -9347433.16044  22315837.0634                   22315838.3134
        43.0004         27.5004
  -6865507.66447  -5312670.49647  21470702.2344                   21470705.5474
        45.2504         42.5004
   3487501.28945   2699594.12943  24323820.0004                   24323821.8364
        34.7504         18.2504
   1262234.93047    981231.28547  21582501.4844                   21582500.2734
        47.5004         42.7504
  -5688475.67246  -4403134.32045  24813716.3984                   24813721.5274
        39.7504         32.0004
 -10553389.67246  -8151918.62145  23588599.9454                   23588604.8404
        40.5004         31.7504
 25  8  6  0 10  0.0000000  0 10G01G02G03G04G16G26G28G31G06G09
   1987599.90646   1541808.28544  22896348.1804                   22896351.9184
        41.5004         27.5004
   2953192.39546   2283354.03943  24928869.9144                   24928878.4414
        37.7504         21.7504
  -6006712.23448  -4641720.18048  19868941.6334                   19868942.6134
        50.7504         50.7504
  -8128808.46147  -6291199.24645  21031600.8524                   21031601.4024
        47.5004         35.5004
 -12245117.98447  -9460805.97744  22288149.9844                   22288151.5004
        42.5004         28.2504
  -6930874.21547  -5363605.41447  21458264.3054                   21458266.6684
        45.7504         42.7504
   3532027.56645   2734289.84842  24332292.5474                   24332294.6954
        33.2504         16.7504
   1289566.87947   1002528.89147  21587702.2664                   21587701.4924
        47.0004         42.5004
  -5794077.12146  -4485421.14145  24793621.2424                   24793625.9844
        38.2504         30.2504
 -10687221.84446  -8256203.26645  23563132.5784                   23563136.6844
        39.5004         31.7504
 25  8  6  0 10 30.0000000  0 10G01G02G03G04G16G26G28G31G06G09
   2021118.37146   1567926.43444  22902726.7274                   22902730.8134
        41.0004         27.2504
   2985501.47346   2308529.63343  24935017.8594                   24935026.3984
        37.5004         21.5004
  -6062224.84848  -4684976.75448  19858377.9844                   19858379.1294
        50.5004         50.5004
  -8225763.07047  -6366748.23445  21013151.1024                   21013151.3714
        47.5004         35.5004
 -12390348.04747  -9573972.08244  22260513.6414                   22260515.0554
        43.0004         28.0004
  -6995674.64147  -5414099.20747  21445932.5554                   21445935.6414
        46.0004         43.0004
   3576539.69146   2768974.50042  24340763.3914                   24340764.9734
        38.2504         16.7504
   1317131.50047   1024007.79347  21592947.9774                   21592947.0554
        47.2504         43.0004
  -5899243.13346  -4567368.68744  24773608.4384                   24773613.5204
        37.7504         28.0004
 -10821070.25046  -8360500.55545  23537661.2664                   23537666.3444
        40.0004         34.0004
 25  8  6  0 11  0.0000000  0 10G01G02G03G04G16G26G28G31G06G09
   2054786.35946   1594161.09844  22909133.6024                   22909137.1954
        41.7504         26.7504
   3017652.19146   2333581.79343  24941136.5394                   24941145.5164
        36.5004         20.5004
  -6117229.65248  -4727837.62948  19847910.8444                   19847911.9104
        50.5004         50.5004
  -8322605.73847  -6442210.00445  20994722.2424                   20994723.0044
        47.7504         35.0004
 -12535311.95747  -9686930.82044  22232928.2194                   22232928.9384
        43.5004         28.0004
  -7059910.37547  -5464152.97347  21433709.1094                   21433711.6994
        45.0004         42.7504
   3621033.68446   2803645.14843  24349230.3914                   24349231.6724
        40.0004         20.7504
   1344923.82847   1045664.13347  21598236.5704                   21598235.5864
        46.7504         42.5004
  -6003974.47746  -4648977.50444  24753679.1804                   24753684.3164
        36.5004         27.5004
 -10954936.89846  -8464812.05545  23512187.7344                   23512192.2424
        40.7504         34.2504
 25  8  6  0 11 30.0000000  0 10G01G02G03G04G16G26G28G31G06G09
   2088605.97346   1620513.91044  22915569.6644                   22915573.1884
        41.2504         26.7504
   3049648.15645   2358513.48443  24947225.0004                   24947234.3524
        35.2504         19.2504
  -6171720.66448  -4770298.14548  19837541.7664                   19837542.7584
        49.7504         50.5004
  -8419330.94147  -6517580.23845  20976316.3674                   20976316.5704
        47.5004         35.5004
 -12680000.98047  -9799675.35544  22205394.8524                   22205395.3444
        42.7504         28.0004
  -7123575.60547  -5513762.20347  21421594.2194                   21421596.4964
        45.0004         43.5004
   3665513.06346   2838304.34443  24357694.5394                   24357696.0984
        40.5004         22.5004
   1372946.32047   1067499.82447  21603568.8364                   21603567.9304
        45.7504         42.2504
  -6108264.53545  -4730242.45344  24733832.5864                   24733838.6134
        34.5004         24.5004
 -11088816.35547  -8569133.52745  23486712.2424                   23486715.3674
        42.0004         34.7504
 25  8  6  0 12  0.0000000  0 10G01G02G03G04G16G26G28G31G06G09
   2122580.28947   1646987.25844  22922034.7504                   22922038.2384
        42.0004         27.5004
   3081492.63345   2383327.05943  24953284.8674                   24953293.8134
        33.2504         18.2504
  -6225690.98848  -4812352.93048  19827271.3754                   19827272.5704
        50.2504         50.5004
  -8515932.09847  -6592853.80545  20957933.7274                   20957934.1024
        47.5004         35.5004
 -12824405.28547  -9912198.03944  22177915.3524                   22177916.3914
        43.5004         28.0004
  -7186663.50447  -5562921.55147  21409588.5634                   21409591.2934
        46.5004         43.2504
   3709982.17647   2872955.53544  24366157.0784                   24366158.4654
        42.0004         24.2504
   1401202.78547   1089517.83247  21608945.8364                   21608944.5234
        47.5004         42.0004
  -6212105.75445  -4811157.61743  24714072.8834                   24714077.2074
        33.0004         22.0004
 -11222702.20746  -8673460.00845  23461233.5944                   23461237.7584
        40.7504         34.7504
 25  8  6  0 12 30.0000000  0 10G01G02G03G04G16G26G28G31G06G09
   2156706.55546   1673579.03944  22928528.3524                   22928532.4224
        41.0004         27.0004
   3113183.64845   2408021.07442  24959316.6414                   24959324.9574
        34.7504         17.7504
  -6279139.35548  -4854001.00048  19817100.1174                   19817101.7814
        50.0004         50.5004
  -8612408.35947  -6668030.06245  20939574.6954                   20939575.2344
        47.7504         35.2504
 -12968521.22347 -10024496.02744  22150490.7504                   22150491.8444
        43.7504         28.5004
  -7249172.92647  -5611630.13747  21397693.4224                   21397696.2624
        47.0004         43.0004
   3754439.79347   2907597.74643  24374617.0234                   24374618.2154
        42.2504         23.0004
   1429690.74647   1111716.23046  21614367.5004                   21614365.8554
        47.5004         41.7504
  -6315496.20745  -4891721.55543  24694398.7894                   24694402.4104
        35.0004         21.5004
 -11356593.57846  -8777790.77745  23435755.5554                   23435758.8754
        40.7504         34.0004
 25  8  6  0 13  0.0000000  0 10G01G02G03G04G16G26G28G31G06G09
   2190982.68846   1700287.57044  22935051.9534                   22935054.8674
        40.7504         27.7504
   3144719.88345   2432594.49642  24965317.5004                   24965326.4694
        33.7504         16.2504
  -6332064.14848  -4895241.09048  19807029.0394                   19807030.6374
        50.0004         50.5004
  -8708758.37947  -6743107.94945  20921239.8284                   20921240.2304
        47.0004         35.5004
 -13112344.65247 -10136566.06644  22123121.8054                   22123123.1884
        43.2504         29.5004
  -7311102.34047  -5659886.77747  21385908.3754                   21385911.2424
        45.2504         42.7504
   3798885.07046   2942230.39843  24383074.1954                   24383075.9964
        40.5004         22.5004
   1458408.90647   1134094.00847  21619832.0084                   21619831.0904
        47.0004         42.0004
  -6418433.41446  -4971932.35243  24674809.6804                   24674813.9184
        36.7504         22.7504
 -11490489.38746  -8882124.98845  23410274.6414                   23410279.1294
        39.0004         34.0004
 25  8  6  0 13 30.0000000  0 10G01G02G03G04G16G26G28G31G06G09
   2225402.56346   1727108.10244  22941601.6414                   22941604.8324
        41.7504         26.2504
   3176095.62945   2457042.88342  24971287.7504                   24971298.3754
        33.2504         14.7504
  -6384467.55548  -4936074.90248  19797057.1724                   19797057.9844
        49.5004         50.5004
  -8804984.66447  -6818089.42645  20902928.4304                   20902928.5084
        47.2504         35.2504
 -13255874.57447 -10248407.43044  22095808.8364                   22095809.8634
        43.2504         28.7504
  -7372454.12947  -5707693.32047  21374233.6024                   21374236.4414
        46.0004         42.5004
   3843313.37546   2976849.74643  24391529.9844                   24391531.2114
        40.7504         22.7504
   1487351.91847   1156646.99646  21625339.9774                   21625338.5594
        47.7504         41.5004
  -6520919.06246  -5051791.28144  24655308.0704                   24655312.0744
        37.2504         26.5004
 -11624392.19146  -8986464.65645  23384793.5474                   23384798.1294
        40.0004         34.2504
 25  8  6  0 14  0.0000000  0 10G01G02G03G04G16G26G28G31G06G09
   2259964.09447   1754039.04744  22948178.4224                   22948182.0274
        42.0004         27.0004
   3207309.871 5                  24977229.414
        34.500
  -6436347.84448  -4976501.08648  19787184.5634                   19787185.7544
        49.7504         50.5004
  -8901085.77347  -6892973.35245  20884641.5164                   20884641.1844
        47.2504         35.0004
 -13399106.74647 -10360016.76644  22068552.4064                   22068553.2624
        43.2504         29.2504
  -7433226.68747  -5755048.50047  21362668.9614                   21362671.5984
        46.5004         42.5004
   3887724.12546   3011455.43843  24399980.2424                   24399982.1484
        40.0004         21.5004
   1516518.28947   1179374.03546  21630889.8134                   21630888.9924
        46.7504         41.7504
  -6622950.62146  -5131296.39144  24635891.8284                   24635896.0904
        37.2504         29.2504
 -11758300.60246  -9090808.70345  23359312.0314                   23359316.3634
        40.7504         35.2504
 25  8  6  0 14 30.0000000  0 10G01G02G03G04G16G26G28G31G06G09
   3870082.31647   3008676.50844  23254573.6884                   23254577.2894
        42.0004         26.2504
   4813778.484 5                  25282928.844
        35.000
  -4912283.42648  -3788918.41848  20077204.5084                   20077205.6914
        50.5004         50.5004
  -7421638.81647  -5740157.49646  21166170.4924                   21166171.2274
        47.5004         36.5004
 -11966613.73447  -9243788.28945  22341147.1484                   22341147.7734
        43.0004         30.2504
  -5917998.21147  -4574350.93747  21651007.2344                   21651010.1024
        45.2504         42.7504
   5507533.29746   4273644.31643  24708219.4144                   24708221.3674
        39.7504         20.2504
   3121323.41047   2429871.51246  21936274.0164                   21936272.9804
        46.7504         41.5004
  -5149104.19546  -3982844.60545  24916355.4144                   24916359.3444
        38.0004         30.5004
 -10316790.54346  -7967553.93745  23633621.9224                   23633626.5434
        40.7504         34.7504
 25  8  6  0 15  0.0000000  0 10G01G02G03G04G16G26G28G31G06G09
   3904913.43446   3035817.48044  23261201.9694                   23261205.0434
        41.5004         25.7504
   4844658.14146   3689989.83253  25288805.1954                   25288812.0164
        37.0004         20.2504
  -4963120.02048  -3828531.34048  20067530.4304                   20067531.9224
        49.0004         50.2504
  -7517492.75447  -5814848.82445  21147930.0634                   21147930.7664
        47.5004         35.5004
 -12109244.37947  -9354928.91844  22314005.1884                   22314005.5274
        43.2504         29.7504
  -5977615.20747  -4620805.69147  21639662.3364                   21639665.4344
        44.7504         43.0004
   5551899.19946   4308215.12943  24716662.4614                   24716663.9884
        39.5004         19.5004
   3150923.62947   2452936.61346  21941906.9924                   21941905.7584
        46.5004         41.7504
  -5250228.17246  -4061642.48845  24897111.5704                   24897116.7034
        39.2504         31.2504
 -10450713.71546  -8071909.49245  23608137.1334                   23608141.3674
        40.7504         35.0004
 25  8  6  0 15 30.0000000  0 10G01G02G03G04G16G26G28G31G06G09
   3939876.64146   3063061.43444  23267855.3134                   23267858.6374
        40.7504         25.2504
   4875368.87946   3713920.02043  25294650.7344                   25294658.7704
        38.7504         18.2504
  -5013431.76248  -3867735.28148  20057956.4534                   20057957.7504
        50.0004         50.5004
  -7613220.41447  -5889441.76245  21129713.8524                   21129714.1214
        47.5004         35.2504
 -12251566.79747  -9465829.35544  22286921.8594                   22286922.3634
        43.5004         29.2504
  -6036651.68747  -4666808.09447  21628428.3914                   21628431.3404
        45.0004         42.7504
   5596242.15646   4342768.01243  24725100.5554                   24725102.3794
        40.5004         20.2504
   3180739.02047   2476169.36746  21947580.5554                   21947579.4264
        45.5004         41.5004
  -5350894.35946  -4140083.65645  24877956.7034                   24877961.1684
        39.0004         32.5004
 -10584641.77346  -8176268.86345  23582651.2894                   23582655.7074
        40.2504         34.0004
 25  8  6  0 16  0.0000000  0 10G01G02G03G04G16G26G28G31G06G09
   3974965.31646   3090403.11743  23274532.6724                   23274535.5354
        40.7504         23.5004
   4905904.84046   3737714.10943  25300462.1334                   25300469.9024
        40.0004         19.2504
  -5063221.55548  -3906532.51648  20048481.9304                   20048483.2114
        50.0004         50.5004
  -7708824.87147  -5963938.69145  21111520.7344                   21111520.8674
        47.5004         35.7504
 -12393581.69947  -9576490.17644  22259897.1024                   22259898.0434
        42.5004         29.5004
  -6095110.67647  -4712360.49647  21617303.7034                   21617306.5164
        45.0004         42.5004
   5640557.02746   4377299.02743  24733533.1954                   24733535.5234
        40.2504         20.5004
   3210763.53147   2499565.07046  21953294.0554                   21953293.0124
        45.2504         41.0004
  -5451104.90646  -4218169.75045  24858886.0704                   24858891.7774
        39.7504         31.2504
 -10718577.80146  -8280634.43445  23557164.2194                   23557168.2304
        41.2504         34.7504
 25  8  6  0 16 30.0000000  0  9G01G03G04G16G26G28G31G06G09
   4010176.93846   3117840.61344  23281233.2974                   23281237.0474
        41.5004         26.2504
  -5112488.27048  -3944922.16048  20039106.8364                   20039108.0664
        49.5004         50.5004
  -7804305.13747  -6038338.85945  21093351.2344                   21093351.6374
        47.7504         35.7504
 -12535285.02347  -9686908.20744  22232931.4304                   22232932.8204
        43.5004         28.7504
  -6152991.24247  -4757462.19147  21606289.7194                   21606292.0634
        45.5004         42.5004
   5684842.71946   4411807.31643  24741960.8834                   24741962.6054
        39.7504         20.2504
   3240995.52747   2523122.44946  21959047.1804                   21959046.1804
        46.2504         41.0004
  -5550857.99246  -4295899.41445  24839904.0554                   24839908.5124
        38.5004         30.2504
 -10852520.91846  -8385005.56645  23531675.4844                   23531679.7194
        40.5004         34.7504
 25  8  6  0 17  0.0000000  0  9G01G03G04G16G26G28G31G06G09
   4045512.16847   3145374.41044  23287956.9924                   23287961.0204
        42.2504         26.2504
  -5161227.55148  -3982900.81648  20029832.0314                   20029833.2384
        49.7504         50.5004
  -7899656.93047  -6112638.91845  21075206.4224                   21075206.4844
        47.7504         35.5004
 -12676669.34447  -9797077.66844  22206027.2734                   22206028.0944
        43.0004         28.7504
  -6210289.15647  -4802109.87147  21595386.0944                   21595388.4804
        45.2504         42.7504
   5729101.36346   4446294.54343  24750382.8754                   24750384.6414
        40.0004         20.2504
   3271436.15247   2546842.40246  21964839.5084                   21964838.6094
        46.0004         41.5004
  -5650148.64146  -4373268.71145  24821009.9614                   24821014.1884
        39.2504         31.2504
 -10986467.02746  -8489378.99245  23506186.6094                   23506190.2854
        41.2504         35.5004
 25  8  6  0 17 30.0000000  0  9G01G03G04G16G26G28G31G06G09
   4080970.12946   3173003.86744  23294704.8444                   23294708.8484
        41.0004         25.7504
  -5209436.61748  -4020466.31248  20020658.1954                   20020659.3914
        50.5004         50.5004
  -7994877.61347  -6186836.81646  21057086.9144                   21057086.9414
        47.5004         36.0004
 -12817728.99647  -9906994.14544  22179184.4304                   22179185.1094
        43.5004         29.0004
  -6267001.89147  -4846301.57047  21584593.7664                   21584596.4264
        45.2504         42.7504
   5773333.55546   4480761.14543  24758800.8054                   24758802.2464
        39.5004         20.7504
   3302085.02747   2570724.63346  21970672.3284                   21970671.1684
        46.2504         41.2504
  -5748973.25046  -4450274.86745  24802204.3204                   24802208.6134
        37.7504         31.2504
 -11120413.55546  -8593752.75045  23480696.8834                   23480700.7234
        40.2504         35.2504
 25  8  6  0 18  0.0000000  0  9G01G03G04G16G26G28G31G06G09
   4116553.58646   3200731.08644  23301476.2974                   23301480.6174
        40.7504         25.0004
  -5257109.03548  -4057613.64848  20011586.4694                   20011587.6374
        50.0004         50.5004
  -8089960.79748  -6260927.57046  21038992.8524                   21038992.6914
        48.0004         36.0004
 -12958454.84847 -10016650.50844  22152404.9844                   22152405.8554
        43.0004         29.2504
  -6323123.16847  -4890032.39147  21573914.3914                   21573917.0314
        46.0004         42.7504
   5817543.52346   4515210.45343  24767212.5634                   24767214.5394
        37.5004         21.5004
   3332945.58647   2594771.82047  21976544.8834                   21976543.8554
        46.2504         42.0004
  -5847324.85546  -4526912.43745  24783487.7664                   24783492.2504
        36.5004         30.0004
 -11254354.22746  -8698121.93045  23455208.5704                   23455212.8244
        40.0004         35.2504
 25  8  6  0 18 30.0000000  0  9G01G03G04G16G26G28G31G06G09
   4152260.37146   3228554.41444  23308271.3674                   23308275.1884
        41.5004         26.7504
  -5304243.44948  -4094341.76248  20002616.9144                   20002618.3364
        49.7504         50.5004
  -8184905.12547  -6334910.13346  21020925.6954                   21020925.7274
        47.5004         36.0004
 -13098842.28147 -10126043.17244  22125689.8284                   22125690.6724
        44.0004         29.7504
  -6378651.83647  -4933301.42647  21563347.3054                   21563350.3094
        46.2504         42.5004
   5861730.53546   4549641.78943  24775621.8524                   24775623.2304
        36.5004         21.0004
   3364016.28947   2618982.73446  21982456.8134                   21982456.0044
        46.2504         41.2504
  -5945201.22345  -4603179.67644  24764862.8914                   24764867.3914
        35.2504         29.5004
 -11388287.72746  -8802485.53545  23429721.6334                   23429725.9654
        40.0004         35.5004
 25  8  6  0 19  0.0000000  0  9G01G03G04G16G26G28G31G06G09
   4188086.75046   3256470.93444  23315089.0314                   23315092.3794
        41.2504         25.5004
  -5350839.93048  -4130650.70348  19993750.1644                   19993751.2344
        51.0004         50.5004
  -8279710.66047  -6408784.54346  21002884.5004                   21002884.9804
        47.7504         36.0004
 -13238888.90647 -10235170.27045  22099039.5554                   22099040.5204
        43.2504         30.0004
  -6433588.13347  -4976108.88747  21552893.4064                   21552895.8794
        46.2504         42.7504
                                  24784025.055
        30.500
   3395293.79747   2643354.80546  21988408.9614                   21988407.5044
        45.7504         41.5004
  -6042601.89146  -4679076.27744  24746328.0164                   24746332.6764
        38.0004         29.2504
 -11522214.29746  -8906843.73445  23404236.4224                   23404240.0744
        39.2504         35.2504
 25  8  6  0 19 30.0000000  0  9G01G07G03G04G16G26G31G06G09
   4224029.44547   3284478.06644  23321928.3754                   23321932.5514
        42.0004         25.0004
   1388504.55955   1124567.29353  25288577.2974                   25288587.7234
        33.0004         22.7504
  -5396898.15648  -4166540.23048  19984985.3364                   19984986.6454
        50.0004         50.5004
  -8374377.09047  -6482550.56246  20984870.3204                   20984870.5354
        47.7504         36.2504
 -13378591.57047 -10344029.36344  22072455.4454                   22072456.2114
        44.0004         29.0004
  -6487932.00447  -5018454.71547  21542552.0944                   21542554.7584
        47.0004         42.7504
   3426775.64547   2667886.08247  21994400.0164                   21994398.8794
        46.2504         42.0004
  -6139525.78946  -4754601.39144  24727884.2274                   24727888.6804
        37.5004         29.0004
 -11656133.78546  -9011196.39845  23378752.1884                   23378756.6524
        39.5004         35.5004
 25  8  6  0 20  0.0000000  0  9G01G07G03G04G16G26G31G06G09
   4260080.94946   3312569.98844  23328788.8204                   23328793.1174
        41.5004         24.5004
                                  25261398.9144                   25261411.2584
        26.7504         16.7504
  -5442422.23448  -4202013.53548  19976322.3364                   19976323.8914
        50.5004         50.5004
  -8468908.36347  -6556211.26245  20966880.9924                   20966881.9454
        47.5004         35.7504
 -13517951.12147 -10452621.08644  22045935.5634                   22045936.6374
        43.5004         29.5004
  -6541687.64847  -5060342.18447  21532322.6174                   21532325.4184
        46.5004         43.0004
   3458454.86747   2692571.16446  22000428.4454                   22000427.2304
        46.0004         41.5004
  -6235976.21946  -4829757.54744  24709530.0314                   24709533.9924
        37.7504         29.2504
 -11790050.18446  -9115546.65646  23353267.9384                   23353272.9344
        39.5004         36.2504
 25  8  6  0 20 30.0000000  0  9G01G07G03G04G16G26G31G06G09
   4296232.64547   3340740.00444  23335668.9224                   23335672.4924
        42.0004         26.2504
   1102971.91855    902075.49652  25234240.9844                   25234252.3324
        30.0004         16.7504
  -5487417.12948  -4237074.49648  19967760.1174                   19967761.3204
        50.5004         50.5004
  -8563309.48848  -6629770.54746  20948917.3754                   20948917.6644
        48.0004         36.5004
 -13656969.55547 -10560947.00444  22019481.4694                   22019481.9574
        44.0004         29.5004
  -6594860.41447  -5101775.47347  21522204.4144                   21522206.9494
        46.0004         43.2504
   3490323.46147   2717403.81646  22006492.8134                   22006491.4454
        46.5004         41.7504
  -6331957.50446  -4904548.12945  24691265.9614                   24691269.8284
        38.5004         30.0004
 -11923968.54346  -9219898.45746  23327784.5164                   23327788.4804
        40.7504         36.2504
 25  8  6  0 21  0.0000000  0  9G01G07G03G04G16G26G31G06G09
   4332479.77046   3368984.37144  23342566.6884                   23342570.5744
        41.2504         24.2504
    960343.85545    790937.11343  25207099.5474                   25207109.1604
        33.5004         18.2504
  -5531884.18048  -4271724.14848  19959298.4144                   19959299.4614
        51.0004         50.5004
  -8657581.62547  -6703229.32045  20930978.0474                   20930978.3364
        47.5004         35.5004
 -13795645.61347 -10669006.14145  21993092.0944                   21993092.7304
        44.5004         30.0004
  -6647451.72347  -5142755.66447  21512196.9384                   21512199.1644
        47.0004         43.0004
   3522377.49247   2742380.95747  22012592.6644                   22012591.4264
        47.0004         42.0004
  -6427470.25846  -4978973.66444  24673090.0474                   24673094.2274
        37.5004         29.2504
 -12057890.16847  -9324252.81645  23302300.9144                   23302303.5124
        42.7504         35.5004
 25  8  6  0 21 30.0000000  0  9G01G07G03G04G16G26G31G06G09
   4368822.46546   3397303.17643  23349481.7034                   23349486.8404
        40.5004         23.2504
    817811.89846    679873.75043  25179977.3524                   25179986.0864
        38.0004         22.5004
  -5575819.79348  -4305959.68448  19950937.5944                   19950938.8014
        50.7504         50.7504
  -8751721.07848  -6776584.69945  20913063.7034                   20913063.8134
        48.0004         35.5004
 -13933972.34847 -10776793.06645  21966769.6484                   21966770.1914
        45.0004         30.0004
  -6699458.30147  -5183280.22747  21502299.8364                   21502302.8244
        45.7504         43.0004
   3554617.46147   2767502.98446  22018727.3674                   22018726.3874
        46.5004         41.5004
  -6522510.20746  -5053030.71945  24655004.0554                   24655009.0594
        37.5004         30.5004
 -12191811.53147  -9428606.96546  23276815.9384                   23276819.6524
        42.7504         36.5004
 25  8  6  0 22  0.0000000  0  9G01G07G03G04G16G26G31G06G09
   4405254.34846   3425691.49644  23356415.0864                   23356419.7114
        41.2504         25.2504
    675373.91046    568883.52744  25152871.4924                   25152880.4884
        38.5004         26.2504
  -5619226.90248  -4339783.40648  19942677.5634                   19942678.8444
        50.5004         50.5004
  -8845730.55947  -6849838.79346  20895174.6954                   20895175.0044
        47.2504         36.7504
 -14071949.79347 -10884307.83644  21940512.8284                   21940513.3284
        44.7504         29.7504
  -6750883.29747  -5223351.61347  21492514.3984                   21492516.6054
        45.0004         43.0004
   3587037.80947   2792765.56346  22024897.1334                   22024895.9694
        46.2504         41.5004
  -6617079.56246  -5126721.08244  24637008.4224                   24637012.9734
        36.7504         29.2504
 -12325735.45747  -9532963.12946  23251331.5164                   23251334.4964
        42.5004         37.5004
 25  8  6  0 22 30.0000000  0  9G01G07G03G04G16G26G31G06G09
   4441775.45346   3454149.35544  23363365.6564                   23363369.7304
        41.7504         25.5004
    533033.85946    457969.61744  25125784.7814                   25125793.9414
        38.0004         25.7504
  -5662102.00848  -4373192.57448  19934518.9384                   19934520.5474
        50.7504         50.5004
  -8939606.43447  -6922988.78145  20877310.1254                   20877310.6844
        47.5004         35.7504
 -14209571.46947 -10991545.37545  21914324.6174                   21914325.2304
        44.5004         30.2504
  -6801723.44547  -5262967.27347  21482839.6254                   21482841.6564
        47.7504         43.2504
   3619639.24647   2818169.25846  22031101.0234                   22031099.4964
        46.7504         41.2504
  -6711174.11346  -5200041.47744  24619102.9454                   24619107.8444
        37.0004         29.5004
 -12459658.28946  -9637318.43046  23225846.4144                   23225850.0204
        41.2504         37.2504
 25  8  6  0 23  0.0000000  0  9G01G07G03G04G16G26G31G06G09
   4478382.53947   3482674.17644  23370331.4774                   23370336.0824
        42.5004         25.7504
    390792.41446    347132.56644  25098716.3754                   25098725.8014
        37.7504         27.2504
  -5704445.00848  -4406187.12148  19926460.9304                   19926462.4694
        50.0004         50.5004
  -9033348.32847  -6996034.37546  20859471.4614                   20859471.9774
        47.0004         36.0004
 -14346834.17647 -11098503.20345  21888203.7504                   21888204.2384
        44.5004         30.0004
  -6851978.89547  -5302127.32447  21473276.2664                   21473278.5164
        46.5004         43.0004
   3652418.85247   2843711.77746  22037338.5004                   22037337.5004
        45.7504         41.0004
  -6804793.07446  -5272991.27344  24601287.8284                   24601292.4614
        36.7504         29.5004
 -12593579.85546  -9741672.73446  23200361.2194                   23200365.5904
        41.2504         37.2504
 25  8  6  0 23 30.0000000  0  9G01G07G03G04G16G26G31G06G09
   4515073.55146   3511264.39544  23377313.3834                   23377317.6334
        41.7504         25.2504
    248651.55146    236373.87544  25071668.6024                   25071677.6954
        37.5004         28.2504
  -5746254.62948  -4438766.04748  19918505.3284                   19918506.0824
        51.0004         50.5004
  -9126954.66447  -7068974.33246  20841659.2504                   20841659.3594
        46.7504         36.5004
 -14483733.54347 -11205177.90645  21862152.8364                   21862153.5044
        44.5004         30.7504
  -6901648.59847  -5340830.95347  21463824.3134                   21463826.7664
        46.5004         43.0004
   3685375.59447   2869392.31646  22043609.8594                   22043609.2854
        46.2504         41.0004
  -6897934.33646  -5345568.85945  24583563.0944                   24583568.5984
        37.7504         31.5004
 -12727498.73046  -9846024.94945  23174877.5634                   23174881.0594
        40.5004         35.5004
 25  8  6  0 24  0.0000000  0  9G01G07G03G04G16G26G31G06G09
   4551847.07047   3539918.94144  23384312.2034                   23384315.6484
        42.5004         25.2504
    106614.10245    125695.76644  25044639.2584                   25044648.5044
        34.7504         25.5004
  -5787528.85548  -4470927.78148  19910650.9304                   19910652.0084
        50.5004         50.5004
  -9220423.23047  -7141806.93046  20823872.6644                   20823873.1024
        47.5004         36.0004
 -14620264.85947 -11311565.82045  21836171.6724                   21836171.9104
        44.2504         30.2504
  -6950730.81247  -5379076.79347  21454483.9064                   21454486.6764
        45.5004         43.0004
   3718508.52347   2895210.15646  22049914.7734                   22049913.6844
        46.7504         40.5004
  -6990595.29346  -5417772.18445  24565930.6564                   24565935.1724
        39.0004         31.2504
 -12861412.65646  -9950373.31246  23149393.9774                   23149397.3914
        39.0004         36.0004
 25  8  6  0 24 30.0000000  0  9G01G07G03G04G16G26G31G06G09
   4588700.86346   3568635.99644  23391325.0394                   23391329.0824
        41.5004         24.7504
    -35318.40246     15099.43444  25017629.9844                   25017639.0664
        36.7504         27.5004
  -5828266.68048  -4502671.53948  19902898.5394                   19902899.5514
        50.2504         50.5004
  -9313752.67247  -7214531.12146  20806112.6484                   20806112.8134
        47.0004         36.2504
 -14756423.80947 -11417663.58644  21810261.3054                   21810261.5164
        45.2504         29.7504
  -6999224.81647  -5416864.29347  21445256.1884                   21445258.6254
        47.0004         43.0004
   3751816.02347   2921164.03546  22056253.6174                   22056251.9694
        46.5004         40.0004
  -7082774.12546  -5489599.84045  24548389.7274                   24548394.1994
        39.0004         30.7504
 -12995320.51246 -10054716.96146  23123912.1414                   23123916.2504
        40.0004         36.0004
 25  8  6  0 25  0.0000000  0  9G01G07G03G04G16G26G31G06G09
   4625630.21946   3597411.94144  23398351.2584                   23398356.1884
        41.5004         25.2504
   -177146.70346    -95415.67244  24990640.9454                   24990649.4654
        37.5004         29.0004
  -5868469.47748  -4533998.38748  19895248.2504                   19895249.6844
        51.2504         50.5004
  -9406944.04347  -7287147.71946  20788378.6804                   20788378.7464
        47.0004         36.5004
 -14892208.78947 -11523469.93445  21784422.4454                   21784423.2974
        44.5004         30.0004
  -7047132.22747  -5454194.71147  21436139.7344                   21436141.9694
        46.2504         43.2504
   3785294.26647   2947250.95346  22062624.1804                   22062622.8284
        45.7504         39.7504
  -7174471.51246  -5561052.32845  24530940.4694                   24530944.9534
        38.0004         30.2504
 -13129223.34446 -10159056.69546  23098431.0784                   23098435.2664
        40.7504         36.5004
 25  8  6  0 25 30.0000000  0  9G01G07G03G04G16G26G31G06G09
   4662634.64547   3626246.36344  23405394.0474                   23405398.7114
        42.0004         25.2504
   -318866.99246   -205846.68044  24963671.5554                   24963680.7074
        39.2504         28.0004
  -5908134.53948  -4564906.23448  19887700.5784                   19887701.5514
        51.2504         50.5004
  -9499994.25847  -7359654.32846  20770672.0864                   20770671.8914
        47.2504         36.5004
 -15027613.74647 -11628980.16844  21758655.5784                   21758655.8364
        45.0004         29.7504
  -7094450.62947  -5491066.16047  21427135.4304                   21427137.9024
        46.2504         43.0004
   3818943.15247   2973470.83246  22069026.9384                   22069026.0554
        45.7504         39.7504
  -7265684.05146  -5632127.02045  24513581.9064                   24513587.2584
        36.0004         30.0004
 -13263118.25446 -10263390.24646  23072951.8284                   23072955.2934
        41.5004         36.7504
 25  8  6  0 26  0.0000000  0  9G01G07G03G04G16G26G31G06G09
   4699710.28946   3655136.28544  23412449.7114                   23412453.9454
        41.5004         26.7504
   -460479.41046   -316193.62944  24936723.6804                   24936732.6994
        38.7504         29.0004
  -5947262.41448  -4595395.48848  19880254.5314                   19880255.7384
        50.5004         50.5004
  -9592903.47747  -7432051.07046  20752991.3674                   20752991.6914
        47.0004         36.2504
 -15162636.26247 -11734192.38744  21732961.7424                   21732961.7234
        45.2504         29.7504
  -7141180.85547  -5527479.28547  21418242.8984                   21418245.4304
        46.0004         43.0004
   3852759.73847   2999821.39146  22075462.2194                   22075461.6054
        45.0004         40.0004
  -7356411.53546  -5702823.71545  24496318.2734                   24496323.3524
        38.0004         30.2504
 -13397005.46147 -10367717.80546  23047474.5004                   23047477.4184
        42.0004         37.0004
 25  8  6  0 26 30.0000000  0  9G01G07G03G04G16G26G31G06G09
   4736854.43047   3684079.59444  23419518.2114                   23419522.5204
        42.5004         25.2504
   -601982.65646   -426455.50844  24909796.2664                   24909804.7584
        38.5004         28.2504
  -5985852.66448  -4625465.81248  19872911.0314                   19872911.8714
        50.5004         50.5004
  -9685670.81648  -7504337.24246  20735338.5004                   20735338.7154
        48.0004         36.5004
 -15297272.58247 -11839103.67245  21707341.1954                   21707340.8284
        45.5004         30.5004
  -7187322.70747  -5563433.94147  21409462.1724                   21409464.8164
        47.0004         42.7504
   3886741.78547   3026300.86746  22081928.9304                   22081928.0554
        45.5004         40.5004
  -7446652.73846  -5773141.51245  24479145.6724                   24479151.0394
        38.0004         31.5004
 -13530884.19947 -10472038.76246  23021996.9224                   23022000.9804
        42.0004         37.0004
 25  8  6  0 27  0.0000000  0  9G01G07G03G04G16G26G31G06G09
   4774064.68046   3713074.39544  23426598.9534                   23426603.0944
        41.0004         24.5004
   -743375.43046   -536631.32444  24882890.1804                   24882897.8444
        38.5004         28.0004
  -6023904.50048  -4655116.59848  19865669.8444                   19865670.9964
        50.2504         50.5004
  -9778295.02747  -7576511.91446  20717712.6804                   20717712.6644
        47.5004         36.0004
 -15431519.46147 -11943711.51245  21681794.6644                   21681794.2774
        46.2504         31.2504
  -7232875.69547  -5598929.74247  21400793.5234                   21400796.0274
        47.0004         42.7504
   3920887.41447   3052907.80946  22088426.0164                   22088425.4064
        45.2504         40.0004
  -7536406.29346  -5843079.31244  24462066.6724                   24462070.9574
        38.2504         29.0004
 -13664753.27346 -10576352.19146  22996522.9534                   22996526.2034
        41.5004         36.5004
 25  8  6  0 27 30.0000000  0  9G01G07G03G04G16G26G31G06G09
   4811341.01646   3742120.67244  23433692.1484                   23433697.5864
        41.5004         24.7504
   -884653.65646   -646717.78944  24856005.0944                   24856013.3524
        39.0004         28.5004
  -6061414.69548  -4684345.32848  19858532.1094                   19858533.3754
        50.5004         50.5004
  -9870772.43447  -7648572.16846  20700114.8674                   20700115.0634
        47.7504         36.0004
 -15565370.07847 -12048010.57845  21656323.7194                   21656323.7894
        46.0004         31.7504
  -7277836.97347  -5633964.47347  21392238.1954                   21392240.3364
        46.7504         43.0004
   3955197.43047   3079642.84846  22094955.5944                   22094954.8954
        45.2504         40.2504
  -7625668.11746  -5912633.96144  24445080.3914                   24445085.0554
        38.2504         29.5004
 -13798609.19546 -10680655.36746  22971050.6174                   22971053.9304
        41.7504         36.5004
 25  8  6  0 28  0.0000000  0  9G01G07G03G04G16G26G31G06G09
   4848679.51646   3771215.42244  23440797.4614                   23440802.7704
        40.2504         24.5004
  -1025817.13346   -756714.92644  24829141.9844                   24829149.9144
        40.5004         29.7504
  -6098384.14148  -4713152.69148  19851496.7424                   19851498.1994
        51.0004         50.5004
  -9963103.39847  -7720518.32046  20682544.7034                   20682544.8674
        46.5004         36.0004
 -15698822.27047 -12151999.16845  21630928.8674                   21630928.5824
        46.5004         31.5004
  -7322207.60547  -5668538.96547  21383794.6564                   21383796.7154
        47.2504         43.0004
   3989668.71547   3106503.56346  22101515.1334                   22101514.1054
        46.0004         40.5004
  -7714438.38746  -5981805.59844  24428188.0554                   24428192.0434
        38.7504         29.0004
 -13932452.32847 -10784948.58646  22945581.3444                   22945584.5434
        42.2504         37.0004
 25  8  6  0 28 30.0000000  0  9G01G07G03G04G16G26G31G06G09
   6461495.18446   5027954.70343  23747706.6724                   23747711.2894
        38.7504         23.2504
    408558.96946    360981.18044  25102094.3204                   25102101.8834
        39.7504         27.5004
  -4559392.24648  -3513938.23048  20144357.3914                   20144358.4654
        50.2504         50.5004
  -8479864.92647  -6564748.04346  20964795.6334                   20964795.6454
        46.7504         36.5004
 -14256448.79747 -11028071.68045  21905402.9144                   21905402.9064
        46.2504         30.7504
  -5790567.14147  -4475052.85947  21675255.4844                   21675258.0904
        47.7504         43.0004
   5599717.09047   4361086.67646  22407897.6954                   22407896.4884
        46.0004         40.5004
  -6227294.09846  -4822991.84444  24711182.0704                   24711185.8594
        37.7504         27.7504
 -12490858.41047  -9661628.50046  23219907.9224                   23219910.9104
        42.0004         36.5004
 25  8  6  0 29  0.0000000  0  9G01G07G03G04G16G26G31G06G09
   6498949.02046   5057139.28543  23754833.1414                   23754838.7114
        39.7504         22.7504
    267627.42646    251164.82044  25075275.2734                   25075283.3954
        39.2504         29.2504
  -4595279.81248  -3541902.57448  20137528.2504                   20137529.5824
        50.0004         50.5004
  -8571901.04347  -6636464.45746  20947281.8134                   20947282.1054
        47.0004         36.5004
 -14389094.09447 -11131431.53545  21880161.2274                   21880161.0044
        46.5004         30.5004
  -5833757.19947  -4508707.42647  21667037.2894                   21667039.5704
        46.7504         42.7504
   5634503.97747   4388193.30146  22414516.9064                   22414516.4734
        45.7504         41.0004
  -6315078.78946  -4891395.52044  24694477.1174                   24694480.4104
        37.5004         26.5004
 -12624674.37946  -9765900.53946  23194442.9924                   23194446.0904
        41.7504         36.2504
 25  8  6  0 29 30.0000000  0  9G01G07G03G04G16G26G31G06G09
   6536458.28946   5086367.08643  23761971.6804                   23761976.7974
        40.0004         22.7504
    126815.29346    141441.51244  25048479.5944                   25048487.1884
        39.7504         29.5004
  -4630624.18748  -3569443.64848  20130802.7114                   20130803.7464
        50.0004         50.5004
  -8663786.52747  -6708063.49246  20929796.7424                   20929796.3674
        46.5004         36.2504
 -14521328.72747 -11234471.38745  21854997.9694                   21854997.5234
        46.2504         30.0004
  -5876355.09847  -4541900.56647  21658931.2504                   21658932.9414
        46.5004         42.5004
   5669447.37147   4415421.88346  22421166.6094                   22421165.9184
        45.7504         40.7504
  -6402367.30946  -4959412.55144  24677866.6804                   24677870.8244
        39.7504         27.2504
 -12758473.64146  -9870159.56246  23168981.9384                   23168984.6684
        41.2504         36.5004
 25  8  6  0 30  0.0000000  0  9G01G07G03G04G16G26G31G06G09
   6574016.90246   5115633.34844  23769118.9614                   23769124.6644
        41.2504         26.0004
    -13879.11346     31809.94144  25021705.2814                   25021713.3794
        37.5004         27.0004
  -4665428.19548  -3596563.66048  20124179.6564                   20124181.1954
        49.7504         50.5004
  -8755523.67647  -6779546.95746  20912339.5474                   20912339.7584
        46.7504         36.0004
 -14653152.34047 -11337190.97345  21829912.3204                   21829912.3364
        45.5004         31.0004
  -5918364.06247  -4574634.79347  21650936.6804                   21650938.9804
        47.0004         42.5004
   5704542.29347   4442768.53546  22427845.0004                   22427844.1134
        46.0004         40.7504
  -6489161.78146  -5027044.61344  24661351.0474                   24661353.7894
        40.0004         27.7504
 -12892258.64846  -9974407.49246  23143522.8364                   23143525.8594
        40.5004         36.2504
 25  8  6  0 30 30.0000000  0  9G01G07G03G04G16G26G31G06G09
   6611626.59446   5144939.38343  23776276.1174                   23776281.6294
        40.0004         23.2504
   -154450.32046    -77725.60944  24994955.4924                   24994963.5744
        36.0004         25.2504
  -4699687.29748  -3623259.07048  20117660.1724                   20117661.7464
        49.7504         50.5004
  -8847107.22347  -6850910.73046  20894911.4454                   20894911.7504
        47.0004         36.2504
 -14784557.53147 -11439584.52045  21804906.5164                   21804906.7814
        45.0004         31.0004
  -5959779.87547  -4606906.80947  21643055.6724                   21643057.9454
        47.2504         42.5004
   5739790.73847   4470234.81346  22434552.5784                   22434551.7504
        46.0004         40.5004
  -6575456.86346  -5094287.57444  24644928.6724                   24644932.2854
        38.0004         27.0004
 -13026024.24646 -10078640.29746  23118068.1094                   23118071.3754
        39.7504         37.0004
 25  8  6  0 31  0.0000000  0  9G01G07G03G04G16G26G31G06G09
   6649281.60246   5174280.75443  23783441.7274                   23783447.1134
        40.0004         23.5004
   -294900.69946   -187166.98044  24968229.3834                   24968236.5204
        37.5004         26.7504
  -4733404.23048  -3649532.01248  20111244.1484                   20111245.5984
        49.2504         50.5004
  -8938539.25447  -6922156.44546  20877513.2974                   20877512.9224
        46.2504         36.7504
 -14915543.65247 -11541651.51245  21779981.2114                   21779980.5944
        45.7504         31.0004
  -6000605.53947  -4638718.98047  21635286.8834                   21635289.2154
        47.0004         42.5004
   5775187.56647   4497816.71146  22441288.5474                   22441287.6564
        45.2504         41.0004
  -6661254.64846  -5161142.95744  24628602.8594                   24628605.9224
        38.5004         29.2504
 -13159772.60546 -10182859.66046  23092616.9924                   23092620.1564
        41.5004         36.2504
 25  8  6  0 31 30.0000000  0  9G01G07G03G04G16G26G31G06G09
   6686981.66046   5203657.21943  23790616.1024                   23790621.3324
        40.5004         22.5004
   -435226.51246   -296511.30144  24941525.7504                   24941532.4024
        39.0004         28.5004
  -4766576.35248  -3675380.41848  20104931.5314                   20104932.7384
        49.2504         50.2504
  -9029816.41847  -6993281.48046  20860143.2274                   20860143.6844
        47.0004         36.7504
 -15046104.87947 -11643387.40645  21755135.6564                   21755135.9384
        45.7504         31.2504
  -6040838.79747  -4670069.54347  21627630.4694                   21627632.8674
        47.2504         42.7504
   5810733.38347   4525514.71546  22448052.9694                   22448052.0784
        45.0004         41.2504
  -6746551.72346  -5227608.19545  24612370.8444                   24612375.1724
        37.5004         30.0004
 -13293500.44947 -10287063.03946  23067168.6094                   23067172.5354
        42.2504         36.7504
 25  8  6  0 32  0.0000000  0  9G01G07G03G04G16G26G31G06G09
   6724719.88346   5233063.42243  23797797.0164                   23797802.9454
        39.0004         22.5004
   -575430.73046   -405760.91844  24914845.7344                   24914851.8244
        40.2504         27.5004
  -4799207.52048  -3700807.31648  20098722.0704                   20098723.5904
        49.5004         50.2504
  -9120941.77747  -7064288.23446  20842802.6564                   20842802.6254
        46.7504         36.5004
 -15176241.72347 -11744792.63345  21730371.3134                   21730371.3834
        45.5004         31.5004
  -6080483.84047  -4700961.75847  21620086.3834                   21620088.8954
        46.7504         42.7504
   5846422.24647   4553324.17246  22454843.9144                   22454842.8444
        43.5004         41.0004
  -6831351.16046  -5293685.65245  24596233.5394                   24596238.0164
        38.0004         31.5004
 -13427210.94947 -10391252.91446  23041724.5004                   23041727.5514
        42.0004         37.2504
 25  8  6  0 32 30.0000000  0  9G01G07G03G04G16G26G31G06G09
   6762497.66846   5262500.43844  23804986.0704                   23804992.6254
        40.2504         24.2504
   -715508.10946   -514911.69544  24888189.3594                   24888195.9924
        39.5004         27.0004
  -4831293.50848  -3725809.38748  20092616.3914                   20092617.7274
        49.5004         50.2504
  -9211910.41447  -7135172.85946  20825492.1414                   20825491.8484
        47.0004         36.5004
 -15305946.53147 -11845861.20345  21705689.1484                   21705689.0984
        45.5004         31.2504
  -6119536.75447  -4731392.56247  21612654.8914                   21612657.0864
        46.5004         43.0004
   5882255.75847   4581246.35246  22461662.7894                   22461662.0434
        44.0004         40.2504
  -6915648.02745  -5359371.50444  24580192.2424                   24580196.9694
        34.2504         28.5004
 -13560899.21947 -10495425.47746  23016284.5084                   23016287.2274
        42.2504         36.5004
 25  8  6  0 33  0.0000000  0  9G01G07G03G04G16G26G31G06G09
   6800312.28146   5291966.15643  23812182.1094                   23812188.1764
        39.7504         22.2504
   -855457.52746   -623962.75044  24861557.5784                   24861564.6054
        38.0004         25.7504
  -4862834.30548  -3750386.64148  20086614.3054                   20086615.8594
        50.0004         50.2504
  -9302721.42647  -7205934.66046  20808211.2114                   20808210.8484
        47.5004         36.2504
 -15435216.30547 -11946590.79345  21681089.6414                   21681089.5474
        45.0004         30.5004
  -6157997.85947  -4761362.21947  21605335.8834                   21605338.0394
        47.0004         42.7504
   5918232.29747   4609279.97746  22468508.7734                   22468508.1484
        45.0004         39.7504
  -6999441.61745  -5424665.14144  24564245.9224                   24564251.8984
        34.5004         28.5004
 -13694564.50447 -10599580.13346  22990848.7974                   22990851.9024
        42.0004         37.2504
 25  8  6  0 33 30.0000000  0  9G01G07G03G04G16G26G31G06G09
   6838161.18446   5321458.58243  23819384.8914                   23819391.1804
        41.2504         22.2504
   -995277.66046   -732913.08643  24834948.7504                   24834955.8364
        37.5004         23.7504
  -4893829.47748  -3774538.72748  20080716.2504                   20080717.3054
        49.7504         50.2504
  -9393373.64147  -7276572.72346  20790960.4064                   20790960.5044
        47.2504         36.7504
 -15564047.38347 -12046978.52745  21656574.0004                   21656574.0394
        45.5004         31.5004
  -6195867.10547  -4790870.68747  21598129.8204                   21598132.3444
        46.7504         42.7504
   5954349.91047   4637423.53946  22475382.4384                   22475381.1524
        45.5004         39.7504
  -7082730.68445  -5489565.68444  24548397.7274                   24548402.8094
        35.2504         29.5004
 -13828205.71947 -10703716.00446  22965417.3204                   22965420.5594
        42.5004         37.5004
 25  8  6  0 34  0.0000000  0  9G01G07G03G04G16G26G31G06G09
   6876040.12946   5350974.44543  23826594.3914                   23826599.6524
        41.5004         23.2504
  -1134969.10546   -841763.16843  24808366.7504                   24808372.8674
        37.5004         22.7504
  -4924280.52348  -3798266.81648  20074921.6644                   20074922.5744
        49.5004         50.2504
  -9483867.62147  -7347087.47746  20773740.0634                   20773739.8954
        47.0004         36.7504
 -15692437.64147 -12147022.77345  21632142.1644                   21632141.9344
        45.2504         31.5004
  -6233146.36347  -4819919.43047  21591035.6724                   21591038.1214
        46.7504         42.7504
   5990605.19547   4665674.37546  22482281.0004                   22482280.8164
        45.0004         39.7504
  -7165516.04745  -5554073.71544  24532644.0234                   24532648.7234
        35.0004         29.7504
 -13961823.51247 -10807833.62546  22939990.8754                   22939994.0594
        42.5004         38.2504
 25  8  6  0 34 30.0000000  0  9G01G07G03G04G16G26G31G06G09
   6913947.36746   5380512.34844  23833807.8204                   23833812.9734
        40.0004         24.5004
  -1274529.94946   -950511.41844  24781809.7504                   24781816.2074
        38.7504         26.2504
  -4954186.40248  -3821570.10948  20069230.7344                   20069232.0664
        49.7504         50.2504
  -9574201.48847  -7417477.47346  20756550.2664                   20756550.0784
        47.0004         37.0004
 -15820382.93747 -12246720.31245  21607794.7664                   21607794.6454
        46.0004         31.5004
  -6269834.85547  -4848507.83647  21584053.9924                   21584056.3834
        47.2504         43.0004
   6026996.94147   4694031.53946  22489206.3134                   22489205.5824
        44.5004         39.7504
  -7247795.93045  -5618187.84444  24516986.8204                   24516991.2664
        34.2504         29.2504
 -14095416.08647 -10911931.60946  22914569.1804                   22914572.2704
        43.0004         38.2504
 25  8  6  0 35  0.0000000  0  9G01G07G03G04G16G26G31G06G09
   6951881.21946   5410070.97743  23841025.8204                   23841031.5124
        38.2504         21.7504
  -1413957.96946  -1059156.22344  24755277.2814                   24755282.9454
        39.2504         25.5004
  -4983546.05948  -3844447.77348  20063643.5084                   20063645.0474
        49.2504         50.0004
  -9664373.26647  -7487741.15646  20739391.0234                   20739390.7034
        47.5004         37.0004
 -15947878.82447 -12346067.65245  21583533.1564                   21583532.8914
        45.7504         31.5004
  -6305931.98847  -4876635.43447  21577184.7114                   21577187.2274
        46.7504         42.7504
   6063524.34447   4722494.42246  22496157.3054                   22496156.5354
        44.0004         39.0004
  -7329568.48045  -5681906.66844  24501425.6724                   24501430.7234
        34.7504         29.7504
 -14228981.49647 -11016008.44946  22889152.2194                   22889155.2774
        43.2504         38.0004
 25  8  6  0 35 30.0000000  0  9G01G07G03G04G16G26G31G06G09
   6989839.71146   5439648.77043  23848249.8754                   23848254.8094
        38.7504         22.5004
  -1553251.36746  -1167696.10544  24728770.1094                   24728776.2814
        39.0004         27.0004
  -5012358.72748  -3866899.20348  20058160.9224                   20058162.4144
        49.2504         50.0004
  -9754381.21547  -7557877.19146  20722262.8524                   20722263.0394
        47.0004         36.2504
 -16074921.46147 -12445061.80545  21559357.7344                   21559357.3984
        46.0004         32.0004
  -6341437.29347  -4904301.87547  21570428.4384                   21570430.8484
        46.5004         42.7504
   6100186.26247   4751062.10946  22503133.6254                   22503133.2464
        43.5004         38.7504
  -7410832.28145  -5745229.03145  24485961.8134                   24485967.1174
        35.5004         31.5004
 -14362518.18047 -11120062.89146  22863741.0004                   22863744.0944
        43.2504         39.0004
 25  8  6  0 36  0.0000000  0  9G01G07G03G04G16G26G31G06G09
   7027817.75846   5469241.87143  23855476.0474                   23855482.7234
        39.2504         22.5004
  -1692411.44546  -1276132.09444  24702287.5704                   24702294.0234
        37.7504         27.5004
  -5040626.77348  -3888926.27348  20052781.7894                   20052782.8634
        48.7504         50.0004
  -9844226.76247  -7627886.66846  20705165.6954                   20705165.8404
        46.0004         36.7504
 -16201509.73447 -12543701.90245  21535268.6484                   21535268.4144
        45.5004         32.2504
  -6376353.53147  -4931509.30547  21563784.0004                   21563786.6334
        46.0004         42.7504
   6136978.37547   4779731.25046  22510135.4844                   22510134.4344
        44.5004         39.5004
  -7491588.85546  -5808156.20745  24470593.0944                   24470599.1024
        37.0004         30.7504
 -14496027.59447 -11224096.08246  22838334.8284                   22838338.0784
        43.5004         38.5004
 25  8  6  0 36 30.0000000  0  9G01G07G03G04G16G26G31G06G09
   7065813.90646   5498849.04743  23862707.7424                   23862712.4924
        40.7504         22.5004
  -1831436.07846  -1384462.52744  24675832.1484                   24675838.1094
        38.5004         28.2504
  -5068349.05148  -3910528.06648  20047506.4774                   20047507.4184
        49.0004         50.2504
  -9933907.74247  -7697767.91446  20688099.9844                   20688099.7154
        45.5004         37.2504
 -16327639.05547 -12641984.39845  21511267.2664                   21511267.1414
        45.7504         32.5004
  -6410679.91047  -4958257.10947  21557251.7114                   21557254.4654
        46.7504         43.0004
   6173899.62147   4808501.01646  22517161.7584                   22517160.1884
        44.5004         38.5004
  -7571836.36346  -5870686.68445  24455324.2894                   24455328.6214
        37.2504         30.5004
 -14629507.68447 -11328106.42646  22812934.3984                   22812937.2194
        43.0004         38.7504
 25  8  6  0 37  0.0000000  0  9G01G07G03G04G16G26G31G06G09
   7103825.28146   5528468.04743  23869940.7504                   23869946.3984
        40.2504         22.5004
  -1970324.48846  -1492686.82844  24649402.2664                   24649407.8134
        39.7504         28.7504
  -5095525.80548  -3931704.77048  20042334.6644                   20042335.8874
        48.0004         50.0004
 -10023423.34047  -7767520.28546  20671066.1564                   20671065.7774
        46.0004         37.2504
 -16453306.36747 -12739906.87945  21487353.3984                   21487352.6994
        45.2504         32.2504
  -6444417.02047  -4984545.73447  21550832.2034                   21550834.4384
        46.7504         43.0004
   6210947.96547   4837369.81346  22524210.9454                   22524210.3524
        43.0004         38.2504
  -7651574.25046  -5932820.08645  24440149.4844                   24440154.7774
        37.5004         31.0004
 -14762957.67247 -11432093.30546  22787539.7584                   22787542.5984
        43.7504         39.2504
 25  8  6  0 37 30.0000000  0  9G01G07G03G04G16G26G31G06G09
   7141848.86746   5558096.60543  23877177.0554                   23877182.1454
        40.5004         22.7504
  -2109075.54346  -1600804.10245  24622998.8754                   24623004.6294
        40.2504         30.0004
  -5122157.39148  -3952456.67248  20037266.8444                   20037268.5164
        48.7504         50.0004
 -10112772.90247  -7837143.28146  20654063.4844                   20654063.4224
        45.5004         37.0004
 -16578508.79347 -12837467.10545  21463527.7114                   21463527.4144
        45.7504         32.7504
  -6477565.65247  -5010375.82047  21544524.1954                   21544526.3244
        46.0004         43.2504
   6248121.37547   4866336.06646  22531284.8754                   22531284.4344
        44.0004         39.0004
  -7730802.26246  -5994556.15645  24425073.8984                   24425078.3874
        37.5004         31.7504
 -14896377.00847 -11536056.31646  22762150.7344                   22762153.2624
        43.7504         39.0004
 25  8  6  0 38  0.0000000  0  9G01G07G03G04G16G26G31G06G09
   7179881.96546   5587732.55143  23884414.1254                   23884419.3674
        40.5004         22.5004
  -2247688.63746  -1708813.87544  24596621.2344                   24596626.9344
        40.7504         29.7504
  -5148243.94948  -3972783.88348  20032302.9224                   20032304.1884
        48.7504         50.0004
 -10201955.52347  -7906636.19946  20637092.4144                   20637091.9734
        46.0004         37.5004
 -16703243.08247 -12934662.57045  21439791.9844                   21439791.3164
        45.7504         32.7504
  -6510126.28547  -5035747.71947  21538328.2664                   21538330.0274
        45.5004         43.0004
   6285417.92247   4895398.26646  22538382.5164                   22538381.8014
        44.5004         38.7504
  -7809519.75446  -6055894.41845  24410094.6484                   24410098.8014
        38.7504         31.5004
 -15029764.76247 -11639994.71546  22736767.3524                   22736770.3754
        43.7504         38.2504
 25  8  6  0 38 30.0000000  0  9G01G07G03G04G16G26G31G06G09
   7217926.06646   5617377.06643  23891653.2274                   23891660.1454
        39.0004         22.2504
  -2386158.69946  -1816712.23044  24570270.7274                   24570276.1214
        40.0004         28.2504
  -5173781.41048  -3992683.21948  20027443.2734                   20027444.2074
        48.0004         50.0004
 -10290965.93447  -7975994.93046  20620154.0864                   20620153.9344
        45.7504         36.7504
 -16827501.68047 -13031487.35545  21416146.1094                   21416145.2894
        46.5004         32.0004
  -6542095.27047  -5060658.59447  21532244.3754                   21532246.6954
        45.5004         43.0004
   6322839.86747   4924558.18846  22545503.4844                   22545502.7934
        44.0004         39.2504
  -7887721.85246  -6116831.09845  24395212.5474                   24395217.1294
        38.5004         31.7504
 -15163115.92247 -11743904.59846  22711391.5474                   22711394.6174
        43.2504         38.2504
 25  8  6  0 39  0.0000000  0  9G01G07G03G04G16G26G31G06G09
   7255978.47346   5647028.08643  23898895.1174                   23898901.1094
        40.2504         22.5004
  -2524484.53146  -1924498.21144  24543948.7194                   24543953.2464
        40.7504         29.2504
  -5198769.93448  -4012154.80948  20022687.8754                   20022689.5784
        48.0004         50.0004
 -10379803.23847  -8045218.77046  20603248.8754                   20603248.6954
        45.5004         36.7504
 -16951281.71547 -13127939.24645  21392591.3754                   21392590.7074
        45.5004         32.0004
  -6573473.17247  -5085108.89547  21526273.3204                   21526275.8364
        46.0004         43.0004
   6360385.30547   4953814.34046  22552648.8134                   22552647.0354
        44.5004         37.5004
  -7965408.05146  -6177365.77345  24380429.9064                   24380434.2464
        39.0004         32.5004
 -15296429.48847 -11847785.17646  22686023.0864                   22686025.6414
        43.5004         39.0004
 25  8  6  0 39 30.0000000  0  9G01G07G03G04G16G26G31G06G09
   7294042.44546   5676688.09843  23906138.6884                   23906144.2774
        38.5004         21.5004
  -2662659.27046  -2032166.47744  24517653.6334                   24517659.6884
        40.0004         29.0004
  -5223203.87148  -4031194.25848  20018038.5474                   20018039.8244
        48.7504         50.0004
 -10468460.49647  -8114302.32446  20586378.0314                   20586378.3554
        45.5004         36.7504
 -17074573.71547 -13224010.84445  21369129.5164                   21369129.2274
        45.7504         32.5004
  -6604254.61747  -5109094.41447  21520415.8054                   21520418.4024
        45.0004         42.7504
   6398058.14147   4983169.77346  22559817.2664                   22559816.4384
        45.0004         38.0004
  -8042571.91846  -6237493.44145  24365745.8284                   24365750.5704
        39.7504         33.2504
 -15429698.62947 -11951631.15246  22660663.5554                   22660665.3204
        43.0004         39.2504
 25  8  6  0 40  0.0000000  0  9G01G07G03G04G16G26G31G06G09
   7332118.43046   5706357.42243  23913384.9224                   23913390.8834
        39.0004         22.5004
  -2800678.91446  -2139713.90645  24491389.2504                   24491394.9774
        40.5004         30.5004
  -5247080.18048  -4049799.19148  20013494.8134                   20013496.0704
        49.2504         50.0004
 -10556933.57847  -8183242.35946  20569542.1804                   20569541.8164
        46.7504         37.0004
 -17197371.53547 -13319697.37545  21345761.7114                   21345761.2584
        46.2504         32.5004
  -6634437.07447  -5132613.19947  21514672.3134                   21514674.6024
        45.7504         42.5004
   6435859.30547   5012625.18446  22567011.3834                   22567009.7544
        44.7504         38.0004
  -8119209.69146  -6297211.18045  24351162.2424                   24351166.0514
        41.0004         33.0004
 -15562919.37947 -12055439.42246  22635311.6804                   22635314.1134
        43.7504         38.5004
 25  8  6  0 40 30.0000000  0  9G01G07G03G04G16G26G31G06G09
   7370200.36346   5736031.44943  23920631.5004                   23920637.1134
        39.5004         21.7504
  -2938545.61346  -2247142.16445  24465154.3444                   24465159.0084
        41.2504         30.2504
  -5270402.61748  -4067972.53948  20009056.9774                   20009057.7384
        49.7504         50.0004
 -10645224.91047  -8252040.78146  20552741.0004                   20552740.6804
        46.0004         36.7504
 -17319675.56647 -13414999.12145  21322488.2814                   21322487.5204
        45.7504         32.5004
  -6664024.61347  -5155668.39847  21509041.6804                   21509044.3834
        44.5004         42.5004
   6473783.56647   5042176.51246  22574227.6094                   22574226.8404
        45.7504         39.0004
  -8195324.38346  -6356521.31245  24336678.7114                   24336682.0594
        40.7504         33.0004
 -15696094.21147 -12159211.90646  22609969.2734                   22609971.7734
        43.0004         38.2504
 25  8  6  0 41  0.0000000  0  9G01G07G03G04G16G26G31G06G09
   7408284.95346   5765707.48843  23927878.7664                   23927884.3754
        41.0004         22.0004
  -3076259.29746  -2354451.16445  24438947.1334                   24438952.8444
        40.0004         31.0004
  -5293171.93048  -4085714.87948  20004724.0554                   20004725.1524
        49.0004         49.7504
 -10733334.06647  -8320697.24646  20535973.9774                   20535974.2664
        45.5004         37.5004
 -17441482.95347 -13509913.88345  21299309.1334                   21299308.1884
        45.5004         32.5004
  -6693018.43447  -5178260.98047  21503524.3204                   21503527.4384
        44.7504         42.5004
   6511828.74247   5071822.06346  22581466.8834                   22581466.3054
        45.5004         38.2504
  -8270916.03146  -6415423.87945  24322293.7664                   24322297.9264
        41.0004         31.7504
 -15829222.67647 -12262948.26246  22584635.4064                   22584637.8914
        43.2504         38.5004
 25  8  6  0 41 30.0000000  0  9G01G07G03G04G16G26G31G06G09
   7446371.17946   5795384.87543  23935126.0164                   23935133.1254
        41.2504         22.7504
  -3213817.31246  -2461638.86744  24412771.2894                   24412776.1374
        39.5004         29.7504
  -5315386.74248  -4103025.13748  20000496.6254                   20000498.0164
        50.0004         49.7504
 -10821258.37947  -8389209.67646  20519242.9774                   20519242.6994
        46.7504         37.0004
 -17562789.09447 -13604438.06245  21276224.9844                   21276224.5664
        45.5004         33.0004
  -6721417.53147  -5200390.13347  21498120.0704                   21498122.6564
        45.2504         42.2504
   6549994.52747   5101561.59446  22588729.6644                   22588729.5554
        44.5004         38.5004
  -8345982.44946  -6473917.19145  24308008.9694                   24308012.6294
        41.2504         30.7504
 -15962302.16847 -12366646.46146  22559311.2734                   22559313.4574
        43.2504         39.0004
 25  8  6  0 42  0.0000000  0  9G01G07G03G04G16G26G31G06G09
   7484456.50846   5825061.52043  23942374.3594                   23942380.0124
        41.0004         22.0004
  -3351218.63746  -2568704.48844  24386624.1334                   24386628.4614
        40.5004         29.0004
  -5337047.50448  -4119903.67248  19996374.5634                   19996375.6524
        49.2504         49.5004
 -10908996.93747  -8457577.36346  20502546.7814                   20502546.6294
        46.2504         37.7504
 -17683590.58247 -13698569.00445  21253237.1884                   21253236.7624
        44.5004         32.5004
  -6749222.78947  -5222056.55147  21492829.4534                   21492831.7544
        46.0004         42.2504
   6588279.35947   5131393.89546  22596015.5004                   22596014.5904
        44.7504         39.0004
  -8420523.41847  -6532001.06645  24293824.4224                   24293828.2304
        42.0004         31.5004
 -16095331.90247 -12470305.88346  22533996.1094                   22533999.1844
        42.7504         38.0004
 25  8  6  0 42 30.0000000  0  9G01G07G03G04G16G26G31G06G09
   9097953.52046   7082331.66043  24249412.0084                   24249418.4964
        39.5004         22.5004
  -1913041.48446  -1448046.64844  24660299.8444                   24660304.6214
        39.7504         28.7504
  -3782737.12548  -2908752.73848  20292150.1644                   20292151.6914
        49.7504         49.7504
  -9421129.09447  -7298199.80146  20785678.3754                   20785677.8914
        46.2504         37.0004
 -16228464.12947 -12564704.14845  21530139.1564                   21530138.0944
        45.0004         32.7504
  -5201017.24647  -4015662.62147  21787442.9454                   21787445.2344
        45.5004         42.0004
   8202096.06647   6388913.35246  22903114.2894                   22903113.9104
        45.5004         38.7504
  -6919119.29746  -5362075.78545  24579531.9534                   24579535.6294
        40.5004         30.0004
 -14652889.77347 -11346324.88746  22808483.5864                   22808486.5594
        43.0004         38.0004
 25  8  6  0 43  0.0000000  0  9G01G07G03G04G16G26G31G06G09
   9136022.72746   7111995.74243  24256657.5314                   24256663.4774
        40.0004         22.7504
  -2050133.23846  -1554871.08644  24634212.4614                   24634217.1374
        40.0004         29.5004
  -3803296.78148  -2924773.26248  20288238.0314                   20288239.2464
        49.2504         49.7504
  -9508499.09047  -7366280.30146  20769052.7194                   20769052.5864
        46.7504         37.0004
 -16348254.00847 -12658046.82445  21507343.3054                   21507342.6764
        45.5004         33.0004
  -5227642.96947  -4036409.92246  21782375.9454                   21782377.9654
        45.0004         41.7504
   8240606.20747   6418921.22746  22910442.5944                   22910442.1844
        44.0004         38.0004
  -6992614.13746  -5419344.51244  24565546.3284                   24565549.8834
        41.0004         29.7504
 -14785823.13347 -11449909.21146  22783187.6954                   22783189.8164
        43.2504         38.5004
 25  8  6  0 43 30.0000000  0  9G01G07G03G04G16G26G31G06G09
   9174082.73046   7141652.62543  24263899.8594                   24263906.5634
        40.5004         21.7504
  -2187065.73046  -1661571.42245  24608153.9384                   24608159.8714
        38.5004         31.0004
  -3823303.66048  -2940363.06248  20284430.7424                   20284432.0594
        49.5004         49.5004
  -9595680.47347  -7434213.82446  20752462.2344                   20752462.2154
        47.0004         36.7504
 -16467530.59847 -12750989.53145  21484645.4844                   21484644.8984
        44.5004         33.0004
  -5253677.29347  -4056696.39847  21777421.4454                   21777423.8014
        44.0004         42.0004
   8279229.34447   6449017.14546  22917792.2344                   22917791.8094
        43.0004         38.0004
  -7065582.51246  -5476202.99644  24551660.6724                   24551664.5314
        40.7504         28.7504
 -14918704.03147 -11553452.66846  22757900.4224                   22757903.1644
        43.5004         38.5004
 25  8  6  0 44  0.0000000  0  9G01G07G03G04G16G26G31G06G09
   9212126.78146   7171297.16843  24271140.0004                   24271145.8524
        39.0004         20.5004
  -2323842.55546  -1768150.41445  24582125.0394                   24582131.8404
        36.5004         30.0004
  -3842762.33248  -2955525.68448  20280727.8284                   20280729.2854
        49.2504         49.7504
  -9682676.43747  -7502002.85946  20735907.5314                   20735906.9774
        47.0004         37.2504
 -16586295.12547 -12843533.23445  21462045.2814                   21462044.5314
        45.7504         32.5004
  -5279125.23447  -4076525.95747  21772579.2734                   21772581.8794
        44.7504         42.0004
   8317959.21947   6479196.20746  22925162.7584                   22925162.0634
        42.0004         37.5004
  -7138028.33646  -5532654.25844  24537874.6804                   24537877.8014
        41.2504         28.0004
 -15051535.66447 -11656957.74246  22732624.1884                   22732625.3874
        43.5004         38.0004
 25  8  6  0 44 30.0000000  0  9G01G07G03G04G16G26G31G06G09
   9250152.36746   7200927.27343  24278375.1804                   24278381.9494
        38.2504         19.0004
  -2460462.60946  -1874607.23845  24556127.5394                   24556134.0314
        37.7504         31.0004
  -3861672.96948  -2970261.25848  20277129.2424                   20277130.5274
        48.7504         49.5004
  -9769485.67247  -7569646.40646  20719388.6484                   20719388.0864
        46.2504         37.0004
 -16704544.09847 -12935675.20345  21439543.4384                   21439542.4414
        45.7504         33.0004
  -5303987.33247  -4095899.01247  21767848.4694                   21767850.6214
        44.2504         42.2504
   8356794.26647   6509457.23046  22932553.7504                   22932552.4614
        43.2504         38.0004
  -7209951.04746  -5588697.93444  24524188.2034                   24524190.8914
        40.7504         28.0004
 -15184316.90247 -11760423.53146  22707355.9454                   22707358.4344
        43.2504         38.7504
 25  8  6  0 45  0.0000000  0  9G01G07G03G04G16G26G31G06G09
   9288158.21946   7230542.02343  24285608.1094                   24285614.8094
        37.2504         21.0004
  -2596923.51646  -1980940.08645  24530160.3984                   24530165.2464
        39.0004         31.2504
  -3880034.74648  -2984569.15248  20273635.1254                   20273636.3914
        49.0004         49.5004
  -9856105.87147  -7637142.64146  20702904.8674                   20702904.4734
        46.5004         37.0004
 -16822273.30547 -13027412.16045  21417139.9384                   21417139.4774
        46.0004         33.5004
  -5328263.21547  -4114815.27747  21763228.7974                   21763231.2624
        44.5004         42.0004
   8395734.37147   6539800.12546  22939962.5474                   22939962.3484
        43.0004         37.7504
  -7281349.01646  -5644332.71544  24510601.4844                   24510604.1764
        40.7504         26.0004
 -15317045.31647 -11863848.16846  22682099.1334                   22682101.1454
        43.7504         38.7504
 25  8  6  0 45 30.0000000  0  9G01G07G03G04G16G26G31G06G09
   9326139.24646   7260137.37543  24292835.8754                   24292842.8594
        39.2504         21.5004
  -2733226.94946  -2087150.24644  24504222.3914                   24504226.7384
        40.0004         29.5004
  -3897850.66448  -2998451.70348  20270245.0634                   20270246.3094
        49.0004         49.5004
  -9942538.51647  -7704492.72346  20686457.4144                   20686457.1214
        46.5004         37.0004
 -16939482.47747 -13118743.89845  21394835.8054                   21394835.2274
        45.5004         33.7504
  -5351956.29747  -4133277.41047  21758720.2664                   21758722.6914
        45.5004         42.0004
   8434774.75847   6570221.16046  22947391.8204                   22947391.4344
        42.7504         37.0004
  -7352224.53546  -5699560.39844  24497114.7274                   24497117.5354
        40.7504         27.5004
 -15449722.59047 -11967232.93746  22656851.1884                   22656853.9534
        43.5004         39.2504
 25  8  6  0 46  0.0000000  0  9G01G07G03G04G16G26G31G06G09
   9364094.52746   7289712.63743  24300058.3754                   24300066.0744
        37.5004         21.5004
  -2869370.25046  -2193235.66044  24478314.2664                   24478318.3874
        40.0004         28.5004
  -3915119.39548  -3011907.87148  20266958.9304                   20266960.3094
        49.5004         49.7504
 -10028780.69947  -7771694.39546  20670046.4924                   20670045.8674
        47.0004         37.5004
 -17056166.69547 -13209666.57845  21372631.2504                   21372630.4614
        46.5004         32.5004
  -5375065.63347  -4151284.68447  21754322.9454                   21754325.1484
        44.7504         42.0004
   8473915.50847   6600720.39146  22954840.6644                   22954839.6134
        43.2504         37.7504
  -7422575.60946  -5754379.44544  24483726.8914                   24483729.9104
        40.0004         26.5004
 -15582345.80947 -12070575.60246  22631613.6564                   22631615.9304
        43.5004         39.7504
 25  8  6  0 46 30.0000000  0  9G01G07G03G04G16G26G31G06G09
   9402020.66446   7319265.25043  24307276.0784                   24307283.0314
        37.0004         21.5004
  -3005353.56646  -2299196.38344  24452437.5004                   24452441.4844
        37.7504         27.2504
  -3931842.38348  -3024938.79348  20263776.7114                   20263778.0864
        49.5004         49.7504
 -10114832.36747  -7838747.60246  20653671.2584                   20653670.7194
        46.7504         37.7504
 -17172323.85947 -13300178.57445  21350527.1414                   21350526.5274
        45.5004         33.2504
  -5397593.13747  -4168838.56647  21750035.5164                   21750037.7934
        46.0004         42.5004
   8513153.94947   6631295.76646  22962307.1334                   22962306.4024
        43.2504         38.2504
  -7492402.87546  -5808790.30144  24470438.4924                   24470442.2734
        38.7504         25.5004
 -15714914.94947 -12173876.12146  22606386.5474                   22606388.7464
        43.7504         39.0004
 25  8  6  0 47  0.0000000  0  9G01G07G03G04G16G26G31G06G09
   9439916.33646   7348794.05943  24314487.8914                   24314495.0434
        37.5004         21.0004
  -3141174.79346  -2405030.76644  24426591.1254                   24426595.7664
        38.5004         28.0004
  -3948018.80948  -3037543.80548  20260698.6024                   20260699.5514
        50.0004         49.5004
 -10200691.10547  -7905650.48446  20637332.4144                   20637332.4534
        47.5004         37.2504
 -17287949.79347 -13390276.62545  21328524.6414                   21328523.7274
        45.0004         34.2504
  -5419538.40247  -4185938.76247  21745859.3054                   21745861.6024
        46.5004         42.2504
   8552489.98447   6661947.18446  22969791.7814                   22969791.8164
        43.5004         37.7504
  -7561704.91446  -5862791.84844  24457252.1334                   24457254.6994
        37.5004         25.5004
 -15847427.62947 -12277132.63746  22581169.8674                   22581172.4184
        43.0004         40.0004
 25  8  6  0 47 30.0000000  0  9G01G07G03G04G16G26G31G06G09
   9477778.47746   7378296.79743  24321693.0314                   24321699.9264
        37.0004         20.2504
  -3276833.33246  -2510738.41045  24400776.8444                   24400780.3984
        41.0004         31.2504
  -3963649.71548  -3049723.75048  20257723.7974                   20257725.3444
        49.7504         49.5004
 -10286356.29747  -7972402.53546  20621031.1024                   20621030.7194
        46.7504         37.2504
 -17403042.38747 -13479959.08645  21306622.9534                   21306622.2304
        46.5004         33.2504
  -5440902.88747  -4202586.40247  21741793.9844                   21741796.3324
        46.5004         42.5004
   8591920.76647   6692672.42246  22977295.8754                   22977295.3094
        44.0004         37.2504
  -7630481.92246  -5916384.30944  24444163.0634                   24444167.6724
        37.2504         25.7504
 -15979883.29747 -12380344.74246  22555964.1024                   22555966.4964
        43.0004         40.2504
 25  8  6  0 48  0.0000000  0  9G01G07G03G04G16G26G31G06G09
   9515605.37945   7407772.06643  24328889.8364                   24328898.8204
        35.5004         20.0004
  -3412327.57046  -2616318.02745  24374992.3524                   24374996.7384
        40.5004         31.2504
  -3978734.74648  -3061478.32448  20254853.2424                   20254854.7624
        50.0004         49.5004
 -10371825.97347  -8039002.24646  20604766.9384                   20604766.5314
        47.0004         37.0004
 -17517597.63347 -13569222.84445  21284824.1334                   21284823.1994
        45.2504         34.0004
  -5461686.62947  -4218781.51647  21737838.8834                   21737841.2854
        46.0004         42.2504
   8631445.69947   6723471.03546  22984817.0234                   22984816.7034
        43.7504         36.0004
  -7698732.82846  -5969566.80944  24431175.6254                   24431179.6294
        37.2504         26.5004
 -16112279.97347 -12483510.87546  22530770.7584                   22530772.4614
        43.0004         39.5004
 25  8  6  0 48 30.0000000  0  9G01G07G03G04G16G26G31G06G09
   9553394.36746   7437217.78143  24336082.7424                   24336089.2584
        38.7504         21.0004
  -3547656.92246  -2721769.16045  24349240.2034                   24349244.3284
        40.2504         30.5004
  -3993274.73048  -3072808.19948  20252085.9384                   20252087.5944
        49.5004         49.2504
 -10457099.27747  -8105448.93746  20588539.7504                   20588539.1604
        45.5004         37.0004
 -17631612.91447 -13658065.85245  21263127.3524                   21263126.4804
        45.2504         33.5004
  -5481890.95347  -4234525.14547  21733994.0784                   21733996.6054
        46.5004         42.5004
   8671062.82847   6754341.46145  22992355.6414                   22992355.4024
        43.0004         35.7504
  -7766457.83646  -6022339.54744  24418288.1644                   24418292.2114
        37.2504         27.5004
 -16244616.85547 -12586630.42646  22505588.0864                   22505589.5044
        42.7504         40.0004
 25  8  6  0 49  0.0000000  0  9G01G07G03G04G16G26G31G06G09
   9591143.43846   7466632.36343  24343266.2344                   24343272.7734
        39.7504         20.7504
  -3682819.64146  -2827090.45745  24323518.7814                   24323522.7814
        39.7504         30.0004
  -4007269.65248  -3083713.35548  20249423.4064                   20249424.4184
        50.2504         49.5004
 -10542174.43747  -8171741.23046  20572350.4534                   20572349.7704
        46.2504         37.5004
 -17745084.53947 -13746485.22745  21241534.4694                   21241533.5594
        46.0004         34.0004
  -5501516.18447  -4249817.52047  21730259.8284                   21730261.8444
        46.5004         42.5004
   8710771.16047   6785282.98446  22999912.5864                   22999911.6764
        42.7504         36.0004
  -7833656.09446  -6074701.79744  24405500.5944                   24405505.5904
        37.7504         29.5004
 -16376892.24247 -12689702.05946  22480416.2894                   22480418.2074
        43.7504         40.0004
 25  8  6  0 49 30.0000000  0  9G01G07G03G04G16G26G31G06G09
   9628851.99246   7496015.45343  24350440.8914                   24350448.3324
        37.7504         22.2504
  -3817813.52746  -2932280.19144  24297830.2894                   24297833.9344
        38.2504         28.5004
  -4020718.24648  -3094192.80148  20246864.0634                   20246865.4924
        49.7504         49.5004
 -10627048.49247  -8237876.82046  20556199.0704                   20556198.8244
        46.5004         38.0004
 -17858007.87147 -13834477.37145  21220045.8674                   21220044.9384
        46.2504         34.5004
  -5520561.49647  -4264658.01247  21726635.3984                   21726637.5984
        45.0004         42.0004
   8750570.68447   6816295.55946  23007486.0784                   23007485.1724
        43.0004         36.2504
  -7900325.62546  -6126652.05544  24392813.4064                   24392818.8484
        37.0004         29.2504
 -16509103.10547 -12792723.41446  22455257.0944                   22455259.2664
        43.0004         40.0004
 25  8  6  0 50  0.0000000  0  9G01G07G03G04G16G26G31G06G09
   9666514.07046   7525362.23443  24357609.6484                   24357616.5124
        40.5004         22.7504
  -3952640.58646  -3037339.96145  24272173.4064                   24272176.8834
        40.5004         30.7504
  -4033624.54748  -3104249.66848  20244408.1254                   20244409.4534
        50.2504         49.5004
 -10711723.74647  -8303857.50446  20540085.9774                   20540085.9804
        46.2504         37.0004
 -17970383.50447 -13922042.73445  21198661.7344                   21198660.5044
        46.0004         34.0004
  -5539031.38347  -4279050.11347  21723120.7274                   21723123.1564
        45.0004         42.0004
   8790456.41047   6847375.31646  23015076.4774                   23015075.3524
        43.0004         36.0004
  -7966469.78946  -6178192.93444  24380226.8364                   24380231.3954
        37.0004         29.5004
 -16641251.81647 -12895696.34046  22430110.4534                   22430112.1454
        43.7504         40.0004
 25  8  6  0 50 30.0000000  0  9G01G07G03G04G16G26G31G06G09
   9704129.59846   7554672.77743  24364766.4534                   24364773.9774
        37.7504         20.7504
  -4087297.80146  -3142267.38745  24246549.0164                   24246552.5664
        40.0004         32.0004
  -4045986.78948  -3113882.60948  20242055.7504                   20242057.1764
        49.5004         49.2504
 -10796196.64547  -8369680.51246  20524011.4774                   20524011.1214
        47.0004         37.2504
 -18082206.16447 -14009177.21145  21177382.0784                   21177381.3524
        46.0004         33.5004
  -5556924.51647  -4292992.80946  21719716.0394                   21719718.1484
        45.7504         41.7504
   8830429.38347   6878523.05146  23022682.9844                   23022682.2544
        42.5004         36.5004
  -8032086.07846  -6229322.47344  24367739.9064                   24367744.5274
        37.7504         29.2504
 -16773334.86747 -12998618.10546  22404975.4614                   22404977.3594
        43.7504         40.5004
 25  8  6  0 51  0.0000000  0  9G01G07G03G04G16G26G31G06G09
   9741695.12146   7583944.31343  24371915.5004                   24371923.1174
        38.2504         21.5004
  -4221785.38346  -3247062.60245  24220956.7274                   24220960.8134
        39.5004         32.2504
  -4057806.62548  -3123092.89848  20239806.2504                   20239808.1604
        49.7504         49.2504
 -10880466.95747  -8435345.66446  20507975.7974                   20507975.0044
        47.0004         36.7504
 -18193473.90647 -14095879.28145  21156208.5704                   21156207.7074
        46.5004         34.2504
  -5574242.93747  -4306487.67247  21716420.3364                   21716422.3754
        46.0004         42.0004
   8870486.55547   6909736.39546  23030305.5634                   23030304.9454
        42.7504         36.2504
  -8097175.37146  -6280041.36744  24355354.3364                   24355359.1954
        36.2504         28.7504
 -16905351.98447 -13101488.48446  22379853.2034                   22379855.2114
        43.7504         40.2504
 25  8  6  0 51 30.0000000  0  9G01G07G03G04G16G26G31G06G09
   9779208.65246   7613175.32443  24379055.0554                   24379062.0744
        39.0004         20.7504
  -4356102.14846  -3351724.69945  24195396.3054                   24195401.1254
        38.5004         30.2504
  -4069084.23048  -3131880.67248  20237660.6724                   20237661.7234
        50.2504         49.2504
 -10964533.12147  -8500851.74246  20491977.7274                   20491977.8634
        46.7504         37.5004
 -18304183.65247 -14182146.55945  21135140.8914                   21135140.2344
        47.0004         34.2504
  -5590987.32847  -4319535.23047  21713234.2664                   21713236.1914
        45.0004         42.0004
   8910626.94947   6941014.57846  23037944.0004                   23037943.1804
        44.0004         36.5004
  -8161737.25846  -6330349.30545  24343068.7504                   24343073.6294
        37.0004         30.5004
 -17037301.64547 -13204306.29746  22354744.1644                   22354746.0634
        43.5004         41.0004
 25  8  6  0 52  0.0000000  0  9G01G07G03G04G16G26G31G06G09
   9816666.10246   7642362.66443  24386181.9384                   24386190.3674
        36.2504         21.5004
  -4490248.47346  -3456253.97745  24169868.6254                   24169873.2664
        38.7504         30.5004
  -4079821.90648  -3140247.71548  20235617.3594                   20235618.5164
        49.7504         49.2504
 -11048395.49647  -8566199.01646  20476019.7974                   20476019.4064
        47.0004         38.0004
 -18414334.40647 -14267978.25045  21114179.9924                   21114178.6644
        46.5004         34.0004
  -5607160.35547  -4332137.58247  21710156.7734                   21710158.7774
        47.0004         42.5004
   8950847.77747   6972355.43845  23045597.7894                   23045597.3794
        43.2504         35.2504
  -8225773.27346  -6380247.44144  24330882.6414                   24330887.9494
        37.0004         29.7504
 -17169184.27347 -13307071.89146  22329647.5474                   22329649.5594
        43.0004         40.5004
 25  8  6  0 52 30.0000000  0  9G01G07G03G04G16G26G31G06G09
   9854066.56346   7671505.57843  24393299.9064                   24393307.5864
        38.7504         20.7504
  -4624222.29346  -3560648.87545  24144374.7734                   24144378.0204
        41.5004         31.0004
  -4090018.88748  -3148193.43748  20233676.6804                   20233678.1844
        49.5004         49.0004
 -11132051.49247  -8631385.48846  20460100.2664                   20460100.3014
        47.0004         37.2504
 -18523921.71547 -14353370.89545  21093326.5394                   21093325.2344
        46.2504         34.2504
  -5622761.70747  -4344294.46946  21707187.6094                   21707189.4104
        46.2504         41.7504
   8991147.98846   7003758.16845  23053266.0554                   23053266.0944
        41.7504         35.5004
  -8289281.91046  -6429734.68044  24318797.9384                   24318802.5164
        37.0004         29.2504
 -17300997.25047 -13409783.20746  22304564.1334                   22304566.0474
        44.0004         40.5004
 25  8  6  0 53  0.0000000  0  9G01G07G03G04G16G26G31G06G09
   9891406.82446   7700601.55543  24400405.0704                   24400413.6174
        38.5004         21.5004
  -4758023.24646  -3664909.11345  24118912.4694                   24118916.0824
        41.7504         31.0004
  -4099676.55148  -3155718.90648  20231839.1724                   20231840.2704
        49.5004         49.2504
 -11215500.55548  -8696410.71546  20444220.4384                   20444220.0394
        48.0004         38.0004
 -18632943.28147 -14438322.70345  21072580.3364                   21072579.0594
        46.5004         33.7504
  -5637793.22347  -4356007.32446  21704327.0004                   21704329.1954
        45.5004         41.7504
   9031525.73446   7035221.28145  23060950.2114                   23060949.8404
        41.5004         35.5004
  -8352263.85246  -6478811.48045  24306812.7974                   24306817.2814
        36.5004         30.2504
 -17432739.96547 -13512439.77746  22279494.5784                   22279496.4804
        43.7504         41.2504
 25  8  6  0 53 30.0000000  0  9G01G07G03G04G16G26G31G06G09
   9928683.33646   7729647.85243  24407500.0004                   24407507.0984
        38.7504         20.5004
  -4891651.79346  -3769034.99245  24093484.7034                   24093487.5664
        41.5004         32.2504
  -4108796.85548  -3162825.65248  20230103.2344                   20230104.6414
        50.0004         49.2504
 -11298742.62147  -8761274.65646  20428380.0704                   20428379.6564
        47.5004         38.0004
 -18741397.77347 -14522832.62545  21051941.8204                   21051940.9024
        47.2504         34.0004
  -5652257.25447  -4367277.98446  21701574.3834                   21701576.5704
        45.5004         41.7504
   9071978.36747   7066742.75045  23068647.6094                   23068647.7894
        42.0004         35.5004
  -8414720.43446  -6527478.92645  24294926.8914                   24294932.8634
        37.5004         31.5004
 -17564412.44147 -13615041.62146  22254437.6564                   22254439.8364
        44.0004         40.5004
 25  8  6  0 54  0.0000000  0  9G01G07G03G04G16G26G31G06G09
   9965895.24246   7758643.80143  24414581.1884                   24414588.3284
        40.0004         20.0004
  -5025105.77046  -3873024.81245  24068088.0634                   24068091.8874
        40.0004         32.0004
  -4117379.05548  -3169513.10948  20228470.3594                   20228471.7504
        50.0004         49.2504
 -11381775.03147  -8825975.21546  20412579.3444                   20412579.3134
        47.5004         38.0004
 -18849280.73447 -14606897.21545  21031412.0554                   21031411.2934
        47.0004         33.7504
  -5666153.48847  -4378106.20346  21698930.2584                   21698932.3554
        46.0004         41.7504
   9112505.72346   7098322.45745  23076360.2814                   23076360.2194
        40.7504         35.2504
  -8476650.07046  -6575735.75445  24283142.5944                   24283147.1414
        37.0004         31.0004
 -17696012.00847 -13717586.64146  22229395.0004                   22229397.2934
        43.0004         40.5004
 25  8  6  0 54 30.0000000  0  9G01G07G03G04G16G26G31G06G09
  10003037.73446   7787585.78543  24421649.6884                   24421657.1094
        40.2504         22.2504
  -5158386.37546  -3976879.52345  24042725.3284                   24042729.3054
        40.7504         31.2504
  -4125426.32848  -3175783.73448  20226939.2344                   20226940.4614
        50.0004         49.0004
 -11464598.95348  -8890513.32446  20396818.6174                   20396818.0634
        48.0004         37.5004
 -18956592.35247 -14690516.59445  21010991.7504                   21010990.4184
        47.5004         35.0004
  -5679485.54747  -4388494.81246  21696393.1644                   21696395.5164
        46.0004         41.5004
   9153104.28946   7129957.65245  23084085.7344                   23084085.3134
        41.5004         34.7504
  -8538055.33646  -6623583.99645  24271457.6094                   24271462.2114
        36.0004         31.5004
 -17827539.79347 -13820075.72346  22204366.1174                   22204368.2384
        43.7504         40.0004
 25  8  6  0 55  0.0000000  0  9G01G07G03G04G16G26G31G06G09
  10040108.88346   7816472.04743  24428704.3284                   24428711.3244
        39.7504         20.7504
  -5291492.53546  -4080598.32845  24017396.6094                   24017399.7114
        40.7504         33.0004
  -4132938.96148  -3181637.74648  20225509.3834                   20225510.5124
        50.0004         49.0004
 -11547212.69548  -8954887.66046  20381097.6414                   20381097.4494
        48.0004         37.5004
 -19063329.39847 -14773688.25445  20990680.1884                   20990679.3444
        46.7504         34.2504
  -5692254.19947  -4398444.40246  21693963.4304                   21693965.6644
        45.5004         41.2504
   9193772.59847   7161647.18846  23091824.9774                   23091824.5474
        42.0004         36.0004
  -8598935.75046  -6671023.26645  24259872.7734                   24259877.2344
        36.7504         31.7504
 -17958994.12547 -13922507.57046  22179351.1724                   22179353.1024
        43.5004         40.0004
 25  8  6  0 55 30.0000000  0  9G01G07G03G04G16G26G31G06G09
  10077107.57846   7845301.93443  24435745.1564                   24435752.5274
        39.7504         19.7504
  -5424422.32046  -4184179.73445  23992100.6254                   23992103.3054
        41.5004         32.0004
  -4139916.46148  -3187074.78548  20224181.6804                   20224183.2274
        49.0004         49.0004
 -11629613.66847  -9019096.19546  20365417.2194                   20365416.7304
        47.0004         37.5004
 -19169487.91847 -14856409.11345  20970478.9304                   20970477.6454
        47.2504         34.5004
  -5704459.33647  -4407954.88746  21691640.8524                   21691643.0554
        45.5004         40.7504
   9234510.46546   7193390.92246  23099576.8364                   23099577.1174
        41.5004         36.5004
  -8659290.19946  -6718052.67645  24248387.4534                   24248392.6414
        36.5004         31.7504
 -18090372.39847 -14024880.16446  22154351.1094                   22154352.8404
        44.0004         41.0004
 25  8  6  0 56  0.0000000  0  9G01G07G03G04G16G26G31G06G09
  11689452.30146   9101674.18443  24742564.0554                   24742572.1134
        39.0004         19.7504
  -3981748.35546  -3060017.99245  24266631.7344                   24266634.7034
        39.5004         31.0004
  -2570937.55548  -1964493.84448  20522748.3754                   20522749.8164
        49.2504         49.0004
 -10136375.98848  -7855534.35946  20649570.6724                   20649570.4654
        48.0004         37.2504
 -17699639.41447 -13711072.55545  21250181.7974                   21250180.7274
        46.7504         34.0004
  -4140679.94547  -3189425.48846  21989217.8594                   21989220.1174
        45.7504         40.5004
  10850736.98447   8452788.16446  23407135.1484                   23407134.9454
        42.7504         36.5004
  -7143694.91446  -5537069.30945  24536795.8754                   24536800.7304
        37.5004         32.7504
 -16646247.07047 -12899587.59446  22429158.5634                   22429160.8054
        44.2504         41.0004
 25  8  6  0 56 30.0000000  0  9G01G07G03G04G16G26G31G06G09
  11726302.33646   9130388.14542  24749576.1334                   24749584.9024
        37.5004         16.7504
  -4114319.51646  -3163319.94545  24241403.4614                   24241407.3594
        38.7504         30.2504
  -2576844.18048  -1969096.43448  20521624.3054                   20521626.0084
        49.2504         49.0004
 -10218344.58647  -7919405.97346  20633973.1884                   20633972.7464
        47.2504         37.2504
 -17804629.34047 -13792882.82445  21230202.7584                   21230201.2154
        47.5004         34.0004
  -4151758.75847  -3198058.31246  21987109.9224                   21987112.1994
        46.0004         40.7504
  10891612.66847   8484639.29346  23414913.6724                   23414913.0554
        43.5004         38.2504
  -7202994.63346  -5583276.87945  24525511.1724                   24525516.0634
        37.5004         33.0004
 -16777466.33647 -13001836.27046  22404188.2974                   22404190.1454
        45.2504         41.0004
 25  8  6  0 57  0.0000000  0  9G01G07G03G04G16G26G31G06G09
  11763075.08246   9159041.94542  24756574.5634                   24756581.9774
        37.0004         16.2504
  -4246709.48846  -3266480.70745  24216210.3984                   24216214.6994
        40.0004         32.5004
  -2582216.12948  -1973282.38348  20520602.3834                   20520603.6564
        50.2504         49.0004
 -10300094.50047  -7983107.19146  20618416.7504                   20618416.2624
        47.5004         37.7504
 -17909030.71947 -13874234.48445  21210335.7814                   21210334.3594
        46.5004         33.5004
  -4162275.77747  -3206253.38346  21985108.7504                   21985110.4494
        45.5004         40.5004
  10932555.56347   8516542.78946  23422705.0554                   23422704.4574
        43.7504         37.5004
  -7261766.75046  -5629073.33245  24514328.1094                   24514332.4774
        39.5004         34.5004
 -16908603.58247 -13104021.05546  22379233.7504                   22379235.2664
        44.0004         41.2504
 25  8  6  0 57 30.0000000  0  9G01G07G03G04G16G26G31G06G09
  11799764.51646   9187630.80942  24763555.5394                   24763564.7034
        36.5004         17.7504
  -4378921.04746  -3369502.46145  24191052.0234                   24191054.9224
        41.5004         33.0004
  -2587057.81648  -1977055.15648  20519681.1414                   20519682.6374
        49.7504         48.7504
 -10381628.14147  -8046639.87946  20602900.9924                   20602900.5554
        47.5004         37.5004
 -18012844.31247 -13955128.12945  21190580.8204                   21190579.4574
        47.0004         34.5004
  -4172235.98047  -3214014.56646  21983213.3834                   21983215.6254
        44.7504         40.5004
  10973560.64847   8548494.75046  23430507.6644                   23430507.6764
        42.5004         37.5004
  -7320015.03146  -5674461.58245  24503243.8524                   24503247.7584
        39.5004         34.5004
 -17039661.18047 -13206143.76646  22354293.9384                   22354296.0044
        44.5004         41.0004
 25  8  6  0 58  0.0000000  0  9G01G07G03G04G16G26G31G06G09
  11836366.23446   9216151.31343  24770521.8444                   24770530.5784
        37.0004         19.2504
  -4510955.74646  -3472386.44545  24165926.3524                   24165929.2194
        41.0004         32.0004
  -2591372.47748  -1980417.25448  20518859.6484                   20518861.0594
        49.7504         48.7504
 -10462946.47347  -8110004.78546  20587426.8054                   20587426.1484
        47.2504         37.5004
 -18116069.89847 -14035563.59045  21170937.6484                   21170936.5274
        47.0004         34.5004
  -4181642.90647  -3221344.63746  21981422.8204                   21981425.5634
        46.2504         40.7504
  11014624.28947   8580492.32846  23438321.4844                   23438321.2304
        42.7504         36.2504
  -7377741.89546  -5719443.53945  24492258.3134                   24492263.1094
        38.2504         34.2504
 -17170640.06647 -13308205.14546  22329369.6414                   22329371.1484
        43.5004         41.0004
 25  8  6  0 58 30.0000000  0  9G01G07G03G04G16G26G31G06G09
  11872883.56345   9244606.09043  24777471.4844                   24777479.1414
        35.7504         19.7504
  -4642807.08646  -3575127.54345  24140836.0394                   24140838.2114
        40.5004         30.5004
  -2595155.14148  -1983364.80948  20518140.0084                   20518141.6294
        49.7504         49.0004
 -10544042.33247  -8173196.33646  20571994.6254                   20571994.1954
        47.0004         37.5004
 -18218699.25047 -14115534.44945  21151407.7734                   21151406.3794
        47.2504         34.2504
  -4190492.05947  -3228240.07046  21979739.5554                   21979741.5434
        45.0004         41.0004
  11055751.07847   8612539.10245  23446148.7894                   23446148.2034
        42.5004         35.5004
  -7434941.70646  -5764014.79545  24481373.8834                   24481377.7034
        39.0004         35.5004
 -17301533.09447 -13410199.62146  22304461.2814                   22304463.2854
        43.7504         40.7504
 25  8  6  0 59  0.0000000  0  9G01G07G03G04G16G26G31G06G09
  11909313.68446   9272992.84443  24784403.5944                   24784412.6094
        38.0004         19.7504
  -4774474.71546  -3677725.47745  24115779.6804                   24115783.1954
        40.2504         30.5004
  -2598407.43048  -1985899.07848  20517521.0314                   20517522.6294
        49.2504         48.7504
 -10624915.12147  -8236214.05546  20556604.6094                   20556604.6374
        47.7504         37.5004
 -18320730.59847 -14195039.33645  21131991.6954                   21131990.3984
        47.7504         34.7504
  -4198785.52747  -3234702.49246  21978161.1094                   21978163.2424
        45.0004         40.7504
  11096938.66447   8644633.26645  23453985.7734                   23453985.3634
        43.0004         35.0004
  -7491615.52046  -5808176.19145  24470588.8524                   24470593.1914
        38.2504         33.7504
 -17432339.60547 -13512126.67646  22279569.5474                   22279571.9184
        44.0004         41.2504
 25  8  6  0 59 30.0000000  0  9G01G07G03G04G16G26G31G06G09
  11945657.84046   9301312.67243  24791319.1024                   24791328.6844
        37.0004         21.2504
  -4905954.25047  -3780176.83645  24090760.3204                   24090762.9694
        42.2504         32.5004
  -2601126.69148  -1988018.00848  20517003.6804                   20517005.0164
        49.2504         48.7504
 -10705559.94947  -8299054.14146  20541258.6804                   20541258.1914
        47.7504         37.7504
 -18422157.93047 -14274073.56645  21112690.9224                   21112689.5044
        47.0004         35.0004
  -4206521.05147  -3240730.17646  21976689.0164                   21976691.3834
        45.0004         40.7504
  11138189.16847   8676776.45745  23461835.5784                   23461835.1134
        43.0004         35.7504
  -7547759.94946  -5851925.07045  24459905.0084                   24459909.3714
        38.5004         34.2504
 -17563054.64147 -13613982.45746  22254695.1724                   22254697.0944
        44.7504         41.2504
 25  8  6  1  0  0.0000000  0  9G01G07G03G04G16G26G31G06G09
  11981909.69946   9329560.60243  24798219.1334                   24798227.0004
        38.7504         19.7504
  -5037249.25047  -3882484.42245  24065775.7894                   24065778.5594
        42.7504         34.0004
  -2603318.01648  -1989725.55548  20516586.5004                   20516588.2154
        49.7504         48.7504
 -10785979.64547  -8361718.79746  20525955.2894                   20525954.7854
        47.7504         37.2504
 -18522982.66447 -14352638.24245  21093504.3444                   21093502.9924
        47.5004         35.2504
  -4213704.14147  -3246327.37546  21975322.0084                   21975324.2194
        45.5004         40.7504
  11179497.12547   8708964.41845  23469696.6644                   23469695.6214
        42.2504         35.5004
  -7603379.41046  -5895264.91445  24449321.1954                   24449325.3634
        39.7504         35.0004
 -17693681.01647 -13715769.15246  22229837.7664                   22229839.7304
        45.0004         41.7504
 25  8  6  1  0 30.0000000  0  9G01G07G03G04G16G26G31G06G09
  12018068.25446   9357735.86743  24805099.2504                   24805108.5634
        37.7504         21.2504
  -5168357.44547  -3984646.43745  24040825.8364                   24040828.7774
        42.0004         32.0004
  -2604981.02348  -1991021.42648  20516270.3754                   20516271.9344
        49.0004         48.5004
 -10866171.52047  -8424205.93046  20510695.2894                   20510694.7114
        47.5004         37.5004
 -18623201.07847 -14430730.45745  21074433.3754                   21074432.5204
        47.2504         34.5004
  -4220334.89847  -3251494.19146  21974060.3834                   21974062.8204
        44.7504         40.5004
  11220862.56346   8741197.16045  23477567.2504                   23477567.6484
        40.5004         34.5004
  -7658472.84046  -5938194.84845  24438836.4924                   24438840.9264
        40.5004         35.0004
 -17824216.01647 -13817484.64147  22204998.6024                   22204999.8874
        44.5004         42.2504
 25  8  6  1  1  0.0000000  0  9G01G07G03G04G16G26G31G06G09
  12054131.02746   9385836.35543  24811962.1724                   24811970.3674
        38.5004         18.2504
  -5299278.39546  -4086662.57445  24015911.9144                   24015914.4804
        41.5004         32.0004
  -2606117.07848  -1991906.68748  20516054.0394                   20516055.6564
        49.7504         48.7504
 -10946134.61347  -8486514.78946  20495478.8204                   20495478.3834
        47.7504         38.0004
 -18722810.96547 -14508348.49645  21055478.2814                   21055477.2854
        47.0004         34.7504
  -4226415.04747  -3256231.96546  21972903.5944                   21972905.3094
        45.0004         40.5004
  11262284.22346   8773473.69145  23485450.6254                   23485449.8324
        41.2504         33.5004
  -7713040.94946  -5980715.45745  24428453.2424                   24428457.3054
        41.2504         35.0004
 -17954658.53947 -13919128.06647  22180175.7114                   22180176.7894
        44.7504         42.0004
 25  8  6  1  1 30.0000000  0  9G01G07G03G04G16G26G31G06G09
  12090094.71146   9413859.78542  24818806.6254                   24818814.3794
        36.2504         16.7504
  -5430012.13747  -4188532.82845  23991034.6024                   23991036.7544
        42.5004         32.0004
  -2606728.12948  -1992382.85548  20515937.9144                   20515939.6844
        49.5004         48.7504
 -11025868.55548  -8548645.10546  20480306.4224                   20480305.4494
        48.2504         38.2504
 -18821810.98447 -14585491.30545  21036639.1644                   21036637.8444
        47.0004         34.5004
  -4231947.06247  -3260542.60946  21971850.3674                   21971852.4614
        45.0004         40.0004
  11303759.62146   8805792.09045  23493342.2274                   23493342.2074
        41.5004         34.2504
  -7767085.03546  -6022827.74245  24418168.5554                   24418173.0434
        37.2504         35.0004
 -18085008.18747 -14020699.14546  22155370.5004                   22155372.0904
        45.0004         41.7504
 25  8  6  1  2  0.0000000  0  9G01G07G03G04G16G26G31G06G09
  12125958.75446   9441805.53142  24825631.5314                   24825640.1804
        36.7504         16.7504
  -5560556.29747  -4290255.32845  23966192.4694                   23966195.2424
        42.7504         34.0004
  -2606813.77348  -1992449.61748  20515921.5704                   20515923.2424
        49.0004         48.5004
 -11105370.54748  -8610594.67246  20465177.1484                   20465176.6334
        48.0004         38.2504
 -18920197.50447 -14662156.05945  21017916.8674                   21017915.7934
        47.0004         35.0004
  -4236930.87947  -3264426.09446  21970901.6724                   21970904.3094
        44.5004         40.5004
  11345288.40247   8838152.10245  23501245.2974                   23501245.1994
        42.0004         33.5004
  -7820604.05546  -6064530.85945  24407984.8594                   24407988.5274
        39.2504         35.7504
 -18215262.18747 -14122195.69546  22130583.9774                   22130585.6294
        45.5004         41.7504
 25  8  6  1  2 30.0000000  0  9G01G07G03G04G16G26G31G06G09
  12161719.53946   9469670.84443  24832436.5944                   24832445.1954
        38.7504         18.5004
  -5690911.97747  -4391830.96145  23941386.2814                   23941389.5554
        42.2504         33.2504
  -2606376.19948  -1992108.67248  20516004.9774                   20516006.5514
        48.7504         48.5004
 -11184640.39848  -8672363.35546  20450092.5864                   20450092.1374
        48.0004         38.2504
 -19017968.95748 -14738341.53545  20999311.5004                   20999309.9654
        48.0004         35.2504
  -4241369.14147  -3267884.47746  21970057.3834                   21970060.0394
        44.7504         40.5004
  11386868.19946   8870551.86745  23509158.2424                   23509157.9734
        40.7504         32.7504
  -7873599.47346  -6105826.00846  24397899.3834                   24397904.2894
        39.7504         36.0004
 -18345420.19147 -14223617.42246  22105816.1094                   22105817.4224
        44.5004         41.5004
 25  8  6  1  3  0.0000000  0  9G01G07G03G04G16G26G31G06G09
  12197378.54745   9497456.83642  24839222.0164                   24839231.5594
        35.2504         14.7504
  -5821074.48046  -4493256.06645  23916617.0164                   23916619.9844
        41.0004         33.0004
  -2605412.96548  -1991358.12148  20516188.0634                   20516189.6914
        49.0004         48.2504
 -11263673.21547  -8733947.34046  20435052.8054                   20435052.5514
        47.7504         37.7504
 -19115119.67647 -14814043.34045  20980824.2114                   20980822.7234
        46.5004         35.5004
  -4245259.84847  -3270916.19146  21969317.5234                   21969319.0084
        44.7504         40.5004
  11428501.44546   8902993.27745  23517080.8594                   23517080.3094
        41.0004         32.7504
  -7926068.26246  -6146710.78546  24387915.2584                   24387920.1644
        39.5004         36.0004
 -18475477.26247 -14324960.52046  22081066.3054                   22081068.5354
        44.5004         41.7504
 25  8  6  1  3 30.0000000  0  9G01G07G03G04G16G26G31G06G09
  12232930.56346   9525159.43843  24845987.7424                   24845996.9614
        37.5004         19.2504
  -5951046.03146  -4594532.36345  23891884.0394                   23891886.8014
        40.0004         32.7504
  -2603928.10948  -1990201.12148  20516470.9844                   20516472.2234
        49.0004         48.2504
 -11342470.62547  -8795347.89146  20420058.6884                   20420058.2194
        47.7504         38.0004
 -19211650.24647 -14889261.89845  20962454.8754                   20962453.4104
        47.7504         35.0004
  -4248607.44547  -3273524.69546  21968680.1174                   21968682.6334
        44.7504         40.5004
  11470183.67647   8935472.85545  23525012.7424                   23525012.4184
        42.0004         33.5004
  -7978013.73446  -6187187.78146  24378030.3134                   24378035.2974
        39.5004         36.7504
 -18605434.98847 -14426226.19546  22056336.2664                   22056337.8554
        45.5004         41.7504
 25  8  6  1  4  0.0000000  0  9G01G07G03G04G16G26G31G06G09
  12268372.02046   9552775.85543  24852731.7114                   24852741.4454
        37.5004         20.0004
  -6080827.09846  -4695660.25445  23867187.3524                   23867189.9024
        41.2504         31.7504
  -2601924.19148  -1988639.65248  20516852.1804                   20516853.6454
        48.5004         48.2504
 -11421032.73847  -8856565.09046  20405108.8914                   20405108.3014
        47.5004         38.2504
 -19307560.19147 -14963996.85545  20944203.7664                   20944202.5824
        47.2504         35.2504
  -4251414.92247  -3275712.33246  21968145.9844                   21968148.0314
        44.7504         40.5004
  11511912.29747   8967988.59045  23532953.2034                   23532953.1644
        42.5004         35.5004
  -8029437.88346  -6227258.55546  24368245.1334                   24368249.4454
        40.5004         36.7504
 -18735293.32447 -14527414.43447  22031625.1094                   22031626.8134
        45.5004         42.5004
 25  8  6  1  4 30.0000000  0  9G01G07G03G04G16G26G31G06G09
  12303701.18846   9580304.79743  24859454.5944                   24859464.0634
        36.5004         19.0004
  -6210416.73447  -4796639.02745  23842527.6954                   23842529.3554
        43.7504         32.5004
  -2599401.86348  -1986674.22748  20517332.0944                   20517333.5744
        49.0004         48.2504
 -11499357.69147  -8917597.49646  20390203.7424                   20390203.4344
        47.0004         38.0004
 -19402846.25847 -15038245.67245  20926071.4614                   20926069.9494
        47.7504         34.7504
  -4253683.33247  -3277479.91846  21967714.0234                   21967716.2974
        44.7504         40.5004
  11553686.83647   9000540.12945  23540902.9384                   23540902.5984
        43.2504         35.5004
  -8080340.62946  -6266923.04746  24358558.5084                   24358562.9264
        39.7504         36.2504
 -18865050.41447 -14628523.78147  22006933.3284                   22006934.7274
        45.0004         42.2504
 25  8  6  1  5  0.0000000  0  9G01G07G03G04G16G26G31G06G09
  12338916.51246   9607745.07043  24866157.1334                   24866165.6644
        39.5004         22.0004
  -6339813.73847  -4897467.67245  23817903.9384                   23817906.3554
        42.7504         33.5004
  -2596361.66448  -1984305.26248  20517910.8134                   20517912.5234
        49.5004         48.2504
 -11577443.50047  -8978443.55946  20375344.4064                   20375343.6844
        47.7504         38.0004
 -19497505.80548 -15112006.29345  20908058.3834                   20908056.5474
        48.0004         35.2504
  -4255413.68747  -3278828.23846  21967385.0164                   21967387.4694
        44.7504         41.0004
  11595506.07447   9033126.48845  23548861.1564                   23548860.3404
        43.0004         35.5004
  -8130721.96146  -6306181.24246  24348971.4384                   24348975.4024
        39.7504         36.2504
 -18994704.17647 -14729552.60947  21982260.3204                   21982261.9804
        45.5004         42.0004
 25  8  6  1  5 30.0000000  0  9G01G07G03G04G16G26G31G06G09
  12374017.97346   9635096.57843  24872836.7584                   24872845.8134
        38.7504         22.7504
  -6469014.94546  -4998143.73845  23793317.6254                   23793320.1134
        41.5004         33.2504
  -2592802.51248  -1981531.92648  20518587.9694                   20518589.9534
        48.7504         48.2504
 -11655286.61748  -9039100.50846  20360531.1884                   20360531.0394
        48.0004         38.5004
 -19591534.45347 -15185275.29745  20890165.0234                   20890163.5744
        47.7504         35.5004
  -4256605.29347  -3279756.76246  21967158.1644                   21967160.4064
        45.0004         41.0004
  11637371.12547   9065748.54346  23556827.2344                   23556827.3674
        42.5004         36.0004
  -8180580.10546  -6345031.76645  24339483.2194                   24339487.5434
        39.5004         35.7504
 -19124250.90247 -14830498.04747  21957609.1484                   21957610.2734
        45.7504         42.0004
 25  8  6  1  6  0.0000000  0  9G01G07G03G04G16G26G31G06G09
  12409002.03146   9662356.63343  24879493.9844                   24879503.9304
        38.7504         20.5004
  -6598021.09046  -5098667.81245  23768767.8524                   23768770.6724
        41.2504         33.2504
  -2588727.10248  -1978356.30948  20519363.6254                   20519365.3324
        48.5004         48.2504
 -11732887.09447  -9099568.39546  20345764.5704                   20345764.1054
        47.5004         38.0004
 -19684931.51247 -15258052.17245  20872392.5944                   20872390.7544
        47.2504         35.0004
  -4257261.25847  -3280267.91046  21967033.1024                   21967035.6644
        44.5004         40.7504
  11679279.62547   9098404.46945  23564802.6334                   23564802.7344
        42.7504         35.5004
  -8229917.10946  -6383476.21545  24330094.7034                   24330099.4184
        40.0004         35.7504
 -19253690.64147 -14931360.11747  21932977.4064                   21932978.9264
        45.5004         42.0004
 25  8  6  1  6 30.0000000  0  9G01G07G03G04G16G26G31G06G09
  12443866.31346   9689523.36743  24886127.7734                   24886138.0784
        38.2504         21.0004
  -6726831.84846  -5199039.63345  23744256.3054                   23744258.7234
        41.0004         32.2504
  -2584136.85948  -1974779.53148  20520236.7814                   20520238.4924
        48.2504         48.0004
 -11810243.83647  -9159846.34846  20331044.2424                   20331043.6054
        47.5004         38.0004
 -19777695.23048 -15330335.52345  20854739.7274                   20854738.2934
        48.0004         35.5004
  -4257383.44947  -3280363.11346  21967010.5004                   21967012.2114
        44.7504         40.5004
  11721229.82847   9131092.87146  23572785.5634                   23572784.8634
        43.2504         36.2504
  -8278733.83646  -6421515.24246  24320805.3524                   24320810.2344
        39.5004         36.0004
 -19383022.17647 -15032137.87946  21908365.9924                   21908367.5704
        45.5004         41.5004
 25  8  6  1  7  0.0000000  0  9G01G07G03G04G16G26G31G06G09
  12478607.21146   9716593.85943  24892739.6884                   24892749.8094
        37.5004         20.5004
  -6855448.00446  -5299259.83245  23719781.3754                   23719783.2584
        41.5004         31.0004
  -2579034.56648  -1970803.74248  20521208.0084                   20521209.8794
        48.0004         48.0004
 -11887356.99248  -9219934.50446  20316370.0704                   20316369.4454
        48.2504         37.7504
 -19869824.83247 -15402124.76645  20837208.2344                   20837206.5594
        46.7504         34.7504
  -4256975.02047  -3280044.86346  21967087.6804                   21967089.7894
        44.5004         40.5004
  11763219.12147   9163811.74645  23580776.1954                   23580775.6644
        43.0004         35.5004
  -8327032.37146  -6459150.48846  24311614.5234                   24311618.5514
        39.7504         36.0004
 -19512245.50447 -15132831.30947  21883776.0314                   21883776.8754
        45.7504         42.5004
 25  8  6  1  7 30.0000000  0  9G01G07G03G04G16G26G31G06G09
  12513225.80946   9743569.16043  24899328.1174                   24899337.5984
        39.0004         19.5004
  -6983865.36346  -5399325.14845  23695343.9454                   23695346.1174
        41.5004         32.7504
  -2573418.01248  -1966427.23448  20522276.8364                   20522278.4144
        48.5004         48.0004
 -11964221.75048  -9279829.10246  20301742.9614                   20301742.5704
        48.2504         38.2504
 -19961314.77047 -15473415.56645  20819798.1174                   20819796.4694
        47.5004         35.5004
  -4256034.18447  -3279311.75846  21967267.0704                   21967268.9804
        44.5004         40.5004
  11805249.61347   9196562.72745  23588774.0314                   23588774.1294
        42.2504         35.5004
  -8374809.89846  -6496379.75045  24302522.7344                   24302527.0554
        40.5004         35.5004
 -19641355.72747 -15233436.62147  21859206.9774                   21859207.8984
        45.7504         42.0004
 25  8  6  1  8  0.0000000  0  9G01G07G03G04G16G26G31G06G09
  12547718.05545   9770445.99242  24905891.6564                   24905901.5084
        33.7504         17.2504
  -7112085.45347  -5499236.73445  23670944.7504                   23670947.1844
        42.2504         34.2504
  -2567290.64848  -1961652.69548  20523443.0474                   20523444.5554
        49.0004         48.0004
 -12040838.89848  -9339530.75446  20287163.2344                   20287162.8404
        48.5004         37.7504
 -20052165.42647 -15544208.23046  20802509.9454                   20802508.4964
        46.5004         36.0004
  -4254564.80547  -3278166.78146  21967546.4064                   21967548.8284
        44.0004         40.0004
  11847317.67247   9229342.96945  23596778.7734                   23596778.9694
        42.5004         34.0004
  -8422069.24246  -6533205.22745  24293529.7814                   24293533.9024
        41.2504         35.5004
 -19770353.57047 -15333954.35947  21834659.7274                   21834660.5744
        45.7504         42.2504
 25  8  6  1  8 30.0000000  0  9G01G07G03G04G16G26G31G06G09
  12582081.14845   9797222.12542  24912431.1804                   24912441.6414
        34.7504         17.2504
  -7240108.33247  -5598994.64145  23646582.2274                   23646585.0634
        43.0004         35.0004
  -2560654.46948  -1956481.68047  20524705.5164                   20524707.1604
        48.7504         47.7504
 -12117207.76648  -9399038.93446  20272630.5234                   20272629.8524
        48.0004         38.2504
 -20142375.35947 -15614501.64146  20785343.3284                   20785342.2704
        46.5004         36.0004
  -4252569.27347  -3276611.82846  21967926.6804                   21967928.8834
        44.7504         40.2504
  11889421.77046   9262151.29745  23604790.9694                   23604791.6094
        41.2504         34.0004
  -8468811.80546  -6569628.02745  24284635.1024                   24284639.0434
        40.5004         35.0004
 -19899238.17247 -15434383.85947  21810133.4844                   21810135.1094
        45.5004         42.5004
 25  8  6  1  9  0.0000000  0  9G01G07G03G04G16G26G31G06G09
  12616310.93046   9823894.39142  24918945.4534                   24918955.4184
        37.0004         17.2504
  -7367935.35947  -5698599.94545  23622257.7034                   23622260.2734
        43.0004         35.2504
  -2553512.60948  -1950916.62547  20526064.7894                   20526066.4064
        48.7504         47.5004
 -12193328.84848  -9458354.03946  20258145.4774                   20258144.9734
        48.0004         37.7504
 -20231944.09447 -15684295.41445  20768299.0004                   20768297.2894
        45.7504         35.5004
  -4250051.21947  -3274649.71146  21968405.4614                   21968408.0634
        44.0004         40.5004
  11931558.71146   9294985.21145  23612809.6564                   23612809.9064
        41.5004         33.5004
  -8515040.12146  -6605650.11345  24275837.9534                   24275841.9804
        40.2504         35.0004
 -20028010.00447 -15534725.48447  21785628.8524                   21785630.6214
        45.5004         42.5004
 25  8  6  1  9 30.0000000  0  9G01G07G03G04G16G26G31G06G09
  12650412.05946   9850466.50842  24925434.3914                   24925444.1054
        36.0004         15.5004
  -7495559.10547  -5798046.85545  23597971.7114                   23597973.8754
        43.0004         34.7504
  -2545859.73848  -1944953.37547  20527521.0554                   20527522.6564
        49.5004         47.5004
 -12269194.04348  -9517469.74646  20243708.6024                   20243707.8914
        48.2504         38.2504
 -20320863.23047 -15753583.00445  20751378.6484                   20751376.8054
        46.5004         35.2504
  -4247005.59447  -3272276.52046  21968984.9534                   21968987.1254
        44.7504         39.7504
  11973734.09046   9327849.09045  23620835.5704                   23620835.6294
        40.0004         32.7504
  -8560748.22746  -6641266.84845  24267139.3754                   24267144.8914
        39.7504         35.7504
 -20156660.71947 -15634972.72747  21761147.1644                   21761148.7504
        45.5004         42.2504
 25  8  6  1 10  0.0000000  0  9G01G07G03G04G16G26G31G06G09
  14259795.270 5                  25231689.859
        35.250
  -6047560.85247  -4669736.36745  23873516.6484                   23873518.8674
        43.2504         34.5004
   -962283.69148   -710998.03147  20828865.6334                   20828866.8204
        48.7504         47.5004
 -10769385.69548  -8348787.89146  20529112.8444                   20529112.3874
        48.0004         38.2504
 -18833714.25047 -14594765.56245  21034373.2504                   21034371.4104
        47.2504         35.7504
  -2668020.50847  -2041898.53946  22269455.8674                   22269457.9574
        43.7504         40.0004
  13591359.07046  10588336.03545  23928659.2194                   23928659.4534
        39.7504         31.7504
  -7030521.57046  -5448882.46545  24558332.8914                   24558336.8244
        39.5004         33.5004
 -18709770.79347 -14507525.96547  22036481.5314                   22036482.4414
        45.7504         42.5004
 25  8  6  1 10 30.0000000  0  9G01G07G03G04G16G26G31G06G09
  14293620.92646  11092866.68852  25238126.9924                   25238136.1254
        36.5004         17.7504
  -6174788.05947  -4768874.30545  23849305.4144                   23849307.5004
        43.2504         34.7504
   -953624.94148   -704250.98047  20830513.4694                   20830514.5664
        49.5004         47.2504
 -10844747.12948  -8407511.05546  20514771.9534                   20514771.2074
        48.7504         38.7504
 -18921340.75447 -14663045.89845  21017698.4534                   21017696.6294
        47.2504         34.7504
  -2663937.20347  -2038716.76246  22270232.6804                   22270235.1684
        43.2504         39.5004
  13633595.52746  10621247.48845  23936696.7894                   23936696.9024
        39.0004         31.5004
  -7075203.64846  -5483699.71145  24549830.0234                   24549834.3204
        38.5004         34.2504
 -18838186.98047 -14607590.45747  22012044.7734                   22012045.7854
        46.2504         43.0004
 25  8  6  1 11  0.0000000  0  9G01G07G03G04G16G26G31G06G09
  14327308.51646  11119116.48042  25244537.3834                   25244547.4414
        36.2504         15.5004
  -6301813.04747  -4867854.68045  23825133.7034                   23825135.5514
        42.7504         35.0004
   -944462.33648   -697111.31647  20832257.0864                   20832258.4574
        49.0004         47.5004
 -10919851.60248  -8466033.99646  20500479.9924                   20500479.2544
        48.2504         38.5004
 -19008315.06648 -14730818.03545  21001148.0164                   21001146.1684
        48.0004         34.7504
  -2659334.65647  -2035130.38346  22271108.9144                   22271111.0004
        44.0004         39.5004
  13675863.79746  10654183.74245  23944740.0864                   23944740.4654
        40.0004         32.0004
  -7119370.86746  -5518115.74245  24541424.5944                   24541429.2074
        39.0004         33.5004
 -18966480.60247 -14707559.44947  21987630.8204                   21987632.2074
        46.2504         42.5004
 25  8  6  1 11 30.0000000  0  9G01G07G03G04G16G26G31G06G09
  14360851.57445  11145253.73442  25250920.5084                   25250930.9774
        35.0004         15.5004
  -6428640.16447  -4966680.84445  23800998.7274                   23801001.0514
        42.7504         34.7504
   -934801.92648   -689583.74247  20834095.4534                   20834096.7154
        48.5004         47.5004
 -10994702.34448  -8524359.22346  20486236.0554                   20486235.5784
        48.2504         38.0004
 -19094639.96547 -14798084.12945  20984720.6954                   20984719.1564
        46.2504         35.7504
  -2654219.42247  -2031144.49246  22272082.5084                   22272084.3754
        43.0004         38.7504
  13718158.07846  10687140.28145  23952788.5704                   23952788.4264
        38.5004         31.5004
  -7163028.66446  -5552134.83645  24533116.6334                   24533121.5984
        38.0004         32.0004
 -19094654.78947 -14807435.36347  21963240.0314                   21963241.3094
        46.5004         43.2504
 25  8  6  1 12  0.0000000  0  8G07G03G04G16G26G31G06G09
  -6555264.05946  -5065348.66445  23776903.2584                   23776905.0354
        41.2504         35.2504
   -924640.84048   -681666.03947  20836028.7274                   20836030.6214
        49.0004         47.5004
 -11069293.75848  -8582482.38346  20472042.3054                   20472041.1484
        48.0004         38.5004
 -19180309.37947 -14864839.46546  20968418.1804                   20968416.6414
        47.5004         36.2504
  -2648588.92647  -2026757.12146  22273153.5474                   22273155.5664
        43.7504         38.2504
  13760481.55546  10720119.57845  23960842.5164                   23960842.5744
        39.2504         31.5004
  -7206173.61746  -5585754.31245  24524906.5394                   24524911.5904
        37.5004         32.5004
 -19222703.70747 -14907213.67647  21938873.4454                   21938874.4264
        45.0004         43.0004
 25  8  6  1 12 30.0000000  0  8G07G03G04G16G26G31G06G09
  -6681686.92247  -5163859.83245  23752845.6414                   23752847.5044
        43.0004         34.7504
   -913983.21148   -673361.41847  20838056.7504                   20838058.5234
        48.2504         47.2504
 -11143627.10948  -8640404.44946  20457896.9304                   20457896.1214
        49.0004         38.2504
 -19265323.98447 -14931084.55145  20952240.4534                   20952238.6954
        47.2504         35.0004
  -2642447.82047  -2021971.84846  22274322.5234                   22274324.2974
        44.0004         38.5004
  13802830.34846  10753118.59845  23968901.0634                   23968901.2504
        39.5004         30.7504
  -7248809.32046  -5618976.97345  24516792.5864                   24516798.4844
        37.2504         31.5004
 -19350628.54347 -15006895.28947  21914529.9224                   21914531.1214
        46.5004         43.0004
 25  8  6  1 13  0.0000000  0  8G07G03G04G16G26G31G06G09
  -6807905.13747  -5262211.55145  23728826.8914                   23728828.3794
        43.0004         34.7504
   -902827.28948   -664668.52047  20840180.1254                   20840181.2664
        48.5004         47.5004
 -11217697.78547  -8698121.85246  20443801.3134                   20443800.9304
        47.5004         38.5004
 -19349679.04747 -14996815.71146  20936188.2974                   20936186.7424
        47.2504         36.0004
  -2635794.61347  -2016787.53146  22275587.8364                   22275590.0944
        43.2504         38.5004
  13845206.55146  10786138.94544  23976965.2894                   23976965.3984
        40.0004         28.7504
  -7290933.41046  -5651800.96545  24508778.1804                   24508781.8324
        37.5004         31.2504
 -19478424.48047 -15106476.47747  21890211.4224                   21890212.1334
        46.5004         43.0004
 25  8  6  1 13 30.0000000  0  8G07G03G04G16G26G31G06G09
  -6933911.83646  -5360398.42645  23704848.6804                   23704850.4804
        40.5004         35.0004
   -891168.60548   -655583.85547  20842398.3914                   20842400.1644
        49.5004         47.2504
 -11291498.44948  -8755628.84446  20429757.6644                   20429757.5044
        48.5004         38.2504
 -19433367.11347 -15062027.13345  20920262.8524                   20920261.2734
        47.0004         35.2504
  -2628625.25847  -2011201.03546  22276952.5394                   22276954.7344
        44.5004         39.0004
  13887615.06646  10819184.55144  23985034.7504                   23985035.4774
        39.0004         28.2504
  -7332540.80946  -5684222.33245  24500860.1804                   24500864.2424
        37.7504         31.7504
 -19606084.00847 -15205951.36347  21865918.3834                   21865919.5354
        45.5004         43.5004
 25  8  6  1 14  0.0000000  0  8G07G03G04G16G26G31G06G09
  -7059704.43447  -5458418.46145  23680910.9534                   23680913.2194
        43.2504         34.7504
   -879006.37948   -646106.82047  20844713.0164                   20844714.2774
        49.2504         47.0004
 -11365025.43047  -8812922.58246  20415766.2274                   20415765.3404
        47.7504         38.5004
 -19516383.96148 -15126715.53945  20904465.0704                   20904463.3484
        48.0004         35.5004
  -2620939.35947  -2005212.03946  22278414.7504                   22278417.8714
        43.5004         38.7504
  13930057.08246  10852256.22344  23993110.9774                   23993111.5984
        40.0004         28.2504
  -7373630.14546  -5716240.03145  24493041.1414                   24493045.3204
        36.5004         31.0004
 -19733603.31647 -15305316.99247  21841652.0164                   21841652.9574
        47.0004         43.5004
 25  8  6  1 14 30.0000000  0  8G07G03G04G16G26G31G06G09
  -7185281.73847  -5556270.76245  23657014.4224                   23657015.5824
        43.0004         35.0004
   -866341.43748   -636238.07047  20847123.1334                   20847124.5234
        49.0004         47.2504
 -11438276.60248  -8870001.40646  20401827.0084                   20401826.5044
        48.7504         38.0004
 -19598727.28947 -15190879.10946  20888795.7584                   20888794.1644
        47.5004         36.5004
  -2612738.09447  -1998821.45746  22279975.9144                   22279978.0234
        43.5004         38.2504
  13972532.46946  10885353.91044  24001194.6024                   24001194.1684
        41.2504         27.7504
  -7414201.73046  -5747854.27345  24485320.0314                   24485325.3634
        36.2504         31.2504
 -19860980.13747 -15404571.59047  21817413.3914                   21817414.1294
        46.2504         43.7504
 25  8  6  1 15  0.0000000  0  8G07G03G04G16G26G31G06G09
  -7310646.82847  -5653957.69545  23633157.9924                   23633159.3874
        42.2504         34.5004
   -853179.11348   -625981.74247  20849627.6804                   20849629.4264
        48.7504         47.2504
 -11511254.42248  -8926867.23446  20387939.5554                   20387939.0514
        48.0004         38.2504
 -19680399.16048 -15254519.46946  20873254.2424                   20873252.4534
        48.5004         36.0004
  -2604027.21947  -1992033.76646  22281633.4144                   22281635.7274
        44.2504         39.0004
  14015035.77047  10918473.32845  24009282.7424                   24009283.2544
        42.2504         32.2504
  -7454260.37146  -5779068.84845  24477697.1804                   24477702.3594
        36.7504         31.2504
 -19988216.64847 -15503716.86747  21793200.4534                   21793201.8984
        46.0004         43.5004
 25  8  6  1 15 30.0000000  0  8G07G03G04G16G26G31G06G09
  -7435800.68047  -5751480.02045  23609342.4064                   23609343.2624
        43.0004         34.2504
   -839522.08248   -615339.93747  20852226.3984                   20852228.4024
        49.0004         47.0004
 -11583958.64148  -8983519.85546  20374104.4844                   20374103.5164
        48.0004         38.2504
 -19761399.25047 -15317636.37545  20857840.0704                   20857838.5554
        47.2504         35.5004
  -2594809.74247  -1984851.34446  22283387.5704                   22283389.8204
        44.7504         39.0004
  14057564.95347  10951612.91045  24017376.0474                   24017375.7624
        42.0004         33.2504
  -7493808.16446  -5809885.32845  24470172.1644                   24470176.6254
        37.5004         32.2504
 -20115312.44147 -15602752.48847  21769015.0234                   21769016.0784
        46.2504         43.5004
 25  8  6  1 16  0.0000000  0  8G07G03G04G16G26G31G06G09
  -7560744.31247  -5848838.54745  23585565.7974                   23585567.1994
        43.2504         34.5004
   -825373.93048   -604315.43447  20854919.1804                   20854920.7274
        48.2504         47.0004
 -11656389.83648  -9039959.74646  20360321.0554                   20360320.5004
        48.2504         38.0004
 -19841727.90647 -15380230.08245  20842554.2664                   20842552.5744
        47.2504         35.2504
  -2585089.64547  -1977277.25446  22285237.1174                   22285238.7274
        43.7504         38.5004
  14100116.98047  10984770.28146  24025473.5164                   24025473.6414
        42.2504         36.0004
  -7532848.10946  -5840306.09045  24462743.1954                   24462747.6644
        37.0004         32.2504
 -20242267.91847 -15701678.77047  21744856.4304                   21744857.4304
        46.2504         43.7504
 25  8  6  1 16 30.0000000  0  8G07G03G04G16G26G31G06G09
  -7685476.85547  -5946032.58245  23561829.8054                   23561831.0274
        43.2504         34.2504
   -810735.79348   -592909.12947  20857704.7894                   20857705.9694
        48.2504         47.0004
 -11728546.16847  -9096185.44546  20346590.2734                   20346589.5744
        47.7504         38.5004
 -19921383.37547 -15442299.23045  20827396.0004                   20827394.3714
        47.2504         35.5004
  -2574868.40247  -1969312.64846  22287182.7114                   22287184.2274
        43.5004         38.7504
  14142691.47747  11017945.15246  24033575.1484                   24033575.3054
        43.7504         36.5004
  -7571380.90246  -5870331.66445  24455410.1334                   24455415.0904
        37.5004         32.0004
 -20369080.98847 -15800494.09847  21720724.7814                   21720725.3834
        46.0004         43.7504
 25  8  6  1 17  0.0000000  0  8G07G03G04G16G26G31G06G09
  -7809997.68047  -6043061.64845  23538134.1804                   23538135.3674
        43.5004         34.0004
   -795609.01648   -581122.06647  20860582.8674                   20860584.6214
        48.0004         46.7504
 -11800425.99247  -9152195.68446  20332912.3754                   20332911.3914
        47.7504         38.0004
 -20000363.51247 -15503842.13745  20812366.6484                   20812364.7114
        47.0004         35.5004
  -2564147.77347  -1960958.92646  22289222.3674                   22289224.4734
        44.0004         38.5004
  14185287.34847  11051136.65646  24041681.5634                   24041681.0084
        43.2504         36.2504
  -7609407.21546  -5899962.60545  24448174.1414                   24448178.8134
        37.5004         30.0004
 -20495749.88747 -15899197.07847  21696619.9144                   21696621.0664
        46.5004         44.0004
 25  8  6  1 17 30.0000000  0  8G07G03G04G16G26G31G06G09
  -7934305.16447  -6139924.46545  23514479.2034                   23514480.5274
        43.5004         34.5004
   -779994.66048   -568955.06647  20863554.4924                   20863556.1054
        48.0004         47.0004
 -11872027.30147  -9207988.89546  20319286.8444                   20319286.0554
        47.7504         38.5004
 -20078666.56247 -15564857.44545  20797466.0084                   20797464.4184
        47.7504         35.5004
  -2552929.12547  -1952217.14546  22291357.0164                   22291359.3204
        44.0004         39.0004
  14227904.18447  11084344.53945  24049790.3444                   24049790.4964
        42.7504         35.0004
  -7646927.64146  -5929199.32045  24441034.1254                   24441039.2234
        38.2504         31.0004
 -20622272.35547 -15997785.95747  21672543.7584                   21672544.3244
        46.5004         44.0004
 25  8  6  1 18  0.0000000  0  8G07G03G04G16G26G31G06G09
  -8058401.34846  -6236622.62945  23490864.1174                   23490865.3914
        41.5004         34.2504
   -763896.31248   -556410.94147  20866617.5864                   20866619.5944
        48.5004         47.0004
 -11943350.69947  -9263565.55946  20305714.2894                   20305714.1454
        47.7504         38.5004
 -20156292.95347 -15625345.48845  20782694.2894                   20782692.2274
        47.2504         35.5004
  -2541216.41447  -1943090.37146  22293585.8054                   22293588.3794
        44.0004         39.2504
  14270539.18047  11117566.54345  24057904.0394                   24057904.2704
        42.0004         35.2504
  -7683945.20346  -5958044.21144  24433990.8594                   24433994.5514
        37.0004         29.7504
 -20748648.71947 -16096260.98847  21648495.1174                   21648496.0514
        46.2504         44.0004
 25  8  6  1 18 30.0000000  0  8G07G03G04G16G26G31G06G09
  -8182286.03547  -6333155.98445  23467289.6334                   23467290.8134
        43.2504         34.2504
   -747315.96148   -543491.21947  20869773.1564                   20869774.8714
        48.2504         46.7504
 -12014395.10547  -9318924.81646  20292195.5634                   20292194.0984
        47.7504         38.7504
 -20233241.52348 -15685305.35945  20768051.5004                   20768049.1254
        48.5004         35.0004
  -2529011.97747  -1933580.43046  22295908.7344                   22295910.3204
        44.2504         39.5004
  14313190.85246  11150801.55145  24066019.1254                   24066020.0824
        39.5004         32.5004
  -7720461.36745  -5986498.39844  24427040.0704                   24427046.1604
        35.5004         29.2504
 -20874877.71547 -16194621.18747  21624474.1414                   21624475.0634
        47.0004         44.0004
 25  8  6  1 19  0.0000000  0  8G07G03G04G16G26G31G06G09
  -8305958.30947  -6429523.83245  23443755.9384                   23443756.8674
        43.7504         35.2504
   -730255.30548   -530197.23447  20873019.6254                   20873021.2464
        48.0004         46.7504
 -12085159.13748  -9374065.60946  20278729.0474                   20278728.5234
        48.0004         38.2504
 -20309511.08248 -15744736.13345  20753537.5004                   20753535.7894
        48.0004         35.7504
  -2516317.87147  -1923688.93046  22298324.0474                   22298326.1764
        45.5004         39.5004
  14355858.27746  11184048.77345  24074139.4774                   24074139.8444
        39.0004         31.7504
  -7756477.34046  -6014562.82844  24420187.0784                   24420192.4534
        36.5004         28.5004
 -21000957.77347 -16292865.32847  21600481.8834                   21600483.0004
        46.7504         44.0004
 25  8  6  1 19 30.0000000  0  8G07G03G04G16G26G31G06G09
  -8429418.01646  -6525726.03145  23420261.3054                   23420262.5744
        41.5004         35.2504
   -712715.72347   -516530.06247  20876357.2034                   20876359.0704
        47.5004         46.7504
 -12155641.09447  -9428986.60546  20265316.4694                   20265316.0204
        47.5004         38.2504
 -20385099.90247 -15803636.45745  20739153.4534                   20739151.8984
        47.0004         35.0004
  -2503135.84447  -1913417.23446  22300832.4304                   22300834.6334
        43.5004         39.5004
  14398540.70746  11217307.71144  24082261.3914                   24082261.4414
        36.5004         29.5004
  -7791993.93046  -6042238.12544  24413428.8204                   24413433.8054
        36.2504         28.0004
 -21126886.88747 -16390991.85947  21576518.2114                   21576519.0744
        46.0004         44.5004
 25  8  6  1 20  0.0000000  0  8G07G03G04G16G26G31G06G09
  -8552665.81646  -6621763.11745  23396808.0704                   23396809.7304
        41.7504         35.0004
   -694700.38747   -502492.17247  20879785.3134                   20879787.0594
        47.7504         46.5004
 -12225840.99647  -9483687.81246  20251958.0394                   20251957.4844
        47.2504         38.5004
 -20460008.40247 -15862006.67245  20724898.9384                   20724897.4184
        46.0004         35.0004
  -2489469.33647  -1902768.02346  22303433.4144                   22303435.4144
        43.7504         39.2504
  14441235.56646  11250576.31344  24090386.1484                   24090386.7074
        36.2504         29.2504
  -7827013.88746  -6069526.45344  24406764.6644                   24406769.3204
        37.0004         27.5004
 -21252664.87147 -16489000.61347  21552583.4224                   21552584.8834
        45.5004         44.7504
 25  8  6  1 20 30.0000000  0  8G07G03G04G16G26G31G06G09
  -8675699.87547  -6717633.64145  23373396.0704                   23373397.2704
        43.7504         35.5004
   -676209.86348   -488084.00847  20883304.0784                   20883305.8204
        48.0004         46.5004
 -12295756.35247  -9538167.29746  20238653.7114                   20238653.2234
        46.5004         38.7504
 -20534233.93747 -15919844.70345  20710774.4534                   20710772.0704
        46.2504         35.5004
  -2475319.34847  -1891742.05946  22306126.2734                   22306128.1484
        44.7504         38.7504
  14483943.25846  11283854.95745  24098513.7114                   24098513.4844
        37.7504         30.5004
  -7861537.16045  -6096427.73844  24400195.1024                   24400199.5904
        35.7504         28.2504
 -21378288.94947 -16586889.43747  21528678.3284                   21528679.4184
        46.2504         44.7504
 25  8  6  1 21  0.0000000  0  8G07G03G04G16G26G31G06G09
  -8798519.43047  -6813337.01245  23350023.7734                   23350024.7274
        43.5004         35.2504
   -657245.33647   -473306.48847  20886912.9144                   20886914.9614
        47.0004         46.5004
 -12365385.16847  -9592423.50846  20225403.9144                   20225402.9414
        47.7504         38.2504
 -20607774.22747 -15977148.78145  20696779.8754                   20696778.3054
        46.2504         35.2504
  -2460687.28947  -1880340.46946  22308910.3134                   22308912.7344
        44.0004         38.5004
  14526663.06646  11317142.98445  24106642.1334                   24106643.6334
        39.5004         31.2504
  -7895564.46946  -6122942.58644  24393720.2504                   24393724.8014
        36.2504         29.0004
 -21503756.91447 -16684656.62547  21504802.6484                   21504803.3554
        46.7504         44.7504
 25  8  6  1 21 30.0000000  0  8G07G03G04G16G26G31G06G09
  -8921126.69947  -6908874.96945  23326692.0394                   23326693.5004
        43.0004         35.7504
   -637811.40647   -458163.19947  20890611.3524                   20890613.0394
        47.7504         46.5004
 -12434728.88747  -9646457.55946  20212208.5084                   20212207.5664
        47.5004         38.5004
 -20680631.56247 -16033920.69145  20682915.5004                   20682913.4964
        47.0004         35.2504
  -2445578.15247  -1868567.12946  22311785.7034                   22311787.8284
        43.5004         38.5004
  14569391.56346  11350437.82045  24114774.2584                   24114774.1524
        39.5004         30.0004
  -7929099.98446  -6149074.19144  24387338.7894                   24387343.1844
        36.5004         29.5004
 -21629069.91447 -16782303.05947  21480955.9694                   21480957.1804
        46.2504         45.0004
 25  8  6  1 22  0.0000000  0  8G07G03G04G16G26G31G06G09
  -9043518.69146  -7004245.18446  23303401.1884                   23303402.2974
        41.5004         36.0004
   -617907.01248   -442653.32047  20894398.8134                   20894400.4534
        48.0004         46.5004
 -12503783.32848  -9700266.19946  20199067.6804                   20199066.7584
        48.2504         38.7504
 -20752801.82847 -16090157.22746  20669181.9454                   20669180.1024
        47.5004         36.0004
  -2429991.25047  -1856421.50046  22314751.1644                   22314753.3554
        44.0004         38.5004
  14612130.44146  11383740.74645  24122907.1804                   24122907.1524
        41.0004         31.7504
  -7962142.07046  -6174821.30144  24381051.0944                   24381055.4224
        36.5004         28.0004
 -21754223.49247 -16879825.26247  21457140.2664                   21457141.3014
        46.0004         45.0004
 25  8  6  1 22 30.0000000  0  8G07G03G04G16G26G31G06G09
  -9165697.95747  -7099449.63745  23280151.6334                   23280152.3524
        43.5004         35.7504
   -597537.21147   -426780.78147  20898275.2114                   20898276.8324
        47.5004         46.2504
 -12572550.30148  -9753850.84446  20185981.5704                   20185981.0044
        48.5004         38.2504
 -20824287.15647 -16145860.03945  20655578.8754                   20655577.2234
        47.2504         35.7504
  -2413931.89147  -1843907.73046  22317807.9534                   22317809.7774
        43.5004         38.0004
  14654875.25846  11417048.28944  24131041.3284                   24131040.8914
        41.2504         28.5004
  -7994695.37945  -6200187.55944  24374856.4384                   24374861.0274
        35.5004         27.0004
 -21879219.23047 -16977224.47747  21433354.2504                   21433355.1214
        47.0004         45.2504
 25  8  6  1 23  0.0000000  0  8G07G03G04G16G26G31G06G09
  -9287663.12147  -7194487.24246  23256942.0944                   23256943.5594
        43.5004         36.2504
   -576702.48048   -410545.95347  20902240.2034                   20902241.6884
        48.2504         46.2504
 -12641027.08247  -9807209.37146  20172950.8284                   20172949.9534
        45.5004         38.5004
 -20895084.99247 -16201027.15245  20642106.7814                   20642104.5664
        45.7504         35.7504
  -2397400.87547  -1831026.44546  22320952.8134                   22320955.8874
        43.5004         38.5004
  14697626.50447  11450360.89145  24139176.1334                   24139176.6374
        42.5004         30.0004
  -8026759.76246  -6225172.85944  24368754.8594                   24368758.8834
        36.7504         26.2504
 -22004054.08647 -17074498.33247  21409598.9534                   21409599.9494
        46.5004         45.0004
 25  8  6  1 23 30.0000000  0  8G07G03G04G16G26G31G06G09
  -9409413.75447  -7289357.69545  23233773.9774                   23233774.9734
        42.7504         35.5004
   -555405.11348   -393950.62947  20906292.8834                   20906294.3094
        48.2504         46.2504
 -12709212.78548  -9860341.08246  20159975.3914                   20159974.7424
        48.0004         39.0004
 -20965194.57848 -16255657.96546  20628764.9774                   20628763.1884
        48.0004         36.0004
  -2380400.84047  -1817779.68446  22324188.5474                   22324190.3284
        43.2504         37.5004
  14740382.99247  11483677.52044  24147312.5554                   24147312.4064
        42.5004         28.2504
  -8058337.14845  -6249778.68444  24362745.2424                   24362750.2344
        35.0004         24.0004
 -22128726.91047 -17171645.91447  21385874.5234                   21385875.2974
        45.0004         45.0004
 25  8  6  1 24  0.0000000  0  8G07G03G04G16G26G31G06G09
  -7955526.02047  -6156457.98846  23510440.1024                   23510440.3914
        42.5004         36.0004
   1041772.10948    850603.01247  21210225.4844                   21210227.3754
        48.2504         46.0004
 -11201683.91047  -8685643.25046  20446848.7424                   20446848.0824
        47.7504         38.5004
 -19459192.92647 -15082150.15646  20915347.7974                   20915345.9024
        47.7504         36.0004
   -787514.73047   -576569.74246  22627304.4844                   22627306.7154
        43.5004         38.2504
  16358562.05147  12744596.23444  24455242.4534                   24455242.2544
        42.7504         28.7504
  -6514008.06245  -5046405.39544  24656621.7894                   24656625.9304
        35.2504         24.0004
 -20677811.99247 -16041062.80547  21661974.3984                   21661974.6334
        45.2504         45.0004
 25  8  6  1 24 30.0000000  0  8G07G03G04G16G26G31G06G09
  -8076848.40247  -6250994.75445  23487352.3364                   23487352.9414
        43.5004         35.5004
   1063987.74648    867913.86347  21214452.8204                   21214454.9224
        48.0004         46.0004
 -11269284.62547  -8738319.11746  20433985.0164                   20433984.0124
        47.7504         38.7504
 -19527925.00448 -15135707.60246  20902268.3444                   20902266.4924
        48.2504         36.0004
   -769584.56647   -562598.21146  22630716.1884                   22630719.0984
        43.2504         38.0004
  16401324.65647  12777917.69144  24463379.2974                   24463380.1954
        43.7504         28.0004
  -6544616.94145  -5070256.52343  24650797.2034                   24650801.2854
        35.0004         23.5004
 -20802157.01647 -16137954.97347  21638312.4454                   21638312.8674
        45.5004         45.2504
 25  8  6  1 25  0.0000000  0  8G07G03G04G16G26G31G06G09
  -8197954.59847  -6345363.07445  23464306.5474                   23464306.7194
        43.0004         35.5004
   1086661.27347    885581.50847  21218767.8444                   21218769.5594
        47.5004         46.0004
 -11336589.27347  -8790764.28546  20421176.8134                   20421176.4654
        47.7504         39.0004
 -19595965.02047 -15188725.76645  20889320.5944                   20889318.5354
        47.5004         35.7504
   -751191.04347   -548265.62946  22634216.8364                   22634219.5044
        43.2504         37.7504
  16444090.42247  12811241.64845  24471517.5234                   24471518.1454
        44.5004         30.0004
  -6574742.13745  -5093730.71943  24645064.4534                   24645067.7774
        35.0004         22.5004
 -20926334.04347 -16234716.23447  21614682.0864                   21614683.0904
        45.2504         45.2504
 25  8  6  1 25 30.0000000  0  8G07G03G04G16G26G31G06G09
  -8318844.23447  -6439562.62146  23441301.9454                   23441302.6254
        43.5004         36.2504
   1109790.67247    903604.37547  21223168.7114                   21223170.6174
        47.7504         45.7504
 -11403596.56248  -8842977.75046  20408426.0784                   20408425.2384
        48.0004         39.5004
 -19663312.02047 -15241203.92645  20876504.7814                   20876503.1764
        47.5004         35.2504
   -732336.46547   -533573.77746  22637804.3134                   22637806.9534
        43.7504         37.2504
  16486858.30147  12844567.18045  24479656.2034                   24479656.7034
        43.5004         32.2504
  -6604385.23046  -5116829.27743  24639424.5634                   24639426.9494
        38.0004         23.7504
 -21050341.59047 -16331345.43047  21591084.0704                   21591084.7934
        45.5004         45.2504
 25  8  6  1 26  0.0000000  0  8G07G03G04G16G26G31G06G09
  -8439517.24247  -6533593.37946  23418338.5784                   23418339.2624
        44.2504         36.5004
   1133373.84447    921980.84447  21227657.0314                   21227658.4964
        47.5004         45.7504
 -11470305.27347  -8894958.54746  20395731.7504                   20395730.9024
        47.5004         38.7504
 -19729965.72747 -15293141.86345  20863821.2974                   20863819.0664
        47.5004         35.5004
   -713023.27747   -518524.55546  22641479.8674                   22641481.4574
        43.5004         36.7504
  16529627.15247  12877893.48445  24487794.9534                   24487795.9104
        43.5004         33.2504
  -6633547.80946  -5139553.41043  24633874.6884                   24633877.4924
        38.0004         22.2504
 -21174178.00847 -16427841.28547  21567518.7814                   21567519.2344
        44.7504         45.2504
 25  8  6  1 26 30.0000000  0  8G07G03G04G16G26G31G06G09
  -8559973.55547  -6627455.34045  23395415.7894                   23395416.7384
        43.0004         35.7504
   1157408.45747    940709.08247  21232230.6174                   21232232.6804
        47.2504         45.5004
 -11536714.46547  -8946705.95746  20383094.5554                   20383093.8794
        47.5004         38.5004
 -19795925.40247 -15344538.98046  20851269.1024                   20851267.1214
        47.2504         36.0004
   -693254.00847   -503119.93046  22645241.8524                   22645243.3284
        42.7504         36.0004
  16572395.79347  12911219.62945  24495933.5084                   24495934.5204
        42.7504         34.2504
  -6662231.82446  -5161904.55143  24628417.0474                   24628417.1884
        39.2504         21.5004
 -21297842.09447 -16524202.85547  21543986.5234                   21543987.1094
        45.7504         45.5004
 25  8  6  1 27  0.0000000  0  8G07G03G04G16G26G31G06G09
  -8680212.56647  -6721147.93746  23372535.3914                   23372536.2234
        42.2504         36.0004
   1181892.56347    959787.56647  21236889.6174                   21236891.6374
        47.5004         45.2504
 -11602822.76647  -8998218.90646  20370514.3984                   20370513.8874
        47.5004         39.0004
 -19861190.35547 -15395394.75846  20838849.8444                   20838848.0164
        47.2504         36.0004
   -673030.94547   -487361.72746  22649090.3754                   22649092.4344
        42.7504         36.5004
  16615163.28946  12944544.86745  24504072.0234                   24504072.6524
        41.2504         34.0004
  -6690438.77046  -5183883.95343  24623048.8674                   24623050.6884
        39.0004         22.7504
 -21421332.11747 -16620428.79347  21520486.5704                   21520487.6804
        45.2504         45.5004
 25  8  6  1 27 30.0000000  0  8G07G03G04G16G26G31G06G09
  -8800232.36747  -6814669.73046  23349696.1254                   23349696.9884
        43.7504         37.0004
   1206826.09047    979216.24647  21241634.4694                   21241636.3794
        47.2504         45.2504
 -11668626.85247  -9049494.80546  20357992.5394                   20357991.5314
        47.0004         38.5004
 -19925757.97348 -15445707.16046  20826563.0474                   20826561.2734
        48.0004         36.0004
   -652354.39147   -471250.16046  22653024.7034                   22653027.4454
        43.2504         37.2504
  16657930.57446  12977869.92645  24512210.0084                   24512210.8554
        39.7504         32.5004
  -6718168.21546  -5205491.30143  24617772.0474                   24617774.6564
        40.2504         22.7504
 -21544644.42247 -16716516.24647  21497021.4144                   21497021.8284
        45.7504         45.0004
 25  8  6  1 28  0.0000000  0  8G07G03G04G16G26G31G06G09
  -8920034.64147  -6908022.03546  23326899.1484                   23326899.3014
        43.7504         37.0004
   1232205.23447    998992.16047  21246463.7114                   21246465.7624
        47.0004         45.5004
 -11734127.24247  -9100534.05546  20345527.7584                   20345527.1644
        47.7504         39.7504
 -19989629.34047 -15495477.03946  20814408.8134                   20814406.6724
        47.2504         36.0004
   -631228.49247   -454788.44546  22657044.8054                   22657047.2464
        43.5004         36.5004
  16700695.26646  13011192.98045  24520348.1334                   24520348.9614
        38.5004         32.0004
  -6745423.61346  -5226729.29744  24612585.9064                   24612588.0864
        40.7504         25.0004
 -21667779.19547 -16812465.36347  21473589.5004                   21473589.9924
        45.5004         45.2504
 25  8  6  1 28 30.0000000  0  8G07G03G04G16G26G31G06G09
  -9039622.16847  -7001207.00846  23304141.7814                   23304142.2664
        43.7504         36.5004
   1258024.81347   1019111.27047  21251377.2584                   21251379.3524
        47.0004         45.5004
 -11799325.75847  -9151338.07846  20333121.0314                   20333120.3444
        46.0004         39.0004
 -20052806.58647 -15544706.03546  20802386.8204                   20802384.3284
        45.7504         36.5004
   -609658.69547   -437980.82846  22661149.2894                   22661151.2034
        43.5004         36.0004
  16743452.96545  13044510.59444  24528484.6094                   24528485.4734
        35.7504         29.7504
  -6772209.63346  -5247601.50844  24607488.9774                   24607491.5004
        40.2504         25.5004
 -21790737.83647 -16908277.25047  21450191.0394                   21450191.4774
        46.2504         45.5004
 25  8  6  1 29  0.0000000  0  8G07G03G04G16G26G31G06G09
  -9158990.03146  -7094220.80946  23281426.5084                   23281427.1724
        41.7504         36.5004
   1284287.30547   1039575.51247  21256374.8444                   21256376.8284
        47.5004         45.2504
 -11864216.55547  -9201902.32846  20320772.7894                   20320772.2704
        47.2504         39.0004
 -20115284.81647 -15593390.34046  20790497.2034                   20790495.0944
        47.5004         36.0004
   -587642.75447   -420825.56646  22665339.6174                   22665341.0864
        44.0004         36.5004
  16786207.56345  13077825.71944  24536620.6484                   24536621.9264
        34.5004         26.7504
  -6798523.52746  -5268105.85944  24602481.5394                   24602484.7774
        41.2504         28.2504
 -21913514.23447 -17003947.12947  21426827.6884                   21426828.4384
        46.5004         45.5004
 25  8  6  1 29 30.0000000  0  8G07G03G04G16G26G31G06G09
  -9278142.93747  -7187067.12146  23258752.9064                   23258752.9494
        42.5004         36.5004
   1310985.81347   1060379.50047  21261455.6094                   21261457.2344
        46.7504         45.0004
 -11928803.14847  -9252229.52046  20308482.7114                   20308481.8914
        46.5004         38.5004
 -20177068.09447 -15641533.12946  20778740.1094                   20778738.2664
        46.2504         36.0004
   -565187.87147   -403328.26646  22669612.0634                   22669614.0944
        42.7504         36.2504
  16828953.43446  13111134.06645  24544755.9534                   24544755.9964
        37.7504         31.7504
  -6824371.64846  -5288247.29345  24597563.2344                   24597566.7304
        41.2504         31.0004
 -22036111.43047 -17099477.35947  21403497.8984                   21403498.9224
        45.2504         45.7504
 25  8  6  1 30  0.0000000  0  8G07G03G04G16G26G31G06G09
  -9397085.75447  -7279749.72746  23236118.3834                   23236118.8834
        43.0004         36.0004
   1338112.83247   1081517.40247  21266617.5944                   21266619.0164
        47.0004         45.5004
 -11993089.55547  -9302322.82046  20296249.2194                   20296248.4344
        46.7504         39.0004
 -20238161.31647 -15689138.20345  20767114.4844                   20767112.8134
        47.7504         35.7504
   -542301.73447   -385494.92646  22673967.3984                   22673969.1604
        43.0004         36.0004
  16871683.87946  13144430.44944  24552886.6954                   24552886.8054
        39.0004         28.5004
  -6849761.09846  -5308031.33245  24592730.8364                   24592735.0234
        41.0004         31.2504
 -22158533.15647 -17194870.87147  21380201.7974                   21380202.5634
        46.7504         46.0004
 25  8  6  1 30 30.0000000  0  8G07G03G04G16G26G31G06G09
  -9515818.40247  -7372268.55946  23213524.5164                   23213524.8714
        43.2504         36.2504
   1365666.29347   1102987.58247  21271860.8054                   21271862.7464
        46.2504         45.0004
 -12057074.57047  -9352181.25846  20284072.9304                   20284072.5824
        47.2504         38.5004
 -20298564.17647 -15736205.33646  20755620.5704                   20755618.5984
        47.0004         36.0004
   -518986.78947   -367327.45346  22678403.9534                   22678406.3714
        42.5004         37.0004
  16914398.00845  13177714.09843  24561015.4774                   24561015.6174
        33.5004         22.0004
  -6874693.55546  -5327459.26245  24587986.9304                   24587991.0204
        40.7504         32.5004
 -22280777.76647 -17290126.35947  21356939.5784                   21356939.8634
        46.7504         46.0004
 25  8  6  1 31  0.0000000  0  8G07G03G04G16G26G31G06G09
  -9634339.72747  -7464622.74246  23190970.2974                   23190970.7234
        42.5004         36.5004
   1393645.00047   1124789.12947  21277184.9304                   21277187.2584
        46.2504         45.2504
 -12120755.85547  -9401803.03146  20271955.1254                   20271954.4654
        45.7504         39.0004
 -20358274.90247 -15782733.14546  20744257.9924                   20744255.4654
        46.0004         36.2504
   -495244.36347   -348826.87146  22682922.4224                   22682924.0744
        43.0004         36.5004
  16957095.98854  13210985.12952  24569140.9224                   24569140.7814
        29.5004         15.5004
  -6899169.89546  -5346531.77745  24583329.1884                   24583333.8594
        40.7504         32.5004
 -22402842.55947 -17385241.75047  21333711.3834                   21333711.8364
        46.5004         46.2504
 25  8  6  1 31 30.0000000  0  7G07G03G04G16G26G06G09
  -9752648.41447  -7556811.23046  23168456.5864                   23168457.2464
        43.0004         36.5004
   1422047.97747   1146921.27347  21282589.8284                   21282592.0984
        46.2504         45.0004
 -12184131.04747  -9451186.29746  20259895.2974                   20259894.5164
        47.0004         38.5004
 -20417292.03147 -15828720.47745  20733027.0864                   20733024.9924
        46.7504         35.5004
   -471075.73047   -329994.17646  22687520.7034                   22687522.9184
        42.5004         36.5004
  -6923190.57446  -5365249.23445  24578758.1094                   24578762.5904
        39.2504         32.5004
 -22524724.75047 -17480214.84847  21310517.9454                   21310518.5044
        47.5004         46.0004
 25  8  6  1 32  0.0000000  0  7G07G03G04G16G26G06G09
  -9870742.69947  -7648832.66046  23145983.9064                   23145984.6094
        43.0004         36.2504
   1450874.61747   1169383.54747  21288075.4224                   21288077.5664
        46.2504         44.7504
 -12247197.23847  -9500328.77346  20247893.9924                   20247893.4184
        46.2504         39.0004
 -20475613.53147 -15874165.77346  20721928.7734                   20721926.5394
        47.0004         36.0004
   -446481.75447   -310830.05946  22692201.3834                   22692203.8484
        42.2504         36.5004
  -6946755.92646  -5383611.87145  24574273.4534                   24574278.3754
        39.0004         32.7504
 -22646421.02047 -17575043.07447  21287360.0314                   21287360.6054
        46.5004         46.5004
 25  8  6  1 32 30.0000000  0  7G07G03G04G16G26G06G09
  -9988624.57447  -7740688.55946  23123552.0474                   23123551.9064
        42.0004         37.2504
   1480120.64847   1192172.60547  21293641.1094                   21293643.0864
        45.5004         44.5004
 -12309955.29747  -9549231.15246  20235951.6724                   20235950.5744
        47.0004         38.7504
 -20533241.17647 -15919070.40245  20710962.4454                   20710960.8484
        46.7504         35.7504
   -421466.87547   -291337.94946  22696961.8914                   22696963.6804
        43.7504         36.5004
  -6969869.72746  -5401622.67245  24569875.7734                   24569879.7584
        38.7504         32.2504
 -22767931.84447 -17669726.79747  21264237.3754                   21264237.6844
        46.2504         46.5004
 25  8  6  1 33  0.0000000  0  7G07G03G04G16G26G06G09
 -10106289.78147  -7832375.63346  23101160.8914                   23101161.1994
        44.0004         36.7504
   1509787.93447   1215289.92647  21299286.5394                   21299288.3954
        45.7504         44.5004
 -12372399.84447  -9597889.24246  20224068.9534                   20224067.9384
        47.7504         39.0004
 -20590170.40247 -15963430.80145  20700129.0784                   20700127.3674
        46.5004         35.5004
   -396029.54747   -271516.67646  22701801.4844                   22701804.8324
        42.2504         37.0004
  -6992529.80146  -5419279.91045  24565563.2734                   24565567.7584
        37.7504         32.0004
 -22889251.42247 -17764261.49647  21241150.9224                   21241151.2584
        46.7504         46.2504
 25  8  6  1 33 30.0000000  0  7G07G03G04G16G26G06G09
 -10223738.82847  -7923894.27346  23078810.9384                   23078811.1334
        43.2504         37.0004
   1539873.36347   1238733.07447  21305011.6804                   21305013.2774
        46.0004         44.2504
 -12434530.54347  -9646302.77046  20212245.7504                   20212244.8524
        47.0004         38.7504
 -20646402.02347 -16007247.62145  20689428.7274                   20689426.7274
        47.0004         35.0004
   -370173.04747   -251368.79746  22706722.2584                   22706724.7304
        42.5004         37.0004
  -7014738.85946  -5436585.71145  24561336.3984                   24561342.3014
        37.5004         31.7504
 -23010378.96947 -17858646.56247  21218101.0234                   21218101.5234
        46.5004         46.2504
 25  8  6  1 34  0.0000000  0  7G07G03G04G16G26G06G09
 -10340969.50847  -8015242.76246  23056502.7114                   23056502.4884
        42.2504         36.5004
   1570376.98447   1262502.08647  21310816.1954                   21310818.1764
        45.5004         44.2504
 -12496343.88347  -9694469.00046  20200482.8674                   20200482.0824
        47.0004         38.7504
 -20701933.33247 -16050518.74645  20678861.2274                   20678859.4024
        47.0004         35.2504
   -343897.60947   -230894.44946  22711722.5704                   22711724.6564
        43.0004         36.7504
  -7036496.51646  -5453539.80145  24557197.3754                   24557201.3874
        36.5004         32.0004
 -23131310.56647 -17952878.94547  21195088.5394                   21195089.0274
        46.0004         46.5004
 25  8  6  1 34 30.0000000  0  7G07G03G04G16G26G06G09
 -10457980.96147  -8106420.42246  23034236.2664                   23034236.0594
        43.0004         37.0004
   1601297.28947   1286595.78147  21316700.1954                   21316702.4144
        45.5004         44.2504
 -12557837.82047  -9742386.35946  20188781.2584                   20188780.7034
        46.7504         39.2504
 -20756763.47747 -16093243.50445  20668427.7274                   20668425.8094
        46.7504         35.7504
   -317204.89147   -210094.94546  22716801.7734                   22716804.0354
        42.2504         36.2504
  -7057803.87945  -5470142.98445  24553141.6644                   24553147.1214
        35.2504         30.5004
 -23252043.72347 -18046956.69547  21172113.5084                   21172114.3054
        46.5004         46.5004
 25  8  6  1 35  0.0000000  0  7G07G03G04G16G26G06G09
 -10574773.98847  -8197427.87146  23012011.2664                   23012011.2774
        43.0004         37.5004
   1632631.07847   1311011.66847  21322662.8284                   21322664.7074
        45.0004         44.5004
 -12619012.07847  -9790054.61746  20177140.2034                   20177139.2544
        47.0004         38.5004
 -20810893.12947 -16135422.43045  20658127.2734                   20658124.8484
        47.7504         35.7504
   -290098.34846   -188972.99246  22721959.9224                   22721962.2074
        41.0004         36.2504
  -7078663.83645  -5486397.55944  24549171.8984                   24549177.1844
        33.5004         29.2504
 -23372577.66847 -18140879.21547  21149176.3984                   21149177.4344
        46.2504         46.2504
 25  8  6  1 35 30.0000000  0  7G07G03G04G16G26G06G09
 -10691349.93447  -8288266.16846  22989827.1884                   22989827.6604
        43.0004         37.2504
   1664374.36747   1335746.65647  21328703.3284                   21328705.5474
        45.5004         44.2504
 -12679867.12947  -9837474.13746  20165559.8444                   20165559.0864
        46.0004         39.0004
 -20864323.76647 -16177056.66845  20647959.5474                   20647957.3914
        47.0004         35.5004
   -262582.12146   -167531.80945  22727195.9144                   22727198.5824
        41.2504         35.7504
  -7099080.08645  -5502306.34844  24545286.2194                   24545291.8444
        32.0004         27.0004
 -23492912.46147 -18234646.55547  21126277.6334                   21126278.1214
        46.7504         46.5004
 25  8  6  1 36  0.0000000  0  7G07G03G04G16G26G06G09
 -10807704.91847  -8378932.28946  22967685.6254                   22967685.9414
        44.0004         37.5004
   1696529.32847   1360802.42247  21334822.3054                   21334824.1334
        45.0004         44.0004
 -12740397.28147  -9884640.49246  20154041.5634                   20154040.6484
        47.2504         39.0004
 -20917051.06248 -16218142.84045  20637926.1414                   20637923.6414
        48.0004         35.7504
   -234654.31646   -145769.92645  22732510.0704                   22732513.4534
        40.7504         35.7504
  -7119049.95745  -5517867.35544  24541486.1254                   24541492.1214
        31.5004         25.7504
 -23613041.96147 -18328253.91047  21103417.9924                   21103418.3134
        46.0004         46.5004
 25  8  6  1 36 30.0000000  0  7G07G03G04G16G26G06G09
 -10923838.73847  -8469426.07046  22945585.6954                   22945585.5744
        43.5004         37.5004
   1729093.11747   1386176.75447  21341019.1094                   21341021.3954
        45.0004         44.0004
 -12800601.78547  -9931553.09446  20142584.7664                   20142583.7034
        47.0004         39.2504
 -20969075.31248 -16258681.19946  20628026.0084                   20628024.0204
        48.2504         36.0004
   -206317.89146   -123689.62546  22737903.0704                   22737905.5234
        41.7504         36.0004
  -7138576.00045  -5533082.52044  24537771.0864                   24537776.4534
        32.0004         25.5004
 -23732964.86347 -18421700.29347  21080597.0704                   21080597.9734
        46.5004         46.5004
 25  8  6  1 37  0.0000000  0  7G07G03G04G16G26G06G09
 -11039753.18447  -8559748.90246  22923527.8284                   22923527.9224
        43.2504         37.7504
   1762061.90247   1411866.66847  21347292.7584                   21347295.0514
        45.2504         43.7504
 -12860480.99647  -9978212.21946  20131189.9844                   20131189.4534
        46.0004         38.7504
 -21020398.00048 -16298672.88346  20618259.6484                   20618257.8164
        48.0004         36.0004
   -177576.96147   -101294.12946  22743372.2114                   22743374.6884
        42.5004         36.2504
  -7157661.80945  -5547954.65244  24534139.1644                   24534144.7034
        32.0004         25.5004
 -23852681.13347 -18514985.66047  21057816.0634                   21057816.3674
        47.0004         46.5004
 25  8  6  1 37 30.0000000  0  7G07G03G04G16G26G06G09
  -9580020.32847  -7422294.62146  23201306.3054                   23201305.6604
        44.0004         37.5004
   3370855.91447   2665472.34447  21653436.2584                   21653438.1684
        45.7504         43.7504
 -11344607.97348  -8797012.46146  20419650.9064                   20419650.0274
        48.0004         38.5004
 -19495593.50847 -15110513.51646  20908420.3984                   20908417.8554
        47.7504         36.5004
   1426988.79346   1149016.81646  23048710.6564                   23048713.7774
        41.5004         36.0004
  -5600884.97345  -4334881.87544  24830383.1954                   24830389.5664
        33.7504         27.7504
 -22396761.25047 -17380502.59047  21334867.8984                   21334868.5434
        47.0004         46.7504
 25  8  6  1 38  0.0000000  0  7G07G03G04G16G26G06G09
  -9695487.96947  -7512269.28546  23179333.0474                   23179333.0514
        43.2504         37.7504
   3404635.01247   2691793.67647  21659864.6884                   21659866.2894
        45.2504         43.5004
 -11403825.54347  -8843156.02046  20408382.4384                   20408381.4064
        47.5004         39.0004
 -19545505.63747 -15149406.06646  20898922.2734                   20898919.6214
        47.5004         36.5004
   1456538.67646   1172042.66845  23054334.2974                   23054336.4304
        41.7504         35.7504
  -5619088.85245  -4349066.80144  24826920.3134                   24826925.8404
        33.7504         27.0004
 -22516051.64147 -17473456.10247  21312167.8914                   21312168.3984
        46.5004         46.7504
 25  8  6  1 38 30.0000000  0  7G07G03G04G16G26G06G09
  -9810732.86747  -7602070.38346  23157402.5554                   23157402.3914
        43.7504         38.2504
   3438815.02747   2718427.40647  21666368.2034                   21666370.5554
        45.2504         43.5004
 -11462711.15247  -8889040.90646  20397176.8594                   20397175.7584
        47.5004         38.5004
 -19594713.01248 -15187749.45346  20889558.4144                   20889555.9494
        48.2504         36.0004
   1486488.53947   1195380.18445  23060034.0864                   23060035.6914
        42.0004         35.2504
  -5636855.57845  -4362911.07044  24823539.4064                   24823544.6024
        35.5004         28.5004
 -22635127.19147 -17566242.21147  21289508.6174                   21289508.8094
        46.5004         47.0004
 25  8  6  1 39  0.0000000  0  7G07G03G04G16G26G06G09
  -9925755.46547  -7691698.23446  23135514.7344                   23135514.6214
        44.5004         38.5004
   3473393.45347   2745371.59047  21672948.0554                   21672950.0784
        46.0004         43.5004
 -11521263.77347  -8934666.32446  20386034.5474                   20386033.8634
        46.5004         38.2504
 -19643216.13348 -15225544.07845  20880328.4924                   20880326.4064
        48.2504         35.5004
   1516835.63747   1219027.24245  23065808.9304                   23065810.5984
        42.2504         34.7504
  -5654187.35546  -4376416.41844  24820241.4844                   24820246.7664
        37.7504         29.5004
 -22753986.36747 -17658859.70347  21266890.5084                   21266891.0004
        47.5004         47.0004
 25  8  6  1 39 30.0000000  0  7G07G03G04G16G26G06G09
 -10040556.34047  -7781153.32446  23113668.9304                   23113668.7974
        44.7504         38.2504
   3508366.99647   2772623.64847  21679603.8444                   21679606.1134
        45.0004         43.0004
 -11579483.12147  -8980032.04346  20374955.8134                   20374954.7974
        46.0004         38.2504
 -19691016.10247 -15262790.78945  20871232.6254                   20871230.6374
        47.5004         35.7504
   1547576.55946   1242981.18845  23071658.1954                   23071660.5514
        41.5004         34.7504
  -5671087.17646  -4389585.14144  24817025.6414                   24817030.6374
        37.2504         29.2504
 -22872628.33247 -17751307.95747  21244313.7894                   21244314.3484
        47.2504         47.2504
 25  8  6  1 40  0.0000000  0  8G27G07G03G04G16G26G06G09
  10839219.64855   8493677.98454  24785283.0234                   24785288.1414
        34.5004         27.5004
 -10155135.35247  -7870435.53146  23091864.7814                   23091864.5744
        43.7504         37.7504
   3543733.31347   2800181.76647  21686333.5234                   21686335.8714
        45.5004         43.0004
 -11637367.94547  -9025137.09446  20363940.8444                   20363939.9884
        47.5004         38.7504
 -19738112.89848 -15299489.57845  20862270.4454                   20862268.6724
        48.0004         35.7504
   1578708.75846   1267240.00445  23077582.2194                   23077584.5204
        41.2504         34.7504
  -5687557.02046  -4402418.84044  24813891.7424                   24813896.2774
        38.0004         27.5004
 -22991051.39147 -17843585.62147  21221778.0864                   21221778.8054
        47.5004         47.2504
 25  8  6  1 40 30.0000000  0  8G27G07G03G04G16G26G06G09
  10701249.97745   8386169.34844  24759027.4534                   24759033.8054
        35.0004         26.7504
 -10269489.52047  -7959542.54346  23070103.9064                   23070103.8364
        44.5004         38.0004
   3579492.71147   2828046.18847  21693138.7194                   21693140.7154
        45.2504         43.0004
 -11694914.28947  -9069978.39146  20352990.0164                   20352989.2854
        46.0004         39.0004
 -19784504.05548 -15335638.52046  20853442.2274                   20853440.1054
        48.0004         36.0004
   1610232.48446   1291803.90645  23083581.4304                   23083583.4654
        41.2504         35.5004
  -5703596.24646  -4414916.97344  24810839.7504                   24810843.6094
        38.5004         28.0004
 -23109250.95347 -17935689.14847  21199285.8524                   21199286.3094
        46.7504         47.2504
 25  8  6  1 41  0.0000000  0  8G27G07G03G04G16G26G06G09
  10563388.57445   8278745.11344  24732792.5554                   24732798.4344
        34.7504         28.2504
 -10383620.02047  -8048475.26646  23048385.3754                   23048385.1094
        44.2504         38.2504
   3615641.90647   2856214.34047  21700017.3284                   21700019.7624
        45.2504         43.5004
 -11752121.86347  -9114555.71146  20342103.8054                   20342102.8444
        46.5004         38.5004
 -19830190.65248 -15371238.44546  20844748.3204                   20844746.0984
        48.5004         36.2504
   1642144.21946   1316670.15645  23089654.1724                   23089656.1094
        41.5004         35.0004
  -5719207.89546  -4427081.94944  24807869.2034                   24807873.6134
        39.5004         29.5004
 -23227226.24247 -18027617.91047  21176836.2584                   21176836.5004
        46.5004         47.2504
 25  8  6  1 41 30.0000000  0  8G27G07G03G04G16G26G06G09
  10425639.29745   8171408.24645  24706580.1484                   24706586.5634
        35.7504         30.0004
 -10497526.42647  -8137233.36346  23026709.6804                   23026709.2464
        43.2504         38.0004
   3652178.91047   2884684.67647  21706970.6884                   21706972.9184
        45.5004         43.0004
 -11808989.03947  -9158867.78946  20331282.2424                   20331281.2274
        47.2504         38.7504
 -19875172.42648 -15406289.16046  20836188.3594                   20836186.2704
        48.2504         36.0004
   1674441.83646   1341837.10245  23095799.7664                   23095802.2854
        41.0004         34.5004
  -5734393.75046  -4438915.12544  24804978.9614                   24804983.2974
        39.0004         28.5004
 -23344975.07447 -18119370.21947  21154429.1564                   21154429.9884
        46.7504         47.5004
 25  8  6  1 42  0.0000000  0  8G27G07G03G04G16G26G06G09
  10288008.41846   8064163.66445  24680390.0704                   24680395.9924
        37.2504         31.0004
 -10611205.95347  -8225814.68046  23005077.0554                   23005076.7384
        43.7504         38.0004
   3689104.08647   2913457.48447  21713996.9064                   21713999.6764
        45.7504         43.2504
 -11865511.81647  -9202911.50046  20320526.2814                   20320525.8954
        47.0004         38.7504
 -19919446.92648 -15440788.75446  20827763.3134                   20827761.2894
        48.2504         36.5004
   1707125.62946   1367304.94145  23102019.7734                   23102022.3164
        40.5004         34.0004
  -5749153.06246  -4450415.93044  24802169.7734                   24802174.5084
        38.2504         27.0004
 -23462492.87947 -18210942.51247  21132066.1024                   21132066.3984
        46.7504         47.5004
 25  8  6  1 42 30.0000000  0  8G27G07G03G04G16G26G06G09
  10150496.18446   7957011.53145  24654221.7504                   24654228.1764
        36.2504         30.7504
 -10724661.77047  -8314221.66846  22983487.0084                   22983486.4804
        42.7504         38.0004
   3726411.80147   2942528.37547  21721096.8984                   21721099.0704
        45.5004         43.2504
 -11921692.21947  -9246688.43446  20309835.4144                   20309834.6094
        46.0004         38.7504
 -19963017.83648 -15474740.09846  20819472.1484                   20819470.4064
        49.0004         36.0004
   1740189.78946   1393069.18845  23108311.6884                   23108313.6524
        40.7504         34.0004
  -5763491.25046  -4461588.59044  24799441.9384                   24799445.8914
        39.5004         27.0004
 -23579781.11747 -18302335.91847  21109746.7734                   21109747.3244
        46.2504         47.5004
 25  8  6  1 43  0.0000000  0  8G27G07G03G04G16G26G06G09
  10013106.82446   7849955.11345  24628077.4304                   24628083.0124
        37.5004         30.5004
 -10837893.12547  -8402453.76246  22961939.4304                   22961939.1884
        43.2504         38.2504
   3764100.33247   2971896.00847  21728268.5864                   21728270.9574
        45.7504         43.5004
 -11977528.34047  -9290197.08646  20299210.2424                   20299209.3404
        46.0004         39.0004
 -20005884.54348 -15508142.71146  20811314.6564                   20811312.6884
        48.7504         36.0004
   1773632.43846   1419128.35545  23114675.0164                   23114678.0514
        41.2504         34.0004
  -5777409.73846  -4472434.19144  24796794.2114                   24796797.6724
        38.2504         27.7504
 -23696837.28147 -18393548.49647  21087471.7114                   21087472.0944
        47.5004         47.5004
 25  8  6  1 43 30.0000000  0  8G27G07G03G04G16G26G06G09
   9875844.64146   7742997.78945  24601957.3984                   24601963.2814
        39.7504         31.2504
 -10950898.97747  -8490510.13346  22940435.1954                   22940434.8524
        44.0004         38.7504
   3802168.14147   3001559.17247  21735512.7734                   21735515.2934
        46.0004         43.0004
 -12033018.05947  -9333435.82446  20288651.2114                   20288650.2154
        46.0004         38.5004
 -20048046.48048 -15540996.15246  20803291.2734                   20803289.5394
        48.0004         36.2504
   1807451.90246   1445481.12945  23121110.7504                   23121114.0474
        40.0004         33.5004
  -5790909.84846  -4482953.81244  24794224.4614                   24794228.7194
        38.0004         26.7504
 -23813658.70747 -18484578.16047  21065241.2344                   21065241.6294
        47.2504         47.5004
 25  8  6  1 44  0.0000000  0  8G27G07G03G04G16G26G06G09
   9738713.57046   7636142.60945  24575862.0314                   24575868.2934
        40.5004         32.0004
 -11063679.27747  -8578390.75846  22918973.7344                   22918973.3244
        44.2504         38.5004
   3840613.16047   3031516.27347  21742828.4924                   21742831.2464
        45.5004         42.7504
 -12088159.86747  -9376403.45346  20278157.4774                   20278157.0164
        47.5004         38.7504
 -20089503.75448 -15573300.51246  20795402.5314                   20795400.5864
        48.0004         36.0004
   1841646.11346   1472125.93445  23127618.2344                   23127620.8164
        40.2504         35.0004
  -5803993.41446  -4493148.81644  24791733.8284                   24791738.8634
        36.0004         27.0004
 -23930243.22347 -18575423.21947  21043056.1954                   21043056.8324
        47.2504         47.5004
 25  8  6  1 44 30.0000000  0  8G27G07G03G04G16G26G06G09
   9601717.41846   7529392.58244  24549792.2424                   24549798.0274
        39.0004         28.0004
 -11176233.46147  -8666095.19946  22897555.2974                   22897554.8204
        43.7504         38.7504
   3879433.28147   3061765.67247  21750216.0704                   21750218.2274
        45.0004         42.5004
 -12142952.10247  -9419098.68046  20267731.2584                   20267730.2814
        47.5004         38.7504
 -20130256.29748 -15605055.72745  20787647.9304                   20787645.6524
        48.0004         35.7504
   1876212.75846   1499060.91445  23134195.8134                   23134198.7734
        40.5004         34.0004
  -5816662.12946  -4503020.60544  24789323.9384                   24789329.4924
        38.0004         27.5004
 -24046588.63348 -18666081.96547  21020916.3364                   21020916.7274
        48.0004         47.5004
 25  8  6  1 45  0.0000000  0  8G27G07G03G04G16G26G06G09
   9464857.83246   7422748.87544  24523748.6884                   24523752.9384
        38.2504         24.2504
 -11288563.25047  -8753624.78546  22876180.0864                   22876179.2584
        43.7504         39.0004
   3918624.31347   3092304.06647  21757673.3444                   21757676.1764
        45.2504         42.2504
 -12197395.42247  -9461522.03146  20257370.9304                   20257370.3954
        46.2504         39.0004
 -20170306.46948 -15636263.64546  20780026.0634                   20780023.9574
        48.2504         36.2504
   1911147.60546   1526282.84845  23140843.2424                   23140846.5314
        39.2504         33.7504
  -5828920.12546  -4512572.34044  24786991.6334                   24786995.9024
        37.5004         27.7504
 -24162694.89147 -18756554.35547  20998822.2034                   20998822.3834
        47.0004         47.7504
 25  8  6  1 45 30.0000000  0  8G27G07G03G04G16G26G06G09
   9328141.55146   7316216.89844  24497731.6484                   24497737.0434
        37.5004         26.5004
 -11400665.37147  -8840976.96546  22854847.0554                   22854846.9844
        43.7504         39.2504
   3958186.94547   3123132.03947  21765202.5554                   21765204.6914
        45.2504         42.2504
 -12251485.38747  -9503670.04346  20247077.9774                   20247077.1094
        45.7504         38.5004
 -20209651.43448 -15666922.05546  20772539.4144                   20772537.4024
        48.5004         36.0004
   1946451.16846   1553792.05945  23147561.7734                   23147564.3634
        39.7504         34.7504
  -5840766.38746  -4521803.24645  24784737.2114                   24784742.3524
        36.5004         30.0004
 -24278557.04747 -18846836.54347  20976774.2034                   20976774.3484
        46.5004         47.5004
 25  8  6  1 46  0.0000000  0  8G27G07G03G04G16G26G06G09
   9191569.95346   7209797.65244  24471743.5004                   24471748.4694
        37.5004         28.5004
 -11512542.20747  -8928153.61746  22833557.6804                   22833557.1374
        43.7504         39.2504
   3998116.50847   3154245.92247  21772800.8134                   21772802.8554
        45.2504         43.0004
 -12305222.99647  -9545543.49246  20236852.1804                   20236851.0984
        46.0004         39.0004
 -20248294.09848 -15697033.20746  20765186.1484                   20765184.0594
        49.0004         36.0004
   1982118.74646   1581584.91845  23154348.8204                   23154351.4964
        40.5004         35.0004
  -5852205.26246  -4530716.77745  24782561.0314                   24782566.0514
        37.0004         30.0004
 -24394175.44147 -18936928.78947  20954772.2584                   20954772.9064
        46.2504         47.5004
 25  8  6  1 46 30.0000000  0  8G27G07G03G04G16G26G06G09
   9055147.05146   7103494.28144  24445781.9534                   24445787.9844
        37.2504         27.0004
 -11624193.10947  -9015154.21946  22812311.1094                   22812311.0394
        44.2504         39.2504
   4038411.18847   3185644.32447  21780468.5084                   21780470.9414
        45.0004         42.5004
 -12358606.50847  -9587141.01646  20226693.5704                   20226692.9574
        46.0004         38.7504
 -20286234.09048 -15726596.83246  20757966.0394                   20757964.2774
        48.0004         36.0004
   2018148.37146   1609659.90645  23161205.2894                   23161208.2344
        39.7504         35.0004
  -5863238.49245  -4539314.14144  24780461.4064                   24780465.4104
        35.2504         28.7504
 -24509547.57847 -19026829.14147  20932818.2034                   20932818.2974
        47.0004         47.5004
 25  8  6  1 47  0.0000000  0  8G27G07G03G04G16G26G06G09
   8918877.04745   6997310.03543  24419850.8674                   24419856.1054
        34.5004         21.2504
 -11735617.42247  -9101978.26246  22791107.6724                   22791107.2664
        45.0004         39.2504
   4079069.04347   3217325.70747  21788205.5944                   21788207.7584
        45.7504         42.2504
 -12411634.08647  -9628461.19146  20216602.5704                   20216602.0634
        46.5004         38.7504
 -20323471.63748 -15755613.08646  20750880.0234                   20750877.8284
        48.5004         36.0004
   2054538.06346   1638015.43445  23168130.5634                   23168132.6294
        40.2504         35.2504
  -5873867.75845  -4547596.75444  24778437.3284                   24778443.2734
        35.0004         28.2504
 -24624671.13347 -19116535.79747  20910910.5634                   20910910.6844
        46.5004         47.7504
 25  8  6  1 47 30.0000000  0  8G27G07G03G04G16G26G06G09
   8782764.30545   6891248.32043  24393948.9694                   24393953.7934
        34.0004         20.2504
 -11846814.13347  -9188624.96146  22769947.6334                   22769947.0554
        44.0004         39.2504
   4120088.60247   3249288.94547  21796011.1954                   21796013.5554
        45.5004         42.0004
 -12464303.56247  -9669502.34446  20206579.7974                   20206579.3914
        47.2504         38.7504
 -20360006.11748 -15784081.50446  20743927.8204                   20743925.6334
        48.5004         36.0004
   2091286.25046   1666650.32845  23175123.3284                   23175125.8444
        40.7504         35.5004
  -5884094.30146  -4555565.56245  24776492.7114                   24776497.6334
        36.7504         30.0004
 -24739543.21147 -19206046.48847  20889051.4144                   20889051.7664
        46.5004         47.5004
 25  8  6  1 48  0.0000000  0  8G27G07G03G04G16G26G06G09
   8646813.94946   6785313.22744  24368079.8134                   24368083.8484
        38.0004         24.0004
 -11957781.89847  -9275093.26246  22748831.0314                   22748830.3054
        43.5004         39.0004
   4161468.78147   3281533.18847  21803885.7894                   21803888.0434
        45.0004         42.0004
 -12516612.36347  -9710262.44146  20196625.9304                   20196625.2664
        47.5004         38.7504
 -20395837.03148 -15812001.68745  20737109.3364                   20737107.5824
        48.7504         35.7504
   2128391.81346   1695563.69545  23182184.7034                   23182186.5784
        41.0004         35.2504
  -5893918.98446  -4563221.23045  24774623.2664                   24774627.6294
        37.7504         30.2504
 -24854160.56247 -19295358.70348  20867240.3204                   20867241.0004
        46.7504         48.0004
 25  8  6  1 48 30.0000000  0  8G27G07G03G04G16G26G06G09
   8511027.19146   6679505.55544  24342239.2114                   24342244.1564
        38.7504         26.7504
 -12068523.09447  -9361385.02746  22727757.9384                   22727757.2854
        44.5004         38.7504
   4203204.87147   3314054.75846  21811827.6954                   21811830.0704
        45.0004         41.5004
 -12568561.48047  -9750742.27346  20186739.9454                   20186739.7734
        47.0004         38.7504
 -20430966.94948 -15839375.62946  20730424.5394                   20730422.1454
        48.7504         36.0004
   2165849.94946   1724751.78545  23189312.5394                   23189315.1214
        40.7504         35.5004
  -5903346.27046  -4570567.23045  24772828.4144                   24772833.7154
        38.0004         30.5004
 -24968523.49647 -19384472.66447  20845477.5234                   20845478.0474
        47.0004         47.7504
 25  8  6  1 49  0.0000000  0  8G27G07G03G04G16G26G06G09
   8375409.35246   6573829.46544  24316432.0234                   24316436.9884
        38.7504         28.0004
 -12179035.85947  -9447498.78946  22706727.7584                   22706726.9694
        45.2504         38.7504
   4245296.07447   3346853.05146  21819837.5944                   21819840.0164
        45.5004         41.5004
 -12620148.03947  -9790939.57846  20176923.7734                   20176922.7304
        47.0004         38.5004
 -20465395.19948 -15866202.82446  20723872.8364                   20723871.0474
        48.5004         36.0004
   2203659.84846   1754213.98845  23196507.2344                   23196509.7894
        40.5004         35.2504
  -5912376.78546  -4577604.05145  24771110.2274                   24771116.0944
        37.5004         31.2504
 -25082628.49647 -19473385.64147  20823764.0864                   20823764.6334
        47.5004         47.7504
 25  8  6  1 49 30.0000000  0  8G27G07G03G04G16G26G06G09
   8239965.55946   6468289.12144  24290657.7034                   24290663.1334
        39.0004         29.0004
 -12289318.43047  -9533433.19146  22685742.0314                   22685740.8164
        45.5004         39.0004
   4287741.66847   3379927.47746  21827914.6724                   21827916.9224
        45.0004         41.0004
 -12671369.04747  -9830852.06246  20167176.3834                   20167175.7154
        46.2504         39.0004
 -20499120.30948 -15892482.12145  20717455.0634                   20717453.1684
        48.2504         35.5004
   2241820.65646   1783949.62145  23203769.2194                   23203771.5314
        40.7504         35.5004
  -5921011.09446  -4584332.15645  24769467.3914                   24769472.7504
        38.0004         31.2504
 -25196471.91847 -19562094.78948  20802100.6564                   20802100.9734
        46.7504         48.0004
 25  8  6  1 50  0.0000000  0  8G27G07G03G04G16G26G06G09
   8104700.30946   6362887.78545  24264917.6174                   24264922.6454
        40.5004         30.5004
 -12399370.39847  -9619187.90246  22664799.1254                   22664798.7734
        45.2504         39.0004
   4330539.90647   3413276.70746  21836059.2114                   21836061.6484
        45.7504         41.2504
 -12722222.59447  -9870478.20346  20157499.2814                   20157498.4344
        46.0004         38.5004
 -20532142.26248 -15918213.50045  20711171.3524                   20711168.7384
        48.2504         35.0004
   2280330.62946   1813957.34045  23211097.7424                   23211100.0664
        41.2504         34.7504
  -5929250.77046  -4590752.71945  24767899.2734                   24767905.3284
        38.2504         31.2504
 -25310051.09447 -19650598.02048  20780487.3834                   20780487.7934
        46.5004         48.0004
 25  8  6  1 50 30.0000000  0  8G27G07G03G04G16G26G06G09
   7969620.32046   6257630.81645  24239212.6484                   24239218.1604
        40.0004         31.5004
 -12509188.34447  -9704760.25446  22643901.7274                   22643901.3674
        45.2504         39.2504
   4373691.46147   3446901.24646  21844270.7194                   21844273.0164
        45.7504         41.7504
 -12772704.32447  -9909814.62146  20147893.0084                   20147892.4384
        47.5004         39.0004
 -20564458.75048 -15943395.16045  20705021.3754                   20705019.3834
        48.0004         35.7504
   2319190.42246   1844237.66045  23218492.3134                   23218495.1214
        41.0004         34.2504
  -5937094.84846  -4596865.05545  24766406.8594                   24766412.4264
        38.5004         31.5004
 -25423360.91447 -19738891.36348  20758924.8444                   20758925.3634
        47.5004         48.2504
 25  8  6  1 51  0.0000000  0  8G27G07G03G04G16G26G06G09
   7834729.00446   6152520.89845  24213543.6564                   24213548.4804
        39.7504         31.5004
 -12618772.32047  -9790150.31246  22623048.4844                   22623047.8094
        45.7504         39.2504
   4417193.75047   3480799.08646  21852548.7974                   21852551.0984
        44.5004         41.5004
 -12822813.04747  -9948860.39146  20138358.1334                   20138357.1604
        47.2504         38.5004
 -20596070.60948 -15968027.75845  20699006.0004                   20699003.9264
        48.0004         35.5004
   2358397.37146   1874788.46945  23225953.4694                   23225956.1454
        40.7504         34.7504
  -5944545.85246  -4602671.09845  24764989.5394                   24764994.6054
        37.7504         30.7504
 -25536399.57447 -19826973.41048  20737414.3444                   20737414.9064
        47.2504         48.2504
 25  8  6  1 51 30.0000000  0 10G27G07G03G04G16G26G08G30G06G09
   7700029.68046   6047560.58245  24187910.9304                   24187916.0634
        38.5004         30.0004
 -12728122.82447  -9875358.42646  22602239.9924                   22602239.2074
        44.5004         39.5004
   4461043.87547   3514967.96946  21860893.0704                   21860895.6054
        44.5004         41.2504
 -12872548.01647  -9987614.91446  20128893.8444                   20128893.1524
        46.5004         38.5004
 -20626979.08647 -15992112.27345  20693123.9924                   20693121.8874
        47.7504         35.5004
   2397948.57846   1905607.54345  23233479.5234                   23233482.1254
        40.2504         33.2504
  10820676.36355   8489676.37953  24719581.8914                   24719590.7424
        35.0004         23.7504
  10822931.82456   8473305.56654  25211064.5704                   25211071.6844
        37.0004         28.0004
  -5951606.43046  -4608172.90245  24763645.4224                   24763650.9964
        37.7504         30.2504
 -25649165.56647 -19914842.99648  20715955.8834                   20715955.7344
        47.0004         48.2504
 25  8  6  1 52  0.0000000  0 10G27G07G03G04G16G26G08G30G06G09
   9140948.10546   7170354.37144  24462108.7194                   24462113.2544
        38.0004         29.2504
 -11261818.14547  -8732783.29346  22881268.0634                   22881267.3094
        45.0004         39.5004
   6080655.77047   4777003.16046  22169095.1174                   22169097.8054
        44.5004         41.0004
 -11346488.45347  -8798477.59846  20419293.1414                   20419292.2234
        47.0004         39.2504
 -19081765.95747 -14788050.08645  20987168.4384                   20987166.7274
        47.7504         35.7504
   4013258.14146   3164290.24245  23540862.5784                   23540865.3714
        38.5004         32.0004
  12252360.00045   9605274.29343  24992022.6094                   24992030.1484
        32.7504         22.2504
  12261683.76646   9594411.36344  25484849.2894                   25484856.7934
        37.5004         29.5004
  -4382860.82046  -3385773.77044  25062167.9144                   25062172.9264
        37.2504         28.7504
 -24186235.25047 -18774897.27048  20994342.1414                   20994342.2934
        47.7504         48.2504
 25  8  6  1 52 30.0000000  0 10G27G07G03G04G16G26G08G30G06G09
   9006631.87946   7065692.57444  24436548.4144                   24436553.6174
        36.5004         27.5004
 -11370713.06647  -8817636.40646  22860546.3834                   22860545.2464
        45.7504         39.5004
   6125182.65647   4811699.37946  22177568.2734                   22177570.7424
        45.0004         40.7504
 -11395483.69547  -8836655.70346  20409969.7814                   20409968.9654
        46.5004         39.0004
 -19111281.35247 -14811049.07845  20981552.6884                   20981550.1294
        47.0004         35.2504
   4053478.86746   3195631.02545  23548516.7584                   23548519.3554
        39.2504         31.7504
  12108551.09845   9493215.70743  24964655.9144                   24964664.8014
        33.5004         22.5004
  12125138.46546   9488012.81345  25458864.8834                   25458872.3244
        39.0004         30.7504
  -4389158.98846  -3390681.50444  25060969.9774                   25060974.6254
        37.7504         29.0004
 -24298461.47347 -18862346.24648  20972986.2814                   20972986.6884
        47.2504         48.5004
 25  8  6  1 53  0.0000000  0 10G27G07G03G04G16G26G08G30G06G09
   8872507.97745   6961180.68444  24411025.0944                   24411029.9574
        33.5004         25.5004
 -11479384.85547  -8902315.64546  22839866.4304                   22839865.5124
        46.2504         39.7504
   6170039.54347   4846652.74646  22186104.4774                   22186106.6994
        44.7504         41.2504
 -11444111.85547  -8874547.78546  20400715.7194                   20400715.4774
        47.2504         38.7504
 -19140106.30947 -14833510.07045  20976066.9454                   20976064.7734
        47.2504         34.7504
   4094025.94546   3227226.10945  23556231.6254                   23556234.9884
        38.2504         30.7504
  11964676.46545   9381105.87543  24937277.3674                   24937285.4344
        32.2504         20.7504
  11988720.05546   9381713.13345  25432905.0004                   25432912.5084
        39.2504         32.5004
  -4395084.13346  -3395298.58244  25059842.2814                   25059847.4414
        37.2504         29.2504
 -24410419.49248 -18949586.23448  20951681.1254                   20951681.8054
        48.0004         48.7504
 25  8  6  1 53 30.0000000  0 10G27G07G03G04G16G26G08G30G06G09
   8738581.34045   6856822.48443  24385539.8914                   24385543.9064
        35.0004         23.0004
 -11587832.01647  -8986819.85546  22819229.5634                   22819229.0514
        46.2504         39.5004
   6215225.34047   4881862.41846  22194702.8984                   22194705.5124
        44.0004         41.0004
 -11492370.35247  -8912151.80946  20391533.0004                   20391531.9884
        47.0004         39.0004
 -19168239.99247 -14855432.41445  20970713.3674                   20970711.1994
        47.0004         35.7504
   4134898.31646   3259074.66044  23564009.9924                   23564013.0274
        38.5004         29.7504
  11820740.64145   9268948.40243  24909887.1884                   24909894.9694
        32.7504         22.5004
  11852430.43046   9275513.80545  25406970.2034                   25406976.5084
        38.7504         30.5004
  -4400637.05146  -3399625.57044  25058785.6564                   25058791.0084
        36.7504         28.7504
 -24522105.96148 -19036614.60948  20930428.1884                   20930428.5944
        48.0004         49.0004
 25  8  6  1 54  0.0000000  0 10G27G07G03G04G16G26G08G30G06G09
   8604856.66846   6752621.61744  24360092.5784                   24360097.5084
        36.5004         26.0004
 -11696053.78947  -9071148.46946  22798635.5234                   22798634.6804
        46.0004         39.2504
   6260738.47747   4917327.14146  22203364.1094                   22203366.6914
        44.5004         40.7504
 -11540257.08647  -8949466.14146  20382420.2424                   20382419.1524
        47.0004         38.5004
 -19195682.61348 -14876816.26245  20965491.1484                   20965488.9144
        48.0004         35.0004
   4176094.35946   3291175.43845  23571849.7194                   23571852.0514
        39.0004         31.0004
  11676747.61745   9156746.37144  24882486.5084                   24882494.4964
        34.2504         26.0004
  11716271.16846   9169416.04744  25381059.4924                   25381066.5234
        39.0004         29.7504
  -4405819.36745  -3403663.83644  25057798.5084                   25057804.7974
        35.0004         28.0004
 -24633518.02048 -19123429.16448  20909226.9924                   20909226.9264
        48.7504         48.7504
 25  8  6  1 54 30.0000000  0 10G27G07G03G04G16G26G08G30G06G09
   8471337.75046   6648581.06344  24334685.3914                   24334689.2194
        37.7504         27.7504
 -11804049.69947  -9155301.05146  22778084.4924                   22778083.7734
        46.0004         39.5004
   6306576.63347   4953045.12946  22212086.5944                   22212089.2664
        43.7504         40.7504
 -11587770.60247  -8986489.65646  20373378.1884                   20373377.8164
        46.7504         38.5004
 -19222434.82447 -14897662.14145  20960400.3364                   20960398.2894
        47.0004         35.5004
   4217611.75046   3323526.60945  23579750.6334                   23579753.4534
        40.0004         31.7504
  11532700.67645   9044502.33644  24855075.2894                   24855082.9224
        33.0004         26.0004
  11580242.91046   9063420.30945  25355174.4694                   25355181.3674
        37.7504         30.0004
  -4410633.08645  -3407414.86744  25056883.1254                   25056888.4654
        35.7504         26.7504
 -24744653.41447 -19210028.13348  20888078.6884                   20888078.8524
        47.7504         49.0004
 25  8  6  1 55  0.0000000  0 10G27G07G03G04G16G26G08G30G06G09
   8338030.73046   6544705.67644  24309317.6334                   24309321.6644
        39.0004         29.7504
 -11911817.27347  -9239275.72746  22757576.6334                   22757576.6334
        46.5004         39.7504
   6352739.93447   4989016.45746  22220871.2894                   22220873.8914
        45.0004         40.5004
 -11634907.07047  -9023219.36346  20364408.7664                   20364408.1954
        47.0004         38.2504
 -19248494.80547 -14917968.60945  20955441.0004                   20955438.7074
        47.0004         35.2504
   4259450.77046   3356128.40645  23587711.3204                   23587714.4534
        39.0004         31.5004
  11388605.33645   8932220.60944  24827654.0784                   24827661.8364
        34.7504         26.7504
  11444348.94146   8957529.25044  25329314.0784                   25329321.1054
        37.5004         29.5004
  -4415078.00846  -3410878.50044  25056037.4844                   25056042.6054
        36.0004         28.0004
 -24855507.53948 -19296407.93448  20866983.5944                   20866983.6564
        48.0004         48.7504
 25  8  6  1 55 30.0000000  0 10G27G07G03G04G16G26G08G30G06G09
   8204939.16846   6440998.14145  24283990.9534                   24283995.0944
        38.5004         31.0004
 -12019356.90247  -9323072.78546  22737112.6254                   22737111.5434
        46.0004         40.0004
   6399225.62147   5025239.00446  22229716.9924                   22229719.5274
        44.0004         41.0004
 -11681665.60547  -9059654.57846  20355510.8594                   20355509.8554
        47.0004         38.2504
 -19273864.10547 -14937736.88345  20950613.6884                   20950611.3634
        47.0004         35.0004
   4301608.47746   3388978.51245  23595733.8444                   23595737.2464
        39.2504         32.5004
  11244464.62546   8819903.52744  24800224.1804                   24800232.7424
        36.0004         26.2504
  11308589.44146   8851742.95744  25303480.1174                   25303485.8324
        37.5004         27.2504
  -4419156.77046  -3414056.82844  25055261.3594                   25055267.3714
        36.7504         29.7504
 -24966078.75448 -19382567.28148  20845942.7814                   20845943.0124
        48.5004         49.0004
 25  8  6  1 56  0.0000000  0 10G27G07G03G04G16G26G08G30G06G09
   8072066.36346   6337461.09045  24258705.4384                   24258710.1174
        38.7504         32.5004
 -12126668.43047  -9406692.10246  22716692.1724                   22716691.6644
        46.0004         40.5004
   6446030.99247   5061710.65646  22238623.7974                   22238627.0434
        44.2504         40.7504
 -11728045.16847  -9095794.48846  20346685.0634                   20346684.3324
        47.2504         38.5004
 -19298543.59447 -14956967.64545  20945917.4614                   20945914.7704
        47.5004         35.0004
   4344082.25846   3422074.91445  23603817.2114                   23603819.0984
        40.0004         34.5004
  11100281.41046   8707553.26244  24772786.8754                   24772795.0864
        36.7504         25.2504
  11172964.89545   8746061.82444  25277671.3984                   25277677.7194
        35.0004         26.5004
  -4422871.92646  -3416951.81244  25054554.1724                   25054559.9064
        36.0004         29.5004
 -25076365.15248 -19468504.69548  20824956.1884                   20824955.9184
        48.7504         49.0004
 25  8  6  1 56 30.0000000  0 10G27G07G03G04G16G26G08G30G06G09
   7939415.69146   6234097.13345  24233463.1094                   24233467.5904
        37.2504         32.0004
 -12233752.74647  -9490134.36746  22696314.4064                   22696314.0124
        44.2504         40.0004
   6493153.24647   5098429.22346  22247591.2584                   22247593.7894
        44.2504         40.5004
 -11774044.82047  -9131638.36346  20337932.0394                   20337930.9104
        47.5004         38.2504
 -19322534.59447 -14975661.92645  20941352.1804                   20941349.5234
        47.7504         35.7504
   4386869.36346   3455415.48845  23611959.3754                   23611961.7234
        40.7504         34.5004
  10956058.48846   8595172.04744  24745341.7734                   24745349.7664
        36.2504         24.5004
  11037475.46145   8640485.97744  25251888.1804                   25251894.6174
        34.5004         24.5004
  -4426226.13346  -3419565.53944  25053916.7504                   25053921.5904
        36.2504         28.0004
 -25186365.04347 -19554218.85248  20804023.4304                   20804023.5474
        47.5004         49.0004
 25  8  6  1 57  0.0000000  0 10G27G07G03G04G16G26G08G30G06G09
   7806990.34046   6130908.76645  24208262.9384                   24208268.0664
        37.7504         32.5004
 -12340610.09047  -9573399.78546  22675980.3674                   22675979.5354
        44.2504         40.2504
   6540589.47747   5135392.45746  22256617.7344                   22256620.7504
        44.2504         39.5004
 -11819663.80547  -9167185.61346  20329250.6724                   20329249.9344
        47.2504         38.7504
 -19345838.77347 -14993821.02045  20936917.2584                   20936915.1724
        47.5004         35.7504
   4429966.89546   3488997.93845  23620160.6414                   23620163.2114
        41.5004         34.7504
  10811798.66446   8482762.09444  24717890.6334                   24717898.3204
        38.0004         24.5004
  10902121.23045   8535015.40643  25226130.6564                   25226137.0474
        33.2504         22.7504
  -4429222.23445  -3421900.19944  25053346.4224                   25053351.4064
        35.7504         27.7504
 -25296076.80947 -19639708.50048  20783146.2424                   20783146.7304
        47.0004         49.0004
 25  8  6  1 57 30.0000000  0 10G27G07G03G04G16G26G08G30G06G09
   7674794.75846   6027899.43445  24183107.2894                   24183111.7234
        37.5004         33.0004
 -12447239.39847  -9656487.50846  22655689.5554                   22655688.5164
        46.5004         40.2504
   6588337.81647   5172598.87146  22265704.4694                   22265707.3524
        45.0004         40.0004
 -11864900.27347  -9202434.79746  20320642.4454                   20320641.7584
        46.5004         38.5004
 -19368456.35947 -15011445.10245  20932613.4064                   20932611.0554
        45.5004         35.5004
   4473373.10546   3522820.93845  23628420.4844                   23628422.8754
        40.7504         35.5004
  10667505.65246   8370326.25044  24690432.6024                   24690439.2194
        37.2504         24.0004
  10766903.47745   8429651.26243  25200399.2974                   25200406.0944
        34.2504         22.5004
  -4431861.94546  -3423957.13344  25052843.8364                   25052849.7274
        36.2504         27.5004
 -25405497.75448 -19724971.53948  20762323.7424                   20762324.1524
        48.0004         49.2504
 25  8  6  1 58  0.0000000  0 10G27G07G03G04G16G26G08G30G06G09
   7542832.83646   5925072.18445  24157995.6724                   24158000.5634
        38.0004         34.2504
 -12553640.52047  -9739397.42646  22635442.1254                   22635441.0044
        44.5004         39.5004
   6636396.19547   5210046.87546  22274849.4144                   22274852.1764
        44.0004         39.5004
 -11909752.60547  -9237384.66446  20312107.3524                   20312106.5864
        47.2504         38.2504
 -19390388.12947 -15028534.78546  20928439.7894                   20928437.4064
        46.0004         36.0004
   4517085.85946   3556882.78145  23636738.6414                   23636741.1564
        40.5004         34.7504
  10523183.08246   8257867.28943  24662968.3134                   24662975.1374
        37.2504         22.2504
  10631823.18445   8324394.13743  25174694.5864                   25174700.4344
        32.2504         19.5004
  -4434147.22745  -3425737.93744  25052408.0944                   25052414.6334
        35.5004         28.0004
 -25514625.50847 -19810006.11748  20741557.6094                   20741557.9224
        47.5004         49.2504
 25  8  6  1 58 30.0000000  0 10G27G07G03G04G16G26G08G30G06G09
   7411108.39146   5822429.93845  24132928.7894                   24132933.2344
        38.7504         35.0004
 -12659813.76247  -9822129.76646  22615238.2194                   22615237.1524
        46.2504         40.5004
   6684762.08247   5247734.49646  22284053.7504                   22284056.2504
        44.5004         39.5004
 -11954219.60547  -9272034.27346  20303645.7584                   20303644.9384
        47.7504         39.0004
 -19411635.37547 -15045091.07045  20924396.3594                   20924394.2934
        46.7504         35.0004
   4561102.72346   3591181.59445  23645114.2734                   23645117.2424
        40.5004         34.0004
  10378834.08245   8145387.85944  24635498.3834                   24635506.6914
        35.5004         24.5004
  10496880.89845   8219244.56643  25149014.7194                   25149020.7624
        34.0004         20.7504
  -4436080.54746  -3427244.47345  25052041.9144                   25052047.0944
        37.2504         30.0004
 -25623457.93748 -19894810.57448  20720847.3444                   20720847.7114
        48.0004         49.2504
 25  8  6  1 59  0.0000000  0 10G27G07G03G04G16G26G08G30G06G09
   7279625.46946   5719975.90646  24107908.1954                   24107913.0434
        40.7504         36.7504
 -12765758.06647  -9904683.73046  22595077.0474                   22595076.4454
        46.2504         40.2504
   6733433.45347   5285660.16446  22293315.2034                   22293318.0124
        44.0004         39.7504
 -11998299.58247  -9306382.30546  20295257.7664                   20295256.8594
        47.5004         38.7504
 -19432198.53147 -15061114.30545  20920483.5314                   20920481.4884
        46.5004         35.2504
   4605421.72746   3625715.84845  23653547.5474                   23653550.9224
        39.0004         33.2504
  10234462.30546   8032890.73445  24608026.5004                   24608033.8444
        38.7504         30.5004
  10362077.57445   8114203.26643  25123362.5944                   25123368.1134
        35.0004         22.0004
  -4437663.80146  -3428478.20744  25051740.1804                   25051745.0904
        36.7504         29.2504
 -25731992.54748 -19979382.96948  20700193.8524                   20700194.1484
        48.5004         49.2504
 25  8  6  1 59 30.0000000  0 10G27G07G03G04G16G26G08G30G06G09
   7148385.75046   5617711.38345  24082934.5554                   24082938.7814
        41.7504         35.5004
 -12871476.00047  -9987061.28146  22574960.2814                   22574959.3404
        45.5004         40.2504
   6782405.70347   5323820.28146  22302634.2584                   22302637.1604
        44.7504         40.0004
 -12041993.44547  -9340429.46946  20286942.5084                   20286942.1134
        46.5004         38.5004
 -19452080.85247 -15076607.01245  20916699.7814                   20916697.2934
        47.5004         34.5004
   4650038.33246   3660481.98845  23662038.2894                   23662041.4414
        40.0004         33.7504
  10090069.01646   7920376.77745  24580548.0234                   24580556.0634
        39.5004         30.2504
  10227411.80946   8009269.09844  25097736.4384                   25097741.4774
        37.0004         24.0004
  -4438901.44546  -3429442.63344  25051505.0784                   25051509.8874
        38.0004         29.7504
 -25840229.38348 -20063723.32848  20679596.9384                   20679597.4104
        48.2504         49.2504
 25  8  6  2  0  0.0000000  0 10G27G07G03G04G16G26G08G30G06G09
   7017397.06346   5515642.40645  24058007.8984                   24058011.4264
        40.7504         32.7504
 -12976963.05547 -10069258.91846  22554886.1024                   22554885.3284
        45.7504         40.5004
   6831680.63747   5362216.25446  22312011.1334                   22312013.4964
        44.7504         39.7504
 -12085295.71947  -9374171.50446  20278702.5314                   20278701.9804
        47.2504         38.0004
 -19471279.35547 -15091566.87545  20913046.5864                   20913044.7344
        47.0004         35.2504
   4694954.37546   3695481.46545  23670585.4844                   23670588.4264
        39.2504         33.5004
   9945661.57846   7807851.73844  24553068.8204                   24553076.4384
        39.0004         29.5004
  10092888.34046   7904445.81644  25072137.1334                   25072142.7274
        36.5004         26.2504
  -4439791.68446  -3430136.34045  25051335.3834                   25051340.4104
        39.0004         30.0004
 -25948162.04748 -20147826.68048  20659058.0704                   20659058.5234
        49.2504         49.2504
 25  8  6  2  0 30.0000000  0 10G27G07G03G04G16G26G08G30G06G09
   6886660.51646   5413769.92246  24033129.5474                   24033133.3874
        41.7504         36.7504
 -13082221.96947 -10151278.77746  22534856.2974                   22534855.2274
        46.0004         41.0004
   6881253.04347   5400844.02346  22321444.5704                   22321447.5984
        44.2504         39.7504
 -12128207.92647  -9407609.58246  20270537.3284                   20270535.8484
        47.0004         38.0004
 -19489797.94147 -15105996.94145  20909522.5634                   20909520.2934
        46.7504         35.0004
   4740164.79346   3730710.32045  23679189.0864                   23679192.0744
        37.5004         31.5004
   9801240.52746   7695316.10244  24525585.8204                   24525592.4414
        37.5004         25.5004
   9958505.08246   7799731.80144  25046564.7664                   25046570.2734
        37.5004         28.0004
  -4440339.66846  -3430563.39144  25051230.7734                   25051236.1024
        37.7504         29.7504
 -26055791.21148 -20231693.52748  20638577.3204                   20638577.5234
        49.5004         49.5004
 25  8  6  2  1  0.0000000  0 10G27G07G03G04G16G26G08G30G06G09
   6756179.34446   5312096.50045  24008299.0864                   24008303.4734
        40.5004         33.0004
 -13187253.10947 -10233121.16046  22514869.8054                   22514868.2624
        45.0004         40.5004
   6931120.05147   5439701.34446  22330933.9224                   22330936.6644
        44.0004         39.5004
 -12170729.19947  -9440743.05146  20262445.1024                   20262444.6604
        47.7504         38.5004
 -19507638.00847 -15119898.29345  20906127.7034                   20906125.9344
        47.0004         34.7504
   4785666.71146   3766166.30145  23687847.4064                   23687850.8984
        37.0004         30.5004
   9656808.80546   7582772.19144  24498101.5634                   24498108.7774
        37.0004         26.7504
   9824262.22346   7695127.24245  25021019.2344                   25021024.9184
        36.5004         30.0004
  -4440548.08646  -3430725.84444  25051191.5704                   25051196.7424
        36.2504         28.5004
 -26163115.13348 -20315322.53948  20618154.2664                   20618154.2734
        49.0004         49.5004
 25  8  6  2  1 30.0000000  0 10G27G07G03G04G16G26G08G30G06G09
   6625956.77746   5210624.48445  23983518.5084                   23983522.9104
        41.0004         33.0004
 -13292056.39147 -10314785.98446  22494926.0314                   22494925.2384
        45.0004         41.0004
   6981278.66847   5478785.89546  22340479.0394                   22340481.7774
        44.2504         39.0004
 -12212858.85548  -9473571.36346  20254428.4064                   20254427.8754
        48.0004         38.5004
 -19524801.45347 -15133272.41045  20902862.1954                   20902859.6564
        47.0004         34.5004
   4831457.32045   3801847.21944  23696561.4614                   23696565.0004
        35.7504         29.5004
   9512369.05145   7470222.03144  24470614.9694                   24470622.3914
        35.5004         25.5004
   9690159.74645   7590632.05544  24995499.4384                   24995505.9614
        35.7504         29.7504
  -4440419.92646  -3430626.03144  25051215.9774                   25051220.2774
        37.0004         26.7504
 -26270132.21948 -20398712.45348  20597789.1174                   20597789.5204
        49.5004         49.5004
 25  8  6  2  2  0.0000000  0 10G27G07G03G04G16G26G08G30G06G09
   6495999.58646   5109359.37945  23958788.7344                   23958792.7894
        39.7504         32.5004
 -13396629.67247 -10396271.57046  22475025.9774                   22475025.1684
        46.2504         40.5004
   7031729.55147   5518098.19146  22350079.3054                   22350082.3444
        43.0004         39.2504
 -12254592.57847  -9506091.14846  20246486.6094                   20246485.8324
        47.0004         38.2504
 -19541286.32047 -15146117.75845  20899724.8204                   20899722.3874
        47.2504         34.5004
   4877537.26645   3837753.61744  23705329.2664                   23705333.2274
        35.0004         26.7504
   9367927.80546   7357670.68044  24443129.5704                   24443135.4224
        39.5004         26.0004
   9556201.42646   7486249.22345  24970008.1724                   24970014.1484
        37.5004         31.0004
  -4439954.51646  -3430263.44144  25051304.9774                   25051309.3634
        36.5004         26.7504
 -26376837.24248 -20481859.19948  20577483.9144                   20577484.0664
        50.0004         49.5004
 25  8  6  2  2 30.0000000  0 10G27G07G03G04G16G26G08G30G06G09
   6366312.84846   5008304.95745  23934109.5784                   23934113.8674
        38.7504         32.2504
 -13500971.35947 -10477576.70746  22455170.1564                   22455169.4024
        45.7504         40.7504
   7082471.50047   5557637.28946  22359735.0864                   22359738.1484
        43.5004         39.2504
 -12295927.85247  -9538300.45746  20238621.0164                   20238619.5394
        47.5004         38.2504
 -19557092.81247 -15158434.51245  20896716.8134                   20896714.7384
        47.0004         34.7504
   4923905.52745   3873884.67244  23714153.2974                   23714156.8834
        35.5004         28.0004
   9223489.77046   7245121.70744  24415643.5474                   24415649.9844
        39.5004         29.7504
   9422389.14546   7381980.16445  24944545.0554                   24944550.4344
        36.2504         32.0004
  -4439152.85245  -3429638.85943  25051456.3984                   25051461.9494
        34.7504         22.0004
 -26483226.74648 -20564760.08648  20557238.8054                   20557238.9454
        50.0004         49.5004
 25  8  6  2  3  0.0000000  0 10G27G07G03G04G16G26G08G30G06G09
   6236899.79746   4907463.86345  23909482.4924                   23909487.4264
        39.2504         32.5004
 -13605081.61747 -10558701.49246  22435358.7974                   22435357.8874
        45.7504         40.7504
   7133501.67247   5597400.98046  22369446.2584                   22369448.7584
        43.0004         39.0004
 -12336863.82847  -9570198.61746  20230830.9454                   20230829.9924
        47.0004         38.5004
 -19572222.17247 -15170223.62545  20893837.8984                   20893835.4804
        46.7504         34.7504
   4970559.36346   3910238.23444  23723032.0864                   23723034.3484
        37.0004         28.2504
   9079057.72746   7132577.55145  24388158.5474                   24388165.1054
        37.7504         31.0004
   9288722.99645   7277824.98445  24919108.4924                   24919114.7344
        35.7504         30.2504
  -4438017.83245  -3428754.46943  25051671.9534                   25051677.1764
        32.5004         21.5004
 -26589298.98048 -20647413.75448  20537053.9614                   20537054.3094
        49.0004         49.5004
 25  8  6  2  3 30.0000000  0 10G27G07G03G04G16G26G08G30G06G09
   6107762.87946   4806837.86745  23884909.1174                   23884912.7624
        40.7504         32.0004
 -13708961.77747 -10639646.98046  22415590.6564                   22415589.7854
        46.2504         41.0004
   7184816.15247   5637386.20746  22379211.2114                   22379214.2934
        43.7504         39.5004
 -12377400.69547  -9601785.78546  20223116.9384                   20223116.0864
        47.5004         38.5004
 -19586677.47747 -15181487.50445  20891087.2114                   20891085.0784
        46.5004         34.7504
   5017494.88346   3946811.30544  23731963.7344                   23731965.9614
        36.7504         28.5004
   8934633.57046   7020039.58245  24360674.8674                   24360682.1254
        39.0004         31.2504
   9155202.19545   7173783.08644  24893699.3364                   24893705.9384
        35.2504         29.0004
  -4436553.21145  -3427613.25443  25051951.8594                   25051955.7544
        33.5004         20.7504
 -26695053.22748 -20729819.62948  20516929.6884                   20516929.4884
        48.7504         49.5004
 25  8  6  2  4  0.0000000  0 10G27G07G03G04G16G26G08G30G06G09
   5978902.66446   4706427.47345  23860388.5084                   23860391.3094
        41.5004         32.7504
 -13812614.98447 -10720415.62946  22395866.4614                   22395865.0864
        44.5004         40.7504
   7236409.39147   5677588.64846  22389029.3674                   22389031.8404
        43.2504         39.0004
 -12417540.41847  -9633063.49246  20215478.6804                   20215477.7424
        47.0004         38.5004
 -19600463.34047 -15192229.73445  20888463.6884                   20888461.8984
        46.2504         34.2504
   5064706.71546   3983599.69545  23740947.8984                   23740950.6564
        38.0004         30.7504
   8790217.72746   6907508.01245  24333193.5474                   24333200.4694
        38.0004         30.2504
   9021824.21945   7069852.46144  24868319.5234                   24868324.9964
        33.0004         27.5004
  -4434764.64545  -3426219.68043  25052291.5784                   25052296.7384
        33.7504         20.7504
 -26800490.45747 -20811978.48848  20496865.2664                   20496865.3284
        47.2504         49.5004
 25  8  6  2  4 30.0000000  0 10G27G07G03G04G16G26G08G30G06G09
   5850326.57446   4606238.47745  23835920.8754                   23835924.3404
        39.0004         31.5004
 -13916037.36747 -10801004.41046  22376185.8524                   22376184.9534
        44.7504         41.5004
   7288282.59047   5718009.23446  22398900.5784                   22398902.9924
        44.5004         39.0004
 -12457278.06247  -9664027.88346  20207916.8284                   20207915.9224
        47.2504         39.0004
 -19613576.96947 -15202448.16045  20885968.3834                   20885966.2974
        46.5004         35.5004
   5112196.18446   4020604.41445  23749984.2974                   23749987.7234
        38.0004         30.7504
   8645816.98046   6794988.25845  24305715.2814                   24305721.9964
        38.0004         31.5004
   8888593.26245   6966036.42244  24842966.0164                   24842971.6374
        34.5004         28.0004
  -4432650.71945  -3424572.54743  25052694.2194                   25052699.5354
        31.0004         20.2504
 -26905604.82047 -20893885.75448  20476862.6414                   20476863.0004
        47.2504         49.5004
 25  8  6  2  5  0.0000000  0 10G27G07G03G04G16G26G08G30G06G09
   5722037.55146   4506273.13345  23811508.3364                   23811510.9844
        41.0004         30.5004
 -14019229.73447 -10881413.96546  22356549.0084                   22356548.0124
        47.2504         41.5004
   7340432.57847   5758645.51646  22408824.0164                   22408827.1844
        44.0004         39.5004
 -12496613.17647  -9694678.60546  20200432.0944                   20200430.8834
        47.5004         38.0004
 -19626020.56247 -15212144.47345  20883600.3204                   20883598.3714
        46.5004         34.5004
   5159960.26646   4057823.14145  23759073.5704                   23759076.8134
        39.5004         31.5004
   8501434.15646   6682482.45744  24278239.1484                   24278245.9064
        38.2504         29.5004
   8755509.30546   6862334.87944  24817640.2114                   24817646.4654
        36.0004         28.5004
  -4430214.61745  -3422674.31243  25053156.5394                   25053163.7814
        31.0004         21.5004
 -27010394.82448 -20975540.27748  20456922.0554                   20456921.7384
        49.0004         49.7504
 25  8  6  2  5 30.0000000  0 10G27G07G03G04G16G26G08G30G06G09
   5594040.97745   4406535.64543  23787149.6484                   23787153.5554
        35.5004         23.2504
 -14122190.54347 -10961643.07446  22336956.1334                   22336955.4144
        46.5004         41.7504
   7392858.54747   5799496.83246  22418800.2664                   22418803.5004
        44.0004         39.5004
 -12535542.90647  -9725013.45746  20193023.6174                   20193022.7194
        47.5004         38.5004
 -19637793.90247 -15221318.51245  20881360.3984                   20881357.6684
        46.2504         34.7504
   5207998.24246   4095255.28945  23768215.3834                   23768218.3134
        39.2504         30.2504
   8357074.28946   6569994.49644  24250768.1564                   24250774.8014
        37.2504         27.0004
   8622574.50445   6758749.55144  24792343.3284                   24792349.0004
        35.7504         27.2504
  -4427457.15645  -3420525.71944  25053682.5554                   25053688.6094
        34.0004         25.0004
 -27114856.73048 -21056939.14548  20437043.5394                   20437043.3094
        49.2504         49.7504
 25  8  6  2  6  0.0000000  0 10G27G07G03G04G16G26G08G30G06G09
   5466337.91445   4307026.93044  23762848.0474                   23762853.3014
        35.0004         26.5004
 -14224922.36747 -11041693.75046  22317406.9844                   22317405.7854
        46.2504         41.5004
   7445555.24247   5840559.10246  22428828.4924                   22428831.4414
        43.5004         39.0004
 -12574068.78147  -9755033.61746  20185692.3444                   20185691.4104
        47.5004         38.0004
 -19648901.15647 -15229973.52045  20879246.8134                   20879244.2664
        45.2504         35.0004
   5256305.05546   4132896.91444  23777407.6644                   23777410.9304
        38.5004         29.5004
   8212737.94146   6457524.85544  24223301.4304                   24223308.2464
        37.7504         27.7504
   8489786.68046   6655278.72344  24767074.7424                   24767079.6524
        38.2504         27.0004
  -4424383.53945  -3418130.70344  25054267.7504                   25054272.9574
        34.5004         24.0004
 -27218991.03148 -21138082.72348  20417227.4064                   20417227.3914
        48.7504         49.7504
 25  8  6  2  6 30.0000000  0 10G27G07G03G04G16G26G08G30G06G09
   6914356.13746   5435352.93044  24038398.4064                   24038400.7734
        38.5004         27.7504
 -12752001.62547  -9893963.22346  22597694.1564                   22597692.9654
        47.5004         41.5004
   9073938.24247   7109428.88746  22738699.2664                   22738702.7424
        43.2504         38.7504
 -11036768.56247  -8557137.34846  20478230.8054                   20478229.8914
        46.7504         38.5004
 -18083923.57847 -14010510.47345  21177051.6484                   21177049.8834
        45.7504         34.7504
   6880296.57046   5398344.82044  24086442.6174                   24086445.8284
        38.2504         29.7504
   9643853.17245   7572679.89544  24495633.4304                   24495640.1724
        35.0004         28.0004
   9932570.64846   7779526.18044  25041627.3834                   25041632.7034
        39.0004         28.5004
  -2845576.50045  -2187891.55944  25354704.2734                   25354710.7344
        35.0004         26.0004
 -25747372.35548 -19991366.85248  20697266.7504                   20697267.1174
        49.2504         50.0004
 25  8  6  2  7  0.0000000  0 10G27G07G03G04G16G26G08G30G06G09
   6787250.01246   5336309.34845  24014209.5164                   24014214.3324
        37.5004         31.0004
 -12854276.57847  -9973657.90246  22578232.1884                   22578230.6604
        45.5004         41.7504
   9127167.84847   7150906.41046  22748828.5784                   22748831.4694
        43.2504         38.2504
 -11074484.39848  -8586526.30546  20471053.6024                   20471053.1844
        48.0004         38.0004
 -18093704.09447 -14018131.66445  21175190.5474                   21175188.4614
        46.5004         34.2504
   6929132.93446   5436399.07744  24095736.4304                   24095739.3284
        38.0004         29.5004
   9499572.86746   7460254.00444  24468177.4694                   24468184.0474
        38.5004         28.7504
   9800077.37146   7676284.82044  25016414.9534                   25016420.0634
        40.5004         28.7504
  -2841879.00046  -2185010.46944  25355408.5944                   25355414.3834
        36.5004         28.2504
 -25850846.17248 -20071995.76648  20677576.4224                   20677576.9144
        48.0004         50.2504
 25  8  6  2  7 30.0000000  0 10G27G07G03G04G16G26G08G30G06G09
   6660447.80546   5237502.61745  23990080.3914                   23990084.6954
        38.5004         31.5004
 -12956323.33647 -10053174.78546  22558812.9694                   22558811.7934
        46.0004         41.2504
   9180660.01247   7192588.52046  22759008.3444                   22759011.0314
        43.7504         38.0004
 -11111793.62148  -8615598.42646  20463953.5634                   20463953.4494
        48.0004         38.0004
 -18102823.76247 -14025237.89845  21173455.0084                   21173452.7464
        46.5004         34.2504
   6978230.32446   5474656.74245  24105079.4844                   24105082.3134
        39.0004         31.0004
   9355325.69146   7347853.85944  24440729.1484                   24440735.1724
        39.0004         29.5004
   9667731.98046   7573158.67644  24991230.0084                   24991235.0004
        40.0004         28.5004
  -2837873.46945  -2181889.32444  25356170.8134                   25356176.2734
        35.5004         29.5004
 -25953986.69548 -20152364.98448  20657949.4064                   20657949.9734
        48.5004         50.0004
 25  8  6  2  8  0.0000000  0 10G27G07G03G04G16G26G08G30G06G09
   6533952.02746   5138934.59045  23966009.1254                   23966012.8834
        39.7504         33.5004
 -13058142.82047 -10132514.57046  22539437.3204                   22539436.1764
        47.0004         41.2504
   9234411.06347   7234472.36346  22769237.4694                   22769239.3204
        43.2504         38.2504
 -11148696.26247  -8644353.72746  20456931.5084                   20456930.8634
        47.0004         38.0004
 -18111285.27347 -14031831.28545  21171845.0474                   21171842.5084
        45.7504         34.5004
   7027585.33646   5513115.14145  24114471.4384                   24114474.8794
        38.2504         32.7504
   9211113.62546   7235481.09444  24413285.6644                   24413291.6604
        37.0004         26.5004
   9535533.89146   7470147.32445  24966073.1644                   24966079.0124
        39.0004         30.0004
  -2833563.51646  -2178530.98444  25356991.2114                   25356995.5314
        37.2504         28.5004
 -26056792.92248 -20232473.70748  20638386.0474                   20638386.2504
        49.5004         50.0004
 25  8  6  2  8 30.0000000  0 10G27G07G03G04G16G26G08G30G06G09
   6407768.77746   5040610.14145  23941996.8444                   23942000.3054
        39.5004         33.5004
 -13159732.89847 -10211675.60546  22520105.1484                   22520103.5704
        47.5004         41.5004
   9288420.81647   7276557.79346  22779514.4614                   22779517.4104
        42.2504         36.7504
 -11185188.88347  -8672789.52746  20449987.4144                   20449986.8714
        47.7504         38.0004
 -18119087.69547 -14037911.10245  21170360.0704                   21170357.6994
        46.5004         34.0004
   7077197.96946   5551774.28145  24123912.4454                   24123915.5084
        39.0004         32.7504
   9066942.66846   7123140.29744  24385851.3914                   24385856.9924
        37.5004         28.0004
   9403485.91046   7367252.99245  24940946.2034                   24940951.1844
        38.5004         30.5004
  -2828949.30146  -2174935.60245  25357870.4454                   25357874.6764
        38.0004         30.2504
 -26159260.35548 -20312318.43448  20618887.3444                   20618887.2464
        49.5004         50.2504
 25  8  6  2  9  0.0000000  0 10G27G07G03G04G16G26G08G30G06G09
   6281900.22346   4942530.90245  23918044.6804                   23918048.8954
        40.0004         33.5004
 -13261094.88347 -10290658.91046  22500816.6094                   22500815.3014
        47.7504         41.2504
   9342685.38347   7318841.76646  22789840.8054                   22789843.8794
        43.2504         37.2504
 -11221271.73848  -8700906.03146  20443121.2424                   20443120.3954
        48.0004         38.0004
 -18126234.14147 -14043479.76645  21169000.2274                   21168997.8364
        46.7504         34.0004
   7127064.44946   5590631.22745  24133401.3444                   24133405.2154
        38.5004         33.0004
   8922814.51245   7010832.98044  24358423.5784                   24358430.3794
        35.2504         27.0004
   9271587.19945   7264475.00044  24915844.9924                   24915851.3984
        34.0004         27.2504
  -2824034.71546  -2171106.09045  25358804.6884                   25358810.3674
        38.2504         31.5004
 -26261388.18748 -20391898.53948  20599453.2034                   20599453.3364
        50.0004         50.2504
 25  8  6  2  9 30.0000000  0  9G27G07G03G04G16G26G08G06G09
   6156350.56646   4844700.17245  23894153.0634                   23894157.3754
        39.5004         33.0004
 -13362228.53147 -10369464.29346  22481571.7194                   22481570.5554
        47.5004         41.5004
   9397202.71147   7361322.68846  22800215.4774                   22800218.6134
        43.2504         37.5004
 -11256943.24648  -8728702.00846  20436333.1254                   20436332.3594
        48.5004         38.2504
 -18132725.76647 -14048538.18045  21167765.0554                   21167762.9494
        47.2504         34.5004
   7177182.88346   5629684.51245  24142938.9614                   24142942.5984
        38.7504         32.2504
   8778733.33646   6898562.22744  24331006.6954                   24331011.4844
        39.0004         29.5004
  -2818821.84446  -2167044.19144  25359796.9924                   25359801.4414
        38.0004         29.0004
 -26363173.86748 -20471212.03148  20580083.9694                   20580083.6954
        50.0004         50.2504
 25  8  6  2 10  0.0000000  0 10G27G07G03G04G16G26G08G30G06G09
   6031123.98046   4747121.18845  23870323.8674                   23870327.6024
        39.5004         32.5004
 -13463133.17647 -10448091.23846  22462369.9144                   22462368.7584
        47.7504         41.5004
   9451970.80547   7403999.02346  22810636.8204                   22810640.5004
        43.5004         37.0004
 -11292201.82048  -8756176.23046  20429623.5944                   20429622.7894
        48.0004         37.7504
 -18138563.44148 -14053087.02345  21166654.3134                   21166651.8054
        48.0004         34.2504
   7227551.50846   5668932.76245  24152523.7424                   24152527.1294
        39.0004         30.5004
   8634702.89845   6786330.96944  24303596.1334                   24303603.3134
        35.5004         27.5004
   9008239.34055   7077042.03154  24865731.2814                   24865738.3524
        32.7504         26.5004
  -2813312.68046  -2162751.46944  25360844.9304                   25360850.6414
        36.0004         27.0004
 -26464614.71148 -20550256.82448  20560780.3754                   20560780.3484
        50.2504         50.2504
 25  8  6  2 10 30.0000000  0 10G27G07G03G04G16G26G08G30G06G09
   5906221.51246   4649794.73845  23846555.3054                   23846558.5474
        39.2504         31.5004
 -13563811.30947 -10526541.67646  22443211.6414                   22443210.3324
        47.7504         41.7504
   9506984.46547   7446866.68046  22821106.6564                   22821109.5904
        44.5004         37.2504
 -11327048.96548  -8783329.84846  20422992.3524                   20422991.5634
        48.0004         37.5004
 -18143751.62548 -14057129.75845  21165666.9144                   21165664.8054
        48.0004         34.0004
   7278165.38346   5708372.10544  24162154.8364                   24162158.0594
        37.0004         29.2504
   8490724.02746   6674139.93045  24276199.7034                   24276205.0434
        39.7504         30.5004
   8876791.27355   6974615.24254  24840718.1254                   24840723.7854
        35.7504         29.2504
  -2807512.46145  -2158231.84444  25361947.7734                   25361954.2074
        35.0004         28.7504
 -26565711.19548 -20629033.28148  20541542.1954                   20541542.1914
        50.0004         50.2504
 25  8  6  2 11  0.0000000  0 10G27G07G03G04G16G26G08G30G06G09
   5781645.40646   4552722.58645  23822849.6414                   23822852.4304
        40.7504         32.7504
 -13664264.57447 -10604816.89846  22424095.7274                   22424094.3874
        47.7504         41.5004
   9562239.84847   7489922.71946  22831621.5004                   22831624.3284
        43.7504         38.5004
 -11361485.05548  -8810163.16446  20416439.2974                   20416438.5824
        48.0004         37.7504
 -18148293.58647 -14060668.95345  21164802.2274                   21164800.7464
        47.2504         33.2504
   7329020.69546   5747999.57044  24171832.2894                   24171836.1844
        36.7504         29.0004
   8346798.86346   6561990.65644  24248810.8054                   24248816.4884
        36.5004         28.0004
   8745491.44946   6872303.91445  24815732.3284                   24815737.7934
        37.5004         30.0004
  -2801424.95346  -2153488.38744  25363107.2664                   25363112.2734
        37.0004         28.2504
 -26666462.58648 -20707540.83648  20522369.8834                   20522369.9694
        50.0004         50.2504
 25  8  6  2 11 30.0000000  0 10G27G07G03G04G16G26G08G30G06G09
   5657402.30946   4455909.93445  23799206.7424                   23799209.7464
        40.7504         33.5004
 -13764489.91448 -10682914.51646  22405023.5554                   22405022.3794
        48.0004         41.7504
   9617737.33247   7533167.38346  22842182.2584                   22842185.1884
        43.5004         37.2504
 -11395505.97348  -8836672.97346  20409965.3674                   20409964.4104
        48.0004         37.5004
 -18152188.00448 -14063703.57045  21164061.6024                   21164059.0634
        48.0004         34.0004
   7380118.18446   5787815.72744  24181556.0314                   24181560.0514
        36.0004         29.5004
   8202933.55546   6449888.15244  24221434.2194                   24221439.7814
        37.2504         28.5004
   8614343.31346   6770110.79745  24790775.7734                   24790781.4534
        38.2504         30.2504
  -2795049.87545  -2148520.89844  25364320.0634                   25364325.2814
        35.5004         26.2504
 -26766863.71548 -20785775.44948  20503264.1954                   20503263.9454
        50.2504         50.5004
 25  8  6  2 12  0.0000000  0 10G27G07G03G04G16G26G08G30G06G09
   5533496.89146   4359360.39545  23775628.2584                   23775631.3794
        40.7504         34.7504
 -13864486.40648 -10760833.81647  22385994.9774                   22385993.7734
        48.5004         42.5004
   9673475.59447   7576599.67646  22852788.2504                   22852792.2774
        42.7504         37.7504
 -11429109.60248  -8862857.62146  20403570.6884                   20403569.9494
        48.0004         37.5004
 -18155435.34447 -14066233.96545  21163443.5554                   21163441.3554
        47.5004         34.5004
   7431456.65246   5827819.68044  24191325.6644                   24191328.9734
        37.0004         29.7504
   8059132.84846   6337835.91444  24194069.1644                   24194074.8484
        37.0004         28.5004
   8483348.44146   6668037.09044  24765848.4304                   24765852.9534
        39.0004         26.7504
  -2788388.53946  -2143330.32044  25365588.0084                   25365593.3204
        36.5004         27.5004
 -26866911.36348 -20863734.62548  20484225.4454                   20484225.4454
        50.2504         50.5004
 25  8  6  2 12 30.0000000  0 10G27G07G03G04G16G26G08G30G06G09
   5409933.35446   4263077.23845  23752114.5784                   23752118.4144
        41.2504         35.0004
 -13964253.61347 -10838574.46946  22367009.8984                   22367008.3524
        47.5004         41.7504
   9729452.41047   7620217.86746  22863440.4924                   22863443.8834
        42.2504         38.0004
 -11462294.41447  -8888715.92246  20397255.8754                   20397255.1804
        47.5004         37.7504
 -18158036.88347 -14068261.14545  21162948.5704                   21162946.2664
        47.5004         33.7504
   7483034.05546   5868009.82045  24201140.9144                   24201143.8324
        37.5004         30.7504
   7915400.54346   6225836.99245  24166717.7504                   24166723.5474
        38.0004         31.2504
   8352507.80946   6566083.53943  24740949.7894                   24740953.9614
        37.0004         22.5004
  -2781443.16845  -2137918.41844  25366909.3524                   25366915.2234
        35.7504         24.5004
 -26966602.97748 -20941416.37548  20465254.8594                   20465255.0274
        50.2504         50.2504
 25  8  6  2 13  0.0000000  0 10G27G07G03G04G16G26G08G30G06G09
   5286711.96546   4167060.69145  23728666.2034                   23728669.2664
        40.0004         34.2504
 -14063794.99247 -10916139.13746  22348067.4844                   22348066.2734
        47.5004         41.5004
   9785662.10546   7664017.50846  22874137.0634                   22874140.5784
        41.7504         36.5004
 -11495062.65247  -8914249.61746  20391020.2814                   20391019.6604
        47.5004         37.5004
 -18159997.62947 -14069789.00045  21162575.2814                   21162572.9024
        46.2504         34.0004
   7534845.00046   5908381.93445  24211000.0704                   24211003.5164
        37.5004         30.0004
   7771736.87546   6113891.56345  24139379.7114                   24139385.0864
        38.2504         31.2504
   8221818.46945   6464247.77343  24716079.7814                   24716082.5004
        35.0004         20.5004
  -2774219.60245  -2132289.75844  25368283.6644                   25368290.7854
        35.7504         26.5004
 -27065939.60948 -21018821.50848  20446351.8134                   20446351.5124
        50.0004         50.5004
 25  8  6  2 13 30.0000000  0 10G27G07G03G04G16G26G08G30G06G09
   5163834.94946   4071312.48845  23705283.0784                   23705287.4224
        38.7504         34.0004
 -14163111.94547 -10993528.93046  22329168.2974                   22329166.8984
        47.5004         41.7504
   9842100.59046   7707995.43846  22884877.2584                   22884880.5704
        41.5004         36.7504
 -11527414.78947  -8939459.07846  20384864.1024                   20384863.0354
        47.7504         37.7504
 -18161320.94947 -14070820.15245  21162323.6724                   21162321.2664
        47.0004         34.5004
   7586885.64146   5948933.02344  24220903.1094                   24220906.0314
        37.7504         29.7504
   7628143.77346   6002001.09444  24112054.2194                   24112061.0004
        36.7504         29.0004
   8091279.50445   6362529.32443  24691238.5554                   24691243.3594
        35.5004         23.0004
  -2766721.78546  -2126447.32044  25369711.2894                   25369717.5124
        36.5004         27.5004
 -27164920.62948 -21095949.54748  20427516.3204                   20427516.6174
        50.0004         50.5004
 25  8  6  2 14  0.0000000  0 10G27G07G03G04G16G26G08G30G06G09
   5041307.16046   3975836.43045  23681966.7344                   23681969.8164
        37.5004         32.0004
 -14262203.03547 -11070742.73046  22310312.1564                   22310310.2774
        47.7504         41.7504
   9898766.72347   7752150.75446  22895660.4774                   22895663.7664
        42.5004         36.7504
 -11559348.39848  -8964342.41846  20378787.4614                   20378785.9844
        48.0004         37.5004
 -18162007.30147 -14071354.98045  21162193.3754                   21162190.7114
        46.7504         34.0004
   7639154.98846   5989662.31644  24230850.0004                   24230852.8794
        37.5004         29.5004
   7484626.09446   5890169.32445  24084743.3134                   24084748.8484
        39.5004         30.0004
   7960892.79345   6260929.52044  24666426.6954                   24666431.6884
        35.5004         26.2504
  -2758950.96546  -2120392.20343  25371189.9924                   25371195.2974
        36.2504         21.5004
 -27263542.52748 -21172797.75448  20408749.1174                   20408749.1214
        50.0004         50.5004
 25  8  6  2 14 30.0000000  0 10G27G07G03G04G16G26G08G30G06G09
   4919130.05146   3880633.63345  23658716.6884                   23658720.2734
        37.7504         32.2504
 -14361070.60948 -11147782.35546  22291497.8754                   22291496.6604
        48.0004         41.7504
   9955655.57847   7796479.61746  22906486.2424                   22906489.5514
        42.0004         37.0004
 -11590864.82447  -8988900.67646  20372790.0704                   20372789.1334
        47.2504         38.0004
 -18162060.82847 -14071396.68445  21162182.4384                   21162180.3484
        46.7504         33.5004
   7691648.44146   6030566.24644  24240839.0634                   24240842.2734
        38.0004         29.2504
   7341184.92646   5778397.17645  24057447.5784                   24057452.4614
        39.2504         30.5004
   7830656.37546   6159446.82444  24641644.5164                   24641648.9654
        37.0004         29.0004
  -2750912.08645  -2114128.21144  25372719.9454                   25372725.8674
        35.5004         25.7504
 -27361805.54348 -21249366.30548  20390050.2504                   20390050.1484
        50.5004         50.7504
 25  8  6  2 15  0.0000000  0 10G27G07G03G04G16G26G08G30G06G09
   4797309.17246   3785708.41845  23635534.6094                   23635538.7584
        36.5004         30.7504
 -14459712.88348 -11224646.41847  22272726.5784                   22272725.4614
        48.0004         42.0004
  10012766.68847   7840981.68446  22917353.8524                   22917357.9774
        42.5004         37.5004
 -11621961.06247  -9013131.52046  20366872.5084                   20366871.2584
        47.5004         37.5004
 -18161481.49247 -14070945.25045  21162293.2504                   21162291.0204
        47.0004         34.2504
   7744365.73846   6071644.62144  24250871.0234                   24250874.0204
        38.7504         28.0004
   7197825.74246   5666689.00044  24030166.8674                   24030172.6994
        37.7504         29.5004
   7700572.73846   6058083.17245  24616889.6644                   24616894.1524
        37.7504         30.5004
  -2742605.71946  -2107655.75044  25374300.4454                   25374306.2194
        36.2504         25.5004
 -27459705.46148 -21325651.92648  20371420.5634                   20371420.5664
        50.0004         50.5004
 25  8  6  2 15 30.0000000  0 10G27G07G03G04G16G26G08G30G06G09
   4675847.61346   3691063.14145  23612422.0634                   23612424.6094
        38.0004         31.0004
 -14558130.60247 -11301335.50847  22253999.0554                   22253997.0474
        47.2504         42.2504
  10070096.97347   7885654.53546  22928263.7114                   22928267.4104
        43.0004         37.0004
 -11652636.57047  -9037034.52746  20361035.2194                   20361034.2814
        47.2504         38.0004
 -18160271.75447 -14070002.59045  21162523.2114                   21162520.9384
        46.7504         34.0004
   7797304.09846   6112895.26644  24260945.0164                   24260947.8324
        38.5004         27.7504
   7054551.57046   5555047.00845  24002902.8054                   24002908.5474
        38.0004         30.7504
   7570641.87946   5956838.54345  24592164.8204                   24592169.6374
        38.0004         30.2504
  -2734034.89545  -2100977.23844  25375932.3444                   25375937.6724
        35.5004         26.0004
 -27557240.66448 -21401653.35948  20352860.2584                   20352860.2544
        49.5004         50.7504
 25  8  6  2 16  0.0000000  0 10G27G07G03G04G16G26G08G30G06G09
   4554748.48046   3596700.29345  23589378.4694                   23589380.3014
        38.7504         33.0004
 -14656323.93747 -11377849.74647  22235312.9534                   22235311.5704
        47.0004         42.0004
  10127643.37947   7930495.80146  22939215.3594                   22939218.6604
        42.2504         37.2504
 -11682890.96547  -9060609.38746  20355278.0164                   20355277.1454
        47.0004         37.7504
 -18158433.74647 -14068570.37945  21162873.2504                   21162870.8094
        46.2504         33.7504
   7850460.57046   6154315.84844  24271059.9144                   24271063.2584
        38.7504         26.5004
   6911365.32446   5443473.55944  23975654.8054                   23975659.8014
        37.5004         28.0004
   7440863.63746   5855712.84045  24567468.7274                   24567472.8324
        38.0004         31.2504
  -2725202.81646  -2094095.16044  25377612.0864                   25377618.4304
        36.0004         27.5004
 -27654409.57448 -21477369.37148  20334369.6254                   20334369.4844
        49.7504         50.7504
 25  8  6  2 16 30.0000000  0 10G27G07G03G04G16G26G08G30G06G09
   4434015.15646   3502622.50845  23566403.0164                   23566405.3554
        38.5004         32.2504
 -14754293.39547 -11454189.54347  22216669.8444                   22216668.4384
        45.0004         42.5004
  10185403.14546   7975503.31646  22950205.7974                   22950209.3594
        41.5004         37.2504
 -11712723.36747  -9083855.42646  20349600.8594                   20349600.4144
        47.2504         37.5004
 -18155969.78547 -14066650.40245  21163341.8364                   21163339.5044
        47.2504         34.0004
   7903832.81646   6195904.56644  24281215.9064                   24281219.4774
        39.2504         26.0004
   6768270.39146   5331971.18845  23948425.2894                   23948430.0594
        39.5004         30.0004
   7311238.23046   5754706.21544  24542801.8984                   24542806.1954
        37.2504         29.0004
  -2716112.20746  -2087011.60244  25379342.2894                   25379348.5044
        36.7504         28.2504
 -27751210.16848 -21552798.38348  20315948.7034                   20315948.9344
        48.0004         50.7504
 25  8  6  2 17  0.0000000  0 11G27G07G03G04G16G26G08G30G06G21G09
   4313648.42646   3408830.39545  23543497.2114                   23543500.7854
        37.0004         30.5004
 -14852041.77747 -11530357.05947  22198069.2734                   22198067.6684
        47.7504         42.0004
  10243371.01646   8020672.99246  22961236.6564                   22961240.4574
        41.5004         37.0004
 -11742135.66047  -9106774.10546  20344004.1174                   20344002.8914
        47.0004         37.2504
 -18152884.61747 -14064246.37145  21163928.8754                   21163926.2774
        46.2504         33.0004
   7957415.75446   6237657.48844  24291413.1724                   24291416.1254
        39.0004         27.0004
   6625267.30146   5220540.41044  23921212.3204                   23921217.3324
        36.0004         24.7504
   7181763.37146   5653816.89544  24518163.3054                   24518167.6174
        37.5004         29.2504
  -2706768.50046  -2079730.83244  25381120.4064                   25381125.7974
        36.0004         27.5004
  13954982.18055  10918022.40652  25087018.7734                   25087019.1454
        34.5004         17.7504
 -27847643.14148 -21627940.94148  20297598.6954                   20297598.3954
        50.7504         50.7504
 25  8  6  2 17 30.0000000  0 10G27G07G03G04G16G26G08G30G21G09
   4193648.10546   3315323.78545  23520661.8524                   23520664.9614
        36.7504         30.2504
 -14949572.62947 -11606355.07847  22179509.2664                   22179508.1884
        47.5004         42.2504
  10301540.61347   8065999.83646  22972305.9774                   22972309.3874
        42.0004         36.7504
 -11771130.59447  -9129367.57046  20338486.4844                   20338485.9104
        47.2504         38.0004
 -18149183.77347 -14061362.60545  21164633.2504                   21164631.6644
        46.5004         33.2504
   8011203.34046   6279569.88744  24301648.0784                   24301651.5474
        39.7504         27.5004
   6482355.89546   5109181.12944  23894015.8834                   23894021.8874
        37.0004         28.5004
   7052435.80146   5553042.33245  24493553.6024                   24493556.8524
        38.7504         30.2504
  13805881.12545  10801839.79342  25058646.5474                   25058646.4344
        33.5004         17.7504
 -27943710.09448 -21702798.28548  20279317.5864                   20279317.3634
        50.5004         50.7504
 25  8  6  2 18  0.0000000  0 10G27G07G03G04G16G26G08G30G21G09
   4074017.09046   3222104.93045  23497896.9144                   23497900.0004
        38.2504         31.7504
 -15046886.99647 -11682184.40247  22160991.0394                   22160990.0664
        47.7504         42.2504
  10359908.75446   8111481.41446  22983413.3444                   22983417.4024
        40.7504         36.0004
 -11799707.90647  -9151635.61346  20333048.2974                   20333047.6684
        47.2504         38.0004
 -18144869.93747 -14058001.16845  21165453.8284                   21165452.1374
        46.7504         33.2504
   8065192.70346   6321639.49244  24311921.8754                   24311925.1954
        39.7504         29.2504
   6339539.09446   4997895.50845  23866839.8204                   23866844.9104
        37.0004         30.7504
   6923255.23046   5452382.28545  24468970.5004                   24468974.5744
        39.0004         30.0004
  13657059.16045  10685874.64842  25030326.4384                   25030327.1484
        32.7504         15.5004
 -28039409.57448 -21777369.28948  20261106.5554                   20261106.7424
        50.5004         50.7504
 25  8  6  2 18 30.0000000  0 10G27G07G03G04G16G26G08G30G21G09
   3954758.94146   3129176.65645  23475202.4614                   23475206.1644
        39.2504         31.5004
 -15143984.89847 -11757845.04747  22142513.8444                   22142512.4574
        47.7504         42.5004
  10418472.89846   8157115.71545  22994558.5864                   22994561.3914
        41.2504         35.7504
 -11827866.71947  -9173577.55546  20327690.0394                   20327689.0824
        47.5004         37.5004
 -18139945.13747 -14054163.66845  21166391.3284                   21166389.0784
        46.2504         33.7504
   8119381.50946   6363864.50645  24322233.9304                   24322237.3714
        39.2504         30.0004
   6196820.21146   4886686.19544  23839681.1414                   23839685.9884
        37.5004         28.2504
   6794221.99246   5351837.02745  24444416.1724                   24444420.8914
        39.5004         30.7504
  13508518.94955  10570129.02752  25002060.4454                   25002061.8094
        32.7504         16.7504
 -28134739.48048 -21851652.31648  20242965.4224                   20242965.8284
        50.5004         51.0004
 25  8  6  2 19  0.0000000  0 10G27G07G03G04G16G26G08G30G21G09
   3835880.50046   3036544.17645  23452580.7974                   23452583.6684
        39.5004         31.5004
 -15240863.25047 -11833334.62147  22124078.4924                   22124077.3674
        45.0004         42.2504
  10477233.64546   8202903.21945  23005739.7584                   23005743.0864
        41.2504         35.2504
 -11855602.79348  -9195190.09046  20322411.8444                   20322411.1484
        48.0004         37.5004
 -18134408.36347 -14049849.30945  21167444.8984                   21167442.3164
        45.7504         33.7504
   8173770.61346   6406245.59444  24332583.5474                   24332587.1804
        39.0004         29.0004
   6054206.14846   4775558.47344  23812542.2274                   23812546.0594
        38.0004         28.5004
   6665339.85946   5251409.52045  24419890.1484                   24419894.5314
        39.0004         30.2504
  13360267.03555  10454608.05952  24973847.5164                   24973851.1684
        31.5004         14.7504
 -28229694.41848 -21925643.16048  20224896.2894                   20224896.6024
        48.0004         51.0004
 25  8  6  2 19 30.0000000  0 10G27G07G03G04G16G26G08G30G21G09
   3717386.27746   2944211.10245  23430031.9534                   23430035.3054
        39.7504         33.2504
 -15337521.16447 -11908652.42247  22105684.9384                   22105683.6134
        46.0004         42.2504
  10536189.60546   8248842.84445  23016959.2034                   23016961.8444
        41.0004         35.5004
 -11882914.22347  -9216471.71946  20317214.7664                   20317213.9024
        47.5004         37.2504
 -18128260.46147 -14045058.73445  21168614.5474                   21168612.7544
        46.0004         34.2504
   8228358.99246   6448781.95345  24342972.2194                   24342975.0784
        37.5004         30.0004
   5911701.43046   4664516.14145  23785423.9064                   23785429.6884
        38.0004         31.0004
   6536610.20746   5151100.87144  24395394.0704                   24395398.4414
        37.5004         29.0004
  13212307.30955  10339314.80952  24945691.8754                   24945695.4024
        34.0004         14.7504
 -28324271.18748 -21999339.33648  20206898.6884                   20206898.9924
        49.5004         51.0004
 25  8  6  2 20  0.0000000  0 10G27G07G03G04G16G26G08G30G21G09
   3599278.98046   2852179.57045  23407557.1414                   23407560.3134
        39.2504         31.7504
 -15433959.28147 -11983798.95347  22087333.5784                   22087332.2894
        47.7504         42.5004
  10595337.25846   8294931.84045  23028214.5234                   23028217.8594
        41.2504         35.0004
 -11909800.95347  -9237422.41846  20312098.4924                   20312097.8284
        46.0004         37.0004
 -18121504.44947 -14039794.32445  21169900.0944                   21169898.1804
        46.5004         33.7504
   8283143.54746   6491471.15645  24353396.7194                   24353400.4804
        37.5004         30.0004
   5769308.72346   4553560.94945  23758328.2734                   23758332.6844
        39.5004         31.0004
   6408032.60246   5050910.71144  24370926.9844                   24370930.5514
        36.7504         29.2504
  13064641.89545  10224250.78942  24917592.6724                   24917594.9024
        35.0004         16.2504
 -28418468.54748 -22072739.85548  20188973.5474                   20188973.9774
        50.2504         51.0004
