     2.11           OBSERVATION DATA    G (GPS)             RINEX VERSION / TYPE
teqc  2019Feb25                         20250819 04:42:46UTCPGM / RUN BY / DATE
Linux 2.6.32-573.12.1.x86_64|x86_64|gcc -static|Linux 64|=+ COMMENT
BIT 2 OF LLI FLAGS DATA COLLECTED UNDER A/S CONDITION       COMMENT
35233540                                                    MARKER NAME
3540                                                        MARKER NUMBER
-Unknown-           -Unknown-                               OBSERVER / AGENCY
0220413523          TRIMBLE R7          2.32                REC # / TYPE / VERS
-Unknown-           TRM39105.00     NONE                    ANT # / TYPE
 -2405689.6969 -4505260.5503  3810982.2781                  APPROX POSITION XYZ
        0.0000        0.0000        0.0000                  ANTENNA: DELTA H/E/N
     1     1                                                WAVELENGTH FACT L1/2
     7    L1    L2    C1    P1    P2    S1    S2            # / TYPES OF OBSERV
    18                                                      LEAP SECONDS
 SNR is mapped to RINEX snr flag value [0-9]                COMMENT
  L1 & L2: min(max(int(snr_dBHz/6), 0), 9)                  COMMENT
  2025     8     5    23    30   30.0000000     GPS         TIME OF FIRST OBS
                                                            END OF HEADER
 25  8  5 23 30 30.0000000  0  9G01G02G03G04G16G26G28G31G09
     28201.84457     15013.52055  21923895.3754                   21923897.7074
        44.7504         34.0004
     73895.56656     39769.21554  23781355.6804                   23781358.0824
        41.2504         25.7504
   -162761.05958    -87992.64158  20381424.5474                   20381425.9454
        49.5004         50.0004
   -185410.30157   -101542.58255  21943597.5394                   21943599.2154
        46.0004         33.0004
   -272153.51656   -131239.82453  23966956.9144                   23966963.1994
        40.0004         20.0004
   -178358.11357   -101909.60256  22143643.7584                   22143648.3444
        43.5004         40.2504
     79184.77357     43767.94954  23075650.8054                   23075650.8284
        43.0004         27.7504
      8258.65258      4108.25457  20744291.5704                   20744290.8834
        48.0004         46.2504
   -233272.41456   -110282.31654  24952879.0394                   24952887.2074
        37.0004         29.7504
 25  8  5 23 31  0.0000000  0  9G01G02G03G04G16G26G28G31G09
     43002.50447     26546.41045  21926712.4614                   21926714.2584
        44.5004         33.0004
    113189.53546     70387.66844  23788833.4304                   23788835.3164
        41.2504         26.0004
   -251652.32048   -157258.55948  20364509.0554                   20364510.4574
        49.2504         50.0004
   -287738.01247   -181278.41445  21924125.3204                   21924127.1724
        44.5004         32.5004
   -424814.47746   -250196.16443  23937907.2424                   23937912.4494
        40.2504         19.0004
   -280683.53147   -181643.61746  22124171.9844                   22124176.4264
        44.5004         40.0004
    121465.04347     76713.54744  23083696.6564                   23083696.5784
        44.0004         27.5004
     12296.52348      7254.62947  20745060.4224                   20745058.9494
        48.0004         46.5004
   -362458.23046   -210946.30945  24928294.6024                   24928303.1914
        36.7504         30.2504
 25  8  5 23 31 30.0000000  0  9G01G02G03G04G16G26G28G31G09
     57996.54347     38229.99245  21929565.6644                   21929567.5274
        44.7504         33.2504
    152345.34846    100898.46544  23796284.4144                   23796287.6564
        41.0004         26.5004
   -340341.75448   -226367.21148  20347631.8524                   20347633.4454
        49.2504         50.0004
   -390157.78547   -261085.98445  21904635.5944                   21904637.2424
        45.5004         32.0004
   -577668.51246   -369303.10942  23908819.7114                   23908824.4844
        40.0004         17.7504
   -382767.33647   -261189.35246  22104746.0314                   22104750.4804
        44.2504         40.0004
    163705.16447    109627.86744  23091734.2504                   23091735.1914
        44.0004         29.0004
     16576.14848     10589.37947  20745874.7114                   20745873.2114
        48.2504         46.0004
   -491861.33646   -311779.64845  24903670.5634                   24903678.2154
        38.2504         30.7504
 25  8  5 23 32  0.0000000  0  9G01G02G03G04G16G26G28G31G09
     73219.00847     50091.55145  21932462.4614                   21932463.9844
        45.2504         33.5004
    191397.92246    131328.80144  23803716.2894                   23803718.9494
        41.7504         25.7504
   -428789.76248   -295287.72748  20330800.8594                   20330802.7424
        50.0004         50.0004
   -492632.01247   -340935.97745  21885135.5004                   21885136.8594
        44.7504         31.5004
   -730674.48446   -488528.28943  23879704.2504                   23879708.8094
        40.7504         22.5004
   -484569.35247   -340515.52046  22085373.6804                   22085377.6174
        44.2504         40.2504
    205940.32847    142538.30944  23099771.1254                   23099771.4964
        43.7504         28.5004
     21132.38348     14139.68447  20746741.8284                   20746740.8014
        48.5004         46.0004
   -621444.03546   -412752.92245  24879011.3204                   24879019.8984
        37.5004         31.0004
 25  8  5 23 32 30.0000000  0  9G01G02G03G04G16G26G28G31G09
     88684.10247     62142.17245  21935405.5234                   21935407.3674
        45.2504         33.5004
    230361.43846    161689.74244  23811130.6564                   23811133.8594
        40.0004         24.5004
   -516977.44948   -364005.39848  20314019.4924                   20314021.0824
        50.0004         50.0004
   -595143.76647   -420815.21945  21865627.7664                   21865629.2234
        45.5004         32.0004
   -883812.54746   -607856.37943  23850561.6884                   23850567.8554
        40.5004         21.0004
   -586070.16047   -419606.97746  22066058.1024                   22066062.8594
        44.0004         40.2504
    248184.98447    175456.13344  23107810.2504                   23107811.0354
        43.7504         28.7504
     25980.28547     17917.24647  20747663.9454                   20747663.2234
        46.5004         46.0004
   -751189.57046   -513853.11344  24854321.2894                   24854329.5704
        36.7504         29.5004
 25  8  5 23 33  0.0000000  0  9G01G02G03G04G16G26G28G31G09
    104399.30947     74387.70745  21938396.3674                   21938398.0984
        45.7504         33.5004
    269243.08246    191986.89844  23818529.2274                   23818532.9654
        40.7504         25.2504
   -604892.82048   -432510.88748  20297289.4064                   20297291.2544
        50.0004         50.0004
   -697682.93747   -500715.82445  21846115.1564                   21846116.8524
        44.7504         32.2504
  -1037069.07846   -727276.83643  23821398.5164                   23821403.2934
        40.7504         21.2504
   -687257.30547   -498454.01246  22046803.2894                   22046807.2384
        44.5004         40.5004
    290446.79747    208387.37144  23115852.3364                   23115853.2854
        43.0004         28.7504
     31127.17247     21927.78547  20748643.8444                   20748642.3134
        47.7504         46.0004
   -881087.66446   -615072.17644  24829602.1024                   24829610.5824
        36.5004         28.7504
 25  8  5 23 33 30.0000000  0  9G01G02G03G04G16G26G28G31G09
    120372.57847     86834.31345  21941435.6644                   21941437.6334
        45.5004         34.2504
    308050.40646    222226.11744  23825915.0394                   23825918.4224
        40.7504         25.7504
   -692523.27748   -500794.35248  20280614.1414                   20280615.9304
        49.2504         50.0004
   -800238.91447   -580629.51645  21826599.2034                   21826600.9734
        46.0004         33.0004
  -1190430.44546   -846778.96943  23792213.8054                   23792219.2344
        38.7504         20.5004
   -788117.62547   -577046.39846  22027610.6644                   22027614.4694
        45.2504         40.7504
    332734.06647    241338.40644  23123899.3754                   23123899.9614
        42.2504         28.0004
     36581.39147     26177.81347  20749681.3524                   20749680.1484
        47.5004         46.0004
  -1011127.88745   -716402.02044  24804855.4924                   24804864.8444
        34.7504         28.5004
 25  8  5 23 34  0.0000000  0  9G01G02G03G04G16G26G28G31G09
    136605.40247     99483.16445  21944524.6024                   21944526.6724
        46.0004         32.7504
    346785.18846    252408.83244  23833286.2114                   23833289.0514
        40.2504         26.0004
   -779862.76248   -568851.08648  20263993.6564                   20263995.1134
        49.7504         50.0004
   -902807.46547   -660553.00845  21807081.4304                   21807082.9024
        46.0004         32.2504
  -1343888.94146   -966356.73843  23763011.9064                   23763017.1684
        39.5004         22.0004
   -888644.52347   -655378.96946  22008480.6094                   22008485.1954
        44.7504         40.5004
    375048.51247    274310.64144  23131951.6804                   23131952.6954
        42.5004         28.2504
     42344.41847     30668.46947  20750778.0084                   20750777.1214
        46.7504         46.0004
  -1141306.00846   -817839.31244  24780084.7274                   24780091.6174
        36.2504         27.2504
 25  8  5 23 34 30.0000000  0  9G01G02G03G04G16G26G28G31G09
    153101.90247    112337.48845  21947663.7194                   21947665.7274
        46.5004         33.0004
    385451.49646    282538.16444  23840644.4774                   23840647.6294
        39.5004         26.7504
   -866902.46548   -636674.22748  20247430.6254                   20247432.1914
        49.7504         50.0004
  -1005381.73047   -740480.95345  21787562.0704                   21787563.3874
        44.7504         32.5004
  -1497434.83246  -1086002.63743  23733792.3134                   23733798.1644
        39.2504         21.2504
   -988828.77047   -733444.52746  21989415.8284                   21989420.5124
        43.5004         40.2504
    417394.57047    307307.50444  23140010.1484                   23140010.7154
        42.5004         28.5004
     48420.88348     35403.36347  20751934.5164                   20751933.2704
        48.0004         46.0004
  -1271615.08245   -919378.68443  24755287.0554                   24755294.5824
        33.5004         23.7504
 25  8  5 23 35  0.0000000  0  9G01G02G03G04G16G26G28G31G09
    169865.35947    125399.82445  21950854.0864                   21950855.9304
        46.0004         32.5004
    424052.20746    312616.34844  23847989.8984                   23847993.6414
        39.0004         25.2504
   -953634.57048   -704257.68048  20230926.2034                   20230927.8244
        50.5004         50.0004
  -1107955.78547   -820408.72745  21768042.7034                   21768043.9574
        46.2504         33.0004
  -1651058.77346  -1205709.34843  23704557.2814                   23704564.3634
        37.2504         20.7504
  -1088662.00447   -811236.58646  21970418.1724                   21970422.5664
        44.5004         40.5004
    459775.79346    340331.76244  23148074.4924                   23148075.5664
        41.2504         27.7504
     54814.17248     40385.13347  20753150.7504                   20753149.5474
        48.0004         45.7504
  -1402049.26645  -1021015.52043  24730465.9844                   24730473.6644
        32.2504         21.5004
 25  8  5 23 35 30.0000000  0  9G01G02G03G04G16G26G28G31G09
    186899.70747    138673.24645  21954094.8834                   21954097.2934
        46.2504         32.5004
    462591.31646    342646.60944  23855323.8524                   23855327.6844
        39.7504         24.5004
  -1040050.47348   -771594.73048  20214482.0314                   20214483.5474
        50.0004         50.0004
  -1210522.86347   -900331.07445  21748524.7504                   21748526.3204
        46.7504         32.7504
  -1804750.75446  -1325469.05943  23675311.7194                   23675316.3324
        38.5004         20.2504
  -1188135.15247   -888748.05146  21951488.7274                   21951493.1764
        44.5004         41.0004
    502196.48846    373386.77344  23156147.7194                   23156147.9414
        41.0004         27.7504
     61528.67647     45617.19547  20754428.7734                   20754427.4694
        47.5004         46.0004
  -1532601.91845  -1122744.68443  24705621.8594                   24705630.0984
        32.2504         22.5004
 25  8  5 23 36  0.0000000  0  9G01G02G03G04G16G26G28G31G09
    204205.27747    152158.01645  21957388.7034                   21957391.0824
        46.0004         32.7504
    501069.50846    372629.35244  23862645.8054                   23862649.8714
        40.2504         26.0004
  -1126145.09048   -838681.43748  20198098.4694                   20198099.8954
        49.5004         50.0004
  -1313079.82447   -980245.53945  21729008.9064                   21729010.1724
        46.5004         32.2504
  -1958504.48446  -1445276.87943  23646052.2584                   23646058.5474
        38.0004         20.2504
  -1287242.65647   -965974.60546  21932629.0474                   21932633.6644
        44.5004         40.5004
    544657.49246    406473.21544  23164227.5704                   23164228.2344
        40.7504         27.7504
     68564.79747     51099.87547  20755767.7424                   20755766.3364
        47.0004         45.7504
  -1663269.69145  -1224563.59443  24680757.0234                   24680764.5904
        33.2504         22.0004
 25  8  5 23 36 30.0000000  0  9G01G02G03G04G16G26G28G31G09
    221783.82447    165855.48445  21960734.1644                   21960735.6914
        46.0004         32.5004
    539487.72746    402565.37944  23869957.6024                   23869960.0314
        40.0004         24.5004
  -1211912.33648   -905513.03948  20181777.3524                   20181778.9694
        50.0004         50.0004
  -1415622.32047  -1060148.71945  21709495.3444                   21709497.1094
        47.0004         33.0004
  -2112312.16046  -1565126.72743  23616784.7814                   23616789.3164
        39.0004         21.2504
  -1385977.94547  -1042911.12146  21913840.3674                   21913844.7704
        44.5004         40.0004
    587160.59846    439592.44544  23172315.8914                   23172316.5044
        41.0004         27.0004
     75924.51647     56834.69947  20757168.0944                   20757166.9924
        46.5004         45.5004
  -1794048.46145  -1326468.94543  24655870.6174                   24655877.8524
        34.0004         22.7504
 25  8  5 23 37  0.0000000  0  9G01G02G03G04G16G26G28G31G09
    239636.03947    179766.19945  21964130.8674                   21964133.0044
        46.5004         32.5004
    577846.83246    432455.34043  23877256.7974                   23877260.1214
        40.7504         23.5004
  -1297346.69548   -972085.25448  20165519.4454                   20165521.2274
        49.7504         50.0004
  -1518146.72347  -1140037.80545  21689986.0864                   21689987.4494
        46.2504         32.5004
  -2266167.09446  -1685013.42643  23587506.7114                   23587511.8094
        39.0004         22.2504
  -1484335.10547  -1119552.98446  21895124.1254                   21895127.6884
        45.5004         40.7504
    629707.14546    472745.52344  23180412.1484                   23180412.8594
        41.0004         27.0004
     83609.01647     62822.61747  20758630.6484                   20758629.5354
        47.0004         45.7504
  -1924934.41846  -1428457.85944  24630963.4454                   24630970.3714
        36.5004         26.2504
 25  8  5 23 37 30.0000000  0  9G01G02G03G04G16G26G28G31G09
    257763.50847    193891.39845  21967580.6564                   21967582.9654
        45.7504         32.2504
    616148.69546    462300.68843  23884545.6644                   23884548.6174
        40.5004         22.7504
  -1382442.02748  -1038393.28948  20149326.7034                   20149327.8984
        49.5004         50.0004
  -1620648.73847  -1219909.44145  21670480.5634                   21670481.8404
        46.0004         32.2504
  -2420061.43746  -1804930.81244  23558221.5164                   23558226.2814
        40.5004         24.5004
  -1582307.52747  -1195895.07046  21876479.8984                   21876484.2704
        44.5004         40.2504
    672298.96547    505933.88744  23188516.7424                   23188517.4694
        42.2504         28.5004
     91619.94547     69064.87547  20760155.3444                   20760153.9804
        47.0004         45.7504
  -2055923.39146  -1530527.05944  24606037.1414                   24606044.1684
        38.0004         28.0004
 25  8  5 23 38  0.0000000  0  9G01G02G03G04G16G26G28G31G09
    276169.05947    208233.27345  21971083.3834                   21971085.6414
        45.2504         33.0004
    654395.95346    492103.49644  23891823.6024                   23891827.6604
        40.7504         24.0004
  -1467190.85248  -1104431.30948  20133199.5004                   20133201.1214
        49.5004         50.0004
  -1723122.59047  -1299759.14545  21650980.4384                   21650981.6524
        46.7504         32.7504
  -2573986.52346  -1924872.22343  23528930.3984                   23528935.2544
        40.7504         22.5004
  -1679887.24247  -1271931.13346  21857911.3834                   21857915.2304
        45.0004         40.2504
    714939.37947    539160.13344  23196631.1564                   23196631.7734
        43.0004         28.0004
     99960.23047     75563.78947  20761742.1024                   20761741.1684
        47.7504         46.0004
  -2187009.68046  -1632672.06644  24581092.1484                   24581099.8164
        37.5004         29.7504
 25  8  5 23 38 30.0000000  0  9G01G02G03G04G16G26G28G31G09
    294856.86747    222795.10545  21974639.7114                   21974641.1764
        45.7504         31.7504
    692592.93046    521867.12543  23899092.7344                   23899095.7154
        39.7504         22.5004
  -1551584.35248  -1170192.46148  20117139.7974                   20117141.5514
        49.2504         50.2504
  -1825561.34447  -1379581.48845  21631487.1954                   21631488.1764
        46.0004         33.0004
  -2727932.10946  -2044829.58644  23499634.9534                   23499639.9104
        41.5004         24.2504
  -1777065.19547  -1347654.13346  21839418.7814                   21839422.9494
        45.2504         40.2504
    757633.00047    572427.84044  23204755.6254                   23204756.4694
        43.2504         27.0004
    108634.42647     82322.88747  20763392.6954                   20763391.5044
        46.7504         45.5004
  -2318186.37946  -1734887.49645  24556130.3754                   24556137.5594
        38.7504         31.0004
 25  8  5 23 39  0.0000000  0  9G01G02G03G04G16G26G28G31G09
    313827.43047    237577.25445  21978249.8674                   21978252.0864
        45.0004         33.0004
    730740.23046    551592.05144  23906352.6564                   23906355.4654
        40.5004         24.5004
  -1635617.47348  -1235672.79348  20101148.8524                   20101150.6454
        49.0004         50.2504
  -1927961.65247  -1459373.88745  21612000.3204                   21612001.7074
        46.5004         32.2504
  -2881891.30546  -2164797.53943  23470337.8984                   23470342.3284
        41.7504         22.0004
  -1873835.59447  -1423059.55946  21821004.4844                   21821008.1024
        46.0004         40.5004
    800380.82047    605737.78544  23212890.1564                   23212890.7114
        42.7504         27.2504
    117643.72347     89343.10547  20765107.4534                   20765106.0124
        47.0004         45.5004
  -2449450.10746  -1837170.73345  24531151.3984                   24531158.3714
        38.2504         30.2504
 25  8  5 23 39 30.0000000  0  9G01G02G03G04G16G26G28G31G09
    333080.23047    252579.33245  21981913.5314                   21981915.1604
        45.7504         32.5004
    768837.19146    581277.71143  23913601.6954                   23913605.9224
        39.7504         22.7504
  -1719286.03948  -1300869.06648  20085227.3284                   20085228.6024
        49.0004         50.2504
  -2030321.19947  -1539134.51645  21592521.9924                   21592523.0234
        46.5004         33.5004
  -3035858.72346  -2284771.89843  23441038.5474                   23441043.3244
        41.5004         22.7504
  -1970194.03547  -1498143.99246  21802667.7194                   21802671.5124
        46.0004         40.7504
    843182.74247    639089.87144  23221035.3444                   23221036.0664
        42.5004         27.7504
    126987.48847     96623.95347  20766885.3204                   20766883.7664
        47.5004         45.5004
  -2580798.54746  -1939519.98845  24506157.4454                   24506163.7424
        39.0004         30.0004
 25  8  5 23 40  0.0000000  0  9G01G02G03G04G16G26G28G31G09
    352614.83247    267801.00045  21985630.9614                   21985632.7734
        45.7504         31.7504
    806883.50146    610923.91443  23920841.6414                   23920845.8364
        39.0004         22.5004
  -1802585.91048  -1365778.04348  20069375.7274                   20069377.5354
        48.5004         50.2504
  -2132637.47347  -1618861.42245  21573051.6414                   21573053.3754
        46.0004         33.0004
  -3189828.76247  -2404748.32043  23411739.1484                   23411742.7234
        42.2504         22.7504
  -2066135.91047  -1572903.81646  21784410.7664                   21784414.4804
        46.5004         41.5004
    886038.84447    672484.17244  23229190.6724                   23229191.0234
        43.0004         27.2504
    136665.69147    104165.39847  20768726.9064                   20768725.5004
        46.5004         45.5004
  -2712229.21546  -2041933.31144  24481146.0944                   24481153.2544
        38.5004         29.5004
 25  8  5 23 40 30.0000000  0  9G01G02G03G04G16G26G28G31G09
    372431.91047    283242.77045  21989401.5944                   21989404.2734
        46.0004         31.7504
    844879.64846    640531.03143  23928072.4454                   23928076.5394
        39.0004         23.0004
  -1885511.72748  -1430395.54348  20053595.6954                   20053597.3484
        48.7504         50.2504
  -2234906.91847  -1698551.85245  21553590.5004                   21553592.0514
        45.7504         33.0004
  -3343794.28946  -2524721.23043  23382439.4454                   23382443.5704
        40.2504         21.5004
  -2161655.49647  -1647334.59046  21766233.8054                   21766237.4534
        46.5004         41.7504
    928950.32447    705921.63344  23237356.7194                   23237357.1724
        42.5004         27.0004
    146679.20347    111968.12147  20770632.3984                   20770631.7584
        47.0004         45.2504
  -2843738.89146  -2144408.21544  24456119.6644                   24456126.9734
        36.0004         27.5004
 25  8  5 23 41  0.0000000  0  9G01G02G03G04G16G26G28G31G09
    392530.82847    298904.16845  21993226.5234                   21993228.7194
        45.7504         31.5004
    882825.46946    670098.94144  23935293.5864                   23935297.9844
        39.7504         25.0004
  -1968059.57048  -1494718.53148  20037887.2974                   20037888.4844
        49.5004         50.2504
  -2337127.28947  -1778204.03945  21534138.6024                   21534139.9344
        45.7504         33.0004
  -3497749.89146  -2644686.45343  23353142.7344                   23353146.5164
        40.7504         20.2504
  -2256748.47347  -1721432.94946  21748138.6484                   21748141.9144
        46.5004         41.5004
    971917.09446    739402.17244  23245532.0864                   23245533.5204
        41.7504         27.0004
    157027.68847    120031.85947  20772601.8134                   20772600.7974
        47.0004         45.5004
  -2975325.06245  -2246942.70344  24431079.6884                   24431087.0984
        33.5004         27.2504
 25  8  5 23 41 30.0000000  0  9G01G02G03G04G16G26G28G31G09
    412913.37547    314786.56345  21997105.2504                   21997107.0434
        45.7504         32.0004
    920722.51246    699628.82044  23942505.9534                   23942509.9104
        41.0004         24.7504
  -2050223.00448  -1558741.97348  20022252.1334                   20022253.6724
        49.5004         50.2504
  -2439293.85947  -1857814.30545  21514697.1024                   21514698.1334
        46.0004         33.5004
  -3651687.52746  -2764637.61343  23323849.5004                   23323853.8874
        40.5004         20.5004
  -2351408.01247  -1795193.55146  21730124.8524                   21730128.5984
        46.0004         41.0004
   1014941.45347    772927.60244  23253720.3524                   23253720.4964
        42.2504         25.7504
    167713.19547    128358.20747  20774635.0394                   20774634.2344
        46.5004         45.2504
  -3106983.10245  -2349533.20344  24406025.7114                   24406032.9614
        33.7504         25.2504
 25  8  5 23 42  0.0000000  0  9G01G02G03G04G16G26G28G31G09
    433583.62547    330893.14845  22001038.7974                   22001040.8834
        45.7504         31.7504
    958575.23846    729124.19144  23949709.4844                   23949713.0394
        41.0004         24.0004
  -2131993.29748  -1622459.07848  20006691.7894                   20006693.1884
        50.0004         50.5004
  -2541399.59847  -1937377.16045  21495266.9064                   21495268.3674
        46.2504         33.0004
  -3805596.80146  -2884566.69143  23294560.5164                   23294565.2424
        38.5004         19.0004
  -2445625.05147  -1868609.35246  21712195.8284                   21712199.3984
        46.0004         41.0004
   1058028.07047    806501.54344  23261919.7114                   23261919.3834
        42.5004         26.0004
    178740.14547    136950.63347  20776733.5394                   20776732.4414
        47.0004         45.0004
  -3238706.09045  -2452174.29744  24380959.4844                   24380967.5474
        35.5004         28.0004
 25  8  5 23 42 30.0000000  0  9G01G02G03G04G16G26G28G31G09
    454541.40647    347223.77345  22005027.3594                   22005029.1094
        44.5004         31.5004
    996383.50046    758584.87143  23956904.1254                   23956908.1334
        39.7504         23.5004
  -2213366.02748  -1685866.39148  19991206.9224                   19991208.4844
        49.0004         50.5004
  -2643441.76647  -2016890.48845  21475848.3914                   21475850.0984
        46.0004         33.5004
  -3959471.68446  -3004468.97343  23265279.6414                   23265283.1884
        39.0004         20.7504
  -2539394.76647  -1941676.59846  21694352.4224                   21694355.6484
        46.0004         41.2504
   1101177.35246    840124.30944  23270129.9924                   23270130.9884
        39.7504         25.7504
    190108.66047    145809.19147  20778896.6484                   20778895.5824
        46.5004         45.2504
  -3370491.18746  -2554863.82444  24355881.9144                   24355888.5944
        37.5004         29.0004
 25  8  5 23 43  0.0000000  0  9G01G02G03G04G16G26G28G31G09
    475783.73847    363776.12545  22009069.5864                   22009071.6564
        46.0004         32.7504
   1034144.28146    788008.59844  23964089.0944                   23964093.9454
        38.7504         24.5004
  -2294339.62548  -1748962.69948  19975798.2274                   19975799.3714
        49.2504         50.5004
  -2745420.36347  -2096354.28545  21456442.9304                   21456443.9344
        45.7504         33.0004
  -4113309.28946  -3124342.16843  23236005.0234                   23236008.9614
        38.5004         19.2504
  -2632715.23047  -2014393.78146  21676593.8524                   21676597.2304
        46.2504         41.2504
   1144386.84046    873793.96544  23278352.2114                   23278353.8984
        39.7504         26.0004
    201816.28947    154932.00047  20781124.5944                   20781123.6214
        47.0004         45.0004
  -3502338.59046  -2657601.89145  24330791.5314                   24330799.5124
        37.0004         31.0004
 25  8  5 23 43 30.0000000  0  9G01G02G03G04G16G26G28G31G09
    497307.82047    380548.02745  22013165.3364                   22013167.7464
        46.0004         32.2504
   1071855.05946    817393.29743  23971265.7734                   23971270.9494
        39.0004         22.7504
  -2374912.22748  -1811746.54748  19960465.5474                   19960466.9694
        49.0004         50.2504
  -2847335.21547  -2175768.41445  21437049.1334                   21437049.8554
        45.7504         33.2504
  -4267105.76246  -3244183.38743  23206738.6724                   23206742.0704
        38.7504         21.0004
  -2725584.26647  -2086759.19546  21658921.5084                   21658925.0744
        45.7504         41.5004
   1187654.44546    907508.89844  23286586.0314                   23286587.1684
        39.7504         26.0004
    213860.30547    164316.92647  20783416.5474                   20783415.4384
        46.5004         45.0004
  -3634248.10246  -2760388.36345  24305691.1174                   24305697.1454
        38.0004         31.5004
 25  8  5 23 44  0.0000000  0  9G01G02G03G04G16G26G28G31G09
    519109.36347    397536.11745  22017314.1884                   22017316.7384
        45.5004         32.5004
   1109511.82046    846735.93843  23978432.2974                   23978436.3874
        38.5004         22.5004
  -2455083.46148  -1874217.63748  19945209.4064                   19945211.0204
        49.2504         50.2504
  -2949187.63747  -2255133.90245  21417667.2274                   21417668.3404
        46.5004         33.0004
  -4420859.04346  -3363990.85943  23177479.3594                   23177484.0394
        39.0004         22.0004
  -2818001.16047  -2158772.29746  21641335.1644                   21641338.6994
        46.7504         41.7504
   1230976.44946    941266.23444  23294830.3834                   23294830.8054
        39.0004         25.0004
    226236.54747    173960.73847  20785771.5864                   20785770.2464
        47.0004         44.7504
  -3766221.07446  -2863224.26245  24280576.9844                   24280583.7704
        37.7504         31.2504
 25  8  5 23 44 30.0000000  0  9G01G02G03G04G16G26G28G31G09
    541191.42247    414742.82045  22021516.5634                   22021518.5634
        45.7504         32.2504
   1147117.47546    876038.77044  23985588.8134                   23985592.4224
        38.7504         24.2504
  -2534845.76248  -1936370.07848  19930031.2664                   19930032.9924
        48.2504         50.2504
  -3050971.55547  -2334446.00045  21398298.3204                   21398299.3834
        45.5004         33.5004
  -4574560.33246  -3483757.85943  23148231.7194                   23148234.9184
        39.7504         22.7504
  -2909957.97747  -2230426.89147  21623836.2814                   21623839.1954
        46.5004         42.0004
   1274356.57846    975068.88344  23303084.8204                   23303086.1024
        39.7504         25.5004
    238948.76247    183866.34447  20788191.0944                   20788189.4064
        47.2504         44.7504
  -3898251.44545  -2966104.87544  24255452.4064                   24255459.0394
        35.5004         29.7504
 25  8  5 23 45  0.0000000  0  9G01G02G03G04G16G26G28G31G09
   2138971.50047   1659766.14845  22325563.7194                   22325565.9264
        45.7504         31.2504
   2760089.43446   2132899.73043  24292527.1024                   24292531.5704
        40.0004         22.7504
  -1038773.57448   -770599.54348  20214724.3834                   20214725.7344
        49.0004         50.2504
  -1577262.28547  -1186101.07445  21678735.6174                   21678736.8874
        46.2504         33.5004
  -3152779.64846  -2375876.57843  23418787.0704                   23418790.7974
        40.5004         22.5004
  -1426028.50047  -1074118.14546  21906218.4924                   21906222.1804
        46.0004         41.5004
   2893212.26246   2236514.81344  23611143.5164                   23611144.3874
        41.7504         27.0004
   1827414.93047   1421632.17247  21090466.0554                   21090464.6994
        47.2504         44.5004
  -2454913.75046  -1841425.93045  24530109.9064                   24530116.6954
        36.0004         30.0004
 25  8  5 23 45 30.0000000  0 10G01G02G03G04G16G26G28G31G06G09
   2161605.43447   1677402.87545  22329870.8134                   22329873.6334
        45.7504         31.2504
   2797584.69546   2162116.52743  24299662.2664                   24299666.8094
        40.0004         23.2504
  -1117713.30548   -832111.02048  20199702.7894                   20199703.9924
        49.2504         50.2504
  -1678909.25447  -1265306.46945  21659392.9454                   21659393.7734
        46.0004         33.5004
  -3306366.57446  -2495554.50443  23389560.7274                   23389564.4654
        41.2504         23.5004
  -1517059.56247  -1145051.37146  21888895.8754                   21888899.5864
        47.2504         41.7504
   2936701.47746   2270402.45344  23619419.0394                   23619420.2624
        41.0004         27.2504
   1840790.59848   1432054.75447  21093011.3984                   21093009.9024
        48.0004         44.7504
   1425098.98056   1139910.09055  25567800.9844                   25567805.7304
        36.2504         30.0004
  -2587059.30146  -1944396.28144  24504963.6094                   24504970.3754
        36.5004         29.2504
 25  8  5 23 46  0.0000000  0 10G01G02G03G04G16G26G28G31G06G09
   2184512.72347   1695252.60945  22334230.2424                   22334232.5394
        45.7504         31.0004
   2835022.46546   2191288.50443  24306787.1414                   24306791.6484
        40.7504         22.5004
  -1196237.41448   -893298.64148  20184760.3204                   20184761.7894
        49.5004         50.5004
  -1780485.77047  -1344456.96145  21640063.6484                   21640064.5664
        46.2504         33.0004
  -3459889.37946  -2615182.43443  23360345.4304                   23360349.4264
        41.0004         23.7504
  -1607622.94547  -1215620.17246  21871662.1024                   21871665.7974
        46.5004         41.7504
   2980243.69146   2304331.38744  23627704.6094                   23627705.7504
        41.0004         27.0004
   1854495.81347   1442734.12147  21095619.1254                   21095617.9734
        47.7504         45.0004
   1301270.73845   1043420.54744  25544236.6094                   25544241.8164
        35.2504         29.0004
  -2719260.50846  -2047409.99645  24479806.2664                   24479813.3404
        36.2504         30.5004
 25  8  5 23 46 30.0000000  0 10G01G02G03G04G16G26G28G31G06G09
   2207687.42647   1713310.69945  22338640.2194                   22338642.8524
        45.5004         32.0004
   2872396.93046   2220411.16443  24313898.1024                   24313903.6804
        38.7504         22.5004
  -1274347.32448   -954163.50448  20169896.2734                   20169897.7074
        49.7504         50.5004
  -1881994.76247  -1423554.83645  21620747.5234                   21620748.4964
        46.5004         33.7504
  -3613347.78546  -2734760.19944  23331143.2504                   23331147.2344
        40.5004         24.5004
  -1697719.76247  -1285825.41046  21854517.2034                   21854520.8284
        46.0004         41.7504
   3023833.62546   2338297.49644  23636000.5554                   23636000.9144
        41.2504         27.5004
   1868525.10547   1453666.02047  21098288.7034                   21098287.6844
        47.5004         44.7504
   1177754.05945    947173.78144  25520731.7894                   25520737.0904
        34.2504         24.7504
  -2851520.35246  -2150469.43444  24454637.7034                   24454643.8634
        36.7504         28.0004
 25  8  5 23 47  0.0000000  0 10G01G02G03G04G16G26G28G31G06G09
   2231126.38347   1731574.71945  22343100.6024                   22343102.9574
        45.5004         31.2504
   2909705.21546   2249482.30143  24320998.1254                   24321003.1094
        39.0004         22.2504
  -1352041.53148  -1014704.44548  20155111.7424                   20155113.1804
        49.0004         50.5004
  -1983436.28547  -1502600.13745  21601444.0634                   21601444.4384
        47.0004         33.2504
  -3766738.29346  -2854285.03944  23301954.2344                   23301957.6764
        41.2504         24.5004
  -1787348.25847  -1355665.73046  21837461.5784                   21837464.6214
        46.7504         41.7504
   3067468.96946   2372299.00044  23644303.1254                   23644303.9804
        41.5004         26.5004
   1882875.71147   1464848.28547  21101019.8834                   21101018.9454
        47.2504         44.7504
   1054550.98045    851171.39844  25497287.3364                   25497292.5314
        33.5004         24.0004
  -2983838.94546  -2253574.64544  24429458.3444                   24429464.5864
        37.2504         27.2504
 25  8  5 23 47 30.0000000  0 10G01G02G03G04G16G26G28G31G06G09
   2254831.30947   1750045.99645  22347611.9304                   22347613.7544
        45.7504         31.2504
   2946949.36746   2278503.38343  24328086.9064                   24328091.6564
        39.5004         21.5004
  -1429313.82048  -1074916.61348  20140407.1174                   20140408.7154
        49.5004         50.2504
  -2084805.53547  -1581589.11345  21582153.3284                   21582154.6454
        46.5004         33.7504
  -3920053.28146  -2973751.05943  23272779.0474                   23272782.4414
        41.2504         22.0004
  -1876501.89147  -1425136.03546  21820495.8364                   21820499.2384
        46.5004         41.5004
   3111152.03147   2406337.70344  23652615.6884                   23652616.7854
        42.2504         27.2504
   1897549.55547   1476282.43447  21103812.5944                   21103810.9384
        47.2504         45.2504
    931668.17645    755418.57444  25473904.4844                   25473908.1914
        33.7504         24.5004
  -3116211.54346  -2356721.98444  24404268.9064                   24404274.3364
        38.0004         27.7504
 25  8  5 23 48  0.0000000  0 10G01G02G03G04G16G26G28G31G06G09
   2278799.98047   1768722.77344  22352173.1954                   22352175.2774
        45.5004         29.5004
   2984127.31346   2307472.92243  24335161.7194                   24335165.8554
        40.2504         22.5004
  -1506161.83248  -1134798.17648  20125783.5474                   20125784.9454
        49.5004         50.2504
  -2186101.70747  -1660521.14845  21562877.5084                   21562878.5784
        46.5004         33.5004
  -4073288.20346  -3093154.70343  23243619.1644                   23243622.3134
        41.0004         22.5004
  -1965178.05547  -1494234.27747  21803621.5634                   21803624.8484
        46.2504         42.0004
   3154881.43047   2440412.50444  23660937.8444                   23660938.7974
        43.0004         28.2504
   1912544.61347   1487966.88747  21106665.6884                   21106664.3244
        47.2504         44.7504
    809108.77745    659917.73443  25450581.4614                   25450585.7234
        33.5004         22.7504
  -3248637.40246  -2459910.80544  24379068.0164                   24379073.8954
        37.5004         27.5004
 25  8  5 23 48 30.0000000  0 10G01G02G03G04G16G26G28G31G06G09
   2303029.86747   1787603.09845  22356783.1334                   22356786.0004
        45.0004         30.7504
   3021236.91846   2336389.20343  24342223.4694                   24342227.4574
        40.7504         22.0004
  -1582583.47748  -1194347.50048  20111241.0234                   20111242.2734
        50.0004         50.5004
  -2287324.14147  -1739395.71945  21543615.6804                   21543616.2704
        46.7504         34.0004
  -4226439.50046  -3212493.13743  23214475.5784                   23214478.4224
        41.5004         23.5004
  -2053374.44547  -1562958.66846  21786838.1334                   21786841.4574
        46.2504         41.5004
   3198655.41447   2474522.04344  23669267.3134                   23669268.6724
        42.5004         27.7504
   1927859.08647   1499900.22347  21109580.2504                   21109578.9264
        47.0004         44.7504
    686875.03945    564670.69543  25427321.4774                   25427326.0984
        33.2504         23.0004
  -3381115.97346  -2563140.68444  24353858.5234                   24353864.9224
        37.0004         28.7504
 25  8  5 23 49  0.0000000  0 10G01G02G03G04G16G26G28G31G06G09
   2327521.37547   1806687.28945  22361444.6484                   22361446.3954
        45.7504         30.2504
   3058278.37146   2365252.35943  24349272.4774                   24349277.0554
        40.5004         22.5004
  -1658573.71948  -1253560.67248  20096780.2194                   20096781.8444
        50.5004         50.5004
  -2388469.34447  -1818210.10945  21524367.9694                   21524369.3204
        46.5004         34.0004
  -4379500.02346  -3331760.91043  23185348.3284                   23185351.7814
        41.2504         22.5004
  -2141085.81247  -1631305.11747  21770147.5004                   21770150.4454
        46.5004         42.0004
   3242475.20346   2508667.27744  23677605.9924                   23677607.3284
        40.2504         27.0004
   1943493.45747   1512082.83647  21112554.6884                   21112553.5704
        46.5004         44.5004
    564972.73045    469681.91443  25404124.3134                   25404128.6414
        33.7504         22.2504
  -3513643.77046  -2666408.93044  24328639.1484                   24328645.2774
        37.0004         28.5004
 25  8  5 23 49 30.0000000  0 10G01G02G03G04G16G26G28G31G06G09
   2352273.63747   1825974.66445  22366154.5944                   22366157.0784
        45.5004         30.0004
   3095251.57846   2394062.38343  24356308.3754                   24356312.7114
        40.5004         23.5004
  -1734129.12148  -1312435.00048  20082402.7424                   20082403.8984
        50.0004         50.5004
  -2489535.09447  -1896962.58645  21505135.7894                   21505136.9654
        46.5004         33.7504
  -4532464.47747  -3450953.75843  23156239.8914                   23156243.2814
        42.0004         22.0004
  -2228308.26247  -1699270.59847  21753549.2424                   21753552.7974
        45.5004         42.0004
   3286340.63347   2542848.07444  23685953.3444                   23685954.5164
        42.2504         28.0004
   1959447.31648   1524514.39847  21115590.5634                   21115589.4844
        48.0004         44.5004
    443405.90245    374954.52743  25380991.2584                   25380995.0864
        34.2504         22.2504
  -3646218.53545  -2769713.76645  24303410.8674                   24303417.9264
        35.0004         30.0004
 25  8  5 23 50  0.0000000  0 10G01G02G03G04G16G26G28G31G06G09
   2377283.19547   1845462.52745  22370914.0474                   22370916.2074
        45.0004         31.0004
   3132153.36346   2422816.68043  24363330.9774                   24363335.1414
        40.5004         22.2504
  -1809248.48448  -1370969.55548  20068108.0084                   20068109.3094
        49.5004         50.5004
  -2590521.66447  -1975653.35545  21485918.5634                   21485919.5944
        45.7504         33.7504
  -4685329.99246  -3570069.55543  23127150.8204                   23127154.0394
        41.7504         23.0004
  -2315040.51647  -1766854.09847  21737044.1954                   21737047.8444
        46.0004         42.0004
   3330249.13746   2577062.44944  23694309.3524                   23694310.2464
        41.2504         26.0004
   1975717.53547   1537192.47747  21118687.3524                   21118685.7544
        47.2504         44.7504
    322176.28545    280489.94143  25357922.1564                   25357925.7814
        33.5004         21.2504
  -3778840.82845  -2873055.61344  24278172.4694                   24278179.3874
        32.5004         27.5004
 25  8  5 23 50 30.0000000  0 10G01G02G03G04G16G26G28G31G06G09
   2402550.26247   1865151.03945  22375722.3674                   22375724.9184
        45.0004         31.5004
   3168983.85546   2451515.53143  24370339.2114                   24370344.0904
        39.5004         21.2504
  -1883927.06648  -1429160.64548  20053896.9534                   20053898.3524
        48.7504         50.2504
  -2691425.69147  -2054279.79745  21466717.3914                   21466718.1804
        45.5004         34.2504
  -4838089.98446  -3689103.10944  23098081.5784                   23098084.7464
        41.5004         24.0004
  -2401277.53547  -1834051.70347  21720634.0864                   21720637.4184
        45.7504         42.0004
   3374201.80146   2611311.21144  23702673.4614                   23702673.9884
        40.7504         24.5004
   1992304.54747   1550117.41047  21121843.2344                   21121842.2384
        47.2504         44.5004
    201289.09445    186292.15243  25334917.5704                   25334922.3834
        35.2504         22.5004
  -3911507.26645  -2976431.80544  24252927.8364                   24252934.7234
        31.7504         25.2504
 25  8  5 23 51  0.0000000  0 10G01G02G03G04G16G26G28G31G06G09
   2428072.39847   1885038.31645  22380578.7894                   22380581.5434
        44.0004         31.5004
   3205741.42646   2480157.48043  24377333.7974                   24377338.8674
        39.0004         20.2504
  -1958162.76248  -1487006.62948  20039770.4304                   20039771.9534
        49.2504         50.5004
  -2792246.51647  -2132841.41445  21447531.8444                   21447532.7734
        44.5004         34.5004
  -4990740.07847  -3808051.03943  23069032.7894                   23069035.6484
        42.5004         23.2504
  -2487017.05147  -1900861.66046  21704318.4924                   21704321.4384
        46.0004         41.7504
   3418196.96546   2645593.08243  23711044.9614                   23711046.0904
        39.7504         23.0004
   2009206.88747   1563288.05147  21125059.7344                   21125058.8554
        47.0004         44.5004
     80747.16045     92363.40643  25311978.3524                   25311983.6684
        33.0004         22.0004
  -4044217.27745  -3079841.98044  24227673.7504                   24227680.3834
        33.0004         29.0004
 25  8  5 23 51 30.0000000  0 10G01G02G03G04G16G26G28G31G06G09
   2453846.11747   1905121.62145  22385483.6094                   22385486.0944
        45.5004         30.2504
   3242422.82846   2508740.07043  24384315.5314                   24384320.7304
        40.5004         22.2504
  -2031954.57048  -1544506.73048  20025728.4454                   20025729.7584
        49.0004         50.5004
  -2892984.37947  -2211338.38745  21428361.6644                   21428362.6994
        45.2504         34.0004
  -5143277.52347  -3926911.18743  23040006.3984                   23040008.7234
        42.5004         23.7504
  -2572257.81247  -1967282.96947  21688098.0234                   21688100.4804
        46.2504         42.0004
   3462232.08646   2679906.09043  23719424.4534                   23719426.4964
        39.2504         22.7504
   2026420.57847   1576701.30547  21128335.7734                   21128334.1644
        47.7504         44.5004
    -39448.09845     -1295.21144  25289106.2424                   25289111.0234
        35.5004         24.5004
  -4176970.97345  -3183286.23445  24202411.9304                   24202418.2384
        35.0004         30.7504
 25  8  5 23 52  0.0000000  0 10G01G02G03G04G16G26G28G31G06G09
   2479869.25447   1925399.28945  22390435.9064                   22390438.2344
        45.2504         30.5004
   3279025.92246   2537261.67243  24391280.7424                   24391285.2894
        40.0004         20.7504
  -2105300.14548  -1601659.10948  20011771.1884                   20011772.4964
        49.5004         50.5004
  -2993638.29747  -2289769.94945  21409207.8204                   21409208.6604
        45.5004         34.0004
  -5295698.18747  -4045680.34044  23011001.1094                   23011003.8874
        42.0004         24.0004
  -2656997.32047  -2033313.68046  21671972.2424                   21671975.4024
        44.5004         41.7504
   3506305.82446   2714249.20743  23727811.4064                   23727812.3634
        39.0004         22.2504
   2043944.09047   1590355.97747  21131670.3054                   21131668.8134
        47.7504         44.2504
   -159293.84846    -94681.48444  25266299.5864                   25266305.2934
        36.5004         24.2504
  -4309767.64846  -3286763.98045  24177140.3834                   24177147.4694
        36.7504         32.0004
 25  8  5 23 52 30.0000000  0 10G01G02G03G04G16G26G28G31G06G09
   2506141.89147   1945871.37145  22395435.4614                   22395437.5704
        45.2504         30.0004
   3315551.12046   2565722.52743  24398231.4144                   24398236.7194
        40.2504         21.5004
  -2178194.91048  -1658460.21548  19997899.9844                   19997901.1414
        49.7504         50.5004
  -3094204.96947  -2368133.51645  21390070.6884                   21390071.6214
        45.2504         34.5004
  -5447994.79746  -4164352.78143  22982020.0864                   22982022.5594
        41.5004         23.5004
  -2741230.71147  -2098950.03146  21655943.0394                   21655946.0474
        46.2504         41.7504
   3550419.14146   2748623.19143  23736206.3284                   23736206.8634
        39.5004         21.7504
   2061778.09447   1604252.59047  21135063.7424                   21135062.7194
        47.5004         44.5004
   -278784.81246   -187791.31644  25243562.0394                   25243566.4264
        36.7504         26.7504
  -4442603.98446  -3390272.66445  24151862.4534                   24151869.5594
        39.0004         32.7504
 25  8  5 23 53  0.0000000  0 10G01G02G03G04G16G26G28G31G06G09
   2532659.94947   1966534.68045  22400482.1254                   22400484.3404
        45.2504         30.0004
   3351995.16446   2594120.18843  24405165.8984                   24405171.9884
        38.7504         22.0004
  -2250638.45348  -1714909.71148  19984114.1644                   19984115.5594
        49.7504         50.5004
  -3194685.33247  -2446429.82045  21370949.8444                   21370950.7114
        45.0004         34.2504
  -5600165.94947  -4282927.50843  22953062.7344                   22953064.7584
        42.5004         23.0004
  -2824957.48447  -2164191.60246  21640009.9144                   21640013.7384
        46.5004         41.7504
   3594568.90646   2783025.56343  23744607.9384                   23744608.3094
        39.2504         22.0004
   2079918.95348   1618388.30947  21138516.3594                   21138514.8364
        48.7504         44.5004
   -397920.02046   -280623.92644  25220891.7974                   25220896.4804
        37.0004         27.5004
  -4575481.01246  -3493813.05545  24126577.7344                   24126583.3484
        39.7504         31.7504
 25  8  5 23 53 30.0000000  0 10G01G02G03G04G16G26G28G31G06G09
   2559426.20747   1987391.39144  22405575.2194                   22405577.9494
        44.7504         29.7504
   3388360.93846   2622456.80143  24412086.3204                   24412092.7504
        39.5004         22.0004
  -2322623.55148  -1771001.99248  19970415.7974                   19970417.1954
        49.2504         50.5004
  -3295073.34847  -2524654.18045  21351846.5634                   21351847.6024
        45.2504         34.0004
  -5752202.08647  -4401397.01643  22924131.0784                   22924133.4104
        42.0004         22.7504
  -2908170.14847  -2229032.57447  21624175.5394                   21624178.3054
        46.5004         42.5004
   3638758.82846   2817459.20344  23753017.1644                   23753017.6914
        40.0004         25.2504
   2098369.83647   1632765.60247  21142027.0394                   21142026.1174
        47.5004         44.5004
   -516691.70346   -373173.26244  25198289.8914                   25198294.1454
        37.5004         27.2504
  -4708392.74246  -3597380.54345  24101285.2034                   24101291.3284
        39.5004         30.0004
 25  8  5 23 54  0.0000000  0 10G01G02G03G04G16G26G28G31G06G09
   2586434.46147   2008436.67645  22410715.2974                   22410717.4884
        45.0004         30.7504
   3424642.72746   2650728.01243  24418990.5944                   24418997.5044
        37.7504         22.5004
  -2394151.94148  -1826738.39548  19956804.5314                   19956805.9224
        49.7504         50.5004
  -3395372.02047  -2602808.92245  21332760.5164                   21332761.1844
        45.0004         35.2504
  -5904102.67247  -4519760.90244  22895225.0084                   22895227.7384
        42.0004         24.5004
  -2990870.31247  -2293474.19947  21608438.0314                   21608441.2704
        46.0004         42.0004
   3682983.63746   2851920.02744  23761432.7114                   23761434.1094
        40.0004         24.5004
   2117124.69148   1647379.75447  21145595.9144                   21145594.6914
        48.0004         44.5004
   -635101.00846   -465440.21944  25175757.1334                   25175762.0944
        36.7504         28.7504
  -4841342.21946  -3700977.46144  24075985.6174                   24075990.1684
        38.0004         27.5004
 25  8  5 23 54 30.0000000  0 10G01G02G03G04G16G26G28G31G06G09
   2613682.69947   2029668.94545  22415900.4384                   22415903.2344
        45.2504         31.0004
   3460838.83246   2678932.42243  24425879.5554                   24425885.4064
        37.7504         21.0004
  -2465221.11348  -1882116.95748  19943280.3054                   19943281.6884
        49.5004         50.5004
  -3495580.05547  -2680893.04345  21313691.3444                   21313691.7664
        46.2504         34.0004
  -6055863.14847  -4638015.60243  22866344.7894                   22866348.3364
        42.5004         23.0004
  -3073055.29347  -2357514.38746  21592798.1254                   21592801.6564
        47.0004         41.5004
   3727242.20346   2886407.18444  23769854.3984                   23769855.7734
        40.7504         25.7504
   2136182.13347   1662229.68847  21149222.5554                   21149221.1174
        47.7504         44.2504
   -753144.90246   -557422.45345  25153294.7664                   25153298.8364
        37.5004         30.0004
  -4974328.35946  -3804602.92644  24050679.0164                   24050683.8954
        36.5004         26.7504
 25  8  5 23 55  0.0000000  0 10G01G02G03G04G16G26G28G31G06G09
   2641169.27047   2051086.94144  22421130.8674                   22421133.5164
        45.7504         29.7504
   3496948.07646   2707069.21143  24432750.8444                   24432756.6604
        38.0004         21.0004
  -2535828.34848  -1937135.56648  19929844.3444                   19929845.6564
        50.5004         50.7504
  -3595695.95347  -2758905.36745  21294639.6804                   21294640.6254
        46.7504         34.7504
  -6207478.75847  -4756157.43044  22837493.8284                   22837496.3404
        42.5004         25.2504
  -3154722.23847  -2421150.89847  21577257.9694                   21577261.2234
        46.5004         42.0004
   3771533.89146   2920920.14844  23778283.2734                   23778284.8324
        41.2504         25.5004
   2155540.87148   1677314.39547  21152906.2584                   21152905.1374
        48.0004         44.2504
   -870820.06646   -649117.36344  25130900.8524                   25130906.3524
        38.2504         29.5004
  -5107349.63345  -3908255.77044  24025365.5704                   24025370.8014
        35.7504         25.7504
 25  8  5 23 55 30.0000000  0 10G01G02G03G04G16G26G28G31G06G09
   2668890.72747   2072687.97344  22426405.6174                   22426408.8914
        44.0004         29.7504
   3532966.88746   2735135.45743  24439605.4064                   24439612.1174
        37.5004         21.7504
  -2605972.59848  -1991793.42248  19916496.0004                   19916497.7544
        50.0004         50.5004
  -3695719.84047  -2836846.00045  21275605.7424                   21275606.4144
        47.2504         34.5004
  -6358946.44147  -4874183.99644  22808670.3524                   22808673.2854
        42.0004         24.0004
  -3235869.95747  -2484382.82446  21561815.7664                   21561819.1954
        45.7504         41.7504
   3815856.28546   2955457.00844  23786717.1094                   23786719.1764
        41.5004         27.2504
   2175197.75848   1692631.43047  21156647.0784                   21156645.6094
        48.2504         44.5004
   -988124.80546   -740523.63345  25108579.0784                   25108583.9224
        38.7504         31.5004
  -5240406.24246  -4011936.10244  24000046.0864                   24000051.2584
        36.5004         29.0004
 25  8  5 23 56  0.0000000  0 10G01G02G03G04G16G26G28G31G06G09
   2696843.31347   2094469.09044  22431725.2034                   22431728.5234
        44.5004         29.5004
   3568892.88746   2763129.44143  24446442.3444                   24446448.0864
        38.5004         21.0004
  -2675653.25448  -2046090.03148  19903236.6254                   19903237.7624
        49.5004         50.5004
  -3795652.23447  -2914715.35245  21256589.5704                   21256589.9804
        46.7504         34.0004
  -6510263.84847  -4992093.46544  22779875.4694                   22779878.0864
        42.0004         24.2504
  -3316497.71947  -2547209.59046  21546473.0004                   21546476.1214
        46.0004         41.5004
   3860206.53546   2990015.57444  23795157.0554                   23795158.8954
        41.7504         27.5004
   2195149.46547   1708178.20347  21160443.4774                   21160442.7274
        47.5004         44.5004
  -1105057.99246   -831640.37544  25086328.1724                   25086332.0594
        37.7504         29.5004
  -5373498.82445  -4115644.45345  23974719.0704                   23974724.9694
        35.5004         30.0004
 25  8  5 23 56 30.0000000  0 10G01G02G03G04G16G26G28G31G06G09
   2725026.05547   2116429.52744  22437088.2974                   22437091.4614
        44.7504         29.7504
   3604724.83246   2791050.05943  24453260.9844                   24453267.3244
        37.7504         21.5004
  -2744866.84448  -2100022.68748  19890065.4774                   19890067.2344
        50.0004         50.5004
  -3895490.82047  -2992511.60245  21237590.6954                   21237591.4774
        46.5004         34.2504
  -6661425.01647  -5109881.17244  22751109.9774                   22751113.0554
        42.0004         24.5004
  -3396601.84447  -2609628.33247  21531229.3524                   21531232.7774
        46.0004         42.0004
   3904584.73447   3024595.91444  23803602.6884                   23803603.4694
        43.0004         27.0004
   2215395.44547   1723954.27747  21164296.2734                   21164295.4654
        47.7504         44.2504
  -1221615.53546   -922464.39545  25064147.6954                   25064151.8954
        36.5004         30.5004
  -5506625.08246  -4219379.02745  23949385.3914                   23949391.8324
        36.0004         31.0004
 25  8  5 23 57  0.0000000  0 10G01G02G03G04G16G26G28G31G06G09
   2753438.54747   2138569.02344  22442494.9384                   22442497.6604
        44.0004         29.5004
   3640463.02746   2818897.69943  24460062.8134                   24460068.4804
        39.7504         23.5004
  -2813609.38748  -2153588.30148  19876984.0314                   19876985.9064
        49.0004         50.7504
  -3995232.74247  -3070232.53945  21218610.3914                   21218611.0594
        45.0004         34.2504
  -6812423.88747  -5227542.44144  22722376.1094                   22722378.2854
        42.2504         24.0004
  -3476178.31247  -2671635.91047  21516086.4144                   21516090.0634
        46.0004         42.0004
   3948991.43447   3059198.48844  23812052.2034                   23812053.7154
        42.5004         27.7504
   2235935.88347   1739959.78947  21168205.4534                   21168204.3094
        47.2504         44.2504
  -1337792.87946  -1012992.16044  25042040.0234                   25042044.0084
        36.7504         29.7504
  -5639782.25446  -4323137.71945  23924045.8594                   23924052.6214
        37.7504         33.0004
 25  8  5 23 57 30.0000000  0 10G01G02G03G04G16G26G28G31G06G09
   2782078.08247   2160885.42244  22447945.2114                   22447948.1724
        45.0004         29.0004
   3676105.23446   2846670.48843  24466844.7974                   24466851.5474
        40.2504         22.2504
  -2881879.21548  -2206785.56248  19863993.0704                   19863994.3984
        50.0004         50.7504
  -4094877.39547  -3147877.67245  21199648.6564                   21199649.2544
        46.2504         34.7504
  -6963256.55946  -5345074.18044  22693673.7664                   22693675.7624
        41.7504         25.2504
  -3555225.31247  -2733230.91047  21501044.5474                   21501048.2544
        46.5004         42.5004
   3993425.02346   3093821.98844  23820508.1094                   23820509.5944
        41.5004         26.5004
   2256768.35947   1756192.87947  21172169.8754                   21172168.4964
        47.7504         44.2504
  -1453587.78946  -1103221.90644  25020003.8674                   25020009.0004
        36.5004         29.7504
  -5772969.76246  -4426920.06245  23898701.0784                   23898708.1454
        39.0004         33.7504
 25  8  5 23 58  0.0000000  0 10G01G02G03G04G16G26G28G31G06G09
   2810939.16047   2183374.44944  22453437.1334                   22453440.3444
        44.5004         29.0004
   3711646.06346   2874364.34843  24473608.4694                   24473614.6804
        39.2504         21.5004
  -2949677.48448  -2259615.36748  19851091.1564                   19851092.6134
        49.5004         50.5004
  -4194426.94947  -3225448.71145  21180704.6094                   21180705.7464
        45.0004         34.0004
  -7113922.03146  -5462475.66444  22665002.6644                   22665004.9454
        41.2504         25.0004
  -3633743.87147  -2794414.14147  21486102.7424                   21486105.9614
        46.0004         42.0004
   4037881.00446   3128462.95744  23828967.2664                   23828969.5204
        40.5004         26.5004
   2277887.70748   1772649.49647  21176188.3134                   21176187.1914
        48.0004         44.2504
  -1569000.75446  -1193154.06644  24998041.8364                   24998046.9924
        36.5004         28.5004
  -5906189.96546  -4530727.84045  23873350.9384                   23873356.4734
        39.2504         34.5004
 25  8  5 23 58 30.0000000  0 10G01G02G03G04G16G26G28G31G06G09
   2840019.80547   2206034.57844  22458971.2584                   22458974.3634
        44.0004         29.2504
   3747084.30946   2901978.23443  24480352.7504                   24480359.4774
        40.5004         22.0004
  -3017001.74248  -2312075.82448  19838279.9694                   19838281.1094
        50.0004         50.5004
  -4293880.06247  -3302944.59845  21161779.5474                   21161780.2774
        45.2504         33.7504
  -7264415.89547  -5579743.41443  22636364.5864                   22636366.3014
        42.2504         23.0004
  -3711731.48847  -2855183.66847  21471262.2734                   21471265.4614
        46.0004         42.5004
   4082358.52746   3163120.71144  23837432.0554                   23837433.1174
        40.7504         24.7504
   2299292.50047   1789328.54747  21180261.6724                   21180260.1724
        47.0004         44.2504
  -1684028.77746  -1282786.28544  24976152.8364                   24976157.4844
        37.5004         29.0004
  -6039441.51246  -4634560.05945  23847994.0634                   23847999.3134
        40.7504         35.7504
 25  8  5 23 59  0.0000000  0 10G01G02G03G04G16G26G28G31G06G09
   2869317.97747   2228864.19144  22464546.8834                   22464549.1564
        44.2504         29.0004
   3782418.44646   2929510.99143  24487076.7344                   24487082.8554
        39.5004         20.5004
  -3083849.77048  -2364165.18448  19825559.3524                   19825560.2894
        50.2504         50.5004
  -4393235.50447  -3380364.37945  21142872.8834                   21142873.3204
        45.7504         34.2504
  -7414733.45747  -5696873.78544  22607759.6094                   22607762.2814
        43.2504         25.2504
  -3789185.82047  -2915537.62547  21456522.6254                   21456526.4064
        46.2504         42.5004
   4126856.48846   3197794.38343  23845899.0554                   23845900.5084
        41.0004         23.7504
   2320980.91447   1806228.59447  21184388.7664                   21184387.6604
        47.5004         44.2504
  -1798668.98846  -1372116.29344  24954337.4844                   24954342.1604
        37.5004         29.0004
  -6172723.35946  -4738415.88745  23822631.3134                   23822637.3094
        39.2504         33.5004
 25  8  5 23 59 30.0000000  0 10G01G02G03G04G16G26G28G31G06G09
   2898830.50447   2251860.84844  22470163.0864                   22470165.8554
        44.7504         29.7504
   3817645.60246   2956960.44143  24493779.8524                   24493786.8554
        38.5004         20.5004
  -3150220.32848  -2415882.49248  19812929.0944                   19812930.4574
        49.5004         50.5004
  -4492493.07047  -3457707.89545  21123984.5394                   21123985.4144
        45.5004         34.0004
  -7564871.22347  -5813864.06244  22579189.4924                   22579191.7034
        43.0004         25.0004
  -3866105.55547  -2975475.02747  21441886.0314                   21441889.1414
        46.2504         42.5004
   4171373.01246   3232482.50043  23854370.5084                   23854372.1454
        40.0004         23.0004
   2342950.57047   1823347.79747  21188569.6484                   21188568.7344
        47.7504         44.2504
  -1912919.58246  -1461142.72344  24932596.0554                   24932600.9734
        38.2504         27.5004
  -6306035.28546  -4842295.14145  23797262.7274                   23797267.4964
        39.5004         32.0004
 25  8  6  0  0  0.0000000  0 10G01G02G03G04G16G26G28G31G06G09
   4503979.27747   3502625.98045  22775612.3674                   22775615.9024
        45.0004         30.0004
   5428188.30546   4211928.46943  24800256.5164                   24800262.5204
        39.7504         19.5004
  -1640684.04348  -1239620.43748  20100184.5394                   20100185.9344
        49.7504         50.5004
  -3016223.21547  -2307367.70345  21404909.3914                   21404910.3134
        46.2504         34.2504
  -6139394.86347  -4703103.07444  22850448.5004                   22850450.3134
        42.7504         24.0004
  -2367060.91047  -1807388.24647  21727144.7734                   21727147.9454
        45.7504         42.5004
   5791330.39246   4494786.85643  24162638.0004                   24162639.4304
        38.0004         22.0004
   3940624.01648   3068288.13747  21492597.0474                   21492595.4574
        48.2504         44.2504
   -451348.96146   -322256.53544  25210723.1254                   25210728.3404
        36.7504         25.2504
  -4863946.81246  -3718589.67245  24071681.6954                   24071687.6994
        37.5004         30.7504
