     2.11           OBSERVATION DATA    G (GPS)             RINEX VERSION / TYPE
teqc  2019Feb25                         20250820 05:27:06UTCPGM / RUN BY / DATE
Linux 2.6.32-573.12.1.x86_64|x86_64|gcc -static|Linux 64|=+ COMMENT
BIT 2 OF LLI FLAGS DATA COLLECTED UNDER A/S CONDITION       COMMENT
38333560                                                    MARKER NAME
3833                                                        MARKER NUMBER
-Unknown-           -Unknown-                               OBSERVER / AGENCY
0440103833          TRIMBLE 5700        2.32                REC # / TYPE / VERS
-Unknown-           TRM39105.00     NONE                    ANT # / TYPE
 -2416481.8706 -4592254.2467  3695995.6414                  APPROX POSITION XYZ
        0.0000        0.0000        0.0000                  ANTENNA: DELTA H/E/N
     1     1                                                WAVELENGTH FACT L1/2
     7    L1    L2    C1    P1    P2    S1    S2            # / TYPES OF OBSERV
 SNR is mapped to RINEX snr flag value [0-9]                COMMENT
  L1 & L2: min(max(int(snr_dBHz/6), 0), 9)                  COMMENT
  2025     8     7     5    18    0.0000000     GPS         TIME OF FIRST OBS
                                                            END OF HEADER
 25  8  7  5 18  0.0000000  0  3G22G14G13
   -233607.44157   -152017.96555  21711358.9304                   21711357.7584
        46.5004         31.2504
   -199066.03157   -129506.00455  20839713.6414                   20839712.9144
        47.2504         35.5004
   -310243.80557   -165730.05955  22738412.0084                   22738411.2154
        46.2504         31.5004
 25  8  7  5 18 30.0000000  0  7G05G09G08G22G07G14G13
    -19290.12555    -12205.48053  24479478.8444                   24479479.6024
        33.0004         19.5004
    106879.30956     63192.67655  22788501.5784                   22788501.8954
        40.0004         34.5004
     59051.77357     38615.93856  22576067.4144                   22576068.2774
        46.0004         41.0004
   -335531.60247   -231439.35545  21691963.6254                   21691962.3754
        45.0004         31.7504
    -50742.02058    -34345.55157  20955405.7974                   20955403.3984
        49.7504         47.2504
   -285912.68747   -197178.68745  20823187.1174                   20823186.5124
        47.0004         35.5004
   -449833.08247   -274500.87945  22711849.0554                   22711848.1254
        46.5004         31.5004
 25  8  7  5 19  0.0000000  0  7G05G09G08G22G07G14G13
    -29610.34445    -20247.23443  24477517.9534                   24477517.5554
        32.5004         19.0004
    167609.97746    110515.22345  22800057.7344                   22800058.1174
        40.5004         34.0004
     92889.82047     64983.22746  22582506.6484                   22582507.1884
        46.2504         40.5004
   -437130.39547   -310607.21945  21672629.9844                   21672628.8134
        46.0004         31.2504
    -84713.62948    -60816.94147  20948940.8204                   20948938.2544
        50.7504         47.0004
   -372456.14147   -264615.11746  20806718.4924                   20806717.6604
        47.0004         36.0004
   -589137.00447   -383049.34845  22685340.2034                   22685338.9264
        47.5004         30.7504
 25  8  7  5 19 30.0000000  0  8G30G09G08G22G07G17G14G13
   -161215.78156   -101446.71155  20552374.0394                   20552374.4344
        38.0004         34.2504
    228531.61346    157986.57845  22811651.2664                   22811651.2774
        40.0004         33.7504
    127144.52747     91675.20746  22589024.6804                   22589025.6914
        45.0004         40.0004
   -538394.71947   -389514.48045  21653360.1024                   21653358.8594
        45.5004         32.2504
   -118422.06248    -87083.27047  20942526.3364                   20942524.4384
        50.2504         47.0004
   -295804.03557   -176903.93455  22626285.3674                   22626283.9884
        42.7504         35.2504
   -458687.88747   -331808.65246  20790309.4454                   20790308.4654
        47.5004         37.0004
   -728144.24647   -491366.61745  22658887.7664                   22658887.1844
        47.0004         31.7504
 25  8  7  5 20  0.0000000  0  9G02G30G09G08G22G07G17G14G13
   -346826.11356   -242615.09053  24351528.8284                   24351525.1214
        40.7504         20.7504
   -237464.24646   -160861.09445  20537864.2344                   20537864.8954
        37.7504         35.0004
    289647.58246    205609.38345  22823280.5234                   22823281.0234
        38.5004         32.7504
    161819.18447    118694.40646  22595622.4384                   22595624.0634
        44.2504         40.2504
   -639318.91447   -468156.69145  21634155.0784                   21634153.6414
        46.2504         32.0004
   -151860.57448   -113139.25847  20936163.2504                   20936161.3794
        50.2504         47.2504
   -444883.61347   -293069.78546  22597915.8914                   22597915.0984
        43.0004         36.0004
   -544602.27747   -398754.91446  20773960.1644                   20773959.8054
        47.5004         36.0004
   -866845.96147   -599445.82445  22632493.6884                   22632493.1334
        46.5004         31.2504
 25  8  7  5 20 30.0000000  0  9G02G30G09G08G22G07G17G14G13
   -434164.82046   -310671.17643  24334908.7344                   24334905.4304
        40.7504         21.2504
   -313455.77046   -220075.27345  20523403.7344                   20523403.8794
        38.5004         34.7504
    350961.66046    253386.53545  22834948.6174                   22834949.6454
        39.0004         33.5004
    196917.43847    146043.68446  22602301.9384                   22602303.0004
        44.7504         39.5004
   -739896.53547   -546528.81645  21615015.7974                   21615014.7464
        46.0004         31.7504
   -185021.65248   -138979.05547  20929852.9844                   20929851.0354
        49.7504         47.0004
   -593728.15247   -409052.48446  22569592.3054                   22569591.1724
        43.7504         37.0004
   -630193.18447   -465449.09446  20757673.0634                   20757671.8324
        47.0004         36.0004
  -1005233.10947   -707279.89845  22606159.7814                   22606158.8594
        46.7504         31.0004
 25  8  7  5 21  0.0000000  0  9G02G30G09G08G22G07G17G14G13
   1054275.01246    849152.13743  24618148.6174                   24618145.6134
        41.0004         19.7504
   1186235.00046    948514.96145  20808784.7424                   20808786.1644
        38.5004         35.5004
   1987890.75446   1528915.65645  23146445.6024                   23146447.2464
        39.2504         33.5004
   1807856.97347   1401321.23846  22908853.3054                   22908854.7464
        44.0004         39.2504
    735297.64847    602973.17645  21895736.6174                   21895734.5784
        47.5004         34.0004
   1357518.54348   1063000.31647  21223388.4384                   21223386.4964
        49.7504         47.0004
    833091.53547    702755.13746  22841106.3674                   22841105.7034
        43.5004         36.5004
    859963.53947    695712.02746  21041240.3134                   21041239.1954
        47.0004         37.0004
    432123.18847    412738.06345  22879679.5234                   22879678.4264
        46.7504         30.2504
 25  8  7  5 21 30.0000000  0  9G02G30G09G08G22G07G17G14G13
    967648.66446    781651.14543  24601664.0084                   24601660.8404
        39.7504         19.5004
   1110762.73846    889705.42645  20794422.6024                   20794423.7974
        37.7504         35.0004
   2049594.83246   1576996.72345  23158187.6334                   23158189.4064
        39.0004         33.5004
   1843795.85947   1429325.55146  22915692.4534                   22915693.0274
        44.5004         39.5004
    635414.94547    525142.54345  21876729.3444                   21876727.6454
        47.5004         32.5004
   1324917.03548   1037596.53547  21217184.5784                   21217181.9734
        49.7504         47.2504
    684726.89847    587146.39546  22812874.0004                   22812872.6724
        43.2504         36.5004
    775020.33248    629522.56346  21025076.2424                   21025074.4144
        48.2504         36.5004
    294374.98847    305401.87945  22853466.7894                   22853465.4654
        47.0004         30.5004
 25  8  7  5 22  0.0000000  0  9G02G30G09G08G22G07G17G14G13
    881378.49646    714427.69143  24585248.0234                   24585243.9884
        38.7504         20.2504
   1035548.46546    831096.91445  20780110.2344                   20780110.8594
        37.7504         35.0004
   2111486.47346   1625223.92645  23169965.1884                   23169967.0234
        40.0004         34.5004
   1880147.30147   1457651.33646  22922610.6724                   22922611.0004
        43.7504         39.0004
    535875.41047    447579.31345  21857787.4694                   21857785.4264
        46.7504         33.2504
   1292593.04748   1012408.99247  21211033.6724                   21211031.2344
        50.2504         47.0004
    536602.76247    471725.03946  22784686.5784                   22784685.6254
        43.7504         36.7504
    690396.88747    563582.25046  21008972.9924                   21008970.7974
        47.7504         36.0004
    156946.69947    198314.97345  22827314.8524                   22827313.7544
        47.0004         30.7504
 25  8  7  5 22 30.0000000  0  9G02G30G09G08G22G07G17G14G13
    795466.82846    647483.54743  24568899.7034                   24568895.9734
        38.2504         20.7504
    960593.46146    772690.41046  20765846.9774                   20765847.7304
        39.7504         36.2504
   2173563.02746   1673595.23445  23181779.2274                   23181780.4064
        41.0004         35.2504
   1916908.64847   1486296.53546  22929605.6644                   22929606.3834
        43.7504         38.7504
    436679.57847    370283.91445  21838910.8674                   21838909.0594
        47.5004         32.5004
   1260547.37548    987438.32447  21204935.2344                   21204933.5634
        49.0004         46.7504
    388722.05547    356493.37146  22756545.8984                   22756544.1884
        44.0004         37.0004
    606092.89847    497890.86746  20992930.6484                   20992928.6564
        47.5004         36.0004
     19841.43447     91479.77344  22801224.3284                   22801223.0434
        47.0004         29.5004
 25  8  7  5 23  0.0000000  0  9G02G30G09G08G22G07G17G14G13
    709914.02746    580819.08243  24552619.2974                   24552616.3954
        39.0004         21.5004
    885897.05946    714485.43046  20751632.8984                   20751633.8634
        39.5004         36.7504
   2235820.03546   1722107.13746  23193626.3204                   23193627.5984
        41.0004         36.5004
   1954075.16447   1515257.44546  22936678.2194                   22936679.0164
        44.0004         39.2504
    337825.43047    293254.75045  21820099.4304                   21820097.3794
        47.7504         33.2504
   1228779.34048    962684.01647  21198890.3674                   21198888.3094
        50.0004         46.7504
    241085.75047    241452.14146  22728451.4384                   22728450.3634
        43.7504         37.2504
    522106.19548    432446.70746  20976948.3674                   20976946.4964
        48.2504         36.0004
   -116940.56247    -15103.52045  22775195.5944                   22775194.2034
        45.7504         30.7504
