     2.11           OBSERVATION DATA    G (GPS)             RINEX VERSION / TYPE
teqc  2019Feb25                         20250724 19:27:14UTCPGM / RUN BY / DATE
Linux 2.6.32-573.12.1.x86_64|x86_64|gcc -static|Linux 64|=+ COMMENT
BIT 2 OF LLI FLAGS DATA COLLECTED UNDER A/S CONDITION       COMMENT
35323331                                                    MARKER NAME
3331                                                        MARKER NUMBER
-Unknown-           -Unknown-                               OBSERVER / AGENCY
0220413532          TRIMBLE R7          2.32                REC # / TYPE / VERS
-Unknown-           TRM39105.00     NONE                    ANT # / TYPE
 -2376964.3405 -4662095.2733  3635503.3157                  APPROX POSITION XYZ
        0.0000        0.0000        0.0000                  ANTENNA: DELTA H/E/N
     1     1                                                WAVELENGTH FACT L1/2
     7    L1    L2    C1    P1    P2    S1    S2            # / TYPES OF OBSERV
    18                                                      LEAP SECONDS
 SNR is mapped to RINEX snr flag value [0-9]                COMMENT
  L1 & L2: min(max(int(snr_dBHz/6), 0), 9)                  COMMENT
  2025     7    15    20     9    0.0000000     GPS         TIME OF FIRST OBS
                                                            END OF HEADER
 25  7 15 20  9  0.0000000  0  6G10G18G23G24G27G32
   -253723.20758   -139741.23458  21047823.0704                   21047820.1914
        50.0004         51.0004
   -183099.40257   -105784.92255  22005796.2424                   22005791.8524
        46.0004         33.5004
   -199922.99657   -110185.41456  21469827.9454                   21469823.8404
        46.7504         36.7504
   -215491.84456    -61188.80155  23084676.3134                   23084674.0474
        41.0004         34.2504
   -233466.76657   -129414.63757  21493120.3204                   21493117.1954
        47.5004         46.5004
   -304330.31258   -167526.82858  21140236.8754                   21140234.4774
        49.7504         50.0004
 25  7 15 20  9 30.0000000  0  7G08G10G18G23G24G27G32
   -597960.55957   -397325.23856  22896397.8444                   22896396.6684
        43.0004         38.7504
   -518314.67248   -345916.41448  20997473.2504                   20997469.7074
        50.2504         51.2504
   -374224.01647   -254713.23845  21969426.3754                   21969422.0944
        46.2504         33.2504
   -408735.28147   -272896.32045  21430092.2114                   21430087.6884
        47.2504         35.2504
   -471714.59846   -260842.91445  23035918.5314                   23035916.4844
        40.0004         33.5004
   -478325.13748   -320213.38747  21446525.6334                   21446522.3404
        48.0004         46.2504
   -621179.85248   -414422.57048  21079942.3834                   21079939.5274
        50.0004         50.0004
 25  7 15 20 10  0.0000000  0  7G08G10G18G23G24G27G32
    672715.91047    592812.27346  23138199.6724                   23138197.8484
        43.0004         38.5004
    792437.73048    675449.08248  21246901.3914                   21246897.6994
        50.7504         51.2504
   1010158.19147    824026.09045  22232865.2424                   22232861.4734
        46.0004         33.0004
    957738.73447    791888.58245  21690123.7344                   21690119.5514
        47.0004         35.5004
    847827.12146    767371.40645  23287018.1334                   23287016.2154
        40.2504         33.7504
    852570.41448    716848.03947  21699786.4924                   21699783.5084
        48.0004         46.5004
    637585.36748    566433.46148  21319477.3834                   21319474.9654
        49.5004         50.0004
 25  7 15 20 10 30.0000000  0  7G08G10G18G23G24G27G32
    368399.48847    355682.60546  23080290.4534                   23080289.0234
        42.2504         37.7504
    527867.03948    469290.09048  21196554.9064                   21196552.0394
        51.0004         51.5004
    819385.34447    675371.86745  22196562.8524                   22196558.6054
        46.0004         33.2504
    748835.95347    629107.16445  21650370.9064                   21650366.5124
        46.7504         35.2504
    592468.25846    568390.45745  23238424.9384                   23238423.7034
        38.7504         34.2504
    608554.02347    526705.37547  21653351.3914                   21653348.2934
        47.5004         46.2504
    321296.65248    319974.73048  21259289.7734                   21259287.1414
        49.7504         50.0004
 25  7 15 20 11  0.0000000  0  7G08G10G18G23G24G27G32
     64550.43446    118917.11746  23022469.4924                   23022468.1564
        41.5004         38.0004
    263430.30148    263235.47748  21146234.3984                   21146231.0664
        50.5004         51.5004
    628912.10247    526951.11345  22160316.3054                   22160312.4924
        46.0004         32.5004
    540011.58647    466386.84445  21610633.0944                   21610628.5744
        47.0004         35.5004
    337666.69146    369843.77745  23189938.0704                   23189936.7974
        39.5004         34.2504
    365081.68047    336986.64547  21607020.3444                   21607017.3594
        46.5004         46.5004
      5414.42248     73832.75048  21199179.1484                   21199176.4884
        49.5004         50.0004
 25  7 15 20 11 30.0000000  0  7G08G10G18G23G24G27G32
   -238820.24647   -117475.59446  22964740.7034                   22964738.5084
        43.0004         38.7504
      -863.36348     57292.34848  21095940.9224                   21095937.6914
        49.5004         51.0004
    438747.50047    378770.85945  22124129.3134                   22124125.8524
        46.5004         33.5004
    331274.73447    303734.72745  21570911.9774                   21570907.4344
        46.7504         35.7504
     83432.62946    171739.30145  23141559.0164                   23141557.9144
        40.0004         35.0004
    122162.10947    147698.64847  21560794.3594                   21560791.5234
        47.5004         46.5004
   -310050.60248   -171984.13348  21139148.2664                   21139145.2894
        49.2504         50.2504
 25  7 15 20 12  0.0000000  0  7G08G10G18G23G24G27G32
   -541712.41047   -353495.44946  22907101.8594                   22907100.0084
        42.0004         38.5004
   -265015.57848   -148540.56248  21045674.1644                   21045671.4144
        48.5004         51.0004
    248889.98447    230829.87945  22088000.7504                   22087997.0784
        45.5004         33.0004
    122623.85947    141149.59445  21531207.2814                   21531202.6724
        46.0004         35.0004
   -170234.44146    -25923.35545  23093287.5164                   23093286.4774
        40.0004         34.7504
   -120206.74647    -41160.22347  21514672.9064                   21514670.2814
        46.2504         46.2504
   -625098.45748   -417475.96148  21079196.6644                   21079194.0594
        49.5004         50.5004
 25  7 15 20 12 30.0000000  0  7G08G10G18G23G24G27G32
   -844125.52046   -589142.00046  22849554.2424                   22849552.5824
        41.7504         38.5004
   -529027.66848   -354264.27748  20995434.6414                   20995431.5314
        49.5004         51.2504
     59338.23847     83127.17245  22051930.6094                   22051926.5124
        45.2504         33.5004
    -85942.30947    -21369.53145  21491518.1884                   21491513.7464
        46.5004         35.0004
   -423334.75046   -223144.37945  23045124.8204                   23045123.0984
        38.5004         34.5004
   -362026.66847   -229591.35947  21468655.9774                   21468653.3524
        47.2504         46.5004
   -939728.88748   -662642.51248  21019324.4304                   21019322.0864
        49.7504         50.5004
 25  7 15 20 13  0.0000000  0  7G08G10G18G23G24G27G32
    429368.18846    403190.78546  23091891.4144                   23091890.2544
        41.2504         38.5004
    782525.08648    667724.87548  21245014.8284                   21245011.3524
        50.0004         51.0004
   1445514.46547   1163264.44145  22315711.4224                   22315707.1764
        44.5004         33.0004
   1280999.16847   1043779.64145  21751638.9384                   21751634.3014
        46.0004         35.5004
    899556.99646    807680.34845  23296862.3674                   23296860.5904
        40.0004         35.2504
    972125.85947    810007.98847  21722536.9064                   21722534.0164
        46.7504         46.5004
    321486.05948    320122.39848  21259325.8054                   21259323.0474
        50.2504         50.7504
 25  7 15 20 13 30.0000000  0  8G08G10G18G23G24G27G32G02
    127903.74646    168283.44146  23034524.8594                   23034523.7734
        41.5004         38.2504
    518778.42248    462207.98048  21194825.2034                   21194822.4024
        50.0004         51.0004
   1256559.41847   1016026.69145  22279754.0944                   22279749.9964
        45.5004         33.2504
   1072587.80147    881381.14145  21711979.3054                   21711974.8834
        46.0004         35.5004
    647578.38346    611333.36345  23248912.4454                   23248911.4144
        40.0004         35.2504
    731387.56647    622419.68047  21676726.1484                   21676723.0434
        46.2504         46.2504
      7680.30548     75598.44948  21199610.2424                   21199607.6054
        50.0004         50.7504
   2323158.54355   1888158.07852  25470298.2894                   25470292.8364
        33.5004         16.2504
 25  7 15 20 14  0.0000000  0  8G08G10G18G23G24G27G32G02
   -173094.71146    -66260.79746  22977247.1484                   22977245.6214
        41.7504         38.5004
    255153.54348    256785.99248  21144659.0004                   21144656.2704
        50.2504         51.0004
   1067891.68847    869012.82445  22243852.0784                   22243848.2774
        45.5004         33.7504
    864242.95747    719034.48445  21672332.7274                   21672327.9104
        46.7504         35.2504
    396151.08246    415415.97745  23201067.3594                   23201066.0314
        40.0004         34.7504
    491178.35547    435243.64847  21631015.7034                   21631012.7704
        46.2504         46.0004
   -305721.78148   -168610.95348  21139972.0944                   21139969.1094
        50.5004         51.0004
   1974286.19155   1616309.60552  25403909.5944                   25403905.2544
        33.5004         14.7504
 25  7 15 20 14 30.0000000  0  8G08G10G18G23G24G27G32G02
   -473627.57046   -300442.21946  22920057.2344                   22920055.5664
        41.2504         37.5004
     -8351.65648     51457.26248  21094515.6564                   21094512.7704
        49.5004         51.2504
    879509.09847    722221.14545  22208004.0864                   22207999.8404
        45.2504         33.5004
    655962.55147    556738.03945  21632697.9694                   21632693.2584
        45.7504         35.5004
    145274.02346    219927.34045  23153327.3914                   23153325.8874
        39.7504         34.7504
    251495.55947    248477.81647  21585405.5944                   21585402.5634
        46.0004         46.0004
   -618720.84448   -412506.29748  21080410.1484                   21080407.3014
        50.7504         51.0004
   1625328.22755   1400591.32052  25337505.2344                   25337499.3404
        32.5004         17.7504
 25  7 15 20 15  0.0000000  0  8G08G10G18G23G24G27G32G02
   -773694.40246   -534260.50046  22862956.5394                   22862954.9344
        41.5004         38.0004
   -271738.50848   -153779.25448  21044394.9144                   21044391.8404
        51.0004         51.0004
    691410.21947    575650.54345  22172210.0634                   22172205.7774
        45.5004         32.5004
    447745.39847    394490.88345  21593075.4774                   21593071.3954
        47.2504         35.7504
   -105053.32046     24867.06345  23105691.0164                   23105689.7734
        40.2504         34.7504
     12337.27047     62120.68847  21539895.2894                   21539892.7424
        47.2504         46.5004
   -931316.66848   -656087.44948  21020925.0164                   21020922.4804
        50.0004         50.7504
   1276285.28155   1128609.97352  25271083.4844                   25271080.0124
        30.5004         13.7504
 25  7 15 20 15 30.0000000  0  8G08G10G18G23G24G27G32G02
  -1073296.13346   -767716.37946  22805943.8524                   22805942.3134
        41.0004         37.2504
   -535009.57048   -358925.53948  20994295.9384                   20994292.7934
        50.0004         51.0004
    503592.44947    429298.97345  22136469.4064                   22136465.5704
        45.0004         33.0004
    239588.98047    232291.03945  21553464.6644                   21553460.1764
        47.0004         35.7504
   -354832.60246   -169766.16045  23058160.3834                   23058158.1414
        39.0004         34.5004
   -226299.78147   -123830.28547  21494484.3444                   21494481.3714
        47.2504         46.0004
  -1243510.44948   -899355.30148  20961516.3834                   20961513.6644
        50.5004         51.0004
    927156.55945    856561.73442  25204646.7734                   25204643.2034
        33.5004         16.2504
 25  7 15 20 16  0.0000000  0  8G08G10G18G23G24G27G32G02
    203000.48447    226800.49246  23048814.9924                   23048813.7974
        42.0004         37.2504
    777265.68048    663626.59448  21244013.8984                   21244010.9414
        50.0004         51.0004
   1891483.58247   1510772.53945  22400576.4454                   22400572.5084
        44.5004         32.7504
   1606921.93847   1297745.27346  21813660.0314                   21813655.2584
        47.5004         36.0004
    971366.96546    863636.08645  23310527.1414                   23310525.7344
        40.5004         35.0004
   1111013.50447    918232.00047  21748966.3674                   21748963.2624
        47.0004         46.2504
     20131.35548     85300.66848  21201979.6724                   21201976.8524
        50.5004         51.0004
   2153377.08255   1812058.24652  25437988.5234                   25437985.6994
        33.7504         14.7504
 25  7 15 20 16 30.0000000  0  8G08G10G18G23G24G27G32G02
    -95661.87546     -5923.40646  22991982.2814                   22991979.9964
        41.7504         37.2504
    514230.50048    458664.11748  21193959.6954                   21193956.4734
        49.5004         51.0004
   1704231.93447   1364862.10545  22364943.7344                   22364939.6804
        45.0004         33.0004
   1398891.48847   1135643.59445  21774072.7424                   21774068.4064
        47.2504         35.2504
    722690.61746    669862.30545  23263205.7664                   23263204.3284
        40.5004         35.0004
    873421.41447    733095.28947  21703753.8204                   21703751.1954
        46.5004         46.0004
   -291249.72348   -157333.92248  21142725.7114                   21142723.0084
        50.5004         51.0004
   1804086.27045   1539883.63742  25371520.2584                   25371517.7074
        33.7504         15.5004
 25  7 15 20 17  0.0000000  0  8G08G10G18G23G24G27G32G02
   -393852.94546   -238280.07446  22935237.9304                   22935235.8914
        41.0004         36.7504
    251312.43848    253792.89148  21143927.9454                   21143924.9804
        50.5004         51.0004
   1517262.29747   1219171.43445  22329364.5004                   22329360.7344
        45.5004         33.0004
   1190923.26247    973590.41046  21734497.6884                   21734493.5514
        47.5004         36.0004
    474566.00046    476518.44545  23215989.1094                   23215987.6844
        40.0004         35.2504
    636349.89547    548364.21147  21658640.6644                   21658638.0784
        46.2504         46.0004
   -602223.18748   -399650.88348  21083549.5004                   21083546.4804
        50.7504         51.0004
   1454716.28946   1267647.37542  25305038.3284                   25305034.0124
        36.0004         16.2504
 25  7 15 20 17 30.0000000  0  8G08G10G18G23G24G27G32G02
   -691571.60546   -470268.62546  22878584.0864                   22878582.0314
        41.0004         37.5004
    -11489.00048     49012.54748  21093918.3914                   21093915.5864
        50.0004         51.0004
   1330574.05947   1073700.02045  22293839.1094                   22293835.2464
        46.0004         32.7504
    983016.93847    811585.45345  21694934.4774                   21694930.0274
        47.0004         35.2504
    226993.46946    283604.77345  23168878.1414                   23168875.7584
        39.5004         35.5004
    399797.76647    364037.85547  21613626.7034                   21613623.7194
        44.7504         46.0004
   -912788.15648   -641649.53948  21024450.8834                   21024448.0514
        50.5004         51.0004
   1105268.31646    995350.28942  25238539.8284                   25238537.0514
        36.2504         14.7504
 25  7 15 20 18  0.0000000  0  8G08G10G18G23G24G27G32G02
   -988814.77346   -701886.66446  22822020.3054                   22822018.8324
        41.2504         37.2504
   -274172.15248   -155675.62148  21043931.6884                   21043928.7424
        49.7504         51.0004
   1144168.62547    928448.96945  22258367.1724                   22258363.8054
        44.7504         32.0004
    775174.16047    649630.02345  21655383.6094                   21655378.6134
        46.5004         35.2504
    -20024.70746     91123.07845  23121872.0164                   23121870.1294
        41.0004         35.2504
    163765.80547    180116.83247  21568711.3054                   21568708.2774
        45.5004         46.0004
  -1222941.71548   -883327.61748  20965430.6884                   20965427.8054
        50.5004         51.0004
    755745.67645    722995.08642  25172028.0554                   25172024.2344
        35.0004         15.5004
 25  7 15 20 18 30.0000000  0  8G08G10G18G23G24G27G32G02
  -1285581.68747   -933133.59846  22765548.0084                   22765545.8164
        42.2504         37.5004
   -536737.86748   -360272.29348  20993967.0314                   20993964.0944
        48.7504         51.0004
    958045.03947    783417.54345  22222949.4774                   22222945.3204
        44.5004         32.2504
    567394.11747    487723.48045  21615844.0234                   21615839.7234
        45.7504         35.5004
   -266488.75046   -100926.82845  23074971.0554                   23074969.5664
        40.5004         35.0004
    -71747.57447     -3400.10947  21523894.6254                   21523891.7544
        46.0004         46.5004
  -1532683.35248  -1124684.71548  20906488.8364                   20906485.8634
        50.0004         51.0004
    406149.39146    450582.42242  25105502.2194                   25105498.9104
        37.2504         17.7504
 25  7 15 20 19  0.0000000  0  8G08G10G18G23G24G27G32G02
     -6438.91046     63601.05546  23008960.5784                   23008958.4964
        41.5004         37.2504
    776244.69548    662831.00848  21243819.4454                   21243816.4064
        48.2504         51.0004
   2347631.27747   1866211.96545  22487378.9304                   22487374.6484
        45.0004         32.2504
   1935106.00047   1553472.96945  21876111.4774                   21876106.6954
        46.0004         34.5004
   1063032.39146    935063.66045  23327971.2424                   23327968.9614
        40.5004         34.7504
   1268686.73447   1041094.14147  21778970.8524                   21778967.7074
        45.0004         46.0004
   -266579.37948   -138110.17248  21147420.3364                   21147417.2624
        50.5004         51.0004
   1631914.94946   1405724.49642  25338757.7194                   25338754.1214
        36.0004         15.5004
 25  7 15 20 19 30.0000000  0  8G08G10G18G23G24G27G32G02
   -302246.07446   -166898.01646  22952670.4144                   22952668.0944
        41.7504         37.2504
    513916.70748    458419.57448  21193900.1414                   21193897.0314
        48.2504         51.0004
   2162073.45747   1721621.39845  22452068.2814                   22452064.5514
        44.5004         32.2504
   1727454.70747   1391666.74245  21836596.4534                   21836591.8134
        46.5004         35.5004
    817681.53546    743881.16845  23281282.2894                   23281280.1644
        40.5004         35.0004
   1034210.87547    858385.65247  21734351.6954                   21734348.7584
        45.2504         46.0004
   -575490.49248   -378820.10948  21088636.5164                   21088633.5664
        50.5004         51.0004
   1282179.59846   1133203.44942  25272204.2114                   25272200.6564
        36.0004         16.7504
 25  7 15 20 20  0.0000000  0  8G08G10G18G23G24G27G32G02
   -597570.14546   -397020.65246  22896471.9454                   22896469.8484
        41.2504         37.7504
    251708.61748    254101.57448  21144003.6174                   21144000.6214
        48.0004         51.0004
   1976799.20347   1577251.79745  22416811.9064                   22416807.9574
        43.7504         32.5004
   1519868.86347   1229911.51245  21797093.8674                   21797090.0274
        46.2504         34.5004
    572889.08246    553133.80545  23234699.6174                   23234697.7774
        39.7504         35.0004
    800253.46547    676081.15647  21689830.7504                   21689827.9224
        45.5004         46.2504
   -883983.43448   -619204.19548  21029932.1484                   21029929.1844
        50.2504         51.2504
    932378.18046    860631.02742  25205640.4534                   25205635.7974
        37.0004         17.7504
 25  7 15 20 20 30.0000000  0  8G08G10G18G23G24G27G32G02
   -892404.84047   -626761.96146  22840366.5164                   22840364.1724
        42.2504         37.5004
    -10374.68448     49880.81648  21094130.7814                   21094127.9144
        49.0004         51.0004
   1791813.13347   1433106.75445  22381609.8914                   22381606.2274
        44.5004         31.5004
   1312353.48047   1068211.19545  21757605.3204                   21757600.2974
        46.7504         34.5004
    328660.50846    362825.81345  23188224.2734                   23188222.6294
        40.2504         34.7504
    566818.47347    494183.73847  21645410.1024                   21645407.3014
        46.5004         46.5004
  -1192052.15648   -859257.72748  20971308.9614                   20971305.6254
        50.7504         51.0004
    582517.68446    588012.54743  25139063.1094                   25139058.8324
        38.2504         19.5004
 25  7 15 20 21  0.0000000  0  8G08G10G18G23G24G27G32G02
  -1186749.74247   -856121.60946  22784354.5474                   22784352.7074
        42.0004         38.5004
   -272334.16048   -154243.45348  21044281.7274                   21044278.4024
        49.5004         51.0004
   1607113.99647   1289185.29345  22346463.5004                   22346459.5664
        44.2504         32.2504
   1104907.68047    906565.09845  21718129.7034                   21718124.9804
        46.7504         34.2504
     84995.35546    172956.85945  23141856.2974                   23141854.7814
        40.2504         34.7504
    333903.98447    312691.90647  21601087.7424                   21601084.8404
        46.2504         46.0004
  -1499696.35248  -1098980.45748  20912765.6954                   20912762.8244
        50.7504         51.0004
    232598.65646    315348.41843  25072475.9384                   25072471.3484
        37.0004         20.0004
 25  7 15 20 21 30.0000000  0  8G08G10G18G23G24G27G32G02
  -1480606.55546  -1085100.93046  22728435.4614                   22728433.6094
        41.2504         37.2504
   -534172.87548   -358273.62948  20994455.3054                   20994452.0664
        50.7504         51.0004
   1422698.44547   1145484.81645  22311370.3984                   22311366.0784
        43.7504         32.5004
    897528.46947    744970.88745  21678666.3754                   21678662.2934
        46.5004         34.7504
   -158109.00846    -16475.10945  23095595.7114                   23095593.9104
        40.0004         34.7504
    101506.01247    131602.55547  21556863.8754                   21556860.9024
        46.7504         46.0004
  -1806917.93748  -1338373.88748  20854303.6024                   20854300.4614
        50.5004         51.0004
   -117379.87546     42637.98043  25005877.0704                   25005872.1254
        36.2504         18.2504
 25  7 15 20 22  0.0000000  0  8G08G10G18G23G24G27G32G02
   -198547.69146    -86094.01646  22972403.3754                   22972401.2854
        41.5004         37.2504
    779534.34048    665394.32448  21244445.3204                   21244442.4184
        49.5004         51.0004
   2813988.78147   2229607.09045  22576123.7274                   22576120.1334
        44.0004         31.2504
   2265639.30147   1811031.25045  21939009.2814                   21939004.8284
        47.0004         33.2504
   1174772.40646   1022133.77745  23349233.9064                   23349232.4804
        40.5004         34.5004
   1445047.70747   1178518.14147  21812531.3284                   21812528.1684
        46.2504         46.0004
   -538289.06248   -349831.87948  21095715.7034                   21095712.7894
        49.7504         51.2504
   1108011.67646    997488.56643  25239061.2734                   25239056.5594
        38.2504         20.7504
 25  7 15 20 22 30.0000000  0  9G08G10G18G23G24G27G32G02G28
   -491431.50847   -314315.16446  22916669.0864                   22916666.8554
        42.5004         38.0004
    517929.98448    461546.77048  21194664.0474                   21194660.8324
        48.7504         51.0004
   2630132.22747   2086342.19945  22541136.9384                   22541133.1484
        44.0004         31.5004
   2058386.39547   1649535.46145  21899570.0784                   21899565.7974
        46.2504         34.5004
    932783.69946    833571.15245  23303184.8134                   23303183.6724
        39.0004         34.5004
   1213672.44547    998225.70747  21768501.6414                   21768498.9384
        46.0004         46.0004
   -844669.20348   -588569.63348  21037413.0164                   21037410.1134
        50.7504         51.0004
    757911.82046    724683.58643  25172440.0944                   25172434.6684
        38.7504         21.5004
   7319024.15216                  25440198.313
        36.500
 25  7 15 20 23  0.0000000  0  9G08G10G18G23G24G27G32G02G28
   -783830.34447   -542158.40646  22861027.6724                   22861025.7544
        42.0004         38.2504
    256439.38748    257787.85948  21144903.7664                   21144901.0664
        49.0004         51.0004
   2446551.28147   1943292.05545  22506202.7894                   22506199.1564
        43.7504         31.7504
   1851193.27047   1488086.25445  21860143.1804                   21860138.5594
        46.0004         34.0004
    691349.95346    645440.96145  23257241.7974                   23257239.9654
        39.5004         33.5004
    982803.54747    818327.84847  21724568.9694                   21724566.3094
        45.2504         46.2504
  -1150630.39148   -826980.92248  20979190.9224                   20979187.5824
        50.5004         51.0004
    407750.48446    451830.65643  25105806.5554                   25105800.5204
        38.5004         20.7504
   6962543.547 6                  25372362.094
        37.500
 25  7 15 20 23 30.0000000  0  9G08G10G18G23G24G27G32G02G28
  -1075748.57847   -769627.14546  22805477.7274                   22805475.7304
        42.2504         38.2504
     -4943.09448     54113.19948  21095164.5554                   21095161.4104
        49.5004         51.0004
   2263239.93847   1800452.00445  22471320.1804                   22471316.4964
        43.7504         31.0004
   1644054.43447   1326679.35245  21820725.6024                   21820721.2544
        46.5004         34.5004
    450465.91846    457739.11345  23211403.9304                   23211401.1844
        39.5004         34.0004
    752434.29347    638819.31647  21680731.3284                   21680728.4804
        45.5004         46.0004
  -1456177.16448  -1065069.30148  20921047.4064                   20921044.2854
        50.7504         51.0004
     57523.85546    178926.92643  25039160.8834                   25039155.2504
        38.7504         19.7504
   6605855.270 6                  25304486.430
        37.750
 25  7 15 20 24  0.0000000  0  9G08G10G18G23G24G27G32G02G28
  -1367185.42246   -996720.77346  22750018.8134                   22750016.8404
        41.5004         38.2504
   -266217.98848   -149477.63348  21045445.3134                   21045442.2274
        50.2504         51.0004
   2080197.26247   1657821.29745  22436488.4064                   22436484.2504
        43.5004         32.2504
   1436969.46147   1165314.41845  21781318.3364                   21781314.1414
        46.0004         34.2504
    210131.28946    270465.37545  23165668.7194                   23165667.2664
        39.5004         34.2504
    522563.02747    459698.82447  21636988.0554                   21636985.4304
        46.2504         46.2504
  -1761308.96948  -1302834.32448  20862982.4224                   20862979.2774
        50.2504         51.0004
   -292766.48846    -94026.55143  24972501.6564                   24972497.2114
        37.2504         20.5004
   6248961.625 6                  25236571.461
        38.000
 25  7 15 20 24 30.0000000  0  9G08G10G18G23G24G27G32G02G28
  -1658138.20747  -1223437.22346  22694652.2194                   22694650.2584
        42.5004         38.7504
   -527383.65248   -352983.34448  20995747.3284                   20995744.0164
        50.0004         51.0004
   1897424.46947   1515400.87545  22401707.7194                   22401703.9064
        44.5004         32.0004
   1229940.01647   1003992.75045  21741922.4224                   21741918.1844
        46.2504         33.5004
    -29651.98846     83621.24645  23120039.5944                   23120038.2304
        39.7504         34.0004
    293190.27047    280966.77747  21593340.0164                   21593336.9534
        44.5004         46.0004
  -2066023.22348  -1540273.98448  20804997.0864                   20804994.0234
        51.0004         51.2504
   -643117.43746   -367027.16043  24905833.1414                   24905826.5554
        38.5004         20.5004
   5891867.11746   5915378.53152  25168618.2034                   25168619.5594
        38.5004         17.7504
 25  7 15 20 25  0.0000000  0  9G08G10G18G23G24G27G32G02G28
   -373170.80147   -222163.90246  22939173.4224                   22939171.8594
        42.5004         38.7504
    786993.73848    671206.83248  21245865.3674                   21245862.0704
        48.0004         51.0004
   3290352.33647   2600799.15645  22666773.0704                   22666769.1454
        45.0004         33.0004
   2598398.30547   2070323.85945  22002331.8134                   22002327.3794
        46.5004         34.2504
   1306549.37146   1124817.11745  23374310.7424                   23374308.4964
        40.0004         33.7504
   1639747.64147   1330232.23447  21849581.3594                   21849578.2974
        45.5004         45.7504
   -794883.55148   -549775.52048  21046886.8834                   21046883.8134
        50.5004         51.0004
    581909.73846    587539.55543  25138947.5234                   25138941.9614
        38.2504         20.5004
   7110011.52346   6864582.39142  25400423.5164                   25400425.4614
        37.7504         17.7504
 25  7 15 20 25 30.0000000  0  9G08G10G18G23G24G27G32G02G28
   -663141.12147   -448114.78546  22883994.0234                   22883992.1994
        43.0004         38.7504
    526057.21148    467879.66048  21196210.7034                   21196207.4614
        50.2504         50.7504
   3108128.70747   2458806.67245  22632096.9924                   22632093.4144
        43.5004         31.7504
   2391490.92647   1909097.31345  21962958.2734                   21962953.7544
        46.2504         34.0004
   1067880.08246    938841.04345  23328893.0784                   23328891.0784
        40.5004         34.7504
   1411378.94147   1152282.57047  21806124.1724                   21806121.4454
        45.5004         46.0004
  -1098748.94148   -786553.72348  20989063.0944                   20989060.3674
        50.5004         51.2504
    231453.71146    314457.00043  25072257.6254                   25072252.8524
        38.2504         20.5004
   6752534.34846   6586029.13342  25332396.9144                   25332398.8094
        37.2504         17.7504
 25  7 15 20 26  0.0000000  0  9G08G10G18G23G24G27G32G02G28
   -952615.10546   -673678.91846  22828908.7894                   22828906.9104
        41.5004         38.7504
    265238.70348    264644.46548  21146578.2664                   21146574.8524
        50.2504         51.0004
   2926182.51247   2317030.36345  22597473.6334                   22597469.9614
        44.0004         31.5004
   2184648.18847   1747921.12945  21923597.3674                   21923592.9844
        46.5004         33.0004
    829771.43046    753301.82445  23283582.4694                   23283580.5864
        40.2504         33.7504
   1183513.94547    974725.40247  21762763.0784                   21762760.1844
        45.5004         45.7504
  -1402184.96948  -1022997.35548  20931321.5784                   20931317.9844
        51.0004         51.2504
   -119048.54345     41338.42243  25005559.0234                   25005554.0044
        35.7504         21.2504
   6394873.57446   6307332.86742  25264336.5474                   25264337.8984
        38.5004         17.2504
 25  7 15 20 26 30.0000000  0  9G08G10G18G23G24G27G32G02G28
  -1241592.25446   -898855.89846  22773918.4844                   22773916.3594
        41.2504         38.7504
      4537.54748     61500.70748  21096968.3674                   21096965.2934
        50.2504         51.0004
   2744512.56647   2175469.31645  22562903.4694                   22562899.1844
        43.2504         31.5004
   1977869.52347   1586794.87945  21884248.7664                   21884243.9924
        46.2504         33.5004
    592223.07446    568199.21145  23238378.6414                   23238376.8444
        39.7504         34.2504
    956150.66447    797559.18047  21719497.5084                   21719494.6134
        45.7504         46.0004
  -1705191.39848  -1259106.24248  20873661.3984                   20873658.1254
        50.7504         51.2504
   -469596.07046   -231815.39843  24938851.7974                   24938846.3634
        37.7504         21.2504
   6037031.32446   6028495.14543  25196240.5864                   25196242.1484
        37.5004         19.2504
 25  7 15 20 27  0.0000000  0  9G08G10G18G23G24G27G32G02G28
  -1530069.05146  -1123643.00046  22719023.0004                   22719021.1804
        41.5004         39.0004
   -256043.70748   -141549.62948  21047381.4694                   21047378.3094
        50.5004         51.0004
   2563120.91447   2034125.12545  22528385.7034                   22528381.7584
        43.5004         31.5004
   1771157.58647   1425720.62145  21844912.8834                   21844908.6994
        46.0004         33.5004
    355237.45346    383535.08645  23193281.6414                   23193279.8134
        40.0004         33.2504
    729290.41047    620784.93047  21676327.2114                   21676324.3364
        45.2504         46.2504
  -2007764.76648  -1494877.67248  20816083.3524                   20816080.4144
        50.7504         51.2504
   -820184.32046   -505000.96543  24872136.7424                   24872131.6954
        36.7504         19.7504
   5679013.02046   5749520.20343  25128111.5004                   25128113.0744
        37.5004         19.0004
 25  7 15 20 27 30.0000000  0  9G08G10G18G23G24G27G32G02G28
  -1818043.28547  -1348038.48846  22664223.0944                   22664221.2584
        42.2504         38.5004
   -516503.94548   -344505.66848  20997817.6954                   20997814.4344
        50.7504         51.0004
   2382008.21547   1892998.27745  22493921.2114                   22493917.2464
        43.5004         31.7504
   1564513.53547   1264699.25845  21805589.7974                   21805585.2074
        46.0004         33.5004
    118815.84846    199310.44945  23148291.6804                   23148290.9654
        40.7504         33.2504
    502932.97747    444402.48847  21633252.9924                   21633250.4454
        45.7504         46.0004
  -2309903.07448  -1730310.09448  20758588.2974                   20758585.2584
        50.5004         51.2504
  -1170810.36346   -778216.00043  24805415.9064                   24805410.5164
        38.5004         21.5004
   5320822.66146   5470411.18343  25059950.6174                   25059951.5864
        38.7504         20.2504
 25  7 15 20 28  0.0000000  0  9G08G10G18G23G24G27G32G02G28
   -530086.05846   -344435.43946  22909313.0944                   22909311.3914
        40.7504         38.7504
    798583.92248    680238.12548  21248070.4144                   21248067.1994
        51.0004         51.0004
   3776598.32047   2979691.80945  22759302.7814                   22759299.1524
        44.0004         31.5004
   2933362.75047   2331334.98445  22066073.0704                   22066068.3984
        46.0004         34.5004
   1458384.57446   1243130.20345  23403203.2424                   23403201.8794
        40.2504         33.5004
   1852502.91047   1496015.40247  21890067.5704                   21890064.9614
        46.5004         46.2504
  -1036176.98048   -737796.23048  21000970.3674                   21000967.6914
        50.5004         51.0004
     53957.60246    176148.71543  25038480.1414                   25038475.5634
        36.5004         20.7504
   6537893.37546   6418778.35243  25291551.4144                   25291552.6094
        38.5004         21.5004
 25  7 15 20 28 30.0000000  0  9G08G10G18G23G24G27G32G02G28
   -817054.42247   -568047.13346  22854705.1954                   22854703.2974
        42.7504         38.7504
    538363.57048    477469.02048  21198552.0474                   21198549.0004
        50.7504         51.0004
   3596039.73047   2838996.73845  22724943.9534                   22724940.0984
        43.0004         31.0004
   2726852.67247   2170418.01645  22026775.4144                   22026771.0434
        45.7504         33.7504
   1223088.83246   1059782.85545  23358427.8914                   23358426.6214
        39.7504         34.2504
   1627144.84847   1320411.69147  21847183.4304                   21847180.3404
        46.5004         46.2504
  -1337444.75448   -972550.31248  20943640.8914                   20943637.9614
        50.5004         51.2504
   -296740.72746    -97122.63343  24971745.5704                   24971739.0864
        37.0004         21.2504
   6179365.08646   6139405.99243  25223324.4694                   25223326.3364
        37.5004         21.7504
 25  7 15 20 29  0.0000000  0  9G08G10G18G23G24G27G32G02G28
  -1103519.87947   -791266.95746  22800192.4304                   22800190.4304
        42.7504         39.0004
    278261.71548    274792.25048  21149056.6024                   21149053.3054
        50.5004         51.0004
   3415755.84047   2698515.71145  22690636.9844                   22690633.0634
        43.0004         30.7504
   2520408.16047   2009552.14145  21987490.5004                   21987486.1374
        46.0004         34.0004
    988354.56646    876873.02745  23313760.2734                   23313758.2114
        39.5004         34.5004
   1402282.94947   1145194.60547  21804393.4534                   21804390.7544
        46.7504         46.0004
  -1638277.50048  -1206965.41848  20886394.2664                   20886391.4774
        50.5004         51.2504
   -647474.21946   -370421.36743  24905002.6564                   24904997.4064
        38.2504         19.7504
   5820670.68846   5859904.24243  25155066.9614                   25155068.6374
        36.7504         21.0004
 25  7 15 20 29 30.0000000  0  9G08G10G18G23G24G27G32G02G28
  -1389479.05547  -1014092.28546  22745776.5784                   22745774.1804
        42.5004         38.5004
     18280.82848     72209.74248  21099584.0554                   21099581.0474
        50.5004         51.0004
   3235748.74247   2558250.38345  22656382.6254                   22656379.2704
        43.2504         31.0004
   2314031.84847   1848739.41445  21948218.8054                   21948213.9654
        46.2504         34.2504
    754184.11746    694402.52745  23269199.5394                   23269197.1524
        38.7504         34.5004
   1177918.29747    970364.97747  21761698.1484                   21761695.7154
        47.0004         46.0004
  -1938671.95348  -1441038.99648  20829231.2814                   20829227.6724
        50.7504         51.2504
   -998238.53546   -643744.10943  24838255.1644                   24838248.9924
        38.5004         21.7504
   5461815.53546   5580277.14843  25086779.3914                   25086779.7624
        38.2504         20.5004
 25  7 15 20 30  0.0000000  0  9G08G10G18G23G24G27G32G02G28
  -1674931.35547  -1236522.63346  22691456.6414                   22691454.5704
        42.2504         38.2504
   -241579.45748   -130278.78548  21050133.9774                   21050130.7304
        50.5004         50.7504
   3056017.41847   2418199.95345  22622180.9614                   22622177.4574
        43.0004         31.0004
   2107723.50447   1687979.63745  21908959.5474                   21908955.1254
        45.7504         33.5004
    520577.12946    512371.08645  23224744.8444                   23224743.3674
        39.7504         35.5004
    954049.07047    795921.40647  21719097.5944                   21719094.5514
        46.7504         46.2504
  -2238627.60548  -1674770.65248  20772151.4844                   20772148.6414
        50.2504         51.2504
  -1349031.77046   -917089.43743  24771501.1564                   24771495.5984
        38.0004         22.2504
   5102802.05546   5300526.65643  25018460.9454                   25018461.2234
        36.7504         21.2504
 25  7 15 20 30 30.0000000  0  9G08G10G18G23G24G27G32G02G28
  -1959875.29347  -1458556.85946  22637233.4774                   22637231.6764
        43.5004         39.0004
   -501318.42248   -332672.78548  21000707.1174                   21000704.4494
        50.5004         51.0004
   2876561.93447   2278364.44945  22588031.4774                   22588027.8674
        43.0004         30.7504
   1901483.92647   1527273.45345  21869713.3834                   21869709.1054
        45.0004         33.0004
    287534.01646    330779.03145  23180398.3674                   23180396.7424
        39.5004         34.7504
    730674.48047    621863.25847  21676590.9844                   21676587.8524
        47.2504         46.2504
  -2538143.11748  -1908159.34048  20715155.4304                   20715152.3204
        50.2504         51.5004
  -1699851.46946  -1190455.35943  24704742.9384                   24704736.8244
        38.5004         21.5004
   4743633.85546   5020655.66043  24950113.8594                   24950113.8524
        36.7504         20.0004
 25  7 15 20 31  0.0000000  0  9G08G10G18G23G24G27G32G02G28
   -668880.61347   -452586.96546  22882901.5554                   22882899.7894
        43.5004         39.0004
    814492.52348    692634.44948  21251097.7814                   21251094.5634
        50.5004         50.7504
   4272807.51647   3366347.96545  22853728.2504                   22853725.0554
        43.5004         31.0004
   3270739.96147   2594226.18045  22130274.0784                   22130269.4494
        45.7504         34.0004
   1630482.38746   1377232.28145  23435953.3444                   23435951.2624
        40.0004         35.5004
   2083220.34847   1675795.07447  21933971.9694                   21933969.1024
        47.2504         46.0004
  -1261787.86748   -913596.78148  20958037.8524                   20958034.7424
        50.5004         51.5004
   -475264.68746   -236231.85243  24937773.2344                   24937767.2304
        37.5004         21.5004
   5959745.66046   5968275.58243  25181532.4224                   25181532.2154
        37.5004         19.7504
 25  7 15 20 31 30.0000000  0  9G08G10G18G23G24G27G32G02G28
   -952805.57047   -673827.19146  22828872.4614                   22828870.3524
        44.0004         38.7504
    554995.86348    490429.26248  21201717.1564                   21201714.0124
        50.2504         51.0004
   4093901.55147   3226940.64545  22819683.4844                   22819680.0594
        42.7504         30.5004
   3064637.83247   2433627.09445  22091054.3754                   22091049.6604
        44.7504         33.5004
   1398566.29346   1196518.42245  23391820.6564                   23391819.0314
        40.0004         34.0004
   1860830.19147   1502504.01647  21891652.1884                   21891649.2814
        47.0004         46.0004
  -1560421.23848  -1146298.07848  20901209.9694                   20901206.8634
        50.0004         51.5004
   -826132.93746   -509635.59443  24871005.4534                   24870999.4774
        37.2504         21.7504
   5600276.27746   5688169.87943  25113126.2424                   25113126.5554
        36.7504         20.5004
 25  7 15 20 32  0.0000000  0  9G08G10G18G23G24G27G32G02G28
  -1236218.94947   -894668.77346  22774941.2584                   22774938.8134
        44.5004         39.2504
    295621.28148    288319.20748  21152359.7664                   21152356.5044
        49.7504         51.0004
   3915270.29747   3087747.39145  22785691.5234                   22785687.6334
        42.5004         30.5004
   2858605.50047   2273082.39545  22051847.4384                   22051842.7274
        44.5004         33.2504
   1167214.35246   1016244.18045  23347796.4774                   23347794.1644
        38.7504         35.2504
   1638930.84047   1329595.40647  21849426.5634                   21849423.4144
        47.5004         45.7504
  -1858611.59848  -1378654.18748  20844465.9614                   20844462.9654
        49.7504         51.5004
  -1177021.63346   -783055.27343  24804232.8364                   24804227.3524
        37.5004         21.5004
   5240661.60945   5407950.96543  25044693.7344                   25044694.5744
        35.5004         20.2504
 25  7 15 20 32 30.0000000  0  9G08G10G18G23G24G27G32G02G28
  -1519120.45347  -1115111.50046  22721107.0004                   22721104.1684
        44.2504         39.0004
     36368.39847     86303.98048  21103025.6094                   21103022.4804
        47.7504         50.7504
   3736912.60947   2948767.31345  22751751.2194                   22751747.5474
        43.0004         30.5004
   2652642.60947   2112591.82045  22012653.8834                   22012649.4804
        45.7504         34.0004
    936425.82446    836408.95745  23303878.6414                   23303876.6414
        39.5004         34.5004
   1417520.33647   1157067.70747  21807293.3364                   21807290.4384
        46.5004         46.0004
  -2156358.68748  -1610664.88348  20787806.6884                   20787803.7774
        50.0004         51.7504
  -1527929.09846  -1056489.56243  24737457.4064                   24737451.9264
        36.2504         21.5004
   4880903.92645   5127620.62543  24976234.2344                   24976234.2074
        34.2504         19.2504
 25  7 15 20 33  0.0000000  0  9G08G10G18G23G24G27G32G02G28
  -1801509.77347  -1335155.10546  22667369.6094                   22667367.2624
        43.7504         39.2504
   -222763.27048   -115616.79748  21053714.3524                   21053711.0474
        50.5004         51.0004
   3558827.44547   2809999.59444  22717862.4534                   22717858.8284
        43.2504         29.7504
   2446748.85247   1952155.10245  21973474.0314                   21973469.0664
        44.5004         33.7504
    706199.95746    657012.15245  23260068.1884                   23260066.3444
        41.0004         34.2504
   1196596.58647    984919.30947  21765252.7814                   21765250.2194
        46.5004         46.0004
  -2453662.35548  -1842330.05148  20731231.6564                   20731228.8324
        50.0004         51.7504
  -1878854.30946  -1329937.68743  24670678.4384                   24670672.6054
        38.7504         21.0004
   4521005.80945   4847180.84043  24907746.9304                   24907748.0744
        33.5004         19.2504
 25  7 15 20 33 30.0000000  0  9G08G10G18G23G24G27G32G02G28
  -2083384.09847  -1554797.43046  22613730.6564                   22613728.6174
        44.5004         39.5004
   -481771.58648   -317441.45748  21004426.8834                   21004423.7504
        49.7504         51.0004
   3381016.24647   2671445.35545  22684026.5234                   22684022.3364
        43.0004         30.0004
   2240926.46947   1791774.00045  21934307.3364                   21934302.4264
        45.0004         34.0004
    476538.55546    478055.20345  23216364.8594                   23216362.9694
        39.7504         34.7504
    976160.12547    813150.60547  21723305.7344                   21723302.5864
        46.5004         45.7504
  -2750519.86348  -2073647.56248  20674741.5394                   20674738.7664
        50.0004         51.7504
  -2229792.99246  -1603396.33243  24603897.3984                   24603891.2934
        37.5004         22.5004
   4160972.24645   4566635.53943  24839235.0944                   24839235.7234
        34.7504         18.5004
 25  7 15 20 34  0.0000000  0  9G08G10G18G23G24G27G32G02G28
   -789314.28947   -546431.32846  22859983.6024                   22859981.5434
        44.0004         39.5004
    834771.22748    708436.06348  21254956.7424                   21254953.7424
        49.0004         50.7504
   4778903.27047   3760707.90645  22950035.5864                   22950031.4694
        42.5004         30.5004
   3610601.47347   2859053.21145  22194947.5704                   22194943.1724
        46.2504         33.7504
   1822867.99246   1527143.07045  23472562.6644                   23472561.0784
        40.2504         35.0004
   2331635.67247   1869365.29347  21981243.8594                   21981241.3134
        47.2504         46.0004
  -1471501.65248  -1077009.97748  20918130.8834                   20918127.7384
        50.5004         51.7504
  -1005312.52746   -649255.61743  24836907.8284                   24836902.4454
        38.5004         22.0004
   5376237.14145   5513595.47343  25070490.3134                   25070492.0394
        31.7504         18.2504
 25  7 15 20 34 30.0000000  0  9G08G10G18G23G24G27G32G02G28
  -1070157.60947   -765270.27346  22806541.3834                   22806539.0514
        44.5004         39.2504
    576008.72348    506802.94548  21205715.7974                   21205712.3164
        49.7504         50.7504
   4601636.77047   3622578.10544  22916302.1094                   22916299.4654
        42.5004         29.7504
   3404921.18047   2698782.83245  22155807.6724                   22155803.6454
        45.5004         33.7504
   1594333.39846   1349064.15245  23429074.0164                   23429072.4224
        39.5004         34.7504
   2112167.79347   1698351.33647  21939480.6174                   21939478.0234
        47.5004         46.0004
  -1767466.07848  -1307631.58248  20861810.6254                   20861807.2464
        50.0004         51.7504
  -1356273.60546   -922731.71543  24770122.5164                   24770116.1484
        39.2504         22.7504
   5015940.27745   5232845.00043  25001930.3524                   25001930.3874
        35.0004         18.2504
 25  7 15 20 35  0.0000000  0  9G08G10G18G23G24G27G32G02G28
  -1350484.66447   -983706.93046  22753196.7114                   22753194.4884
        44.0004         39.5004
    317368.99248    305265.48848  21156498.2424                   21156495.1054
        48.5004         50.7504
   4424641.35947   3484659.53144  22882622.0394                   22882618.4964
        42.5004         29.2504
   3199311.86347   2538567.75045  22116681.9304                   22116677.3554
        45.0004         33.2504
   1366361.46946   1171423.67645  23385692.8594                   23385691.1024
        39.5004         35.0004
   1893181.45347   1527712.60547  21897808.5864                   21897806.2624
        47.2504         46.2504
  -2062983.31648  -1537904.73048  20805575.5314                   20805572.0744
        50.5004         51.7504
  -1707243.74246  -1196214.84843  24703334.8674                   24703328.5594
        39.7504         22.5004
   4655515.89845   4951995.15643  24933342.1254                   24933343.3834
        33.7504         18.5004
 25  7 15 20 35 30.0000000  0  9G08G10G18G23G24G27G32G02G28
  -1630295.08647  -1201741.02046  22699950.5784                   22699948.7274
        44.5004         39.2504
     58851.84048    103823.56348  21107304.0084                   21107301.0204
        50.0004         50.7504
   4247916.12147   3346951.48444  22848992.6484                   22848988.8094
        42.5004         29.7504
   2993773.47747   2378407.94545  22077569.4534                   22077564.7344
        45.5004         32.5004
   1138951.53946    994221.12145  23342417.7504                   23342415.9024
        40.0004         35.0004
   1674674.83647   1357447.68447  21856227.9924                   21856225.5744
        47.5004         46.0004
  -2358053.04748  -1767829.17648  20749425.2664                   20749422.2624
        50.2504         52.0004
  -2058220.93746  -1469703.49243  24636546.3834                   24636540.0864
        38.2504         23.2504
   4294966.79745   4671048.06643  24864731.5474                   24864732.5824
        34.2504         18.5004
 25  7 15 20 36  0.0000000  0  9G08G10G18G23G24G27G32G02G28
  -1909586.99647  -1419371.08246  22646803.2974                   22646800.7424
        44.5004         39.5004
   -199541.44948    -97521.85548  21058133.2344                   21058130.3014
        50.7504         51.0004
   4071461.52747   3209454.34444  22815414.6564                   22815410.2664
        42.2504         29.2504
   2788307.41847   2218304.49645  22038470.5084                   22038465.6094
        44.0004         34.0004
    912104.40246    817457.10545  23299250.8834                   23299248.4844
        39.5004         35.2504
   1456647.41847   1187556.16847  21814739.3524                   21814736.3484
        47.5004         46.0004
  -2652673.45748  -1997403.50048  20693360.9384                   20693358.1764
        50.7504         52.0004
  -2409201.62546  -1743194.86343  24569756.6024                   24569751.0204
        38.2504         22.0004
   3934297.18455   4390007.13353  24796098.9064                   24796099.6724
        35.5004         19.5004
 25  7 15 20 36 30.0000000  0  9G08G10G18G23G24G27G32G02G28
  -2188358.31247  -1636595.47746  22593754.7734                   22593752.6024
        44.0004         39.2504
   -457809.22348   -298769.46948  21008986.9614                   21008983.6054
        50.7504         51.0004
   3895278.43047   3072168.74644  22781887.9694                   22781884.5664
        42.0004         29.0004
   2582915.39147   2058258.74245  21999385.6094                   21999381.3134
        45.5004         33.2504
    685821.12146    641132.46945  23256189.8204                   23256188.2504
        40.0004         35.0004
   1239099.01647   1018037.90247  21773341.0084                   21773338.1954
        47.5004         45.7504
  -2946842.55148  -2226626.14548  20637382.5474                   20637379.1254
        49.7504         52.0004
  -2760182.93746  -2016686.75043  24502967.3364                   24502960.9104
        38.0004         21.5004
   3573511.46946   4108875.68843  24727444.3444                   24727443.5904
        37.7504         20.7504
 25  7 15 20 37  0.0000000  0  9G08G10G18G23G24G27G32G02G28
   -891181.06247   -625808.01246  22840599.3524                   22840596.7074
        44.0004         39.0004
    859475.30948    727686.01648  21259657.8524                   21259655.0474
        49.2504         51.0004
   5294790.02347   4162697.19544  23048205.8134                   23048202.5434
        42.0004         29.2504
   3953022.52047   3125874.66045  22260107.9304                   22260103.7544
        44.5004         32.7504
   2035526.87146   1692851.23045  23513030.7274                   23513028.9414
        39.7504         35.5004
   2597453.27047   2076495.73447  22031827.2194                   22031824.4614
        47.0004         46.2504
  -1665131.91448  -1227890.56648  20881284.0004                   20881280.6024
        49.2504         52.2504
  -1535732.89546  -1062569.75443  24735972.0394                   24735965.6294
        38.0004         22.0004
   4788042.77046   5055263.96943  24958560.9144                   24958560.7974
        37.7504         20.5004
 25  7 15 20 37 30.0000000  0  9G08G10G18G23G24G27G32G02G28
  -1168913.68047   -842223.02346  22787748.7894                   22787746.4884
        45.0004         38.7504
    601454.58648    526630.89848  21210558.2814                   21210554.7584
        48.5004         50.7504
   5119143.43847   4025829.66444  23014781.3204                   23014777.8524
        42.0004         29.0004
   3747774.87947   2965941.40245  22221050.8444                   22221046.6484
        44.5004         32.7504
   1810365.64846   1517400.92245  23470183.9924                   23470182.2464
        39.7504         34.7504
   2380853.52047   1907716.68447  21990609.3914                   21990607.3524
        46.7504         45.7504
  -1958400.98448  -1456411.89848  20825476.7814                   20825473.5434
        50.0004         52.2504
  -1886713.45746  -1336061.01643  24669182.5474                   24669177.0594
        37.5004         21.7504
   4427029.59046   4773955.25043  24889862.0004                   24889862.3444
        39.0004         20.7504
 25  7 15 20 38  0.0000000  0  9G08G10G18G23G24G27G32G02G28
  -1446124.18747  -1058231.21146  22734997.6644                   22734994.8874
        44.2504         39.5004
    343559.53148    325673.72348  21161482.2114                   21161478.8554
        49.2504         51.0004
   4943766.00447   3889171.85944  22981408.2194                   22981404.7154
        42.5004         28.7504
   3542601.71547   2806066.19945  22182007.8674                   22182003.8404
        44.0004         32.5004
   1585766.68846   1342388.73045  23427444.0084                   23427442.6684
        39.0004         34.2504
   2164727.47747   1739306.75047  21949482.2664                   21949479.3954
        46.5004         45.5004
  -2251217.36348  -1684580.48448  20769755.6954                   20769751.9924
        49.0004         52.0004
  -2237688.69146  -1609548.16043  24602393.6644                   24602387.8364
        38.0004         21.0004
   4065909.16046   4492562.95643  24821142.9534                   24821143.0824
        38.5004         19.7504
 25  7 15 20 38 30.0000000  0  9G08G10G18G23G24G27G32G02G28
  -1722813.23047  -1273833.05946  22682344.4694                   22682342.5744
        44.0004         39.2504
     85789.10548    124813.64848  21112430.0084                   21112426.6844
        49.2504         51.0004
   4768655.70346   3752722.23044  22948085.3594                   22948082.4224
        41.5004         29.7504
   3337502.05547   2646248.25845  22142978.8524                   22142974.4454
        44.0004         32.2504
   1361728.20746   1167813.27345  23384811.0864                   23384809.6054
        39.7504         34.5004
   1949072.12547   1571263.59047  21908444.5864                   21908441.7114
        46.5004         45.5004
  -2543581.69548  -1912396.82448  20714120.7114                   20714116.8244
        49.2504         52.0004
  -2588657.71146  -1883030.46143  24535606.8054                   24535600.1054
        38.5004         22.2504
   3704683.37146   4211088.56643  24752405.3364                   24752403.8524
        39.7504         20.0004
 25  7 15 20 39  0.0000000  0  9G08G10G18G23G24G27G32G02G28
  -1998981.26647  -1489028.93046  22629792.2894                   22629789.5514
        43.7504         39.2504
   -171857.55948    -75949.98848  21063401.4694                   21063398.3054
        50.2504         51.0004
   4593810.88746   3616479.43844  22914814.0784                   22914810.6884
        41.5004         28.2504
   3132475.09447   2486486.96145  22103963.3204                   22103958.9534
        44.2504         32.0004
   1138248.73846    993673.39845  23342284.4454                   23342282.6454
        40.5004         34.7504
   1733884.78147   1403585.10547  21867495.5784                   21867493.0354
        46.5004         45.2504
  -2835494.52348  -2139861.35248  20658571.3834                   20658567.7464
        50.0004         52.2504
  -2939619.42646  -2156507.05544  24468821.5164                   24468815.0124
        39.7504         24.5004
   3343354.09846   3929533.50043  24683644.8444                   24683645.2274
        38.2504         20.2504
 25  7 15 20 39 30.0000000  0  9G08G10G18G23G24G27G32G02G28
  -2274626.18447  -1703817.16846  22577338.3984                   22577336.5164
        44.5004         38.7504
   -429378.65248   -276615.78148  21014396.9384                   21014393.6094
        48.5004         51.0004
   4419232.42246   3480444.21544  22881593.2734                   22881589.5354
        41.2504         29.0004
   2927522.79747   2326783.84445  22064962.0234                   22064957.7154
        44.2504         32.5004
    915329.30546    819969.93445  23299864.0234                   23299862.3364
        40.7504         34.5004
   1519165.26247   1236271.16847  21826636.0314                   21826633.4224
        46.5004         45.2504
  -3126953.77348  -2366972.43448  20603108.2584                   20603105.1254
        49.0004         52.2504
  -3290570.31246  -2429975.19943  24402036.7194                   24402031.6954
        40.2504         22.5004
   2981926.28146   3647901.64843  24614867.8674                   24614867.8204
        38.5004         21.0004
 25  7 15 20 40  0.0000000  0  9G08G10G18G23G24G27G32G02G28
   -974320.26247   -690591.78146  22824778.7194                   22824776.2974
        43.7504         39.0004
    888652.68048    750421.62948  21265209.9304                   21265206.6764
        49.2504         51.0004
   5820343.50046   4572219.01644  23148215.5474                   23148212.3244
        41.7504         28.0004
   4298070.35547   3394742.94945  22325768.7814                   22325764.3204
        45.2504         32.2504
   2268394.91446   1874306.75445  23557343.8364                   23557342.5744
        40.2504         34.5004
   2880337.06347   2296924.50047  22085658.1804                   22085656.0084
        47.0004         45.5004
  -1842531.12948  -1366123.59848  20847525.8594                   20847522.7234
        50.5004         52.2504
  -2066078.65646  -1475825.79343  24635049.9614                   24635044.5314
        39.2504         22.7504
   4195833.01646   4593803.19143  24845865.6414                   24845866.1724
        38.5004         20.5004
 25  7 15 20 40 30.0000000  0  9G08G10G18G23G24G27G32G02G28
  -1248920.60947   -904566.07846  22772523.6644                   22772521.5744
        44.5004         38.7504
    631380.28548    549949.62548  21216252.7664                   21216249.3484
        48.0004         50.7504
   5646292.44946   4436594.73844  23115094.7344                   23115091.5594
        40.5004         28.2504
   4093265.09847   3235154.41045  22286795.5944                   22286791.1374
        45.0004         31.5004
   2046590.74646   1701472.31645  23515135.8984                   23515134.5274
        40.5004         34.5004
   2666544.84047   2130333.12947  22044974.8054                   22044972.5434
        46.5004         45.2504
  -2133084.83248  -1592529.06648  20792235.4774                   20792232.2504
        49.5004         52.5004
  -2417005.03146  -1749274.83643  24568270.7894                   24568264.6414
        39.5004         23.0004
   3834214.06346   4312022.38343  24777051.8754                   24777051.7154
        39.7504         20.2504
 25  7 15 20 41  0.0000000  0  9G08G10G18G23G24G27G32G02G28
  -1522997.79747  -1118132.71546  22720368.2584                   22720366.3094
        44.2504         39.2504
    374232.64548    349574.83648  21167319.1644                   21167316.0004
        48.5004         50.7504
   5472504.20746   4301175.26244  23082023.7814                   23082020.4924
        40.5004         28.5004
   3888533.89847   3075623.57445  22247836.6484                   22247832.3444
        45.0004         32.0004
   1825343.46146   1529071.80145  23473034.0704                   23473032.6414
        39.7504         34.0004
   2453213.70747   1964101.04347  22004379.7504                   22004376.6954
        47.0004         45.2504
  -2423184.98048  -1818581.10548  20737030.9454                   20737027.6374
        49.0004         52.5004
  -2767915.60946  -2022711.59043  24501495.3914                   24501489.4454
        38.7504         22.5004
   3472504.36746   4030170.80943  24708220.5084                   24708220.1094
        39.2504         19.0004
 25  7 15 20 41 30.0000000  0  9G08G10G18G23G24G27G32G02G28
  -1796553.50847  -1331293.00846  22668312.3364                   22668310.5944
        44.0004         39.0004
    117207.98448    149295.87148  21118408.7734                   21118405.6564
        48.5004         50.7504
   5298975.82846   4165958.26644  23049002.8204                   23048999.4064
        40.5004         28.7504
   3683875.03547   2916149.10545  22208891.6724                   22208886.7854
        45.0004         31.7504
   1604650.35546   1357103.12145  23431038.0314                   23431035.9694
        40.5004         34.0004
   2240339.75047   1798225.20347  21963871.2974                   21963868.6214
        47.0004         45.2504
  -2712833.16048  -2044280.96548  20681912.8674                   20681909.4494
        49.2504         52.5004
  -3118810.59446  -2296136.19144  24434721.9064                   24434715.6804
        39.0004         25.7504
   3110704.95746   3748249.34843  24639373.0864                   24639371.7504
        40.2504         18.5004
 25  7 15 20 42  0.0000000  0  9G08G10G18G23G24G27G32G02G28
  -2069585.80147  -1544045.44146  22616356.4224                   22616354.0864
        44.0004         39.0004
   -139692.01648    -50885.94548  21069522.5704                   21069519.3594
        49.2504         50.7504
   5125708.12546   4030944.38344  23016030.9844                   23016027.9224
        41.5004         29.7504
   3479290.31647   2756732.42645  22169960.1334                   22169955.8054
        45.2504         31.7504
   1384512.28146   1185566.93045  23389146.9844                   23389145.2894
        40.2504         34.2504
   2027922.68047   1632705.37947  21923449.2034                   21923446.3674
        46.7504         45.0004
  -3002027.52748  -2269627.20748  20626880.8524                   20626877.6724
        49.5004         52.2504
  -3469686.40246  -2569545.82043  24367951.9454                   24367946.0554
        38.2504         22.5004
   2748820.46146   3466261.59843  24570508.4454                   24570507.2704
        39.2504         18.5004
 25  7 15 20 42 30.0000000  0  9G08G10G18G23G24G27G32G02G28
  -2342092.06647  -1756387.97746  22564499.5784                   22564497.9184
        43.7504         39.0004
   -396464.85948   -250968.68448  21020660.2274                   21020657.1134
        48.5004         50.7504
   4952702.53146   3896134.74644  22983108.9844                   22983105.9774
        41.7504         29.5004
   3274782.28547   2597375.48045  22131043.3134                   22131039.3794
        45.0004         32.2504
   1164930.75046   1014464.40645  23347361.8594                   23347360.1564
        40.0004         34.0004
   1815962.80947   1467541.81647  21883114.3834                   21883111.8134
        46.7504         45.0004
  -3290765.44548  -2494617.77348  20571935.8524                   20571932.4494
        49.0004         52.5004
  -3820538.60246  -2842937.05944  24301186.7814                   24301181.1914
        37.7504         24.0004
   2386856.25046   3184211.74643  24501629.5944                   24501628.0204
        39.0004         20.0004
 25  7 15 20 43  0.0000000  0  9G08G10G18G23G24G27G32G02G28
  -1038646.27047   -740715.92646  22812537.3054                   22812535.3834
        43.7504         39.0004
    922314.84048    776651.86348  21271615.3754                   21271612.5354
        49.0004         50.5004
   6355380.70346   4989130.64844  23250030.3284                   23250027.0434
        41.0004         29.0004
   4645774.71147   3665681.24245  22391934.7814                   22391930.6024
        45.0004         31.0004
   2521329.01646   2071398.08645  23605475.9614                   23605474.2384
        40.0004         33.5004
   3179882.06647   2530336.01647  22142660.0004                   22142657.1524
        46.5004         45.0004
  -2003620.23048  -1491647.46148  20816871.5784                   20816868.2424
        49.5004         52.2504
  -2595936.72346  -1888701.77343  24534221.3914                   24534215.2624
        38.5004         23.7504
   3600244.18446   4129708.99243  24732529.3594                   24732527.4734
        41.0004         19.5004
 25  7 15 20 43 30.0000000  0  9G08G10G18G23G24G27G32G02G28
  -1310103.88747   -952241.34046  22760880.7034                   22760879.0784
        43.5004         39.5004
    665792.60248    576764.40248  21222801.1954                   21222797.8954
        49.0004         50.5004
   6182892.58246   4854724.23844  23217206.4534                   23217203.5944
        41.5004         29.0004
   4441416.54747   3506441.09045  22353046.8914                   22353042.2974
        44.7504         31.5004
   2302854.05946   1901157.82045  23563901.3834                   23563899.8554
        39.0004         33.0004
   2968826.66447   2365877.22747  22102497.5164                   22102494.7894
        46.5004         45.0004
  -2291448.57048  -1715929.26648  20762099.8134                   20762096.4024
        49.2504         52.5004
  -2946739.91446  -2162054.81643  24467465.9304                   24467459.4104
        38.2504         23.2504
   3238125.57846   3847538.82843  24663619.6564                   24663618.7034
        39.0004         20.0004
 25  7 15 20 44  0.0000000  0  9G08G10G18G23G24G27G32G02G28
  -1581036.68047  -1163357.79746  22709324.3754                   22709321.8754
        42.7504         39.2504
    409396.04748    376974.87948  21174010.6174                   21174006.9264
        50.0004         50.5004
   6010662.03546   4720518.53544  23184432.8444                   23184429.3834
        41.7504         29.0004
   4237133.86347   3347259.74645  22314173.2734                   22314168.6994
        44.7504         31.7504
   2084931.20746   1731347.77745  23522431.6414                   23522430.1724
        39.0004         33.7504
   2758220.68447   2201768.64147  22062420.1644                   22062417.9694
        46.7504         45.0004
  -2578821.57448  -1939856.26248  20707414.4924                   20707411.2584
        49.5004         52.5004
  -3297515.59046  -2435386.44143  24400715.6174                   24400709.1724
        37.5004         23.7504
   2875934.58246   3565312.26643  24594697.8674                   24594696.1374
        39.5004         20.7504
 25  7 15 20 44 30.0000000  0  9G08G10G18G23G24G27G32G02G28
  -1851443.91847  -1374064.72746  22657866.9224                   22657864.8284
        44.2504         39.2504
    153125.84448    177283.81348  21125243.5394                   21125240.6604
        50.5004         50.5004
   5838688.67647   4586513.24244  23151707.2034                   23151703.8634
        42.5004         29.0004
   4032927.38747   3188137.79345  22275313.9614                   22275309.5664
        44.2504         31.2504
   1867560.20346   1561967.74645  23481067.3594                   23481066.5594
        39.2504         33.7504
   2548062.62547   2038009.08647  22022428.7734                   22022426.3324
        46.5004         45.0004
  -2865738.49248  -2163427.86748  20652815.9144                   20652812.4384
        50.5004         52.5004
  -3648260.96946  -2708694.43044  24333970.4224                   24333964.4494
        39.2504         25.0004
   2513674.68846   3283032.01243  24525761.2584                   24525760.0634
        38.7504         20.2504
 25  7 15 20 45  0.0000000  0  9G08G10G18G23G24G27G32G02G28
  -2121324.93447  -1584361.62546  22606510.1484                   22606508.1844
        43.5004         39.2504
   -103017.29348    -22308.24648  21076501.6414                   21076498.1914
        50.2504         50.5004
   5666972.05947   4452708.01244  23119030.7344                   23119027.1484
        42.7504         29.2504
   3828797.89547   3029075.81645  22236469.1724                   22236464.8444
        44.5004         31.0004
   1650740.57846   1393017.35245  23439808.7584                   23439807.5204
        40.0004         33.7504
   2338350.96947   1874597.37147  21982522.4384                   21982519.5514
        46.7504         45.2504
  -3152198.64548  -2386643.55548  20598304.1334                   20598300.6054
        51.5004         52.5004
  -3998973.43446  -2981976.78144  24267232.1484                   24267225.7934
        40.0004         26.0004
   2151349.57446   3000700.94543  24456812.7194                   24456811.2774
        37.5004         19.7504
 25  7 15 20 45 30.0000000  0  9G08G10G18G23G24G27G32G02G28
  -2390681.07447  -1794249.52346  22555253.3204                   22555251.7194
        43.0004         39.5004
   -359034.70348   -221802.33248  21027782.7194                   21027779.7074
        50.7504         50.5004
   5495509.69547   4319100.89144  23086402.6094                   23086399.3284
        43.7504         29.0004
   3624744.09047   2870072.82445  22197639.6804                   22197634.6724
        44.7504         31.0004
   1434469.90246   1224494.71945  23398654.1024                   23398651.8674
        40.0004         32.5004
   2129082.14547   1711530.72347  21942700.0634                   21942696.7384
        47.2504         45.5004
  -3438203.32448  -2609504.32848  20543879.1884                   20543876.3674
        51.0004         52.5004
  -4349652.54746  -3255233.16444  24200499.7424                   24200493.7034
        40.7504         26.7504
   1788960.73046   2718320.21543  24387851.5084                   24387851.1884
        36.0004         19.7504
 25  7 15 20 46  0.0000000  0  9G08G10G18G23G24G27G32G02G28
  -1084084.24247   -776122.11746  22803890.8674                   22803889.0124
        44.5004         40.0004
    960501.41848    806407.62548  21278882.2814                   21278879.2814
        50.0004         50.5004
   6899725.53547   5413294.98845  23353616.0164                   23353612.5274
        43.2504         30.0004
   4996192.10947   3938733.59445  22458617.1804                   22458612.7704
        43.7504         31.7504
   2794173.53146   2284004.00845  23657396.2814                   23657394.7934
        39.5004         32.7504
   3495680.12147   2776412.23047  22202755.0004                   22202751.8984
        46.2504         45.0004
  -2148323.80148  -1604403.37948  20789334.7894                   20789331.8754
        51.7504         52.5004
  -3124865.47346  -2300853.55544  24433569.3134                   24433563.0594
        40.5004         26.0004
   3001942.48046   3663501.02343  24618674.8364                   24618674.0314
        36.5004         19.2504
 25  7 15 20 46 30.0000000  0  9G08G10G18G23G24G27G32G02G28
  -1352388.65247   -985190.48446  22752833.5864                   22752832.2274
        43.5004         39.7504
    704737.75048    607111.26648  21230211.9774                   21230208.7194
        49.5004         50.5004
   6728770.76247   5280083.39544  23321084.5084                   23321081.1334
        43.5004         28.5004
   4792292.21147   3779850.50845  22419816.3284                   22419811.7344
        44.5004         31.0004
   2578999.67646   2116336.03945  23616450.1564                   23616448.9024
        39.7504         33.0004
   3287292.52047   2614032.25047  22163099.5474                   22163096.7424
        46.5004         45.0004
  -2433415.35548  -1826552.62948  20735084.4924                   20735080.9534
        50.5004         52.5004
  -3475469.82446  -2574051.67244  24366851.2504                   24366844.9804
        41.2504         25.7504
   2639437.33246   3381029.69543  24549692.1024                   24549691.4344
        36.5004         19.2504
 25  7 15 20 47  0.0000000  0  9G08G10G18G23G24G27G32G02G28
  -1620167.29347  -1193849.16846  22701877.5704                   22701875.5274
        43.5004         39.5004
    449100.98848    407913.78948  21181566.0394                   21181562.6334
        49.2504         50.5004
   6558068.06347   5147068.21544  23288600.9224                   23288597.8014
        42.0004         29.0004
   4588469.39847   3621027.50845  22381030.6484                   22381026.0234
        43.7504         30.7504
   2364372.43046   1949094.00845  23575607.8914                   23575606.8714
        39.5004         33.0004
   3079342.14547   2451992.96547  22123528.0784                   22123525.4614
        47.0004         45.0004
  -2718050.42248  -2048346.16848  20680919.8054                   20680916.7344
        50.7504         52.5004
  -3826034.20746  -2847218.67244  24300141.3364                   24300134.9184
        41.2504         26.0004
   2276878.30546   3098516.37543  24480698.5314                   24480698.0824
        36.7504         20.5004
 25  7 15 20 47 30.0000000  0  9G08G10G18G23G24G27G32G02G28
  -1887421.10547  -1402098.88746  22651020.8524                   22651019.0234
        43.5004         40.0004
    193590.38348    208814.61348  21132944.1884                   21132940.9734
        50.0004         50.5004
   6387615.56647   5014247.99644  23256164.3984                   23256161.6724
        43.0004         28.5004
   4384722.98447   3462264.03945  22342258.2974                   22342254.1764
        44.0004         31.0004
   2150289.88746   1782276.41845  23534869.6884                   23534868.1024
        39.7504         32.2504
   2871825.89547   2290291.95747  22084038.7974                   22084036.3244
        45.5004         44.7504
  -3002229.82848  -2269784.64848  20626842.1954                   20626839.0004
        50.2504         52.5004
  -4176557.12947  -3120353.36744  24233438.8834                   24233432.7194
        42.0004         25.2504
   1914267.76246   2815962.92643  24411696.9224                   24411695.3674
        38.2504         21.5004
 25  7 15 20 48  0.0000000  0  9G08G10G18G23G24G27G32G02G28
  -2154150.89147  -1609940.27346  22600263.7584                   22600261.7234
        42.7504         39.7504
    -61794.71948      9813.23848  21084345.8054                   21084342.3554
        49.2504         50.7504
   6217411.34847   4881621.24244  23223775.7894                   23223772.9384
        42.0004         28.0004
   4181052.37947   3303559.64145  22303501.3444                   22303497.0594
        43.7504         31.5004
   1936750.02046   1615881.69145  23494234.4064                   23494232.8984
        39.5004         32.2504
   2664740.83647   2128926.93847  22044632.1484                   22044629.5594
        47.0004         44.7504
  -3285954.32848  -2490868.65248  20572851.3284                   20572848.1214
        50.0004         52.5004
  -4527037.66046  -3393455.02044  24166744.5084                   24166737.8674
        41.0004         27.0004
   1551607.80546   2533370.96543  24342684.2504                   24342683.3164
        38.2504         22.2504
 25  7 15 20 48 30.0000000  0  9G08G10G18G23G24G27G32G02G28
  -2420354.75447  -1817371.86346  22549607.1644                   22549605.1684
        42.5004         40.0004
   -317052.22748   -189088.71148  21035771.7814                   21035768.7194
        48.7504         50.5004
   6047456.31647   4749188.67244  23191435.2194                   23191431.4224
        42.7504         27.2504
   3977459.74647   3144915.99645  22264759.3524                   22264754.9224
        44.2504         30.7504
   1723753.69546   1449910.52345  23453702.3594                   23453700.8524
        40.5004         32.5004
   2458086.66447   1967897.68447  22005307.0554                   22005304.4574
        46.7504         44.7504
  -3569221.99248  -2711596.69548  20518947.1804                   20518943.8524
        48.7504         52.5004
  -4877471.80546  -3666520.52344  24100059.1804                   24100052.6844
        41.2504         25.0004
   1188903.55546   2250744.49643  24273663.8524                   24273662.8874
        38.2504         23.0004
 25  7 15 20 49  0.0000000  0  9G08G10G18G23G24G27G32G02G28
  -1110604.50447   -796787.25446  22798844.6954                   22798842.2384
        43.2504         40.0004
   1003246.02348    839715.12948  21287016.5164                   21287012.9534
        49.0004         50.5004
   7453174.62946   5844553.52744  23458933.8984                   23458931.0864
        41.5004         26.0004
   5349371.50447   4213938.12145  22525825.1884                   22525820.6484
        44.2504         31.5004
   3086726.34846   2511967.11345  23713068.0784                   23713065.5944
        40.0004         32.7504
   3827287.54347   3034807.43047  22265857.5474                   22265854.8794
        46.5004         44.5004
  -2276603.86748  -1704361.77048  20764924.3284                   20764920.6644
        50.7504         52.7504
  -3652426.11746  -2711939.40244  24333177.0944                   24333171.3244
        40.7504         25.2504
   2401589.46946   3195694.80144  24504431.1484                   24504428.9884
        40.0004         25.2504
 25  7 15 20 49 30.0000000  0  9G08G10G18G23G24G27G32G02G28
  -1375757.27046  -1003399.80146  22748387.3984                   22748385.3094
        41.5004         39.7504
    748243.85548    641012.13748  21238491.0864                   21238487.6884
        48.0004         50.5004
   7283714.58646   5712506.65644  23426686.9064                   23426684.0164
        41.2504         25.7504
   5145935.12547   4055416.23045  22487112.1644                   22487108.0744
        44.2504         31.2504
   2874813.33646   2346840.06345  23672741.1804                   23672740.0594
        39.5004         32.2504
   3621488.23847   2874444.30947  22226695.2814                   22226692.4734
        46.2504         44.5004
  -2558958.16048  -1924378.08248  20711194.3834                   20711190.4964
        49.5004         52.7504
  -4002761.43746  -2984927.90644  24266511.0234                   24266504.1644
        41.2504         25.7504
   2038805.30546   2913006.06343  24435394.3674                   24435393.4104
        39.5004         23.7504
 25  7 15 20 50  0.0000000  0  9G08G10G18G23G24G27G32G02G28
  -1640384.52747  -1209602.86746  22698030.4534                   22698028.4344
        44.2504         39.2504
    493369.69548    442408.89148  21189989.7274                   21189986.5784
        48.7504         50.5004
   7114500.44946   5580651.40644  23394486.5944                   23394483.6644
        40.7504         25.7504
   4942577.24647   3896955.51645  22448415.1414                   22448410.3874
        44.2504         31.2504
   2663440.21146   2182133.71145  23632518.7814                   23632517.3284
        39.5004         32.2504
   3416113.03547   2714411.64147  22187613.5634                   22187611.0274
        46.5004         44.7504
  -2840855.74648  -2144038.52048  20657550.9454                   20657547.3874
        50.0004         52.7504
  -4353044.07446  -3257875.37944  24199853.7584                   24199847.9964
        40.5004         25.5004
   1675985.87946   2630289.84444  24366352.1484                   24366351.0784
        39.5004         25.2504
 25  7 15 20 50 30.0000000  0  9G08G10G18G23G24G27G32G02G28
  -1904485.51246  -1415395.84446  22647774.2664                   22647771.7734
        41.7504         39.2504
    238624.71548    243906.31348  21141513.5784                   21141510.7114
        49.2504         50.5004
   6945532.06646   5448987.63743  23362333.2274                   23362329.8524
        40.2504         22.7504
   4739299.13347   3738556.96545  22409732.1254                   22409727.8244
        44.7504         31.5004
   2452606.67646   2017847.81645  23592398.7734                   23592397.4774
        39.7504         32.2504
   3211160.65247   2554708.45347  22148612.3834                   22148609.6374
        46.0004         44.5004
  -3122295.71148  -2363342.37148  20603994.4534                   20603991.1844
        51.5004         53.0004
  -4703271.17246  -3530779.53944  24133207.7034                   24133201.4844
        40.7504         24.0004
   1313135.24246   2347549.32443  24297303.7734                   24297302.3634
        41.5004         23.7504
 25  7 15 20 51  0.0000000  0  9G08G10G18G23G24G27G32G02G28
  -2168063.08247  -1620780.96546  22597616.8674                   22597614.4844
        43.2504         39.7504
    -15993.67648     45502.37548  21093061.4064                   21093058.5434
        50.0004         50.5004
   6776805.73046   5317512.48043  23330225.6254                   23330222.3054
        39.5004         23.5004
   4536098.27747   3580218.61345  22371064.5314                   22371060.1214
        44.5004         31.2504
   2242308.83646   1853979.34045  23552380.1884                   23552378.8754
        39.5004         33.0004
   3006626.12547   2395330.86747  22109690.9454                   22109688.1604
        46.0004         44.0004
  -3403280.85948  -2582291.82848  20550524.8594                   20550521.3484
        50.7504         52.7504
  -5053443.36746  -3803640.94144  24066572.3054                   24066566.2304
        40.5004         24.5004
    950253.85947   2064784.83644  24228250.9924                   24228248.6914
        42.0004         25.5004
 25  7 15 20 51 30.0000000  0  9G08G10G18G23G24G27G32G02G28
  -2431117.89547  -1825758.75446  22547559.5084                   22547556.9654
        42.0004         39.5004
   -270485.66848   -152803.07048  21044633.2034                   21044630.0554
        49.5004         50.5004
   6608319.90246   5186224.72344  23298163.3364                   23298160.8014
        39.5004         25.0004
   4332974.51647   3421940.31645  22332411.6724                   22332406.7544
        44.5004         30.7504
   2032544.99646   1690526.97745  23512463.3754                   23512462.3524
        39.5004         32.7504
   2802506.77347   2236276.79347  22070848.0314                   22070845.7974
        45.5004         44.5004
  -3683811.62948  -2800887.20748  20497141.6414                   20497137.8914
        51.2504         53.0004
  -5403558.73446  -4076458.04344  23999947.7504                   23999940.9024
        41.2504         25.2504
    587344.30547   1781998.37944  24159190.9224                   24159188.3914
        42.5004         26.0004
 25  7 15 20 52  0.0000000  0  9G08G10G18G23G24G27G32G02G28
  -1118219.09047   -802720.72346  22797395.5234                   22797393.2274
        42.7504         39.5004
   1050579.78948    876598.58248  21296023.3834                   21296020.2584
        50.0004         50.5004
   8015501.36746   6282729.66044  23565941.3364                   23565938.9224
        39.7504         25.2504
   5705357.19547   4491329.39144  22593567.0634                   22593563.2074
        43.7504         29.7504
   3398743.16846   2755096.94945  23772442.1024                   23772441.0044
        39.2504         32.5004
   4174229.33647   3305151.47747  22331879.0164                   22331875.8794
        46.2504         44.5004
  -2388456.54348  -1791519.58648  20743639.6644                   20743636.1414
        51.2504         53.0004
  -4178181.71546  -3121618.73444  24233129.3524                   24233122.5164
        40.2504         24.7504
   1799844.17647   2726803.66444  24389921.3914                   24389919.3594
        42.0004         26.0004
 25  7 15 20 52 30.0000000  0  9G08G10G18G23G24G27G32G02G28
  -1380226.57847  -1006882.40246  22747536.7274                   22747535.1414
        43.0004         39.2504
    796343.66848    678492.52348  21247643.9064                   21247640.8594
        50.5004         50.5004
   7847495.57446   6151815.94943  23533971.2424                   23533967.8594
        39.0004         23.5004
   5502390.82047   4333173.74645  22554944.4924                   22554940.1214
        44.7504         31.5004
   3190045.89146   2592475.67645  23732728.6724                   23732727.8204
        40.2504         33.0004
   3970935.83647   3146740.92647  22293193.0164                   22293190.5514
        45.2504         44.0004
  -2668076.50848  -2009405.25448  20690429.2504                   20690426.0314
        51.7504         53.0004
  -4528175.47746  -3394341.08644  24166527.9924                   24166521.4534
        40.7504         26.5004
   1436890.19546   2443982.57444  24320852.7734                   24320851.5164
        41.7504         25.0004
 25  7 15 20 53  0.0000000  0  9G08G10G18G23G24G27G32G02G28
  -1641711.44547  -1210636.83646  22697778.1024                   22697776.0044
        44.0004         39.2504
    542235.23048    480485.94948  21199288.7974                   21199285.7704
        50.0004         50.7504
   7679727.50046   6021087.47744  23502045.9844                   23502043.1294
        38.7504         24.5004
   5299502.86747   4175079.22345  22516335.7194                   22516331.2774
        43.5004         31.2504
   2981879.27346   2430267.89545  23693116.1414                   23693114.6294
        39.5004         32.2504
   3768051.12947   2988648.92247  22254585.5704                   22254582.8244
        45.5004         44.0004
  -2947241.92648  -2226936.73048  20637306.2344                   20637302.8094
        51.5004         53.0004
  -4878105.88746  -3667014.08644  24099937.9924                   24099931.9104
        40.2504         25.5004
   1073918.03947   2161147.33244  24251782.6484                   24251779.8094
        42.5004         25.7504
 25  7 15 20 53 30.0000000  0  9G08G10G18G23G24G27G32G02G28
  -1902673.60547  -1413983.98046  22648118.2584                   22648116.4104
        43.2504         39.5004
    288255.00448    282579.27748  21150958.1174                   21150954.8984
        50.7504         51.0004
   7512196.44146   5890543.69144  23470166.2664                   23470163.2894
        39.5004         27.0004
   5096694.05147   4017046.34445  22477742.5864                   22477738.1524
        43.0004         31.2504
   2774242.21146   2268472.77045  23653603.7584                   23653602.6484
        39.0004         32.0004
   3565573.26247   2830873.92647  22216055.1564                   22216052.7114
        45.5004         44.0004
  -3225952.57848  -2444113.85248  20584269.1724                   20584265.4024
        51.7504         53.0004
  -5227970.41846  -3939635.70744  24033360.9924                   24033354.4224
        40.7504         25.5004
    710931.18047   1878300.59443  24182707.2584                   24182705.6994
        42.5004         23.7504
 25  7 15 20 54  0.0000000  0  9G08G10G18G23G24G27G32G02G28
  -2163113.54747  -1616924.20346  22598558.3914                   22598556.5004
        42.0004         39.5004
     34403.00048     84772.52048  21102651.6644                   21102648.3324
        51.0004         50.7504
   7344900.89846   5760183.43444  23438331.2664                   23438327.9654
        40.0004         25.2504
   4893964.30947   3859075.08645  22439164.3204                   22439160.4654
        44.2504         30.7504
   2567133.25446   2107089.14145  23614192.5314                   23614191.1054
        39.5004         32.0004
   3363499.72747   2673413.99647  22177601.9454                   22177599.3364
        45.0004         44.0004
  -3504208.80548  -2660936.86748  20531318.8054                   20531315.2934
        51.5004         53.0004
  -5577767.11346  -4212204.49644  23966796.6334                   23966790.6174
        40.2504         26.0004
    347932.61347   1595444.75844  24113631.5164                   24113629.5004
        42.0004         24.7504
 25  7 15 20 54 30.0000000  0  9G08G10G18G23G24G27G32G02G28
  -2423030.89547  -1819457.21146  22549097.5474                   22549095.7704
        42.5004         39.7504
   -219319.71948   -112933.50048  21054369.8444                   21054366.8484
        50.2504         50.7504
   7177840.60546   5630006.48044  23406540.3364                   23406537.8014
        39.7504         27.2504
   4691314.75447   3701166.30545  22400601.3054                   22400596.9804
        44.0004         31.2504
   2360551.79346   1946116.56345  23574881.1254                   23574879.7234
        39.5004         32.0004
   3161828.83647   2516267.81647  22139224.9384                   22139222.9414
        44.7504         43.7504
  -3782010.02748  -2877405.33648  20478455.0004                   20478451.8754
        52.2504         53.0004
  -5927493.01246  -4484718.09844  23900245.5704                   23900239.7894
        41.2504         27.5004
    -15073.76246   1312582.83244  24044552.9304                   24044550.4224
        41.2504         24.5004
 25  7 15 20 55  0.0000000  0  9G08G10G18G23G24G27G32G02G28
  -1106998.16047   -793977.16046  22799530.2584                   22799528.7274
        43.5004         39.5004
   1102514.65648    917067.31648  21305906.5474                   21305903.4964
        50.0004         50.7504
   8586439.14546   6727615.60944  23674588.4224                   23674585.3364
        40.0004         27.0004
   6064171.61747   4770924.86345  22661848.1644                   22661843.2974
        44.0004         30.5004
   3729922.37946   3013158.56645  23835463.7194                   23835462.4734
        38.5004         31.7504
   4535984.21547   3587038.20347  22400718.5474                   22400715.7114
        45.7504         43.7504
  -2483928.03148  -1865912.85548  20725471.6884                   20725468.2774
        51.5004         53.0004
  -4701715.36346  -3529566.63344  24133503.7664                   24133497.2544
        41.5004         26.0004
   1197346.47346   2257326.03543  24275268.9924                   24275266.8794
        40.2504         22.7504
 25  7 15 20 55 30.0000000  0  9G08G10G18G23G24G27G32G02G28
  -1365871.23447   -995696.45346  22750268.8054                   22750266.5044
        42.2504         39.5004
    849051.35248    719563.44548  21257674.2664                   21257670.9384
        50.7504         51.0004
   8419845.96146   6597802.64144  23642886.8674                   23642883.7664
        41.5004         27.7504
   5861683.40647   4613141.82045  22623314.8674                   22623310.4964
        44.5004         30.7504
   3524391.63346   2853004.71545  23796352.4384                   23796350.9694
        38.5004         31.5004
   4335111.76647   3430514.17647  22362493.7034                   22362491.2034
        45.0004         43.7504
  -2760819.75848  -2081672.62548  20672781.0474                   20672777.3834
        51.0004         53.0004
  -5051293.34446  -3801964.99644  24066981.1094                   24066974.6254
        41.2504         28.5004
    834334.03146   1974459.38743  24206189.9844                   24206187.0554
        40.2504         22.2504
 25  7 15 20 56  0.0000000  0  9G08G10G18G23G24G27G32G02G28
  -1624224.65647  -1197010.81646  22701105.8364                   22701103.7734
        43.2504         39.5004
    595716.30148    522159.50848  21209465.9144                   21209462.7974
        50.7504         50.7504
   8253482.71946   6468168.83644  23611229.2274                   23611226.0474
        41.2504         28.5004
   5659274.45747   4455420.52344  22584797.8984                   22584794.0824
        44.0004         29.7504
   3319382.24646   2693257.11345  23757340.7664                   23757339.1804
        38.2504         32.0004
   4134633.14147   3274297.02747  22324343.4534                   22324341.3244
        45.0004         43.7504
  -3037258.91848  -2297079.75048  20620176.7894                   20620172.8484
        52.0004         53.0004
  -5400796.00846  -4074304.67244  24000472.8444                   24000466.2814
        41.7504         28.0004
    471321.44946   1691592.58643  24137110.9844                   24137107.6024
        38.5004         21.5004
 25  7 15 20 56 30.0000000  0  9G08G10G18G23G24G27G32G02G28
  -1882056.68447  -1397918.89846  22652042.4064                   22652039.5474
        43.2504         39.7504
    342511.84848    324857.33248  21161282.5944                   21161279.7894
        50.2504         50.7504
   8087350.32046   6338714.92244  23579615.0474                   23579611.9534
        41.0004         28.7504
   5456947.19147   4297762.87144  22546295.8134                   22546292.2854
        42.7504         29.7504
   3114894.81646   2533916.23845  23718428.0634                   23718426.4614
        38.7504         31.5004
   3934547.94547   3118386.44947  22286268.7894                   22286266.5704
        44.5004         44.0004
  -3313243.65648  -2512132.78548  20567658.2114                   20567654.5124
        51.2504         53.0004
  -5750219.12546  -4346582.35544  23933979.7274                   23933973.5434
        41.7504         28.5004
    108313.99246   1408729.77743  24068032.4924                   24068029.9924
        37.5004         20.5004
 25  7 15 20 57  0.0000000  0  9G08G10G18G23G24G27G32G02G28
  -2139367.68747  -1598420.99246  22603077.6254                   22603075.2974
        43.7504         40.0004
     89438.36348    127657.21548  21113124.6484                   21113121.0904
        50.5004         50.7504
   7921447.68446   6209440.03544  23548044.6414                   23548041.9384
        41.2504         29.0004
   5254701.98447   4140169.17644  22507810.1254                   22507806.4184
        42.2504         29.5004
   2910927.88746   2374980.93445  23679614.8444                   23679612.6254
        38.5004         32.5004
   3734853.91447   2962780.66447  22248268.6094                   22248266.0634
        43.5004         44.0004
  -3588774.12148  -2726831.83648  20515226.3834                   20515222.8954
        51.5004         53.0004
  -6099560.30947  -4618796.20344  23867503.1414                   23867495.7304
        42.5004         28.7504
   -254685.02046   1125873.56343  23998955.2034                   23998953.5274
        36.2504         20.0004
 25  7 15 20 57 30.0000000  0  9G08G10G18G23G24G27G32G02G28
  -2396160.36747  -1798519.19146  22554211.1094                   22554209.2584
        42.0004         39.7504
   -163506.00048    -69442.29748  21064990.9224                   21064987.5594
        49.2504         50.5004
   7755771.38346   6080341.51244  23516517.1724                   23516514.9224
        40.5004         28.0004
   5052536.92247   3982637.92645  22469339.6484                   22469335.7624
        44.2504         30.5004
   2707477.89146   2216448.45345  23640899.1724                   23640897.9264
        38.7504         32.2504
   3535546.43047   2807476.09447  22210341.6094                   22210338.8134
        45.0004         44.0004
  -3863852.80548  -2941178.85248  20462881.0784                   20462877.5984
        51.5004         53.0004
  -6448819.61347  -4890946.25044  23801040.6724                   23801034.1524
        42.5004         29.7504
   -617674.61746    843024.70343  23929881.4144                   23929878.4344
        37.0004         20.5004
 25  7 15 20 58  0.0000000  0  9G08G10G18G23G24G27G32G02G28
  -1077007.12947   -770607.58646  22805237.7974                   22805236.0944
        42.0004         40.0004
   1159106.87548    961165.13348  21316675.7584                   21316672.2194
        50.2504         50.5004
   9165745.33646   7179022.39544  23784826.7894                   23784824.5864
        40.5004         26.5004
   6425878.53547   5052774.21545  22730678.2114                   22730673.8954
        43.5004         30.5004
   4079969.44146   3285922.35945  23902075.5164                   23902074.4304
        38.5004         33.0004
   4912049.12547   3880075.56647  22472281.0394                   22472278.7424
        45.0004         44.0004
  -2563051.37948  -1927567.33248  20710415.0164                   20710411.4224
        52.0004         53.0004
  -5222563.91447  -3935422.26644  24034389.1724                   24034382.8054
        42.2504         29.0004
    594779.94546   1787794.66443  24160602.6804                   24160600.8284
        38.0004         20.5004
 25  7 15 20 58 30.0000000  0  9G08G10G18G23G24G27G32G02G28
  -1332764.88347   -969899.34846  22756569.1174                   22756566.7384
        42.5004         39.7504
    906421.22748    764267.22348  21268591.0864                   21268587.9264
        50.0004         50.5004
   9000517.95346   7050273.68044  23753384.4224                   23753382.4734
        40.7504         27.2504
   6223874.39547   4895368.35245  22692238.0784                   22692233.6844
        43.5004         30.2504
   3877548.14546   3128191.46145  23863555.5004                   23863554.9534
        39.0004         32.5004
   4713507.05947   3725367.42647  22434499.8134                   22434497.5044
        45.0004         44.2504
  -2837227.69948  -2141211.19948  20658240.7894                   20658237.5124
        51.7504         53.2504
  -5571653.44947  -4207440.02344  23967959.5704                   23967953.2774
        42.2504         29.0004
    231818.43446   1504967.68443  24091533.9064                   24091531.9224
        37.2504         20.5004
 25  7 15 20 59  0.0000000  0  9G08G10G18G23G24G27G32G02G28
  -1588005.29747  -1168787.99646  22707997.8984                   22707995.9734
        42.0004         39.5004
    653866.07848    567471.00048  21220531.3204                   21220528.5594
        49.0004         50.5004
   8835513.86746   6921698.94144  23721985.9694                   23721983.2934
        39.2504         26.7504
   6021951.89547   4738026.10945  22653813.4064                   22653809.3204
        44.5004         30.0004
   3675639.54746   2970860.05545  23825134.8834                   23825133.2464
        38.5004         31.7504
   4515344.73047   3570955.18447  22396791.0474                   22396788.5004
        44.5004         44.2504
  -3110952.60548  -2354503.31648  20606152.5784                   20606149.4924
        51.5004         53.0004
  -5920654.08647  -4479388.51244  23901547.4064                   23901540.3444
        42.7504         27.5004
   -131123.48446   1222155.94543  24022468.4064                   24022466.0984
        39.5004         21.5004
 25  7 15 20 59 30.0000000  0  9G08G10G18G23G24G27G32G02G28
  -1842728.57847  -1367273.67246  22659525.8204                   22659523.9774
        42.5004         39.7504
    401442.12948    370777.01648  21172496.8914                   21172493.9144
        49.7504         50.5004
   8670732.13346   6793297.48044  23690629.3594                   23690626.6094
        40.0004         26.7504
   5820111.70747   4580747.99645  22615404.4144                   22615400.1054
        44.0004         31.2504
   3474242.43046   2813927.21145  23786809.8364                   23786808.7774
        38.7504         32.2504
   4317560.00047   3416837.18047  22359154.0234                   22359151.6914
        44.2504         43.5004
  -3384226.16848  -2567443.73048  20554150.2504                   20554146.9064
        51.5004         53.0004
  -6269563.17646  -4751265.67244  23835151.2034                   23835145.2384
        41.5004         28.7504
   -494042.33646    939362.16044  23953407.0394                   23953405.1254
        40.0004         25.0004
 25  7 15 21  0  0.0000000  0  9G08G10G18G23G24G27G32G02G28
  -2096936.18447  -1565357.54346  22611151.5164                   22611149.8284
        44.2504         39.5004
    149148.83248    174184.83648  21124486.9614                   21124483.9614
        50.2504         50.5004
   8506170.75446   6665067.72344  23659314.1484                   23659312.0204
        39.5004         27.0004
   5618353.29747   4423533.60945  22577011.4064                   22577007.0044
        44.2504         30.2504
   3273354.33246   2657391.02045  23748581.6484                   23748580.6294
        39.0004         32.2504
   4120149.55947   3263010.81347  22321587.9144                   22321585.4024
        44.5004         43.5004
  -3657049.47348  -2780033.29348  20502234.0394                   20502230.7344
        52.0004         53.0004
  -6618379.73847  -5023070.72344  23768774.1644                   23768767.7504
        42.5004         28.7504
   -856935.67646    656588.27044  23884350.8134                   23884348.4104
        41.2504         25.2504
 25  7 15 21  0 30.0000000  0  9G08G10G18G23G24G27G32G02G28
  -2350627.63347  -1763039.21146  22562875.9454                   22562874.0984
        43.2504         39.0004
   -103012.40648    -22304.43448  21076502.3444                   21076499.1094
        50.0004         50.5004
   8341829.46546   6537009.46944  23628041.1174                   23628038.7194
        39.5004         25.7504
   5416678.05947   4266384.03945  22538633.7114                   22538629.7584
        44.2504         30.5004
   3072974.68846   2501251.00445  23710451.1024                   23710449.8794
        37.7504         32.2504
   3923111.96947   3109474.98847  22284093.1644                   22284090.6414
        44.5004         43.5004
  -3929421.94148  -2992271.55948  20450403.2664                   20450399.8244
        52.0004         53.0004
  -6967099.98446  -5294800.73044  23702415.1884                   23702408.2074
        41.7504         27.0004
  -1219799.30146    373837.52344  23815299.2194                   23815297.8244
        41.0004         26.2504
 25  7 15 21  1  0.0000000  0  9G08G10G18G23G24G27G32G02G28
  -1028376.52347   -732713.67646  22814492.1254                   22814489.5744
        44.5004         39.5004
   1220385.71948   1008914.87948  21328336.6954                   21328333.3204
        50.7504         50.5004
   9753131.17246   7636724.97744  23896603.6024                   23896600.4414
        39.5004         24.0004
   6790511.66447   5336903.69145  22800065.3834                   22800061.2624
        44.7504         30.0004
   4448527.04346   3573109.95345  23972209.8754                   23972208.8364
        38.0004         31.5004
   5301869.85547   4183831.73847  22546462.0234                   22546459.5784
        44.5004         43.0004
  -2625916.23448  -1976552.81248  20698452.1024                   20698448.5164
        51.0004         53.2504
  -5740291.68747  -4338846.15644  23935868.8284                   23935861.7074
        42.2504         26.2504
     -7199.18446   1318720.86344  24046049.3444                   24046047.6294
        40.2504         26.5004
 25  7 15 21  1 30.0000000  0  9G08G10G18G23G24G27G32G02G28
  -1281037.07847   -929592.04746  22766412.1884                   22766410.2304
        43.5004         39.2504
    968490.03548    812632.52348  21280402.4454                   21280399.3364
        50.5004         50.2504
   9589226.94546   7509007.28543  23865413.9534                   23865410.8094
        38.2504         23.5004
   6589004.28947   5179884.91444  22761719.7194                   22761715.7704
        43.5004         29.5004
   4249159.73046   3417758.77045  23934272.0234                   23934270.0744
        40.0004         31.7504
   5105570.93847   4030871.50447  22509106.7734                   22509104.7234
        45.2504         43.2504
  -2897387.63348  -2188088.94548  20646792.8984                   20646789.6764
        51.7504         53.0004
  -6088812.62947  -4610420.85944  23869547.5084                   23869540.8714
        42.0004         27.5004
   -369993.09046   1036024.43444  23977012.3674                   23977010.4654
        41.2504         27.0004
 25  7 15 21  2  0.0000000  0  9G08G10G18G23G24G27G32G02G28
  -1533183.85547  -1126070.07046  22718430.3134                   22718428.4654
        44.5004         39.7504
    716727.03148    616453.56348  21232493.1884                   21232490.1884
        49.7504         50.2504
   9425538.71546   7381457.86743  23834264.8054                   23834261.8914
        37.2504         22.5004
   6387580.69147   5022931.43044  22723390.3594                   22723385.9024
        43.7504         29.2504
   4050295.43846   3262799.55945  23896428.8284                   23896427.8164
        39.5004         31.2504
   4909636.94947   3878195.62947  22471821.9694                   22471820.2344
        44.2504         43.0004
  -3168409.76248  -2399275.00048  20595218.9144                   20595215.4454
        50.5004         53.0004
  -6437231.48846  -4881916.02744  23803245.0474                   23803238.4774
        41.2504         26.2504
   -732747.94146    753358.45344  23907982.4304                   23907980.0314
        40.2504         28.0004
 25  7 15 21  2 30.0000000  0  9G08G10G18G23G24G27G32G02G28
  -1784820.02047  -1322150.21946  22670546.0784                   22670543.4224
        44.0004         39.7504
    465094.50448    420376.26648  21184609.6484                   21184606.3204
        50.7504         50.5004
   9262062.57046   7254073.74643  23803155.6094                   23803153.8244
        36.5004         22.0004
   6186238.69547   4866041.52344  22685076.0704                   22685071.9104
        43.5004         29.5004
   3851929.91846   3108228.98845  23858681.4924                   23858680.2234
        39.7504         32.0004
   4714062.80147   3725800.14547  22434605.8204                   22434603.4064
        44.0004         43.0004
  -3438985.56648  -2610113.27748  20543730.1174                   20543726.5084
        52.0004         53.0004
  -6785548.40646  -5153331.73044  23736962.1414                   23736955.9964
        40.2504         26.0004
  -1095462.98446    470723.46944  23838960.0554                   23838957.4024
        41.5004         27.5004
 25  7 15 21  3  0.0000000  0  9G08G10G18G23G24G27G32G02G28
  -2035943.80547  -1517831.10246  22622758.0704                   22622756.3444
        43.5004         39.0004
    213595.38748    224402.92648  21136750.9614                   21136747.5004
        50.0004         50.2504
   9098799.90246   7126855.92643  23772088.1724                   23772086.2894
        37.5004         22.0004
   5984981.21147   4709217.45745  22646778.5164                   22646774.0204
        43.7504         30.5004
   3654063.93846   2954047.68445  23821028.5704                   23821027.2704
        39.5004         31.7504
   4518848.55547   3573685.10247  22397457.7894                   22397455.6454
        44.5004         42.7504
  -3709112.98848  -2820602.17248  20492326.6484                   20492323.1564
        51.2504         53.0004
  -7133758.01246  -5424663.84444  23670700.3134                   23670694.1254
        40.2504         24.7504
  -1458132.51246    188123.95744  23769946.3054                   23769943.7384
        41.0004         28.0004
 25  7 15 21  3 30.0000000  0  9G08G10G18G23G24G27G32G02G28
  -2286556.45347  -1713113.70746  22575068.5004                   22575066.5944
        44.0004         39.0004
    -37770.53148     28533.37948  21088917.1024                   21088914.3244
        50.0004         50.2504
   8935748.77046   6999802.98043  23741061.4534                   23741057.7934
        37.5004         21.5004
   5783808.02047   4552459.09045  22608496.3834                   22608492.3134
        43.0004         30.0004
   3456695.28946   2800253.90245  23783470.8204                   23783469.2854
        39.7504         31.2504
   4323991.05947   3421848.05147  22360377.8754                   22360375.2734
        44.5004         42.2504
  -3978793.06248  -3030742.47348  20441008.0474                   20441004.3444
        50.5004         53.0004
  -7481859.25846  -5695911.50844  23604459.4384                   23604451.8014
        41.0004         24.0004
  -1820753.76646    -94437.93444  23700941.3674                   23700938.5704
        40.5004         27.5004
 25  7 15 21  4  0.0000000  0  9G08G10G18G23G24G27G32G02G28
   -961231.18747   -680392.73046  22827269.0864                   22827267.1804
        44.0004         39.5004
   1286424.77348   1060373.87148  21340903.4694                   21340900.2774
        49.5004         50.2504
  10348332.58246   8100517.51243  24009867.5314                   24009863.7934
        40.0004         22.0004
   7158145.41047   5623371.29344  22870023.9304                   22870019.8714
        43.5004         29.2504
   4835247.94946   3874450.74245  24045800.2424                   24045798.8284
        40.0004         32.5004
   5704913.49247   4497891.46147  22623158.4694                   22623156.3054
        44.0004         42.0004
  -2672597.98848  -2012928.11748  20689568.9534                   20689565.3714
        51.0004         53.0004
  -6254419.10546  -4739464.59444  23838033.1414                   23838026.2504
        41.7504         26.5004
   -607892.15646    850649.14844  23931740.9224                   23931738.6604
        41.0004         28.5004
 25  7 15 21  4 30.0000000  0  9G08G10G18G23G24G27G32G02G28
  -1210824.99247   -874881.43046  22779773.0004                   22779771.1134
        43.7504         39.2504
   1035325.40648    864712.02348  21293120.8674                   21293117.7774
        49.7504         50.2504
  10185699.69546   7973790.47343  23978918.8134                   23978916.1254
        39.0004         22.2504
   6957140.85547   5466744.32844  22831774.3444                   22831770.2034
        44.5004         29.5004
   4638867.54746   3721427.01645  24008430.7664                   24008429.0164
        40.0004         32.0004
   5510760.81347   4346603.62147  22586212.4454                   22586210.0434
        43.7504         42.0004
  -2941385.75448  -2222373.11748  20638420.1804                   20638416.9024
        51.5004         53.0004
  -6602297.72347  -5010538.79744  23771834.2974                   23771827.1094
        42.5004         27.5004
   -970408.14546    568169.27344  23862756.8364                   23862754.6454
        41.0004         27.2504
 25  7 15 21  5  0.0000000  0  9G08G10G18G23G24G27G32G02G28
  -1459911.78946  -1068975.05546  22732373.7664                   22732371.5234
        41.5004         39.5004
    784358.57848    669153.45348  21245363.4064                   21245360.3914
        48.5004         50.2504
  10023272.74646   7847223.94943  23948010.0474                   23948007.3914
        39.0004         22.0004
   6756219.89847   5310182.50844  22793540.6564                   22793536.1994
        43.5004         29.7504
   4442977.27046   3568785.20345  23971154.5864                   23971152.4614
        39.2504         31.2504
   5316955.43447   4195586.39147  22549332.3204                   22549330.2424
        43.5004         42.2504
  -3209729.40648  -2431472.05948  20587356.2664                   20587352.5474
        51.2504         53.0004
  -6950062.81647  -5281524.53144  23705656.4454                   23705649.7894
        42.5004         27.2504
  -1332867.85546    285733.25844  23793782.5944                   23793780.3554
        41.5004         26.0004
 25  7 15 21  5 30.0000000  0  9G08G10G18G23G24G27G32G02G28
  -1708494.25446  -1262675.69946  22685069.5864                   22685067.8954
        41.7504         39.5004
    533522.95748    473697.12148  21197630.8674                   21197627.9104
        50.0004         50.5004
   9861048.57446   7720815.36743  23917139.8914                   23917137.2934
        39.2504         22.5004
   6555381.12947   5153684.72745  22755322.1724                   22755317.8484
        43.2504         30.0004
   4247573.55146   3416522.53145  23933969.9224                   23933968.4614
        40.0004         31.7504
   5123492.96947   4044836.36747  22512517.8364                   22512515.8204
        44.0004         42.2504
  -3477631.27748  -2640226.75848  20536376.0864                   20536372.6334
        50.7504         53.0004
  -7297714.02747  -5552421.53944  23639501.0084                   23639493.9534
        43.0004         28.2504
  -1695269.81246      3342.22744  23724819.6884                   23724817.1994
        40.7504         25.2504
 25  7 15 21  6  0.0000000  0  9G08G10G18G23G24G27G32G02G28
  -1956570.48447  -1455981.87146  22637862.9774                   22637860.6174
        44.0004         40.0004
    282821.56348    278345.38748  21149923.9694                   21149920.8484
        49.5004         50.2504
   9699028.49246   7594565.82443  23886308.7274                   23886306.0554
        40.0004         22.7504
   6354627.54347   4997253.32844  22717119.8594                   22717116.1724
        43.2504         29.0004
   4052657.26646   3264639.68845  23896878.6954                   23896877.2274
        38.5004         31.5004
   4930373.47747   3894353.59846  22475768.8054                   22475766.3324
        43.0004         41.7504
  -3745089.18748  -2848635.50848  20485480.5474                   20485476.8954
        51.2504         52.7504
  -7645246.41447  -5823225.93744  23573367.6024                   23573360.4534
        43.7504         29.0004
  -2057608.09446   -278999.20344  23655869.2194                   23655866.8134
        41.2504         26.5004
 25  7 15 21  6 30.0000000  0  9G08G10G18G23G24G27G32G02G28
  -2204144.52747  -1648896.72346  22590751.2344                   22590748.9024
        44.0004         39.5004
     32251.71548     83096.15248  21102242.2664                   21102238.9024
        49.5004         50.2504
   9537208.10546   7468471.87543  23855516.0004                   23855512.7544
        40.5004         22.7504
   6153956.44947   4840886.19544  22678933.5944                   22678929.3364
        43.7504         29.0004
   3858223.39146   3113132.73445  23859879.3524                   23859877.2974
        39.7504         32.2504
   4737591.28147   3744133.66446  22439083.5234                   22439081.3054
        44.0004         41.5004
  -4012106.84048  -3056701.19548  20434668.7814                   20434664.8794
        50.7504         52.7504
  -7992660.54347  -6093938.20744  23507256.9384                   23507249.7584
        44.2504         29.2504
  -2419882.53546   -561290.86344  23586930.8444                   23586927.8794
        41.0004         26.0004
 25  7 15 21  7  0.0000000  0  9G08G10G18G23G24G27G32G02G28
  -2451217.63747  -1841421.24246  22543733.9924                   22543732.3444
        43.5004         39.2504
   -218186.55148   -112050.54748  21054585.2424                   21054582.4574
        50.5004         50.5004
   9375585.69146   7342532.20344  23824759.9384                   23824758.0234
        39.5004         24.7504
   5953367.83647   4684583.33644  22640762.8284                   22640758.8284
        43.5004         29.7504
   3664269.68046   2961999.93445  23822971.7034                   23822969.5944
        38.5004         30.2504
   4545143.39147   3594174.21947  22402462.1254                   22402459.6214
        44.5004         42.5004
  -4278685.20748  -3264424.58648  20383940.5784                   20383937.0314
        51.2504         53.0004
  -8339954.69547  -6364556.98044  23441168.8754                   23441161.7234
        43.7504         29.7504
  -2782090.21546   -843530.50444  23518004.8754                   23518002.2424
        41.0004         24.2504
 25  7 15 21  7 30.0000000  0  9G08G10G18G23G24G27G32G02G28
  -1122360.34447   -805948.04346  22796607.8984                   22796605.6604
        44.0004         39.2504
   1106937.70348    920513.80148  21306748.0084                   21306744.8324
        49.7504         50.5004
  10789587.43846   8444351.59044  24093835.8754                   24093833.3914
        40.0004         24.2504
   7328290.90247   5755951.91844  22902401.6334                   22902397.4774
        43.7504         29.2504
   5046222.93046   4038846.59445  24085948.0634                   24085946.5944
        39.0004         31.2504
   5928455.72747   4672079.89547  22665697.7504                   22665695.0664
        44.2504         42.0004
  -2969393.83248  -2244197.52748  20633090.0234                   20633086.2034
        51.2504         53.0004
  -7111692.86347  -5407469.80145  23674899.5554                   23674892.4494
        44.0004         30.2504
  -1568793.56646    101895.55944  23748886.9924                   23748884.5864
        40.7504         24.7504
 25  7 15 21  8  0.0000000  0  9G08G10G18G23G24G27G32G02G28
  -1368431.53547   -997691.85246  22749781.5554                   22749779.5824
        44.0004         39.0004
    856766.78548    725575.41848  21259142.3284                   21259139.1254
        50.2504         50.5004
  10628359.78546   8318719.53544  24063155.3984                   24063153.0594
        40.7504         26.5004
   7127871.22347   5599780.69944  22864263.8364                   22864259.2424
        43.5004         29.2504
   4853226.77346   3888459.96145  24049222.0864                   24049220.3874
        37.7504         30.7504
   5736671.42247   4522637.53147  22629202.3204                   22629199.9964
        44.7504         42.2504
  -3235092.45348  -2451235.41448  20582529.3834                   20582525.9614
        51.0004         53.0004
  -7458737.50847  -5677894.14545  23608858.6954                   23608852.0664
        44.5004         30.0004
  -1930854.96946   -180230.09444  23679988.7974                   23679986.3404
        39.5004         25.5004
 25  7 15 21  8 30.0000000  0  9G08G10G18G23G24G27G32G02G28
  -1614004.19947  -1189047.18046  22703050.5004                   22703048.7344
        43.5004         38.7504
    606729.08248    530740.83648  21211561.6954                   21211558.5274
        49.5004         50.5004
  10467326.43047   8193238.88744  24032512.0314                   24032508.8874
        42.0004         26.7504
   6927535.50847   5443674.91044  22826140.6334                   22826136.6414
        43.2504         29.7504
   4660705.49646   3738443.34845  24012586.8134                   24012585.3834
        38.7504         31.2504
   5545213.91047   4373449.81347  22592769.6564                   22592766.9844
        43.7504         42.5004
  -3500353.19948  -2657932.08648  20532052.3594                   20532048.5594
        51.0004         53.0004
  -7805654.66847  -5948219.15245  23542842.2734                   23542835.7584
        43.2504         31.0004
  -2292839.35546   -462295.72344  23611106.1024                   23611102.9654
        41.0004         25.0004
 25  7 15 21  9  0.0000000  0  9G08G10G18G23G24G27G32G02G28
  -1859078.69147  -1380014.33646  22656414.6644                   22656412.5204
        44.7504         38.7504
    356825.75848    336010.97348  21164006.7664                   21164003.5474
        49.7504         50.5004
  10306486.61747   8067909.04344  24001905.0234                   24001902.7584
        42.0004         26.5004
   6727284.87547   5287635.41844  22788034.1484                   22788030.3364
        43.0004         28.7504
   4468657.84046   3588795.80145  23976041.1484                   23976039.4064
        37.7504         30.7504
   5354081.24247   4224515.21547  22556397.6564                   22556395.7504
        43.0004         42.7504
  -3765176.03948  -2864287.53148  20481657.9614                   20481654.4774
        51.7504         53.0004
  -8152441.60247  -6218442.69545  23476851.5634                   23476844.1994
        44.0004         30.0004
  -2654742.74246   -744298.24644  23542238.3524                   23542234.9694
        41.2504         24.5004
 25  7 15 21  9 30.0000000  0  9G08G10G18G23G24G27G32G02G28
  -2103656.83647  -1570594.72346  22609873.2274                   22609871.0824
        43.5004         38.5004
    107056.37548    141385.48048  21116477.3204                   21116474.3134
        50.2504         50.5004
  10145838.21147   7942728.32043  23971334.9144                   23971332.3714
        42.5004         23.7504
   6527118.82446   5131661.83644  22749943.8984                   22749940.5234
        41.7504         29.0004
   4277081.00446   3439515.11745  23939585.2814                   23939583.8244
        39.7504         31.0004
   5163269.90647   4075831.00847  22520087.8054                   22520085.8714
        45.0004         42.5004
  -4029562.38748  -3070302.85548  20431346.6254                   20431343.2934
        52.0004         53.0004
  -8499096.91447  -6488563.66445  23410884.9614                   23410877.8714
        43.5004         30.5004
  -3016562.70746  -1026235.78944  23473385.4384                   23473382.5944
        41.2504         24.2504
 25  7 15 21 10  0.0000000  0  9G08G10G18G23G24G27G32G02G28
  -2347741.23047  -1760790.37946  22563424.9844                   22563423.1884
        44.5004         38.7504
   -142580.30548    -53136.61748  21068972.7344                   21068969.5554
        50.2504         50.5004
   9985378.09046   7817694.34444  23940800.4304                   23940798.4734
        41.0004         25.5004
   6327036.08647   4975753.16444  22711869.7974                   22711865.8714
        42.2504         28.7504
   4085971.27346   3290598.40645  23903218.5234                   23903216.4574
        39.0004         30.0004
   4972775.57447   3927393.82447  22483837.6884                   22483835.6024
        45.0004         42.5004
  -4293514.66048  -3275979.93748  20381118.3134                   20381114.9844
        51.2504         53.0004
  -8845620.00847  -6758581.60545  23344943.7734                   23344937.0044
        44.0004         30.5004
  -3378297.63346  -1308107.05944  23404549.0784                   23404546.5314
        41.0004         25.2504
 25  7 15 21 10 30.0000000  0  9G08G10G18G23G24G27G32G02G28
  -1015903.50047   -722994.76246  22816866.1094                   22816863.5864
        44.0004         39.0004
   1183346.03148    980052.72748  21321288.0234                   21321285.1454
        50.5004         50.5004
  11400531.72746   8920411.31643  24210093.9304                   24210092.8794
        39.7504         22.7504
   7702465.22747   6047516.10244  22973605.1884                   22973601.0164
        42.7504         28.5004
   5470754.58246   4369650.30145  24166733.6414                   24166732.1294
        39.0004         30.5004
   6358023.39847   5006807.66847  22747441.7034                   22747439.7704
        44.2504         42.0004
  -2981603.22748  -2253711.28148  20630766.6954                   20630762.9614
        51.5004         53.0004
  -7616575.22747  -5800884.31645  23578823.1884                   23578816.3714
        43.5004         30.5004
  -2164510.59046   -362298.87144  23635525.6024                   23635522.5824
        41.2504         25.5004
 25  7 15 21 11  0.0000000  0  9G08G10G18G23G24G27G32G02G28
  -1259000.46947   -912420.98846  22770605.6174                   22770604.0474
        43.7504         39.0004
    933979.57048    785741.19548  21273835.2894                   21273832.4774
        50.2504         50.5004
  11240447.48046   8795670.18843  24179632.0234                   24179629.9654
        39.5004         23.2504
   7502553.69547   5891740.84044  22935563.3134                   22935559.1484
        42.0004         28.7504
   5280576.55546   4221459.58245  24130544.6174                   24130542.4574
        40.5004         30.5004
   6168158.50847   4858860.95346  22711311.5394                   22711309.4574
        45.5004         41.7504
  -3244685.90648  -2458710.75448  20580703.9924                   20580700.3634
        51.0004         53.2504
  -7962823.06247  -6070687.77744  23512933.5864                   23512927.4614
        43.0004         29.0004
  -2526062.05947   -644027.18444  23566725.0234                   23566721.2384
        42.2504         26.0004
 25  7 15 21 11 30.0000000  0  9G08G10G18G23G24G27G32G02G28
  -1501607.46947  -1101465.42646  22724439.0944                   22724437.5864
        43.7504         38.5004
    684746.76648    591533.81348  21226407.7424                   21226404.5124
        50.7504         50.5004
  11080546.85546   8671072.14543  24149203.1564                   24149202.2974
        38.7504         22.5004
   7302726.16846   5736031.06344  22897537.5864                   22897533.6334
        41.5004         29.2504
   5090859.28546   4073627.91045  24094442.4694                   24094440.3984
        40.0004         30.0004
   5978602.14147   4711154.64547  22675240.5474                   22675238.3484
        45.2504         42.5004
  -3507337.02348  -2663373.94948  20530722.8674                   20530719.6334
        51.5004         53.0004
  -8308932.23047  -6340383.16844  23447071.7974                   23447065.1254
        42.5004         28.5004
  -2887518.96547   -925681.81244  23497941.3284                   23497938.2384
        42.0004         27.2504
 25  7 15 21 12  0.0000000  0  9G08G10G18G23G24G27G32G02G28
  -1743724.83647  -1290128.33246  22678365.6954                   22678364.2624
        43.2504         38.2504
    435648.81648    397431.51248  21179006.2194                   21179003.0044
        50.5004         50.5004
  10920829.21546   8546616.66443  24118811.5084                   24118808.5274
        40.2504         23.7504
   7102983.82046   5580387.62944  22859527.1564                   22859523.8444
        41.5004         29.2504
   4901601.36346   3926154.16444  24058426.9774                   24058426.2034
        40.2504         29.7504
   5789352.30947   4563687.19947  22639227.2194                   22639224.9574
        45.0004         42.5004
  -3769556.51248  -2867700.82048  20480824.0314                   20480820.8444
        51.0004         53.0004
  -8654899.71947  -6609968.17244  23381236.6174                   23381229.7154
        43.5004         29.5004
  -3248877.34446  -1207259.66444  23429177.0164                   23429174.1094
        41.7504         27.5004
 25  7 15 21 12 30.0000000  0  9G08G10G18G23G24G27G32G02G28
  -1985352.21147  -1478409.43046  22632386.5234                   22632384.2234
        44.0004         38.7504
    186687.79348    203435.90248  21131630.4614                   21131627.1454
        50.0004         50.5004
  10761294.66846   8422303.91443  24088451.9384                   24088451.1094
        38.7504         22.7504
   6903328.62946   5424812.12944  22821534.7034                   22821531.0044
        41.2504         28.5004
   4712802.38346   3779038.03544  24022500.2814                   24022499.2734
        39.2504         29.7504
   5600407.92247   4416457.76246  22603272.1954                   22603270.5004
        44.5004         41.7504
  -4031343.59848  -3071690.74248  20431007.9774                   20431004.0944
        51.7504         53.0004
  -9000721.23847  -6879439.43445  23315428.6644                   23315422.4924
        43.5004         30.5004
  -3610132.22747  -1488756.85944  23360433.0164                   23360429.1914
        42.5004         26.7504
 25  7 15 21 13  0.0000000  0  9G08G10G18G23G24G27G32G02G28
  -2226492.23047  -1666310.74646  22586498.6174                   22586496.0474
        42.7504         38.5004
    -62137.43048      9546.11748  21084280.5004                   21084277.2074
        50.5004         50.5004
  10601940.19946   8298131.45744  24058127.6254                   24058126.3594
        39.0004         25.2504
   6703759.35247   5269303.55144  22783557.8054                   22783553.5084
        42.0004         28.5004
   4524458.63746   3632276.64845  23986659.7814                   23986658.7664
        39.5004         30.5004
   5411764.69947   4269462.98447  22567375.1334                   22567372.4454
        44.0004         42.0004
  -4292700.52748  -3275345.47748  20381273.5394                   20381269.8364
        51.0004         53.0004
  -9346396.35947  -7148796.61344  23249648.7584                   23249642.2274
        43.5004         29.5004
  -3971281.89547  -1770172.07844  23291707.4614                   23291705.0704
        42.0004         27.5004
 25  7 15 21 13 30.0000000  0  9G08G10G18G23G24G27G32G02G28
   -891719.39847   -626228.05146  22840497.7424                   22840495.3164
        43.0004         38.5004
   1264600.59048   1043367.94548  21336750.2034                   21336747.3794
        49.7504         50.2504
  12018188.46146   9401701.34043  24327632.1334                   24327630.1884
        38.7504         22.7504
   8079701.79346   6341466.46144  23045390.4694                   23045386.7274
        41.0004         28.0004
   5911993.05946   4713472.25845  24250698.6954                   24250697.8284
        39.2504         30.7504
   6798844.88347   5350304.64546  22831328.0314                   22831325.4924
        43.2504         41.2504
  -2978200.79748  -2251059.96148  20631414.3364                   20631410.5474
        49.5004         52.7504
  -8116492.28547  -6190429.75445  23483691.8594                   23483685.3134
        43.7504         30.7504
  -2756892.34447   -823894.40244  23522798.9454                   23522795.3554
        42.7504         28.0004
 25  7 15 21 14  0.0000000  0  9G08G10G18G23G24G27G32G02G28
  -1131888.93047   -813373.15246  22794794.3134                   22794792.6414
        43.0004         38.5004
   1016047.88348    849690.51248  21289452.6254                   21289449.3164
        49.7504         50.2504
  11859189.44945   9277805.85543  24297374.2734                   24297374.0084
        35.7504         22.7504
   7880305.12947   6186092.40244  23007446.7584                   23007443.0904
        42.0004         27.7504
   5724553.08646   4567415.09044  24215030.7034                   24215029.4414
        38.0004         29.7504
   6610795.30547   5203772.44946  22795542.9384                   22795540.6134
        43.0004         41.0004
  -3238700.41448  -2454046.66048  20581843.0394                   20581839.3364
        51.0004         52.7504
  -8461867.58647  -6459553.32445  23417968.9844                   23417962.7034
        44.5004         31.0004
  -3117822.25047  -1105138.38744  23454115.7274                   23454112.5394
        42.7504         27.7504
 25  7 15 21 14 30.0000000  0  9G08G10G18G23G24G27G32G02G28
  -1371574.94947  -1000141.50446  22749182.9844                   22749181.9844
        42.5004         39.0004
    767632.28948    656119.91448  21242180.6804                   21242177.6724
        50.0004         50.0004
  11700365.96946   9154047.11343  24267152.5394                   24267150.7544
        37.7504         21.7504
   7680995.44946   6030786.12944  22969520.0944                   22969515.7664
        41.5004         28.0004
   5537561.95746   4421707.66444  24179447.2974                   24179446.0664
        38.2504         29.5004
   6423038.61347   5057468.48046  22759813.7584                   22759811.8284
        43.2504         40.0004
  -3498772.44548  -2656700.18448  20532352.6804                   20532349.1414
        51.5004         52.7504
  -8807089.48847  -6728557.37144  23352275.6644                   23352268.4184
        44.0004         29.7504
  -3478637.14547  -1386292.73044  23385454.6094                   23385451.9264
        42.0004         28.0004
 25  7 15 21 15  0.0000000  0  9G08G10G18G23G24G27G32G02G28
  -1610778.64847  -1186534.00846  22703664.7424                   22703662.9574
        42.5004         38.7504
    519354.30548    462656.54348  21194934.9614                   21194931.5904
        50.2504         50.2504
  11541716.63346   9030424.07043  24236962.3284                   24236960.4184
        39.2504         22.7504
   7481773.10247   5875547.90244  22931609.3134                   22931605.3594
        42.5004         28.2504
   5351017.52346   4276348.32845  24143948.3444                   24143947.8364
        37.0004         30.0004
   6235572.01647   4911390.57046  22724139.8284                   22724138.4264
        43.0004         40.2504
  -3758417.65648  -2859021.12548  20482943.8914                   20482940.3674
        51.5004         52.7504
  -9152155.63747  -6997440.04745  23286611.8204                   23286604.5084
        44.5004         30.2504
  -3839333.76247  -1667354.91844  23316816.3984                   23316813.6484
        42.0004         29.0004
 25  7 15 21 15 30.0000000  0  9G08G10G18G23G24G27G32G02G28
  -1849502.89147  -1372552.91046  22658236.2734                   22658235.1374
        43.0004         38.5004
    271212.87148    269299.58648  21147715.2584                   21147711.9454
        49.7504         50.2504
  11383238.48046   8906934.44943  24206804.9614                   24206803.7074
        38.0004         22.0004
   7282637.03947   5720376.91444  22893714.5634                   22893711.0234
        42.7504         28.5004
   5164916.02046   4131334.12545  24108535.0164                   24108533.8164
        37.5004         31.0004
   6048391.25447   4765535.37146  22688521.4694                   22688519.0514
        42.0004         40.2504
  -4017638.47748  -3061011.37148  20433615.6174                   20433612.5084
        51.5004         52.7504
  -9497065.22747  -7266200.71945  23220977.2734                   23220970.7894
        44.5004         30.2504
  -4199910.30947  -1948323.53144  23248200.7814                   23248197.7194
        42.2504         28.5004
 25  7 15 21 16  0.0000000  0  9G08G10G18G23G24G27G32G02G28
  -2087748.93747  -1558199.19946  22612900.1644                   22612898.5864
        43.0004         39.0004
     23208.48048     76049.39848  21100521.1954                   21100518.0634
        50.0004         50.2504
  11224929.94146   8783576.97343  24176679.8914                   24176678.5634
        39.0004         22.2504
   7083587.60247   5565273.41044  22855837.2814                   22855833.0204
        43.0004         28.0004
   4979255.40646   3986663.49645  24073204.9844                   24073203.9224
        36.5004         30.0004
   5861493.55147   4619900.74646  22652955.4534                   22652953.6724
        42.5004         40.2504
  -4276435.69548  -3262671.53148  20384368.3594                   20384364.8754
        49.2504         52.7504
  -9841816.04747  -7534837.68745  23155372.8524                   23155366.0744
        44.5004         30.5004
  -4560363.50047  -2229196.02344  23179608.5634                   23179605.4574
        42.0004         28.0004
 25  7 15 21 16 30.0000000  0 10G08G10G18G23G24G27G32G02G28G31
   -750090.72747   -515868.15246  22867447.7424                   22867446.8164
        43.2504         39.0004
   1350769.38748   1110512.44148  21353147.8754                   21353144.7734
        50.0004         50.0004
  12642214.29346   9887954.21143  24446380.1094                   24446378.9494
        37.2504         22.0004
   8460051.25847   6637842.44944  23117768.9144                   23117765.1524
        42.7504         27.5004
   6369459.14146   5069939.08645  24337752.1564                   24337751.0204
        36.7504         30.5004
   7250301.84847   5702088.97346  22917237.4064                   22917235.3634
        42.5004         40.7504
  -2959382.11748  -2236396.02048  20634995.2344                   20634991.5744
        50.5004         52.7504
  -8610974.73047  -6575740.52745  23389594.7114                   23389587.6294
        44.0004         31.0004
  -3345258.48047  -1282360.82444  23410835.9694                   23410832.1724
        42.0004         28.5004
  35654688.14856  27860104.23453  25343421.1024                   25343422.5474
        38.5004         20.5004
 25  7 15 21 17  0.0000000  0 10G08G10G18G23G24G27G32G02G28G31
   -987390.85247   -700777.35246  22822291.8134                   22822289.6294
        43.0004         39.5004
   1103034.12948    917471.98048  21306005.4614                   21306002.4494
        50.5004         50.2504
  12484233.99246   9764852.49243  24416317.5394                   24416316.7034
        38.5004         21.5004
   8261169.79747   6482869.83644  23079923.5634                   23079919.5004
        42.5004         27.2504
   6184667.14846   4925945.28545  24302587.9844                   24302586.0864
        36.5004         30.2504
   7063955.52747   5556884.01246  22881775.9304                   22881774.2734
        42.5004         40.2504
  -3217341.28148  -2437403.15248  20585907.2424                   20585903.2234
        48.2504         52.7504
  -8955407.10547  -6844129.34445  23324051.0084                   23324044.3094
        43.7504         31.5004
  -3705461.45347  -1563038.34044  23342291.3444                   23342287.8324
        42.7504         28.2504
  35282693.40646  27570238.41843  25272632.6174                   25272633.6374
        38.2504         20.2504
 25  7 15 21 17 30.0000000  0 10G08G10G18G23G24G27G32G02G28G31
  -1224228.64547   -885326.30146  22777222.8284                   22777220.8014
        42.5004         38.7504
    855425.69548    724530.34048  21258887.1334                   21258883.7154
        50.0004         50.2504
  12326407.12946   9641870.34443  24386285.3284                   24386283.5434
        40.5004         22.0004
   8062364.32046   6327956.45344  23042091.7424                   23042088.3204
        41.7504         28.5004
   6000297.62545   4782280.69544  24267502.5864                   24267501.8914
        35.2504         29.7504
   6877872.19147   5411883.95746  22846365.6024                   22846364.4264
        42.7504         40.7504
  -3474891.27048  -2638091.44948  20536897.1644                   20536893.6024
        50.7504         52.7504
  -9299685.36747  -7112398.09045  23258536.9774                   23258529.9534
        44.0004         31.5004
  -4065542.90646  -1843621.16844  23273769.2974                   23273766.5784
        41.5004         27.5004
  34910531.96946  27280242.72343  25201812.4694                   25201813.8754
        38.5004         22.7504
 25  7 15 21 18  0.0000000  0 10G08G10G18G23G24G27G32G02G28G31
  -1460605.89147  -1069516.37546  22732241.2274                   22732240.2774
        43.2504         38.2504
    607944.09448    531687.52348  21211792.9454                   21211789.7344
        50.7504         50.2504
  12168736.60916                  24356280.555
        40.750
   7863634.83247   6173102.25844  23004275.0784                   23004271.2384
        42.0004         27.0004
   5816347.92646   4638943.21944  24232498.4144                   24232497.1844
        36.0004         29.5004
   6692048.55147   5267086.25846  22811005.1644                   22811003.4924
        43.5004         40.7504
  -3732033.44148  -2838461.96548  20487964.8674                   20487961.0354
        49.7504         52.7504
  -9643807.68047  -7380545.29745  23193052.9534                   23193045.9734
        43.0004         31.0004
  -4425499.93447  -2124107.05144  23205272.0234                   23205268.8794
        42.7504         27.7504
  34538205.38756  26990118.16054  25130960.6094                   25130962.4104
        39.0004         25.5004
 25  7 15 21 18 30.0000000  0 10G08G10G18G23G24G27G32G02G28G31
  -1696523.36747  -1253348.19946  22687347.6954                   22687346.5314
        43.2504         39.0004
    360590.53948    338944.49648  21164723.1884                   21164719.8554
        49.7504         50.2504
  12011211.61746   9482233.28153  24326304.1564                   24326303.2194
        40.2504         21.0004
   7664982.39147   6018308.11344  22966472.6804                   22966468.6724
        42.0004         28.0004
   5632816.33645   4495931.55544  24197574.0554                   24197572.8754
        35.7504         29.0004
   6506482.58647   5122489.35946  22775692.6024                   22775690.7274
        42.5004         40.7504
  -3988768.05948  -3038514.91048  20439109.6414                   20439105.9924
        50.0004         52.7504
  -9987770.91447  -7648568.55545  23127598.5554                   23127592.3054
        42.7504         31.0004
  -4785328.60547  -2404492.91445  23136798.9064                   23136796.2074
        42.5004         30.0004
  34165718.66446  26699869.10244  25060078.7814                   25060080.3674
        39.2504         27.7504
 25  7 15 21 19  0.0000000  0 10G08G10G18G23G24G27G32G02G28G31
  -1931978.41447  -1436819.69146  22642542.9534                   22642540.8714
        43.5004         38.2504
    113369.56648    146304.77748  21117678.4064                   21117675.2664
        50.2504         50.0004
  11853839.64846   9359605.57443  24296357.4694                   24296356.3404
        39.5004         20.0004
   7466411.40246   5863577.43444  22928686.2194                   22928681.7854
        41.7504         27.2504
   5449704.85246   4353247.24244  24162729.2974                   24162727.8054
        36.0004         28.7504
   6321175.44147   4978094.12146  22740430.1724                   22740428.3134
        43.5004         41.5004
  -4245092.03948  -3238247.88348  20390332.8834                   20390329.2624
        50.0004         52.7504
 -10331568.66447  -7916462.86345  23062176.5084                   23062168.8594
        42.5004         30.5004
  -5145021.61747  -2684773.05944  23068352.0704                   23068348.3404
        43.2504         28.5004
  33793077.65246  26409499.80144  24989167.0704                   24989168.6764
        38.5004         27.7504
 25  7 15 21 19 30.0000000  0 10G08G10G18G23G24G27G32G02G28G31
   -591544.50047   -392325.75046  22897618.4844                   22897616.6804
        42.5004         38.7504
   1441710.10548   1181375.32048  21370453.2584                   21370450.0274
        50.2504         50.2504
  13272044.58646  10464700.18443  24566233.2114                   24566231.5784
        39.0004         20.0004
   8843349.02047   6936515.78944  23190709.1024                   23190704.4344
        42.0004         28.2504
   6842437.29746   5438493.24644  24427756.8524                   24427756.0434
        36.0004         29.0004
   7711550.69547   6061503.34846  23005010.8754                   23005008.3634
        43.7504         41.0004
  -2925577.59448  -2210054.80548  20641427.9694                   20641424.3714
        50.7504         53.0004
  -9099767.03947  -6956617.39545  23296580.7424                   23296573.2114
        43.7504         32.5004
  -3929143.45747  -1737335.44544  23299725.5704                   23299722.3954
        42.7504         29.0004
  34995717.80946  27346622.34044  25218021.8674                   25218023.4264
        40.0004         27.0004
 25  7 15 21 20  0.0000000  0 10G08G10G18G23G24G27G32G02G28G31
   -826078.21947   -575079.32446  22852988.5314                   22852986.3874
        43.0004         39.0004
   1194756.80148    988944.17248  21323459.6954                   21323456.5044
        50.7504         50.0004
  13114974.93046  10342308.07843  24536343.2344                   24536342.3324
        39.7504         19.2504
   8644942.94946   6781913.62144  23152952.9224                   23152949.3594
        40.5004         27.7504
   6660159.74246   5296458.73844  24393070.2894                   24393069.3404
        36.2504         28.2504
   7526753.76247   5917505.68046  22969844.4304                   22969842.8444
        44.0004         41.0004
  -3181082.23848  -2409149.32048  20592807.2034                   20592803.3984
        50.7504         52.7504
  -9443225.93447  -7224247.65245  23231222.1024                   23231214.8634
        44.0004         31.7504
  -4288554.23047  -2017395.66844  23231332.0704                   23231328.8244
        43.0004         28.5004
  34622777.46146  27056019.85544  25147053.9454                   25147054.6764
        37.7504         29.0004
 25  7 15 21 20 30.0000000  0 10G08G10G18G23G24G27G32G02G28G31
  -1060150.82846   -757473.59046  22808446.1024                   22808443.9454
        41.5004         38.7504
    947940.75848    796619.98448  21276491.9534                   21276488.6954
        50.0004         50.2504
  12958056.74246  10220033.98043  24506483.6884                   24506481.2774
        40.5004         19.0004
   8446622.67247   6627378.29744  23115214.4064                   23115210.4344
        42.5004         27.5004
   6478298.50445   5154748.63744  24358463.2034                   24358462.5084
        34.5004         27.2504
   7342210.37147   5773705.57846  22934727.3834                   22934725.5704
        43.5004         41.5004
  -3436175.95748  -2607923.64848  20544264.3594                   20544260.9064
        50.7504         52.7504
  -9786509.18047  -7491741.05945  23165897.2114                   23165890.3364
        44.5004         31.2504
  -4647816.27347  -2297340.02044  23162966.3054                   23162963.0514
        43.0004         28.7504
  34249693.89846  26765305.78144  25076057.9774                   25076058.6054
        37.0004         28.5004
 25  7 15 21 21  0.0000000  0 10G08G10G18G23G24G27G32G02G28G31
  -1293764.56247   -939510.29346  22763990.3524                   22763988.7384
        43.5004         38.5004
    701261.83648    604402.63348  21229550.5234                   21229547.3444
        50.7504         50.0004
  12801287.77046  10097876.20343  24476651.2194                   24476649.8484
        40.0004         20.5004
   8248387.82446   6472909.55144  23077491.6024                   23077487.6524
        41.5004         26.2504
   6296850.41445   5013360.49244  24323934.7584                   24323933.9494
        34.0004         27.5004
   7157917.00047   5630100.29346  22899657.3284                   22899655.3954
        44.0004         41.2504
  -3690860.52748  -2806379.15648  20495799.6174                   20495796.0514
        50.7504         53.0004
 -10129615.09447  -7759096.28145  23100606.6254                   23100600.0594
        43.5004         31.7504
  -5006926.97347  -2577166.44544  23094629.9924                   23094625.9654
        42.7504         28.5004
  33876469.33646  26474481.85544  25005034.9384                   25005035.9884
        36.7504         28.5004
 25  7 15 21 21 30.0000000  0 10G08G10G18G23G24G27G32G02G28G31
  -1526921.40647  -1121190.96946  22719622.3914                   22719620.0234
        43.0004         38.2504
    454720.10248    412292.19148  21182635.2974                   21182632.4304
        49.5004         50.0004
  12644666.04746   9975833.11343  24446847.6564                   24446846.3324
        39.0004         21.7504
   8050238.30147   6318507.27344  23039784.9304                   23039781.3554
        42.2504         26.7504
   6115812.84845   4872292.20344  24289484.7114                   24289483.4924
        34.7504         26.7504
   6973870.35547   5486687.27046  22864634.4304                   22864632.5944
        42.5004         41.0004
  -3945137.37548  -3004516.95348  20447412.1174                   20447408.6414
        50.7504         53.0004
 -10472541.96547  -8026311.98445  23035349.9694                   23035342.6214
        44.7504         31.7504
  -5365883.50847  -2856872.72744  23026322.7344                   23026319.4224
        42.5004         29.5004
  33503106.44146  26183550.05544  24933986.0474                   24933987.4884
        37.5004         28.5004
 25  7 15 21 22  0.0000000  0 10G08G10G18G23G24G27G32G02G28G31
  -1759620.95347  -1302515.32446  22675340.8834                   22675339.3524
        42.7504         38.5004
    208318.03948    220290.58248  21135746.8984                   21135743.4414
        50.5004         50.0004
  12488191.83246   9853904.94543  24417071.8364                   24417070.4344
        39.7504         21.5004
   7852176.47347   6164173.34844  23002094.8594                   23002090.7814
        43.0004         26.5004
   5935185.29745   4731543.43044  24255113.1484                   24255111.8404
        35.5004         28.5004
   6790069.56647   5343465.81346  22829658.4224                   22829656.5784
        42.5004         40.5004
  -4199005.58648  -3202336.34048  20399102.8054                   20399098.9144
        50.5004         53.0004
 -10815285.31247  -8293384.68445  22970128.1564                   22970120.9734
        45.5004         32.0004
  -5724680.59447  -3136454.78544  22958045.7274                   22958042.8834
        43.2504         29.5004
  33129609.67646  25892513.96145  24862912.3134                   24862912.6454
        39.0004         31.5004
 25  7 15 21 22 30.0000000  0 10G08G10G18G23G24G27G32G02G28G31
   -416435.24647   -255877.14146  22930941.8134                   22930939.5234
        42.5004         39.0004
   1537486.19948   1256006.02348  21388678.9844                   21388675.7504
        50.5004         50.0004
  13907290.59446  10959695.98443  24687118.0164                   24687116.6294
        40.7504         21.2504
   9229631.08647   7237514.56344  23264215.8524                   23264211.7074
        42.2504         27.2504
   7330393.22345   5818718.39544  24520611.6334                   24520611.3204
        35.0004         27.7504
   8181939.69547   6428039.88746  23094522.4614                   23094520.5004
        42.5004         40.2504
  -2877035.95348  -2172230.12948  20650665.2194                   20650661.5394
        52.0004         52.7504
  -9582409.66047  -7332702.32845  23204736.7424                   23204729.2074
        44.2504         32.5004
  -4507881.25847  -2188299.37945  23189594.6484                   23189591.8834
        44.0004         30.0004
  34331416.10946  26828986.81645  25091607.4614                   25091608.5474
        39.7504         30.2504
 25  7 15 21 23  0.0000000  0 10G08G10G18G23G24G27G32G02G28G31
   -648225.15647   -436492.68746  22886832.8444                   22886831.2114
        42.7504         39.0004
   1291364.93848   1064223.21548  21341843.7034                   21341840.3324
        50.5004         50.0004
  13751106.51246  10837993.91043  24657397.2344                   24657395.8134
        39.7504         21.2504
   9031745.64547   7083318.06344  23226559.6804                   23226555.7704
        42.2504         26.0004
   7150578.47745   5678602.94944  24486394.2734                   24486393.6844
        35.0004         28.0004
   7998621.87947   6285194.76646  23059638.1024                   23059635.9924
        42.7504         40.0004
  -3130090.19148  -2369415.24648  20602510.7974                   20602506.6684
        51.2504         52.7504
  -9924779.25047  -7599483.78945  23139585.6954                   23139578.4614
        45.2504         31.5004
  -4866349.83647  -2467625.45744  23121380.7344                   23121376.9024
        43.7504         29.2504
  33957659.71946  26537748.39144  25020484.5944                   25020484.0704
        38.5004         29.5004
 25  7 15 21 23 30.0000000  0 10G08G10G18G23G24G27G32G02G28G31
   -879563.46147   -616756.32446  22842810.8204                   22842809.2034
        42.7504         39.2504
   1045384.12548    872549.84848  21295034.8984                   21295031.7774
        50.2504         50.0004
  13595064.27746  10716402.34043  24627703.2974                   24627701.9264
        37.5004         20.5004
   8833948.10546   6929190.07044  23188919.4774                   23188915.7234
        41.7504         25.5004
   6971165.75446   5538800.78144  24452253.8204                   24452251.8714
        36.0004         27.5004
   7815540.50047   6142533.89546  23024798.3284                   23024797.1414
        43.0004         39.5004
  -3382739.80148  -2566285.07048  20554433.1724                   20554429.5164
        51.0004         53.0004
 -10266959.16047  -7866117.45345  23074470.8364                   23074463.9494
        45.2504         32.0004
  -5224649.98447  -2746820.29744  23053198.1644                   23053194.6564
        44.0004         29.7504
  33583776.98046  26246411.50044  24949336.6254                   24949336.6214
        39.0004         29.5004
 25  7 15 21 24  0.0000000  0 10G08G10G18G23G24G27G32G02G28G31
  -1110451.57447   -796669.18046  22798874.2664                   22798872.4344
        42.2504         39.0004
    799544.49648    680986.50048  21248253.2424                   21248250.1294
        50.7504         50.0004
  13439162.55146  10594920.25443  24598035.9614                   24598035.4654
        37.0004         18.5004
   8636239.05147   6775131.02744  23151297.1564                   23151293.5204
        42.5004         26.5004
   6792152.86345   5399310.17644  24418188.4774                   24418187.3054
        35.7504         28.0004
   7632692.88347   6000055.17646  22990004.0784                   22990002.4064
        42.5004         39.5004
  -3634985.67648  -2762840.29348  20506432.0634                   20506428.7934
        51.5004         53.0004
 -10608946.92647  -8132601.39545  23009392.6094                   23009386.0354
        45.5004         31.7504
  -5582778.22747  -3025881.18044  22985048.1644                   22985045.0554
        43.5004         29.5004
  33209770.56646  25954978.21544  24878164.6024                   24878164.5784
        37.0004         28.2504
 25  7 15 21 24 30.0000000  0 10G08G10G18G23G24G27G32G02G28G31
  -1340890.68747   -976232.15246  22755022.8984                   22755021.6174
        42.7504         38.5004
    553847.07848    489533.96148  21201498.4144                   21201495.5984
        50.5004         50.0004
  13283400.18846  10473546.78943  24568394.9774                   24568394.2664
        37.0004         18.2504
   8438619.42647   6621141.66044  23113691.0474                   23113687.3714
        42.2504         25.5004
   6613537.92646   5260129.62944  24384198.9774                   24384197.9964
        36.2504         27.5004
   7450076.68847   5857756.77746  22955253.6724                   22955251.7584
        43.0004         39.0004
  -3886828.38348  -2959081.35948  20458507.8914                   20458504.6414
        51.5004         53.0004
 -10950739.71147  -8398933.39545  22944351.0554                   22944344.1254
        44.5004         32.0004
  -5940730.74247  -3304805.12944  22916932.9064                   22916928.6914
        44.0004         29.7504
  32835644.13746  25663451.41444  24806970.9534                   24806971.2384
        36.0004         27.5004
 25  7 15 21 25  0.0000000  0 10G08G10G18G23G24G27G32G02G28G31
  -1570883.07847  -1155447.04746  22711256.3364                   22711255.2734
        42.5004         38.5004
    308291.86348    298192.21948  21154770.9454                   21154767.6134
        50.0004         50.0004
  13127774.97746  10352280.19142  24538781.2034                   24538779.9884
        37.5004         17.2504
   8241088.99246   6467221.80544  23076102.7344                   23076098.8324
        41.7504         24.5004
   6435317.97746   5121256.86744  24350285.0394                   24350283.6054
        36.5004         27.7504
   7267688.43047   5715636.00446  22920545.7814                   22920544.6454
        42.0004         39.0004
  -4138269.65248  -3155009.62148  20410660.6254                   20410657.0314
        51.5004         53.0004
 -11292335.63747  -8665112.00045  22879347.8134                   22879341.2114
        44.7504         32.0004
  -6298504.86747  -3583590.09445  22848850.2504                   22848846.8714
        43.2504         31.0004
  32461400.03545  25371832.89844  24735754.2344                   24735754.8754
        33.2504         26.7504
 25  7 15 21 25 30.0000000  0 10G08G10G18G23G24G27G32G02G28G31
   -225005.16847   -106711.04746  22967369.3204                   22967367.2344
        42.5004         38.2504
   1638305.17248   1334566.21948  21407863.9384                   21407860.8834
        50.5004         50.0004
  14547707.91446  11458721.24243  24808985.2894                   24808984.3984
        37.7504         19.0004
   9619072.27347   7540974.96944  23338324.1884                   23338320.4694
        42.0004         26.7504
   7832914.01246   6210292.69145  24616238.3834                   24616237.5274
        38.0004         30.5004
   8660948.94947   6801293.48846  23185674.5164                   23185673.0204
        43.0004         39.2504
  -2813884.60548  -2123021.26248  20662682.8914                   20662679.0274
        51.7504         53.0004
 -10058303.34447  -7703528.35945  23114176.4144                   23114169.8794
        45.0004         32.0004
  -5080667.82047  -2634626.07045  23080597.2114                   23080593.2304
        43.2504         30.0004
  33662470.70345  26307732.43844  24964310.4614                   24964310.3244
        33.5004         24.5004
 25  7 15 21 26  0.0000000  0 10G08G10G18G23G24G27G32G02G28G31
   -454111.96147   -285235.84846  22923771.3914                   22923769.7974
        42.0004         38.0004
   1393033.25448   1143445.23448  21361190.5944                   21361187.3164
        50.5004         50.0004
  14392349.25046  11337662.30543  24779421.7664                   24779421.0084
        37.5004         20.2504
   9421718.54746   7387192.80544  23300768.7584                   23300765.1414
        41.5004         25.2504
   7655473.81646   6072027.55145  24582472.9304                   24582472.1604
        38.5004         30.5004
   8479005.25047   6659519.12146  23151052.7034                   23151050.7504
        43.2504         38.7504
  -3064529.05948  -2318328.61748  20614986.4224                   20614982.7344
        51.2504         53.0004
 -10399501.21147  -7969396.78945  23049248.6094                   23049241.7344
        44.7504         31.7504
  -5438078.04747  -2913127.46945  23012583.8914                   23012580.5864
        43.2504         30.0004
  33287996.32845  26015934.55944  24893049.0634                   24893050.0474
        31.7504         26.5004
 25  7 15 21 26 30.0000000  0 10G08G10G18G23G24G27G32G02G28G31
   -682776.66047   -463416.16846  22880258.2194                   22880256.0744
        44.0004         39.0004
   1147905.73848    952436.77048  21314544.5864                   21314540.9654
        50.0004         50.0004
  14237123.24146  11216706.76343  24749884.4844                   24749882.7234
        38.5004         19.5004
   9224455.63347   7233481.40244  23263231.0784                   23263227.3404
        42.5004         26.5004
   7478421.69946   5934064.81344  24548781.7194                   24548780.0904
        39.0004         29.7504
   8297281.39847   6517916.05946  23116471.7504                   23116469.6884
        43.0004         39.7504
  -3314774.94548  -2513325.41048  20567366.3284                   20567362.7544
        51.2504         53.0004
 -10740494.59847  -8235105.88345  22984360.0554                   22984352.6564
        45.0004         32.5004
  -5795299.53147  -3191481.78145  22944607.0084                   22944603.4534
        44.0004         30.5004
  32913412.60545  25724051.44944  24821768.5164                   24821768.6914
        34.2504         28.2504
 25  7 15 21 27  0.0000000  0 10G08G10G18G23G24G27G32G02G28G31
   -911002.43747   -641254.46546  22836827.4844                   22836826.0664
        43.0004         38.5004
    902921.77348    761540.16448  21267925.3364                   21267922.4964
        50.0004         50.0004
  14082027.01246  11095852.39143  24720369.6564                   24720369.2274
        38.0004         20.7504
   9027282.55946   7079839.98444  23225710.1174                   23225706.8794
        41.7504         26.0004
   7301753.93846   5796401.53944  24515162.9384                   24515161.2624
        37.7504         29.7504
   8115773.06647   6376480.94546  23081931.5164                   23081929.9494
        43.5004         39.0004
  -3564624.78948  -2708013.60248  20519821.5554                   20519817.7664
        50.7504         52.7504
 -11081282.57847  -8500654.91845  22919509.7584                   22919503.2814
        44.7504         32.0004
  -6152330.39547  -3469687.57045  22876666.0554                   22876662.9264
        43.5004         30.0004
  32538721.65245  25432084.74644  24750467.3204                   24750467.2194
        35.2504         27.7504
 25  7 15 21 27 30.0000000  0 10G08G10G18G23G24G27G32G02G28G31
  -1138791.64547   -818752.58246  22793481.0634                   22793479.6914
        42.5004         38.5004
    658081.39548    570755.44948  21221333.7974                   21221330.6804
        51.0004         50.0004
  13927058.15246  10975097.19543  24690880.2584                   24690879.9144
        37.0004         21.5004
   8830199.07046   6926268.38344  23188206.4304                   23188202.7234
        41.7504         25.5004
   7125467.41046   5659035.36744  24481616.2974                   24481615.3284
        38.2504         29.5004
   7934476.82847   6235211.09846  23047432.3984                   23047430.8054
        43.7504         39.5004
  -3814080.35548  -2902394.55548  20472351.6334                   20472348.1804
        52.0004         52.7504
 -11421863.47747  -8766042.59045  22854699.4774                   22854692.7194
        45.0004         33.0004
  -6509167.90647  -3747742.68044  22808762.1094                   22808758.2814
        43.5004         29.7504
  32163925.62946  25140036.18044  24679146.8594                   24679145.4344
        36.0004         29.2504
 25  7 15 21 28  0.0000000  0 10G08G10G18G23G24G27G32G02G28G31
  -1366143.69547   -995910.06246  22750217.6254                   22750216.0164
        42.0004         38.0004
    413387.50048    380084.87148  21174770.1804                   21174766.9774
        49.5004         50.0004
  13772217.36346  10854441.82443  24661415.1884                   24661414.6954
        36.0004         19.7504
   8633207.89146   6772768.70744  23150720.6334                   23150716.6764
        41.2504         26.7504
   6949561.87546   5521966.07045  24448142.4534                   24448141.6214
        38.2504         31.0004
   7753392.10947   6094106.04746  23012973.5784                   23012971.5394
        43.7504         40.0004
  -4063140.44148  -3096467.34448  20424956.9534                   20424953.2154
        50.2504         53.0004
 -11762232.47347  -9031265.14845  22789929.5634                   22789922.6764
        44.5004         34.0004
  -6865806.50447  -4025642.81245  22740896.0314                   22740892.6564
        43.0004         30.2504
  31789029.44946  24847909.55944  24607805.8444                   24607804.7114
        37.5004         29.2504
 25  7 15 21 28 30.0000000  0 10G08G10G18G23G24G27G32G02G28G31
    -17633.76647     54876.85246  23006830.8834                   23006828.4104
        42.5004         38.0004
   1744267.86348   1417134.49248  21428028.2734                   21428025.0554
        50.7504         50.0004
  15192927.31655  11961488.26253  24931768.2424                   24931767.6914
        34.0004         19.5004
  10011734.96947   7846945.60544  23413045.5234                   23413041.8984
        42.0004         27.0004
   8349459.88346   6612795.64145  24714534.4064                   24714533.7974
        37.7504         31.0004
   9147941.17247   7180767.59846  23278346.9774                   23278344.9344
        43.2504         40.0004
  -2736378.92648  -2062627.19948  20677431.3524                   20677427.8634
        51.0004         53.0004
 -10526956.89547  -8068712.72345  23024994.5634                   23024987.4104
        45.5004         33.5004
  -5646811.94547  -3075776.83245  22972862.7814                   22972858.8484
        43.2504         30.0004
  32989467.80946  25783316.35544  24836240.5394                   24836239.8984
        36.7504         28.7504
 25  7 15 21 29  0.0000000  0 10G08G10G18G23G24G27G32G02G28G31
   -244118.48047   -121604.78546  22963732.0314                   22963730.4964
        43.2504         38.2504
   1499867.24648   1226692.44548  21381520.4224                   21381517.3554
        49.7504         50.0004
  15038336.39545  11841027.53542  24902351.1954                   24902349.4384
        34.5004         17.7504
   9814928.05947   7693589.53544  23375594.7894                   23375590.8554
        43.0004         27.7504
   8174307.62146   6476313.31644  24681204.3914                   24681203.3204
        39.5004         29.5004
   8967269.43847   7039984.36746  23243966.3674                   23243964.7344
        43.0004         39.5004
  -2984653.10248  -2256087.59048  20630186.4614                   20630182.7934
        50.7504         52.7504
 -10866896.72347  -8333600.85945  22960306.3754                   22960299.3594
        45.2504         34.0004
  -6003044.27347  -3353360.37144  22905073.9534                   22905070.3054
        43.2504         29.0004
  32614378.61746  25491039.34844  24764863.2504                   24764862.2624
        37.7504         27.7504
 25  7 15 21 29 30.0000000  0 11G08G10G18G23G24G27G32G02G28G31G01
   -470173.38347   -297751.49246  22920715.1884                   22920713.6994
        43.0004         38.2504
   1255612.99648   1036364.44948  21335040.3284                   21335037.2114
        50.0004         50.0004
  14883866.68846  11720661.29343  24872955.2034                   24872955.3364
        36.5004         19.2504
   9618212.75047   7540304.83244  23338160.6484                   23338157.1414
        42.5004         27.5004
   7999527.10246   6340120.65645  24647944.2114                   24647943.9384
        38.5004         30.0004
   8786798.78547   6899357.82046  23209624.0234                   23209622.4344
        43.0004         39.5004
  -3232537.23848  -2449244.05148  20583015.6254                   20583011.7894
        51.2504         53.0004
 -11206619.34447  -8598319.76245  22895659.4454                   22895652.0594
        45.0004         33.5004
  -6359069.66447  -3630782.67245  22837324.3054                   22837320.6484
        43.5004         30.7504
  32239196.29746  25198689.76644  24693468.7424                   24693467.8094
        38.7504         28.0004
  41963519.50455  32775754.39553  25108097.1644                   25108094.1294
        34.2504         19.0004
 25  7 15 21 30  0.0000000  0 11G08G10G18G23G24G27G32G02G28G31G01
   -695805.49247   -473568.75846  22877778.5704                   22877777.2854
        42.5004         38.0004
   1011500.55948    846146.96148  21288587.2664                   21288584.1914
        50.7504         50.0004
  14729511.33246  11600384.16443  24843582.8524                   24843582.0594
        37.7504         20.7504
   9421584.19147   7387087.72344  23300743.7424                   23300740.4414
        42.0004         28.0004
   7825110.55146   6204211.61744  24614753.5944                   24614753.1764
        38.0004         28.2504
   8606521.00447   6758881.55546  23175318.6174                   23175316.9064
        42.5004         39.7504
  -3480037.74648  -2642101.58248  20535917.7584                   20535913.9414
        51.5004         52.7504
 -11546127.87547  -8862871.83645  22831053.1024                   22831045.7894
        44.7504         33.0004
  -6714890.07847  -3908045.24245  22769614.2814                   22769610.5314
        43.7504         30.7504
  31863918.34446  24906265.66044  24622055.4384                   24622055.0434
        39.2504         29.0004
  41596911.86345  32490086.19142  25038334.1414                   25038331.0354
        33.2504         17.2504
 25  7 15 21 30 30.0000000  0 11G08G10G18G23G24G27G32G02G28G31G01
   -921022.28547   -649062.40246  22834922.2664                   22834920.0084
        43.2504         38.5004
    767525.04348    656036.16048  21242160.7114                   21242157.0784
        50.7504         50.0004
  14575263.10546  11480190.51643  24814231.3284                   24814230.1884
        37.7504         20.5004
   9225037.25447   7233934.21544  23263342.0704                   23263338.7624
        43.0004         27.5004
   7651049.99246   6068579.96544  24581631.9064                   24581630.3754
        38.7504         28.2504
   8426427.82047   6618549.14846  23141047.1564                   23141046.1804
        42.5004         39.5004
  -3727161.35948  -2834665.43748  20488891.8914                   20488888.1914
        51.5004         52.7504
 -11885425.18047  -9127259.32045  22766486.7584                   22766479.4844
        45.2504         33.0004
  -7070507.76247  -4185149.83245  22701941.9774                   22701938.6374
        43.2504         30.5004
  31488542.15246  24613764.98844  24550623.9694                   24550622.7504
        39.5004         29.5004
                                  24968566.8204                   24968563.8794
        31.0004         16.7504
 25  7 15 21 31  0.0000000  0 11G08G10G18G23G24G27G32G02G28G31G01
  -1145825.81247   -824234.00446  22792142.7664                   22792141.5664
        43.2504         38.5004
    523686.76247    466032.28948  21195759.4304                   21195755.8594
        47.5004         50.0004
  14421120.14546  11360078.88743  24784898.1254                   24784898.2194
        38.0004         20.7504
   9028572.10947   7080844.43844  23225956.3134                   23225953.0234
        42.2504         27.7504
   7477342.66446   5933223.56344  24548576.2894                   24548575.1134
        39.0004         27.2504
   8246516.03146   6478358.06646  23106811.2664                   23106810.3164
        41.7504         39.5004
  -3973909.52348  -3026936.73048  20441937.2344                   20441933.7194
        48.7504         52.7504
 -12224509.14847  -9391480.56245  22701961.6024                   22701953.7114
        44.7504         33.0004
  -7425919.64847  -4462094.07445  22634309.9224                   22634305.9304
        43.2504         30.5004
  31113070.38346  24321189.86344  24479173.2894                   24479172.6334
        40.5004         29.5004
                                  24898795.8984                   24898792.4024
        30.5004         14.7504
 25  7 15 21 31 30.0000000  0 11G08G10G18G23G24G27G32G02G28G31G01
    205210.93847    228521.86746  23049236.7424                   23049234.8954
        43.0004         38.2504
   1855415.98448   1503743.37548  21449178.9614                   21449175.9104
        50.7504         49.7504
  15842507.33646  12467653.10243  25055379.0474                   25055379.0164
        38.5004         21.0004
  10407617.10247   8155424.89544  23488379.3984                   23488375.7934
        43.0004         27.0004
   8879413.25446   7025746.05144  24815381.7974                   24815380.3984
        38.7504         27.0004
   9642210.25047   7565911.92246  23372403.6024                   23372402.2154
        42.5004         38.5004
  -2644853.82848  -1991308.91448  20694847.9224                   20694844.1844
        51.7504         52.7504
 -10987944.77347  -8427923.88345  22937271.9304                   22937264.2344
        46.0004         33.2504
  -6205689.18447  -3511265.05545  22866511.2584                   22866507.8204
        44.2504         31.0004
  32312940.03946  25256153.47744  24707501.1804                   24707500.0474
        40.5004         29.5004
  42072390.98055  32860589.62152  25128814.1174                   25128812.7464
        30.2504         16.2504
 25  7 15 21 32  0.0000000  0 11G08G10G18G23G24G27G32G02G28G31G01
    -18767.10247     53993.48446  23006614.6644                   23006613.4924
        43.2504         37.7504
   1611858.84848   1313958.58648  21402831.4454                   21402828.6914
        50.2504         49.5004
  15688574.54746  12347705.26143  25026087.7194                   25026087.5394
        38.5004         22.0004
  10211321.35247   8002467.12944  23451025.9694                   23451022.4224
        43.0004         29.2504
   8706409.49646   6890937.88344  24782460.2894                   24782459.2774
        38.2504         27.7504
   9462657.38746   7426000.51646  23338235.7974                   23338234.0354
        41.5004         38.7504
  -2890850.09048  -2182994.30948  20648036.4144                   20648032.8284
        51.2504         52.7504
 -11326590.30947  -8691803.50045  22872829.5084                   22872822.4964
        45.2504         33.0004
  -6560674.96947  -3787877.25845  22798960.0394                   22798956.2854
        44.2504         31.7504
  31937290.67646  24963439.91445  24636017.0394                   24636016.1294
        41.0004         30.7504
                                  25059035.3284                   25059033.9574
        28.7504         14.7504
 25  7 15 21 32 30.0000000  0 11G08G10G18G23G24G27G32G02G28G31G01
   -242335.23047   -120215.48446  22964071.3674                   22964069.9414
        42.7504         37.7504
   1368443.30148   1124284.12548  21356511.2894                   21356507.9534
        50.7504         49.5004
  15534744.48046  12227837.43043  24996815.0234                   24996814.8524
        39.5004         22.0004
  10015110.94547   7849575.84444  23413688.0474                   23413685.0204
        42.2504         28.7504
   8533753.77746   6756400.92244  24749605.1954                   24749604.0704
        38.0004         26.0004
   9283279.69146   7286225.60946  23304101.5394                   23304099.7734
        41.5004         38.2504
  -3136472.21148  -2374388.17648  20601296.0554                   20601292.3954
        51.2504         52.7504
 -11665013.08247  -8955509.53145  22808429.8444                   22808422.4494
        45.2504         33.2504
  -6915442.73447  -4064319.59045  22731449.4694                   22731446.2734
        43.2504         32.2504
  31561557.06346  24670660.68444  24564517.1414                   24564515.3714
        41.7504         29.7504
  41339009.84015                  24989257.281
        30.000
 25  7 15 21 33  0.0000000  0 11G08G10G18G23G24G27G32G02G28G31G01
   -465491.30147   -294103.36346  22921606.4384                   22921604.8404
        43.0004         38.0004
   1125174.05948    934723.67248  21310218.3134                   21310215.3364
        50.2504         49.7504
  15381019.37546  12108051.41443  24967562.1254                   24967562.0354
        39.0004         22.5004
   9818990.34047   7696754.55144  23376367.7034                   23376364.4414
        42.5004         28.0004
   8361447.59846   6622136.32444  24716816.5474                   24716815.1954
        38.2504         27.7504
   9104078.38346   7146588.16046  23270000.1174                   23269999.0664
        41.0004         38.5004
  -3381717.36348  -2565488.29748  20554627.4844                   20554623.8014
        50.2504         52.7504
 -12003206.44147  -9219036.80145  22744073.7194                   22744066.4774
        45.5004         33.0004
  -7269985.11347  -4340586.29345  22663982.5394                   22663978.9304
        43.7504         30.7504
  31185746.22346  24377821.28144  24493002.9694                   24492999.9964
        40.7504         29.2504
  40972306.37115                  24919474.867
        31.250
 25  7 15 21 33 30.0000000  0 11G08G10G18G23G24G27G32G02G28G31G01
   -688238.13747   -467672.37146  22879219.3754                   22879217.3914
        42.5004         38.0004
    882050.88347    745277.03948  21263954.0004                   21263950.4774
        47.5004         49.5004
  15227396.54346  11988345.04743  24938328.6174                   24938328.4414
        36.2504         20.0004
   9622959.06346   7544002.85944  23339063.9534                   23339060.8954
        41.7504         27.0004
   8189487.61346   6488141.47744  24684093.1954                   24684092.2114
        37.7504         26.2504
   8925049.70346   7007085.22346  23235931.8444                   23235930.8594
        41.2504         37.7504
  -3626587.68748  -2756296.34448  20508030.2974                   20508026.5784
        48.7504         52.7504
 -12341169.28147  -9482384.44145  22679761.3134                   22679754.4264
        44.2504         33.5004
  -7624299.75447  -4616675.54745  22596558.9774                   22596554.8364
        44.0004         32.0004
  30809860.01646  24084923.14844  24421473.4304                   24421471.5904
        40.7504         28.2504
  40605597.492 5                  24849691.961
        33.250
 25  7 15 21 34  0.0000000  0 11G08G10G18G23G24G27G32G02G28G31G01
   -910577.11747   -640923.56246  22836910.1804                   22836907.8524
        43.2504         37.7504
    639074.97347    555945.14848  21217717.0554                   21217714.0704
        47.7504         49.5004
  15073875.10946  11868717.73043  24909115.6024                   24909114.7734
        36.7504         19.2504
   9427017.99646   7391321.46144  23301778.0784                   23301774.3094
        41.2504         26.0004
   8017871.73046   6354414.75044  24651436.0864                   24651435.0904
        38.0004         26.5004
   8746191.29346   6867714.94546  23201897.2894                   23201895.7304
        41.7504         37.7504
  -3871083.89148  -2946812.85948  20461504.1884                   20461500.7384
        49.0004         53.0004
 -12678898.30147  -9745549.89545  22615493.7344                   22615486.7504
        45.0004         33.5004
  -7978382.81647  -4892584.34045  22529178.9694                   22529175.2544
        43.7504         31.0004
  30433901.99646  23791969.02744  24349931.0164                   24349929.1334
        40.7504         29.0004
  40238885.97745  32220540.79752  24779908.9844                   24779906.8444
        35.2504         16.2504
 25  7 15 21 34 30.0000000  0 11G08G10G18G23G24G27G32G02G28G31G01
    442917.00447    413747.14146  23094471.0164                   23094469.0204
        43.0004         38.0004
   1971674.89548   1594334.69148  21471302.4384                   21471299.0904
        50.0004         49.5004
  16495878.30946  12976771.91843  25179712.9924                   25179713.2704
        37.7504         20.2504
  10806594.07446   8466315.75044  23564302.6804                   23564299.5204
        41.5004         26.0004
   9422023.01246   7448558.53144  24918637.0164                   24918635.8244
        37.7504         25.5004
  10142926.11746   7956079.66846  23467686.8834                   23467685.3134
        41.5004         37.7504
  -2539779.24248  -1909432.61748  20714843.2344                   20714839.1134
        51.2504         52.7504
 -11440959.96947  -8780922.59445  22851065.1484                   22851058.4104
        44.5004         34.5004
  -6756799.37947  -3940701.06245  22761638.5864                   22761634.7154
        43.5004         31.0004
  31633307.64546  24726571.02044  24578170.1884                   24578168.6334
        40.0004         28.5004
  41447606.04346  33162400.64842  25009921.4534                   25009918.2344
        36.5004         17.2504
 25  7 15 21 35  0.0000000  0 11G08G10G18G23G24G27G32G02G28G31G01
    221389.14547    241127.99646  23052315.9534                   23052313.9454
        44.0004         38.2504
   1728997.01248   1405235.04348  21425122.3134                   21425119.0044
        50.0004         49.5004
  16342555.89846  12857299.68043  25150537.2584                   25150537.0204
        38.5004         19.0004
  10610836.27046   8313777.16444  23527051.1724                   23527047.7234
        41.7504         26.2504
   9251089.23845   7315363.32443  24886108.8444                   24886109.4144
        35.7504         23.2504
   9964401.19947   7816969.26646  23433715.0554                   23433713.3284
        42.0004         37.2504
  -2783529.54748  -2099367.92248  20668458.9224                   20668455.2234
        51.5004         52.7504
 -11778212.81647  -9043716.99645  22786888.5084                   22786881.0354
        45.2504         34.0004
  -7110407.98447  -4216240.14845  22694349.2114                   22694344.5904
        44.5004         31.7504
  31257216.75446  24433513.34844  24506602.0004                   24506601.0594
        39.0004         27.5004
  41080897.11346  32876653.50442  24940137.9224                   24940136.1994
        37.0004         14.7504
 25  7 15 21 35 30.0000000  0 11G08G10G18G23G24G27G32G02G28G31G01
       263.03547     68821.88746  23010237.4694                   23010234.8754
        43.5004         38.5004
   1486468.21148   1216251.55548  21378970.6094                   21378967.2774
        50.0004         49.5004
  16189329.54756  12737902.28552  25121379.4694                   25121379.7974
        37.0004         16.7504
  10415169.85246   8161309.76244  23489817.2734                   23489813.4414
        40.7504         25.5004
   9080491.85246   7182430.24243  24853645.6174                   24853645.5744
        36.5004         22.5004
   9786037.82047   7677984.73846  23399773.5164                   23399771.7074
        42.5004         37.2504
  -3026909.65248  -2289014.77048  20622145.3984                   20622141.4144
        51.2504         52.5004
 -12115224.90647  -9306323.79345  22722756.7344                   22722749.8364
        45.2504         34.0004
  -7463775.27747  -4491591.22745  22627104.9304                   22627100.9414
        44.2504         31.0004
  30881062.89546  24140406.61744  24435022.4384                   24435020.8794
        38.0004         27.7504
  40714191.99246  32590909.29343  24870356.7734                   24870354.6844
        37.2504         18.5004
 25  7 15 21 36  0.0000000  0 11G08G10G18G23G24G27G32G02G28G31G01
   -220464.66847   -103173.75446  22968233.9614                   22968231.9694
        42.5004         38.2504
   1244087.98848   1027383.84448  21332847.3134                   21332843.9654
        50.0004         49.5004
  16036196.38746  12618577.44542  25092239.4614                   25092240.2344
        37.7504         16.2504
  10219593.91846   8008912.87944  23452600.1484                   23452597.1994
        41.0004         24.5004
   8910227.02345   7049756.31343  24821245.6024                   24821244.7894
        35.5004         21.0004
   9607831.86747   7539122.89846  23365861.6644                   23365860.4574
        42.0004         37.5004
  -3269922.19148  -2478375.18448  20575901.5314                   20575897.7544
        51.2504         52.5004
 -12451995.09847  -9568742.09445  22658671.2504                   22658664.2814
        45.2504         34.0004
  -7816899.37947  -4766752.78545  22559908.3594                   22559904.2154
        44.2504         32.0004
  30504847.85946  23847252.21144  24363431.2194                   24363429.2424
        37.5004         27.2504
  40347491.38346  32305168.57842  24800575.7664                   24800573.0394
        38.2504         17.2504
 25  7 15 21 36 30.0000000  0 11G08G10G18G23G24G27G32G02G28G31G01
   -440792.97347   -274858.18446  22926306.2424                   22926304.8954
        43.0004         38.5004
   1001860.02048    838634.77748  21286752.9384                   21286749.9534
        50.5004         49.5004
  15883157.66846  12499326.29342  25063116.7194                   25063118.4414
        37.5004         15.5004
  10024111.80946   7856589.09844  23415401.3134                   23415397.6724
        40.2504         25.2504
   8740295.02346   6917341.76643  24788908.7734                   24788907.2194
        36.2504         19.2504
   9429783.45747   7400383.79346  23331980.5234                   23331979.2734
        42.0004         38.0004
  -3512565.39548  -2667447.80948  20529728.1024                   20529724.5274
        51.0004         52.5004
 -12788518.02047  -9830967.71545  22594633.5864                   22594626.5634
        45.5004         34.5004
  -8169773.87947  -5041719.85245  22492758.2114                   22492754.0394
        44.7504         31.7504
  30128577.93846  23554055.06644  24291829.7034                   24291827.2304
        38.7504         28.7504
  39980800.57846  32019435.59443  24730797.2344                   24730794.3674
        39.0004         19.7504
 25  7 15 21 37  0.0000000  0 11G08G10G18G23G24G27G32G02G28G31G01
   -660724.45347   -446233.41046  22884455.4924                   22884453.5904
        43.2504         38.2504
    759784.43448    650004.44148  21240687.1954                   21240683.6914
        50.0004         49.5004
  15730211.09446  12380146.97542  25034012.7504                   25034014.3134
        38.0004         14.7504
   9828723.44546   7704338.37143  23378219.9614                   23378217.1334
        40.0004         23.7504
   8570692.84046   6785184.23843  24756634.5474                   24756632.7974
        36.0004         18.2504
   9251889.16446   7261764.79346  23298128.7274                   23298127.1254
        41.5004         37.5004
  -3754841.10548  -2856234.07848  20483624.7504                   20483620.5474
        50.7504         52.5004
 -13124791.70747 -10092999.13345  22530642.6804                   22530635.4144
        45.5004         34.7504
  -8522396.13747  -5316490.36745  22425656.7814                   22425652.1764
        45.0004         31.5004
  29752255.46546  23260816.93844  24220217.6094                   24220215.6294
        39.2504         29.2504
  39614121.20346  31733711.49243  24661020.3284                   24661017.2974
        38.5004         20.5004
 25  7 15 21 37 30.0000000  0 11G08G10G18G23G24G27G32G02G28G31G01
    695163.58247    610302.69546  23142472.0164                   23142470.5234
        42.7504         38.0004
   2093287.44548   1689097.69548  21494444.6334                   21494441.2464
        50.5004         49.5004
  17152777.449 6                  25304718.180
        37.000
  11208853.21546   8779764.10543  23640849.9064                   23640846.8444
        39.2504         23.2504
   9976841.01646   7880884.12543  25024215.6024                   25024213.7384
        36.0004         18.5004
  10649569.55147   8350866.33246  23564098.1414                   23564096.5824
        42.0004         36.7504
  -2421325.12148  -1817130.71948  20737384.1564                   20737380.5044
        50.7504         52.5004
 -11885385.05547  -9127227.69545  22766494.2504                   22766486.8054
        45.0004         34.5004
  -7299333.67247  -4363454.60945  22658397.5554                   22658393.3244
        44.2504         32.2504
  30951313.41046  24195147.97345  24448390.2424                   24448388.5744
        39.5004         30.0004
  40822885.18846  32675605.56643  24891040.3284                   24891037.2504
        40.0004         19.7504
 25  7 15 21 38  0.0000000  0 11G08G10G18G23G24G27G32G02G28G31G01
    476016.51647    439538.69946  23100770.1094                   23100768.3094
        42.7504         37.5004
   1851515.71548   1500704.13348  21448436.8524                   21448433.7624
        50.0004         49.5004
  17000007.07045  13460092.00852  25275648.0394                   25275646.2504
        33.5004         14.7504
  11013650.53146   8627658.07043  23603703.5234                   23603701.5084
        38.2504         21.5004
   9807887.61745   7749232.10943  24992064.5004                   24992063.6294
        34.2504         19.0004
  10471971.99646   8212478.55146  23530302.4924                   23530301.2544
        41.2504         36.5004
  -2662872.84048  -2005349.72348  20691419.2274                   20691415.3674
        51.7504         52.5004
 -12221156.25847  -9388867.56645  22702598.9384                   22702591.3874
        45.2504         34.7504
  -7651444.69547  -4637826.76645  22591392.5864                   22591388.7194
        44.2504         32.2504
  30574891.47746  23901832.34045  24376758.5864                   24376757.6414
        38.5004         30.5004
  40456232.25446  32389902.07843  24821268.4774                   24821265.2074
        40.0004         21.5004
 25  7 15 21 38 30.0000000  0 11G08G10G18G23G24G27G32G02G28G31G01
    257259.51247    269078.65246  23059142.4384                   23059139.8754
        43.5004         37.7504
   1609897.94148   1312430.54348  21402458.6414                   21402455.1604
        50.2504         49.5004
  16847323.35215                  25246594.172
        30.500
  10818542.28946   8475625.60943  23566576.1804                   23566573.1994
        38.7504         20.2504
   9639255.83245   7617830.67643  24959974.6334                   24959974.2854
        32.2504         19.7504
  10294519.47746   8074203.79346  23496534.7734                   23496533.1454
        41.0004         36.2504
  -2904057.55548  -2193285.86348  20645523.2194                   20645519.5084
        51.0004         52.5004
 -12556671.53547  -9650308.02345  22638752.2194                   22638744.9574
        45.5004         34.7504
  -8003294.23447  -4911995.16445  22524437.8364                   22524434.0354
        44.0004         32.7504
  30198425.99246  23608482.79745  24305119.4454                   24305118.2424
        37.0004         30.0004
  40089596.90646  32104212.24643  24751499.9924                   24751497.0354
        38.7504         20.0004
 25  7 15 21 39  0.0000000  0  9G08G10G23G27G32G02G28G31G01
     38892.80947     98922.74246  23017588.6884                   23017586.2154
        43.0004         37.5004
   1368437.18848   1124279.30148  21356510.0474                   21356506.8794
        50.0004         49.5004
  10623531.25846   8323668.89843  23529466.9304                   23529463.5314
        38.5004         20.7504
  10117211.40646   7936041.59446  23462794.3134                   23462792.3054
        40.5004         36.7504
  -3144878.29748  -2380938.39148  20599696.7034                   20599692.9104
        51.5004         52.5004
 -12891926.08647  -9911545.30145  22574955.7274                   22574947.8014
        45.7504         34.0004
  -8354876.70347  -5185955.47745  22457533.5944                   22457529.7074
        44.7504         32.2504
  29821921.79746  23315103.10245  24233473.4144                   24233472.1764
        38.0004         30.2504
  39722983.71546  31818539.70343  24681736.4384                   24681732.7774
        39.2504         22.0004
 25  7 15 21 39 30.0000000  0  9G08G10G23G27G32G02G28G31G01
   -179086.84047    -70931.58246  22976107.6804                   22976105.9654
        42.7504         38.0004
   1127132.95748    936250.02348  21310591.6334                   21310588.1414
        50.0004         49.5004
  10428616.53946   8171787.21143  23492375.9064                   23492372.8444
        39.0004         19.5004
   9940043.89546   7797988.91446  23429080.5704                   23429078.7234
        40.5004         36.7504
  -3385337.50448  -2568309.19948  20553938.5394                   20553934.9614
        51.0004         52.5004
 -13226918.68447 -10172578.46945  22511208.8444                   22511201.5984
        45.0004         34.5004
  -8706189.96547  -5459705.99245  22390681.0634                   22390677.2304
        45.0004         32.7504
  29445380.95746  23021694.85545  24161818.9384                   24161818.2384
        38.2504         32.0004
  39356393.76646  31532885.28943  24611976.0864                   24611973.0864
        39.2504         21.0004
 25  7 15 21 40  0.0000000  0  9G08G10G23G27G32G02G28G31G01
   -396676.15247   -240481.73446  22934701.8054                   22934700.7544
        42.7504         38.0004
    885991.51248    748347.59448  21264703.7034                   21264700.5434
        49.7504         49.5004
  10233804.13346   8019985.31643  23455304.3364                   23455300.6054
        40.0004         20.7504
   9763019.42646   7660047.70746  23395393.2584                   23395392.1174
        39.7504         36.2504
  -3625431.04348  -2755395.07048  20508250.4384                   20508246.6294
        50.7504         52.5004
 -13561641.72347 -10433401.59045  22447512.8054                   22447505.3204
        45.0004         34.5004
  -9057225.35947  -5733240.01245  22323881.3054                   22323877.3914
        43.5004         32.2504
  29068811.92246  22728264.61745  24090161.3524                   24090159.2974
        39.7504         31.7504
  38989834.84046  31247255.01643  24542222.3284                   24542219.0084
        39.2504         21.7504
 25  7 15 21 40 30.0000000  0  9G08G10G23G27G32G02G28G31G01
    961563.19547    817886.54346  23193166.6024                   23193164.6844
        42.7504         38.0004
   2220454.69148   1788189.02748  21518643.6884                   21518640.4694
        48.5004         49.7504
  11614534.03146   9095878.68843  23718049.0944                   23718044.8914
        40.2504         22.0004
  11161574.27046   8749830.61745  23661529.6804                   23661528.3284
        40.0004         35.5004
  -2289719.16448  -1714580.61748  20762428.0554                   20762424.2854
        49.2504         52.5004
 -12320648.17647  -9466393.61345  22683666.0944                   22683658.7894
        45.0004         34.0004
  -7832534.77747  -4778935.59045  22556931.7424                   22556928.2424
        44.0004         32.2504
  30267663.38346  23662434.77345  24318294.9064                   24318293.2154
        40.7504         32.7504
  40198754.45746  32189270.38743  24772271.8674                   24772268.9654
        38.0004         22.0004
 25  7 15 21 41  0.0000000  0  9G08G10G23G27G32G02G28G31G01
    744777.68447    648962.72746  23151913.1884                   23151912.1724
        42.2504         37.5004
   1979670.29747   1600564.82048  21472824.2194                   21472820.8484
        47.5004         49.5004
  11419956.84046   8944260.03943  23681022.3594                   23681018.5394
        40.2504         22.2504
  10984856.87946   8612128.66846  23627902.2424                   23627900.3484
        40.5004         36.0004
  -2529056.06248  -1901076.90248  20716883.4614                   20716880.0984
        48.5004         52.5004
 -12654794.85947  -9726767.62945  22620080.0314                   22620072.7704
        45.2504         34.5004
  -8182975.30547  -5052006.06645  22490245.3594                   22490240.7894
        44.2504         32.5004
  29891076.61746  23368990.71545  24246633.1334                   24246630.7854
        40.7504         32.5004
  39832293.66446  31903716.63343  24702536.3444                   24702533.5124
        38.0004         21.2504
 25  7 15 21 41 30.0000000  0  9G08G10G23G27G32G02G28G31G01
    528390.45347    480349.24646  23110736.7504                   23110734.6484
        42.7504         37.5004
   1739065.14147   1413080.28148  21427038.4454                   21427035.2424
        47.5004         49.5004
  11225497.39146   8792733.15643  23644017.9384                   23644014.5314
        40.0004         23.0004
  10808288.41046   8474542.75446  23594301.9924                   23594301.0204
        39.2504         36.5004
  -2768017.03948  -2087280.25448  20671410.8364                   20671407.2074
        48.7504         52.2504
 -12988650.34847  -9986914.73845  22556549.1094                   22556542.2074
        45.0004         34.5004
  -8533113.85247  -5324841.23045  22423616.4064                   22423611.9574
        45.0004         33.2504
  29514485.42246  23075543.20745  24174970.0554                   24174967.6884
        41.7504         34.0004
  39465885.01246  31618203.48043  24632811.0784                   24632807.9654
        38.2504         21.5004
 25  7 15 21 42  0.0000000  0  9G08G10G23G27G32G02G28G31G01
    312397.00447    312042.62146  23069634.7424                   23069632.9184
        42.5004         37.2504
   1498637.73848   1225734.24648  21381286.6094                   21381283.3054
        49.5004         49.5004
  11031153.91846   8641296.62943  23607035.6644                   23607032.0274
        40.5004         22.7504
  10631863.69546   8337068.87146  23560729.1804                   23560728.2584
        38.7504         36.0004
  -3006605.75048  -2273193.53948  20626008.7974                   20626005.2234
        50.5004         52.2504
 -13322214.51647 -10246834.84845  22493074.1954                   22493066.9344
        45.5004         34.0004
  -8882949.56647  -5597440.41845  22357044.7584                   22357040.7734
        43.7504         32.7504
  29137890.41046  22782092.72745  24103306.2344                   24103304.0744
        41.0004         33.5004
  39099528.49246  31332730.90643  24563096.2114                   24563092.8524
        37.5004         19.7504
 25  7 15 21 42 30.0000000  0  9G08G10G23G27G32G02G28G31G01
     96791.20747    144038.05946  23028605.5704                   23028604.2194
        42.0004         37.2504
   1258384.83248   1038524.18448  21335567.7114                   21335564.7734
        48.2504         49.5004
  10836922.78546   8489947.62143  23570074.7114                   23570071.8164
        40.7504         22.7504
  10455575.99646   8199701.75046  23527183.2894                   23527181.9694
        39.5004         36.2504
  -3244827.50448  -2458820.88748  20580676.8134                   20580673.3634
        49.2504         52.2504
 -13655488.90247 -10506529.15645  22429654.1724                   22429647.0554
        44.2504         34.2504
  -9232483.16847  -5869804.19945  22290530.8834                   22290526.1294
        44.2504         32.7504
  28761290.85946  22488638.72345  24031640.9064                   24031639.2814
        39.5004         33.7504
  38733222.27746  31047297.60543  24493389.7974                   24493386.8094
        36.5004         20.0004
 25  7 15 21 43  0.0000000  0  9G08G10G23G27G32G02G28G31G01
   -118432.32447    -23668.64146  22987650.6644                   22987648.7504
        42.2504         37.5004
   1018303.97748    851448.18848  21289881.7114                   21289878.8674
        49.0004         49.2504
  10642801.28546   8338684.07043  23533134.2894                   23533131.1644
        40.7504         22.5004
  10279419.20346   8062436.62946  23493661.3134                   23493660.3284
        39.5004         36.0004
  -3482686.91448  -2644165.88348  20535413.4064                   20535409.8134
        50.0004         52.2504
 -13988474.21947 -10765998.20745  22366289.5234                   22366282.1644
        44.7504         34.5004
  -9581714.61747  -6141932.53545  22224073.4454                   22224069.9024
        44.5004         32.5004
  28384686.27746  22195180.82045  23959975.6564                   23959973.9304
        40.5004         34.0004
  38366965.82046  30761903.03543  24423693.0164                   24423690.0784
        37.5004         20.5004
 25  7 15 21 43 30.0000000  0  9G08G10G23G27G32G02G28G31G01
   1242149.84447   1036525.19946  23246560.6024                   23246558.8484
        42.0004         37.5004
   2353822.34848   1892111.84448  21544022.6804                   21544019.6024
        49.5004         49.5004
  12024214.64547   9415110.00444  23796009.3364                   23796005.3324
        42.0004         24.0004
  11678814.79346   9152874.67245  23759957.4924                   23759956.4924
        38.5004         35.5004
  -2144759.01248  -1601624.66448  20790012.5634                   20790009.0944
        50.5004         52.0004
 -12745738.52747  -9797632.72745  22602774.0394                   22602766.7774
        45.7504         35.0004
  -8355210.62547  -5186215.08245  22457470.2504                   22457465.8204
        44.5004         33.5004
  29583511.44946  23129330.50845  24188104.0634                   24188102.5434
        40.5004         34.0004
  39576191.99646  31704157.27343  24653802.0164                   24653798.7194
        38.5004         22.0004
 25  7 15 21 44  0.0000000  0  9G08G10G23G27G32G02G28G31G01
   1027680.14147    869405.89546  23205748.3834                   23205746.6914
        42.2504         37.2504
   2114083.66448   1705302.46948  21498401.9534                   21498398.8014
        48.0004         49.2504
  11830309.38747   9264014.93844  23759110.3834                   23759106.6884
        42.7504         25.0004
  11502907.24246   9015803.74646  23726484.3054                   23726482.5044
        40.5004         36.0004
  -2381901.95748  -1786411.37148  20744886.1564                   20744882.3444
        49.7504         52.0004
 -13078142.72747 -10056648.96145  22539519.8204                   22539512.1724
        46.0004         34.7504
  -8703832.25447  -5457868.23445  22391129.0164                   22391125.4574
        44.5004         33.2504
  29206903.25847  22835869.79345  24116437.8134                   24116436.0124
        42.0004         33.5004
  39210037.64146  31418842.27043  24584124.5554                   24584121.1804
        39.0004         21.2504
 25  7 15 21 44 30.0000000  0  9G08G10G23G27G32G02G28G31G01
    813581.19147    702575.49646  23165006.3444                   23165005.1804
        42.0004         37.0004
   1874514.41048   1518625.11348  21452813.8524                   21452810.4654
        49.0004         49.2504
  11636510.04747   9113002.41044  23722231.7034                   23722227.8484
        42.7504         24.0004
  11327117.27046   8878824.45746  23693032.0394                   23693030.7934
        40.5004         36.0004
  -2618691.59048  -1970922.78148  20699826.5314                   20699822.7234
        50.2504         52.2504
 -13410255.69547 -10315438.27345  22476320.8134                   22476313.0634
        44.7504         34.5004
  -9052147.02047  -5729282.28145  22324847.2034                   22324843.1684
        45.0004         33.5004
  28830294.96146  22542408.98445  24044772.4694                   24044769.4694
        41.5004         32.5004
  38843935.11746  31133567.66443  24514458.3524                   24514454.3364
        39.0004         22.0004
 25  7 15 21 45  0.0000000  0  9G08G10G23G27G32G02G28G31G01
    599850.28147    536031.89146  23124335.0084                   23124333.4144
        42.0004         37.0004
   1635114.86348   1332080.00848  21407257.4064                   21407254.1644
        49.0004         49.5004
  11442816.53947   8962072.35544  23685372.9614                   23685369.2544
        43.0004         26.5004
  11151441.53546   8741934.18046  23659603.1024                   23659601.3094
        41.0004         36.2504
  -2855129.73048  -2155160.29348  20654833.8594                   20654830.1024
        50.7504         52.2504
 -13742075.12547 -10573998.84445  22413177.3444                   22413170.2384
        45.0004         34.0004
  -9400152.15647  -6000455.04745  22258623.5704                   22258619.7034
        45.2504         33.2504
  28453689.29746  22248950.21545  23973105.9694                   23973103.4104
        40.7504         31.5004
  38477886.13346  30848334.76643  24444800.9064                   24444797.3094
        39.7504         21.5004
 25  7 15 21 45 30.0000000  0  9G08G10G23G27G32G02G28G31G01
    386482.00846    369770.83646  23083732.3524                   23083730.9304
        41.7504         36.2504
   1395882.71948   1145665.34048  21361732.7344                   21361729.8244
        48.5004         49.5004
  11249226.19147   8811222.66844  23648533.7114                   23648530.5664
        42.2504         26.0004
  10975874.14146   8605128.34046  23626192.8674                   23626191.7584
        40.5004         36.5004
  -3091220.92248  -2339127.45748  20609907.4454                   20609903.5634
        49.7504         52.2504
 -14073602.14547 -10832331.56645  22350090.0704                   22350082.2974
        45.2504         34.7504
  -9747847.58247  -6271386.48845  22192459.6484                   22192455.6884
        45.2504         32.5004
  28077085.99646  21955493.27745  23901441.1174                   23901438.1994
        41.0004         30.5004
  38111890.07046  30563143.08643  24375154.3914                   24375150.5824
        40.5004         22.2504
 25  7 15 21 46  0.0000000  0  9G08G10G23G27G32G02G28G31G01
    173475.19146    203791.43845  23043199.0314                   23043197.5314
        41.0004         35.5004
   1156819.71147    959382.46548  21316240.7274                   21316237.5234
        47.2504         49.2504
  11055740.39147   8660454.46944  23611715.1564                   23611711.1254
        43.2504         26.2504
  10800413.25046   8468405.48446  23592804.3524                   23592802.5824
        40.2504         36.5004
  -3326965.54348  -2522824.57448  20565046.2034                   20565042.7734
        49.2504         52.2504
 -14404833.09847 -11090433.59445  22287058.8754                   22287051.2894
        45.0004         35.5004
 -10095229.11747  -6542073.34445  22126355.1414                   22126351.2774
        45.2504         33.5004
  27700489.60546  21662041.73844  23829776.2664                   23829773.3484
        39.7504         29.0004
  37745950.16746  30277995.20543  24305517.2894                   24305514.8594
        40.0004         22.0004
 25  7 15 21 46 30.0000000  0  9G08G10G23G27G32G02G28G31G01
   1536254.57046   1265697.39545  23302527.0234                   23302524.9844
        41.0004         35.5004
   2493354.57448   2000838.18848  21570574.7814                   21570571.9804
        48.7504         49.2504
  12437785.97347   9737373.03544  23874709.4534                   23874705.9224
        42.5004         27.5004
  12200481.89546   9559367.97346  23859228.0234                   23859227.1414
        41.5004         36.7504
  -1986937.18448  -1478646.63348  20820045.4384                   20820041.8204
        50.5004         52.2504
 -13160334.70347 -10120694.55945  22523878.8754                   22523871.1914
        45.0004         34.0004
  -8866862.01247  -5584904.10945  22360105.2814                   22360101.4924
        45.7504         33.2504
  28899335.80546  22596207.78944  24057908.4844                   24057905.9734
        38.7504         28.7504
  38955501.19946  31220502.57843  24535688.6094                   24535684.9844
        40.5004         22.7504
 25  7 15 21 47  0.0000000  0  9G08G10G23G27G32G02G28G31G01
   1323963.22346   1100275.50845  23262129.7504                   23262127.4224
        41.0004         35.2504
   2254631.59848   1814820.27748  21525147.2504                   21525144.4144
        48.2504         49.2504
  12244509.89547   9586768.24644  23837930.2504                   23837926.3754
        42.5004         27.0004
  12025225.05946   9422804.11746  23825878.6484                   23825876.9654
        40.5004         36.5004
  -2221993.44148  -1661807.35948  20775315.9224                   20775311.9574
        51.0004         52.5004
 -13490967.13747 -10378330.20745  22460961.7584                   22460954.1954
        44.7504         34.2504
  -9213606.76247  -5855094.77345  22294122.3364                   22294118.2114
        45.2504         33.5004
  28522762.05146  22302773.89844  23986248.5234                   23986246.4454
        39.0004         29.5004
  38589680.49246  30935447.56343  24466074.7034                   24466071.0944
        39.5004         22.5004
 25  7 15 21 47 30.0000000  0  9G08G10G23G27G32G02G28G31G01
   1112025.60247    935129.26246  23221798.1954                   23221797.4184
        42.0004         36.0004
   2016079.29348   1628935.34848  21479752.2894                   21479749.4654
        49.5004         49.2504
  12051338.68847   9436245.14144  23801170.8834                   23801168.0514
        42.0004         27.5004
  11850065.48046   9286316.05146  23792546.2974                   23792545.5004
        40.5004         36.5004
  -2456708.16048  -1844701.94948  20730650.8364                   20730647.4924
        51.5004         52.5004
 -13821297.43447 -10635730.42245  22398101.8984                   22398094.2194
        46.0004         34.7504
  -9560028.89847  -6125034.03945  22228200.5164                   22228196.0234
        45.0004         34.0004
  28146203.70746  22009352.02045  23914593.1884                   23914589.7894
        40.0004         30.5004
  38223922.40246  30650441.37943  24396472.9534                   24396469.8444
        39.5004         22.0004
 25  7 15 21 48  0.0000000  0  9G08G10G23G27G32G02G28G31G01
    900438.52746    770256.16046  23181535.2504                   23181534.0164
        41.0004         36.2504
   1777697.57848   1443183.35548  21434389.9384                   21434386.7464
        48.2504         49.2504
  11858271.94146   9285803.45344  23764431.3594                   23764428.2734
        41.5004         26.7504
  11674999.49646   9149900.90246  23759232.5704                   23759231.1524
        40.2504         36.0004
  -2691083.73848  -2027332.27348  20686051.0004                   20686047.0944
        51.0004         52.2504
 -14151324.02047 -10892893.98045  22335300.0784                   22335292.2384
        45.5004         35.2504
  -9906126.14847  -6394720.14845  22162339.8984                   22162336.0044
        45.7504         33.5004
  27769663.21546  21715944.02344  23842939.1564                   23842936.4344
        40.0004         29.7504
  37858228.40246  30365485.08243  24326883.4384                   24326880.2854
        39.5004         22.5004
 25  7 15 21 48 30.0000000  0  9G08G10G23G27G32G02G28G31G01
    689200.71146    605655.21946  23141337.7814                   23141336.8484
        41.0004         36.7504
   1539488.20348   1257565.65648  21389060.0864                   21389057.2344
        48.7504         49.5004
  11665311.05546   9135444.24244  23727712.3914                   23727709.4654
        41.2504         26.7504
  11500025.27046   9013557.27045  23725935.8134                   23725934.6294
        40.0004         35.2504
  -2925120.52048  -2209698.60548  20641515.0864                   20641511.1414
        51.2504         52.5004
 -14481043.14847 -11149817.96945  22272556.4454                   22272549.1374
        45.5004         34.5004
 -10251894.39547  -6664149.89545  22096542.3834                   22096538.2544
        44.7504         34.0004
  27393144.68846  21422553.13344  23771290.5394                   23771287.3674
        38.5004         29.7504
  37492601.89846  30080581.39543  24257307.6564                   24257304.2194
        39.5004         21.5004
 25  7 15 21 49  0.0000000  0  9G08G10G23G27G32G02G28G31G01
    478307.14846    441322.51246  23101206.5004                   23101205.0164
        41.2504         36.2504
   1301449.30548   1072080.78948  21343762.9774                   21343759.8874
        49.0004         49.2504
  11472453.62946   8985165.66844  23691012.6334                   23691010.1334
        40.5004         25.2504
  11325137.34046   8877280.86345  23692656.6334                   23692654.6134
        38.5004         34.5004
  -3158822.59848  -2391804.12948  20597042.8444                   20597039.2624
        49.5004         52.2504
 -14810455.41047 -11406502.82845  22209871.5554                   22209863.6844
        46.2504         35.5004
 -10597333.09047  -6933322.84045  22030807.9384                   22030803.4494
        44.5004         33.5004
  27016648.58246  21129179.73845  23699643.6884                   23699642.5514
        37.7504         30.2504
  37127042.76646  29795730.19543  24187743.1804                   24187740.1844
        39.5004         22.7504
 25  7 15 21 49 30.0000000  0  9G08G10G23G27G32G02G28G31G01
   1843183.57846   1504862.52745  23360933.4064                   23360932.2974
        40.2504         35.7504
   2639010.69148   2114336.40648  21598292.4224                   21598289.1094
        49.5004         49.2504
  12855127.71946  10062573.96944  23954126.8674                   23954124.0554
        40.2504         25.0004
  12725759.87946   9968674.96145  23959185.6334                   23959183.9384
        38.2504         33.5004
  -1816762.57048  -1346043.07848  20852428.7814                   20852424.9614
        51.0004         52.2504
 -13564126.51647 -10435337.44545  22447039.4534                   22447032.3244
        46.5004         35.2504
  -9367006.59847  -5974626.82445  22264930.9774                   22264926.4494
        45.5004         33.0004
  28215612.00846  22063437.12945  23927799.3054                   23927797.3834
        38.7504         32.5004
  38336986.61346  30738543.67243  24417987.5314                   24417984.7544
        40.5004         22.2504
 25  7 15 21 50  0.0000000  0  9G08G10G23G27G32G02G28G31G01
   1632974.24646   1341062.98846  23320932.4384                   23320930.8834
        40.5004         36.2504
   2401317.81648   1929121.16448  21553060.9924                   21553057.8524
        49.0004         49.5004
  12662481.34446   9912459.83243  23917467.8984                   23917464.1214
        39.5004         22.2504
  12551038.94146   9832528.69545  23925937.5164                   23925936.6644
        38.5004         34.5004
  -2049796.87948  -1527628.26248  20808083.8914                   20808080.3834
        51.0004         52.2504
 -13892915.19547 -10691536.40246  22384473.3444                   22384465.6174
        46.0004         36.0004
  -9711774.16847  -6243276.82445  22199323.7814                   22199319.5634
        44.7504         33.7504
  27839173.46546  21770108.56645  23856165.5164                   23856163.4734
        39.7504         32.7504
  37971572.17246  30453805.22743  24348451.7274                   24348448.1054
        40.5004         23.0004
 25  7 15 21 50 30.0000000  0  9G08G10G23G27G32G02G28G31G01
   1423102.35246   1177526.39146  23280994.5234                   23280994.0824
        40.5004         36.2504
   2163798.08248   1744040.84448  21507862.5234                   21507859.3054
        49.0004         49.2504
  12469939.91046   9762427.45343  23880827.7344                   23880825.3954
        39.5004         23.5004
  12376396.25846   9696443.39545  23892703.4844                   23892702.9924
        37.5004         33.7504
  -2282500.53548  -1708955.78548  20763801.6094                   20763798.0314
        49.7504         52.5004
 -14221389.59847 -10947490.47746  22321966.7274                   22321959.3834
        45.7504         36.0004
 -10056202.57047  -6511662.53145  22133781.2584                   22133777.0124
        45.5004         34.2504
  27462767.30546  21476805.24245  23784537.6564                   23784535.6024
        40.5004         34.5004
  37606232.62946  30169125.11743  24278929.9384                   24278926.4844
        40.0004         23.2504
 25  7 15 21 51  0.0000000  0  9G08G10G23G27G32G02G28G31G01
   1213566.74646   1014251.83645  23241121.6334                   23241120.5084
        40.0004         35.5004
   1926453.35948   1559096.89848  21462697.0944                   21462694.1884
        48.2504         49.2504
  12277505.01646   9612478.11744  23844209.0554                   23844205.8054
        39.7504         25.2504
  12201830.07046   9560417.70745  23859484.8284                   23859484.2584
        37.5004         34.0004
  -2514873.86348  -1890025.92248  20719582.3834                   20719578.9924
        50.0004         52.5004
 -14549546.35247 -11203197.02045  22259520.5474                   22259513.1954
        46.0004         35.5004
 -10400287.55547  -6779780.64545  22068303.9844                   22068299.3484
        45.5004         33.5004
  27086398.39847  21183530.93445  23712917.4144                   23712914.9224
        42.0004         35.0004
  37240971.52046  29884506.16443  24209423.0234                   24209419.7704
        40.5004         23.5004
 25  7 15 21 51 30.0000000  0  9G08G10G23G27G32G02G28G31G01
   1004363.51246    851236.26646  23201312.4384                   23201310.3754
        41.5004         36.2504
   1689283.05548   1374288.85548  21417565.3444                   21417562.1254
        50.0004         49.2504
  12085175.49646   9462610.89143  23807611.0554                   23807606.6804
        38.7504         22.7504
  12027336.23046   9424448.39845  23826279.5474                   23826279.5474
        38.0004         34.5004
  -2746919.79348  -2070840.93448  20675425.4924                   20675421.9964
        50.7504         52.5004
 -14877384.49247 -11458655.29345  22197135.1884                   22197127.9844
        46.5004         35.5004
 -10744027.48047  -7047629.89545  22002892.5164                   22002888.2814
        45.7504         33.5004
  26710067.86346  20890286.52345  23641304.1884                   23641301.9104
        41.5004         35.7504
  36875789.90246  29599949.12143  24139930.9774                   24139927.5434
        40.0004         22.5004
 25  7 15 21 52  0.0000000  0  9G08G10G23G27G32G02G28G31G01
    795489.75846    688477.44546  23161564.6174                   23161563.3404
        40.0004         36.5004
   1452287.38748   1189616.89848  21372466.4144                   21372463.6054
        49.5004         49.2504
  11892951.24646   9312825.69543  23771031.0634                   23771027.9574
        38.5004         22.5004
  11852911.36346   9288532.80145  23793088.9924                   23793087.5944
        38.0004         34.0004
  -2978640.32448  -2251402.39548  20631330.7114                   20631326.9964
        50.7504         52.2504
 -15204902.07847 -11713863.78946  22134810.4064                   22134803.3014
        46.7504         36.0004
 -11087419.80947  -7315208.27345  21937547.0944                   21937542.4344
        45.0004         34.0004
  26333778.57046  20597074.25045  23569697.7894                   23569695.7664
        41.0004         35.5004
  36510689.73046  29315455.52743  24070455.1094                   24070451.3794
        41.5004         22.5004
 25  7 15 21 52 30.0000000  0  9G08G10G23G27G32G02G28G31G01
   2162367.65246   1753577.03146  23421673.5004                   23421671.6524
        40.5004         36.7504
   2790892.73448   2232685.98448  21627194.7664                   21627191.4104
        48.7504         49.2504
  13276256.66846  10390725.93443  24034265.1174                   24034262.4924
        37.0004         21.5004
  13253976.16446  10380271.51645  24059702.4224                   24059701.3984
        38.2504         34.2504
  -1634611.56248  -1204107.25848  20887090.8914                   20887087.2464
        50.2504         52.2504
 -13956668.30147 -10741214.07046  22372341.3754                   22372333.9654
        46.2504         36.5004
  -9855032.33647  -6354906.29745  22172062.4224                   22172058.2734
        45.5004         34.0004
  27532963.93047  21531504.56646  23797895.2344                   23797893.0594
        42.2504         36.0004
  37721103.27746  30258634.98043  24300789.3284                   24300785.3914
        40.7504         22.5004
 25  7 15 21 53  0.0000000  0  9G08G10G23G27G32G02G28G31G01
   1954141.77346   1591323.06646  23382048.3914                   23382047.1724
        41.2504         36.7504
   2554244.95348   2048285.10948  21582161.8284                   21582158.6174
        49.7504         49.0004
  13084240.21545  10241102.64143  23997725.1094                   23997723.0004
        35.2504         20.2504
  13079677.05946  10244453.94545  24026534.3204                   24026533.6684
        37.7504         34.2504
  -1865689.49248  -1384167.99248  20843118.1414                   20843114.4654
        50.0004         52.2504
 -14283541.89147 -10995920.75046  22310139.1724                   22310132.0204
        47.0004         36.5004
 -10197724.02347  -6621938.72745  22106850.8134                   22106846.3554
        46.0004         34.0004
  27156763.55147  21238361.56345  23726307.1564                   23726304.1454
        42.5004         35.5004
  37356169.51246  29974271.07444  24231343.4144                   24231340.9104
        39.7504         24.5004
 25  7 15 21 53 30.0000000  0  9G08G10G23G27G32G02G28G31G01
   1746238.59846   1429320.52746  23342486.5164                   23342485.0904
        39.7504         36.0004
   2317774.65248   1864022.52748  21537163.0394                   21537160.0664
        49.2504         49.2504
  12892330.59446  10091562.57443  23961206.7504                   23961203.8984
        37.0004         20.7504
  12905439.08646  10108683.98845  23993377.7114                   23993377.1844
        37.7504         34.7504
  -2096446.01248  -1563978.27748  20799206.4614                   20799202.9064
        50.7504         52.2504
 -14610087.51647 -11250371.87145  22248000.3284                   22247992.6724
        47.2504         35.7504
 -10540058.39847  -6888692.72745  22041706.2734                   22041702.0664
        46.0004         35.0004
  26780614.42647  20945258.49646  23654728.2114                   23654725.4884
        42.2504         36.0004
  36991325.06346  29689976.74643  24161916.5164                   24161913.2114
        40.7504         23.5004
 25  7 15 21 54  0.0000000  0  9G08G10G23G27G32G02G28G31G01
   1538652.75846   1267565.27045  23302983.8524                   23302982.5474
        40.2504         35.5004
   2081479.78548   1679896.63748  21492197.9304                   21492194.8594
        49.5004         49.0004
  12700525.12946   9942103.64843  23924707.6644                   23924704.7584
        38.5004         22.5004
  12731256.52746   9972957.22745  23960232.3364                   23960231.2424
        38.2504         34.2504
  -2326885.46548  -1743541.48848  20755355.5394                   20755352.0904
        51.0004         52.5004
 -14936305.88347 -11504567.98446  22185922.6334                   22185915.5554
        47.0004         36.5004
 -10882035.36747  -7155168.23845  21976630.0944                   21976625.8324
        46.2504         34.2504
  26404516.94146  20652195.67645  23583158.6954                   23583156.7664
        41.7504         35.0004
  36626569.48046  29405751.68443  24092506.0474                   24092502.4104
        40.5004         22.0004
 25  7 15 21 54 30.0000000  0  9G08G10G23G27G32G02G28G31G01
   1331380.17646   1106054.10545  23263541.2114                   23263539.6764
        39.2504         35.5004
   1845359.43848   1495906.74248  21447265.7974                   21447262.2384
        49.7504         49.0004
  12508822.57446   9792724.96543  23888228.3594                   23888225.0474
        39.7504         22.0004
  12557125.03546   9837270.24245  23927096.4534                   23927095.8484
        37.7504         34.7504
  -2557010.97748  -1922860.07448  20711563.8204                   20711559.9774
        51.0004         52.0004
 -15262196.05547 -11758508.37146  22123907.9694                   22123900.2774
        47.0004         36.0004
 -11223653.48047  -7421364.11745  21911622.3914                   21911617.7854
        46.2504         34.7504
  26028472.95347  20359174.55545  23511600.5474                   23511597.4844
        42.0004         35.5004
  36261903.66046  29121596.55544  24023112.7894                   24023109.2774
        41.2504         25.2504
 25  7 15 21 55  0.0000000  0  9G08G10G23G27G32G02G28G31G01
   1124420.48046    944786.73045  23224158.6334                   23224156.8054
        39.7504         35.5004
   1609416.56648   1312055.14148  21402367.2664                   21402364.1954
        49.2504         49.0004
  12317225.47346   9643428.44143  23851768.5944                   23851765.2384
        40.0004         22.5004
  12383043.84046   9701622.46945  23893969.4774                   23893968.9454
        39.0004         34.5004
  -2786821.94148  -2101933.55948  20667832.7034                   20667828.8364
        50.7504         52.2504
 -15587753.94947 -12012189.83246  22061956.0944                   22061948.8054
        46.0004         37.2504
 -11564907.66847  -7687276.42645  21846683.9064                   21846679.3404
        46.5004         35.0004
  25652487.80547  20066199.27345  23440052.8674                   23440049.4414
        42.2504         34.7504
  35897332.15246  28837514.92644  23953736.9774                   23953733.5904
        41.2504         24.5004
 25  7 15 21 55 30.0000000  0  9G08G10G23G27G32G02G28G31G01
   2493199.22746   2011367.50046  23484629.0474                   23484627.2344
        40.0004         36.0004
   2949080.93448   2355949.43048  21657296.8054                   21657293.7424
        49.0004         49.0004
  13701161.75046  10721820.28143  24115122.3754                   24115119.4774
        39.0004         22.0004
  13784437.22346  10793617.22345  24160646.2734                   24160645.5044
        39.5004         34.7504
  -1440891.07448  -1053156.26248  20923954.5004                   20923951.2664
        50.2504         52.0004
 -14337545.14547 -11038001.13746  22299863.0784                   22299855.7304
        46.5004         36.7504
 -10330362.37547  -6725293.03145  22081609.9534                   22081606.0124
        46.5004         34.7504
  26851998.25846  21000882.89845  23668311.1564                   23668308.9224
        40.2504         34.0004
  37108290.81646  29781119.16044  24184174.1884                   24184171.3244
        41.5004         24.7504
 25  7 15 21 56  0.0000000  0  9G08G10G23G27G32G02G28G31G01
   2286858.30946   1850582.32046  23445363.5634                   23445361.4024
        40.7504         36.5004
   2713495.71548   2172376.52048  21612466.3754                   21612463.6024
        49.0004         49.0004
  13509776.92246  10572689.16043  24078703.0474                   24078700.0864
        38.7504         21.0004
  13610448.89546  10658041.81645  24127537.5554                   24127536.7464
        39.7504         35.2504
  -1670077.04348  -1231742.74248  20880341.9844                   20880338.5164
        51.0004         52.2504
 -14662430.81247 -11291158.78946  22238039.3594                   22238031.9534
        46.7504         36.5004
 -10670879.20747  -6990630.77345  22016811.5084                   22016807.3484
        45.7504         34.0004
  26476140.93046  20708007.21545  23596787.1884                   23596784.6844
        40.0004         34.5004
  36743915.96546  29497190.75844  24114836.1954                   24114832.5664
        41.5004         24.7504
 25  7 15 21 56 30.0000000  0  9G08G10G23G27G32G02G28G31G01
   2080822.50846   1690034.87945  23406156.1024                   23406154.3714
        39.7504         35.2504
   2478090.08648   1988943.54748  21567670.2814                   21567666.7664
        49.7504         49.0004
  13318498.20746  10423640.75443  24042303.9774                   24042301.3054
        40.0004         21.0004
  13436502.31646  10522498.93045  24094436.3444                   24094436.1134
        39.5004         35.2504
  -1898953.29748  -1410087.88748  20836788.3524                   20836784.2974
        51.5004         52.2504
 -14986977.55947 -11544052.34046  22176280.0944                   22176272.6094
        46.5004         36.7504
 -11011023.43447  -7255678.17245  21952084.3524                   21952079.4844
        46.0004         35.0004
  26100352.03146  20415184.84445  23525277.0944                   23525274.0784
        41.0004         34.5004
  36379642.72346  29213341.53144  24045516.9384                   24045513.9384
        41.0004         26.2504
 25  7 15 21 57  0.0000000  0  9G08G10G23G27G32G02G28G31G01
   1875090.36746   1529724.06346  23367006.0474                   23367004.7344
        41.0004         36.5004
   2242865.78948   1805651.87548  21522908.6724                   21522905.5004
        49.0004         48.7504
  13127327.02346  10274676.07443  24005925.2584                   24005922.5864
        40.0004         20.2504
  13262595.57446  10386987.06545  24061343.5944                   24061343.4224
        38.0004         35.0004
  -2127520.36748  -1588192.09848  20793293.4144                   20793289.6254
        51.2504         52.0004
 -15311181.80947 -11796679.01246  22114585.6484                   22114578.6374
        45.7504         36.0004
 -11350791.03947  -7520432.09845  21887428.6724                   21887424.5204
        46.2504         35.5004
  25724635.67646  20122418.99245  23453780.7974                   23453778.0944
        39.5004         34.0004
  36015474.56346  28929574.20344  23976218.2814                   23976214.3054
        41.2504         25.5004
 25  7 15 21 57 30.0000000  0  9G08G10G23G27G32G02G28G31G01
   1669659.43846   1369647.95346  23327913.8284                   23327913.5594
        40.0004         36.0004
   2007823.72748   1622502.19548  21478181.5474                   21478178.4694
        48.5004         48.7504
  12936263.70746  10125795.49643  23969567.2814                   23969564.8714
        40.0004         22.0004
  13088726.30546  10251504.41845  24028256.9774                   24028256.3094
        38.7504         34.0004
  -2355779.60948  -1766056.45748  20749857.1884                   20749853.5084
        50.7504         52.0004
 -15635041.46147 -12049037.17246  22052957.8984                   22052950.4104
        46.2504         36.0004
 -11690178.90247  -7784890.12945  21822845.4384                   21822840.9144
        46.2504         34.5004
  25348995.08646  19829712.18045  23382298.6094                   23382295.7154
        39.7504         33.0004
  35651414.11746  28645890.82444  23906940.3834                   23906936.5704
        41.2504         25.7504
 25  7 15 21 58  0.0000000  0  9G08G10G23G27G32G02G28G31G01
   3039954.37546   2437410.17246  23588672.9144                   23588671.3984
        40.7504         36.7504
   3348392.87548   2667101.52048  21733283.6884                   21733280.3914
        48.7504         48.5004
  14320735.20346  11204604.38343  24233023.9224                   24233020.4454
        41.0004         20.5004
  14490317.69146  11343653.43845  24294971.6564                   24294970.4064
        39.5004         34.5004
  -1008304.64548   -716075.97348  21006273.2734                   21006269.3134
        51.0004         52.0004
 -14383123.27347 -11073516.49646  22291189.6884                   22291182.0474
        45.7504         36.0004
 -10453752.53147  -6821440.95745  22058129.3364                   22058124.8674
        46.2504         34.5004
  26548866.57046  20764677.11745  23610626.8524                   23610623.2344
        40.5004         33.5004
  36862896.37947  29589903.03943  24137477.0944                   24137473.6414
        42.0004         23.7504
 25  7 15 21 58 30.0000000  0  9G08G10G23G27G32G02G28G31G01
   2835116.45746   2277796.16045  23549692.7734                   23549692.1214
        39.2504         35.5004
   3113715.84448   2484236.28548  21688625.8914                   21688622.7274
        48.7504         48.5004
  14129886.70346  11055891.20343  24196707.0084                   24196703.8444
        40.7504         20.0004
  14316512.84846  11208221.00445  24261896.4614                   24261896.9454
        38.5004         32.5004
  -1235954.75848   -893465.67648  20962952.5634                   20962949.1254
        51.0004         52.0004
 -14706288.85547 -11325333.81646  22229693.2274                   22229686.0124
        46.0004         36.0004
 -10792374.11747  -7085301.89145  21993692.0394                   21993687.5514
        46.2504         35.2504
  26173385.96946  20472094.96545  23539176.0314                   23539171.8794
        41.5004         34.7504
  36499057.09846  29306391.98844  24068240.3524                   24068237.2504
        40.2504         24.2504
 25  7 15 21 59  0.0000000  0  9G08G10G23G27G32G02G28G31G01
   2630571.98046   2118410.75846  23510770.2194                   23510768.6604
        41.5004         36.5004
   2879223.17248   2301514.70748  21644003.4614                   21644000.2894
        49.2504         48.5004
  13939146.76646  10907262.60243  24160410.2034                   24160407.3594
        41.2504         21.0004
  14142736.94146  11072811.09845  24228828.6724                   24228828.3714
        38.7504         32.0004
  -1463301.87148  -1070619.28548  20919689.9924                   20919685.9924
        51.2504         52.0004
 -15029103.31247 -11576877.53546  22168263.4144                   22168256.5204
        45.5004         36.2504
 -11130607.39847  -7348860.24645  21929328.2274                   21929323.6174
        46.5004         35.5004
  25797990.87546  20179579.44145  23467739.7114                   23467736.7114
        41.0004         34.5004
  36135332.86746  29022970.58644  23999025.7274                   23999022.9694
        40.7504         25.2504
 25  7 15 21 59 30.0000000  0  9G08G10G23G27G32G02G28G31G01
   2426314.77746   1959249.25845  23471900.9844                   23471899.6724
        40.0004         35.7504
   2644912.18048   2118934.70748  21599415.4844                   21599412.4064
        48.5004         48.5004
  13748512.19546  10758716.14543  24124133.6644                   24124130.9304
        41.5004         21.2504
  13968983.58646  10937418.78945  24195764.5474                   24195763.8754
        37.7504         31.7504
  -1690351.04748  -1247540.72748  20876483.9614                   20876480.6524
        51.0004         52.0004
 -15351567.83647 -11828148.57446  22106900.7974                   22106893.6294
        46.0004         36.5004
 -11468453.02347  -7612116.52345  21865038.3134                   21865033.8484
        47.0004         35.2504
  25422680.84046  19887130.19145  23396319.7814                   23396316.7624
        41.2504         33.5004
  35771722.81346  28739638.15644  23929833.6564                   23929830.2034
        41.5004         24.5004
 25  7 15 22  0  0.0000000  0  9G08G10G23G27G32G02G28G31G01
   2222344.50846   1800311.32445  23433086.8134                   23433085.3134
        40.2504         35.5004
   2410785.80947   1936498.55948  21554862.7194                   21554859.9264
        47.7504         48.2504
  13557985.48046  10610253.74643  24087877.3834                   24087874.4304
        41.5004         20.7504
  13795252.18046  10802043.54745  24162705.7114                   24162704.2624
        39.0004         31.7504
  -1917101.64848  -1424229.51248  20833334.9534                   20833331.2934
        51.5004         52.0004
 -15673678.11347 -12079143.58646  22045604.7974                   22045597.6804
        45.0004         36.2504
 -11805905.93447  -7875066.79745  21800822.8444                   21800818.4104
        46.5004         34.5004
  25047461.47747  19594751.60545  23324919.6724                   23324914.8984
        43.0004         35.0004
  35408231.53946  28456398.27344  23860663.5554                   23860659.8954
        41.5004         26.0004
 25  7 15 22  0 30.0000000  0  9G08G10G23G27G32G02G28G31G01
   2018659.93846   1641596.00446  23394326.8364                   23394325.7074
        41.2504         36.2504
   2176846.20348   1754207.94148  21510345.7974                   21510342.5314
        48.7504         48.2504
  13367568.23047  10461876.60943  24051642.9064                   24051639.3594
        42.0004         21.5004
  13621541.36346  10666684.37545  24129648.6414                   24129648.6294
        38.5004         30.0004
  -2143553.90248  -1600685.82448  20790242.4304                   20790238.9494
        51.5004         52.0004
 -15995430.40647 -12329859.64846  21984377.6024                   21984370.5004
        45.7504         36.7504
 -12142961.92247  -8137707.77745  21736683.3444                   21736678.9734
        46.2504         35.0004
  24672337.45747  19302447.29345  23253534.7114                   23253531.0634
        42.5004         34.5004
  35044862.96946  28173254.02344  23791516.9844                   23791513.2074
        41.2504         24.5004
 25  7 15 22  1  0.0000000  0  9G08G10G23G27G32G02G28G31G01
   3390682.79746   2710704.64846  23655414.0474                   23655413.4064
        41.5004         36.0004
   3518519.42648   2799667.59048  21765657.5704                   21765654.3364
        48.5004         48.2504
  14752684.59446  11541188.00443  24315221.6644                   24315218.4804
        41.5004         20.7504
  15023271.69546  11758941.67645  24396389.0164                   24396388.9454
        39.0004         31.5004
   -794284.32848   -549306.94548  21046999.9844                   21046996.3984
        50.7504         52.0004
 -14741394.61347 -11352688.89146  22223012.9224                   22223005.3014
        45.5004         36.0004
 -10904189.31247  -7172430.37545  21972414.1644                   21972409.5704
        46.7504         35.5004
  25872742.03947  20237827.60946  23481963.8984                   23481960.6684
        42.7504         36.2504
  36257049.30947  29117814.85944  24022187.8284                   24022184.2074
        42.2504         26.7504
 25  7 15 22  1 30.0000000  0  9G08G10G23G27G32G02G28G31G01
   3187555.89146   2552423.88346  23616759.7504                   23616759.2894
        40.5004         36.0004
   3284949.66848   2617665.16448  21721210.6804                   21721207.5744
        48.7504         48.0004
  14562481.09846  11392977.43843  24279026.5864                   24279024.3014
        41.5004         22.5004
  14849587.84046  11623603.50845  24363337.5864                   24363337.7974
        38.5004         31.0004
  -1020150.54748   -725306.60248  21004018.7274                   21004015.3014
        50.7504         51.7504
 -15062430.77347 -11602846.92646  22161921.5704                   22161914.1644
        46.0004         36.0004
 -11240448.81247  -7434450.72346  21908425.8204                   21908421.5274
        47.0004         36.0004
  25497812.50447  19945674.84846  23410617.6334                   23410614.0984
        42.5004         36.2504
  35893927.82047  28834863.12544  23953088.1954                   23953084.7664
        42.2504         26.0004
 25  7 15 22  2  0.0000000  0  9G08G10G23G27G32G02G28G31G01
   2984702.51646   2394356.24646  23578158.6334                   23578157.6294
        40.5004         36.0004
   3051564.62148   2435806.66448  21676798.8134                   21676795.7344
        48.0004         48.0004
  14372383.56346  11244849.42643  24242852.8834                   24242850.0234
        41.5004         22.2504
  14675911.99246  11488271.55545  24330289.6414                   24330288.4964
        39.5004         31.7504
  -1245727.46548   -901080.83648  20961092.9844                   20961089.5664
        50.7504         52.0004
 -15383106.78947 -11852724.32846  22100899.0944                   22100891.8444
        45.5004         36.0004
 -11576307.18747  -7696158.50445  21844514.4694                   21844509.8404
        46.7504         35.5004
  25122983.81647  19653600.68046  23339289.2814                   23339285.8524
        43.2504         36.2504
  35530932.30947  28552009.53144  23884012.3444                   23884008.7894
        42.0004         26.0004
 25  7 15 22  2 30.0000000  0  9G08G10G23G27G32G02G28G31G01
   2782123.39846   2236502.31646  23539608.7894                   23539608.6524
        39.5004         36.0004
   2818368.43048   2254095.33248  21632423.2664                   21632419.8984
        48.5004         48.0004
  14182395.49246  11096806.71543  24206699.4454                   24206696.4304
        40.7504         21.2504
  14502244.66046  11352946.26245  24297241.4144                   24297240.8404
        39.5004         32.5004
  -1471013.26648  -1076628.21948  20918222.7274                   20918218.9494
        51.0004         51.5004
 -15703417.43747 -12102317.03146  22039946.0234                   22039938.3524
        45.5004         36.5004
 -11911758.35247  -7957548.96945  21780679.8984                   21780675.4804
        46.7504         35.2504
  24748262.84447  19361610.43446  23267982.7584                   23267978.7154
        43.2504         37.2504
  35168068.68446  28269258.71944  23814961.6024                   23814957.8484
        41.0004         27.5004
 25  7 15 22  3  0.0000000  0  9G08G10G23G27G32G02G28G31G01
   2579811.95346   2078856.98045  23501110.4534                   23501110.0664
        39.0004         35.2504
   2585357.89548   2072528.66448  21588082.7274                   21588079.9844
        48.0004         48.0004
  13992513.21946  10948846.46143  24170565.8914                   24170562.6604
        41.5004         20.5004
  14328579.21946  11217622.43445  24264193.9454                   24264193.6374
        39.5004         33.0004
  -1696013.54348  -1251953.11748  20875406.3204                   20875402.8284
        51.5004         51.7504
 -16023364.32447 -12351626.28146  21979062.1024                   21979054.7664
        46.0004         36.5004
 -12246803.39547  -8218622.98845  21716922.8834                   21716918.5044
        46.2504         35.7504
  24373648.57847  19069703.33645  23196696.0554                   23196691.5314
        42.7504         35.5004
  34805335.57846  27986609.58644  23745935.8364                   23745932.1524
        41.0004         25.0004
 25  7 15 22  3 30.0000000  0  9G08G10G23G27G32G02G28G31G01
   2377769.10246   1921420.92645  23462663.3914                   23462662.9454
        39.7504         35.7504
   2352537.34847   1891110.04348  21543778.5554                   21543775.4064
        47.7504         48.0004
  13802740.55546  10800971.57843  24134453.5004                   24134450.5904
        40.5004         20.7504
  14154916.47746  11082300.69945  24231147.5234                   24231147.0944
        40.5004         34.0004
  -1920726.31648  -1427053.99248  20832644.9694                   20832641.3634
        50.5004         51.7504
 -16342941.60547 -12600647.52746  21918248.5784                   21918241.3094
        45.7504         36.7504
 -12581435.97347  -8479375.60946  21653244.8834                   21653240.1994
        47.5004         36.0004
  23999147.65647  18777884.55545  23125430.1414                   23125426.6094
        42.5004         35.7504
  34442739.03947  27704066.89844  23676936.8054                   23676932.2854
        42.0004         26.7504
 25  7 15 22  4  0.0000000  0  9G08G10G23G27G32G02G28G31G01
   3751419.56646   2991797.84445  23724060.5164                   23724059.8284
        39.7504         35.5004
   3695335.91448   2937446.57448  21799304.9384                   21799301.8404
        48.5004         48.0004
  15188504.75846  11880787.79343  24398155.4224                   24398153.1094
        40.5004         21.7504
  15556680.16046  12174583.96945  24497893.8364                   24497893.3954
        39.7504         33.5004
   -569725.00448   -374325.71148  21089732.1094                   21089728.7734
        51.7504         51.7504
 -15086715.94147 -11621770.37946  22157300.4844                   22157292.9614
        46.5004         36.7504
 -11340221.60547  -7512195.54345  21889439.5314                   21889434.9104
        47.0004         35.2504
  25200196.50447  19713766.89146  23353982.6954                   23353978.9884
        43.5004         36.5004
  35655714.44947  28649242.59844  23907757.8914                   23907753.9144
        42.5004         25.7504
 25  7 15 22  4 30.0000000  0  9G08G10G23G27G32G02G28G31G01
   3549906.01646   2834774.22345  23685714.0314                   23685712.9144
        40.0004         35.2504
   3462897.67647   2756325.85548  21755073.0084                   21755070.0664
        47.7504         48.0004
  14998952.14146  11733084.36343  24362084.9774                   24362081.8984
        39.7504         20.5004
  15383014.75846  12039260.19145  24464847.5634                   24464846.5864
        40.2504         34.5004
   -793867.35948   -548982.10248  21047079.3284                   21047075.7704
        51.0004         51.7504
 -15405547.80147 -11870210.77746  22096628.6954                   22096621.2774
        46.2504         36.0004
 -11674020.95747  -7772298.88745  21825919.5554                   21825915.1994
        47.0004         35.0004
  24825932.28547  19422132.55946  23282762.1094                   23282758.4104
        43.0004         36.7504
  35293398.95347  28366918.89844  23838811.3914                   23838807.1994
        42.5004         26.5004
 25  7 15 22  5  0.0000000  0  9G08G10G23G27G32G02G28G31G01
   3348651.83646   2677952.69945  23647417.1174                   23647415.3714
        41.0004         35.2504
   3230650.49247   2575354.00448  21710878.0004                   21710874.7664
        47.7504         48.0004
  14809508.61546  11585465.97543  24326034.6954                   24326032.3914
        38.2504         21.5004
  15209342.59446  11903931.11745  24431798.4454                   24431797.9494
        39.5004         34.7504
  -1017728.21148   -723419.14148  21004480.1174                   21004476.5984
        51.7504         51.7504
 -15724005.12947 -12118359.34046  22036028.6334                   22036020.7624
        47.0004         36.2504
 -12007400.86347  -8032075.39545  21762479.8364                   21762474.9844
        46.5004         35.5004
  24451790.36347  19130593.52746  23211564.7974                   23211560.7504
        42.5004         36.5004
  34931226.54747  28084706.66444  23769892.2344                   23769888.2814
        42.2504         26.7504
 25  7 15 22  5 30.0000000  0  9G08G10G23G27G32G02G28G31G01
   3147655.58646   2521332.19145  23609168.0394                   23609167.2704
        39.5004         35.5004
   2998596.27348   2394532.52348  21666719.5554                   21666716.3094
        49.0004         48.0004
  14620175.52046  11437933.62143  24290005.8984                   24290003.5634
        38.5004         22.0004
  15035662.18446  11768595.62145  24398747.6954                   24398747.8284
        39.7504         34.5004
  -1241307.89548   -897637.09048  20961934.2584                   20961930.5354
        51.5004         52.0004
 -16042084.56647 -12366213.43746  21975499.3594                   21975492.4804
        46.5004         37.0004
 -12340357.42647  -8291522.02746  21699120.2584                   21699114.9964
        47.0004         36.0004
  24077775.21147  18839153.27346  23140391.8674                   23140388.9184
        42.5004         36.5004
  34569200.99247  27802608.88744  23701000.1884                   23700996.8834
        42.0004         25.2504
 25  7 15 22  6  0.0000000  0  9G08G10G23G27G32G02G28G31G01
   2946910.55146   2364907.39845  23570967.9144                   23570966.4534
        40.0004         34.7504
   2766731.82048   2213858.90248  21622596.9844                   21622593.9804
        48.7504         48.0004
  14430949.17246  11290484.45743  24253998.2424                   24253995.1994
        38.2504         21.5004
  14861966.81646  11633248.46945  24365695.2814                   24365694.5274
        40.0004         34.7504
  -1464612.04348  -1071640.33248  20919440.6254                   20919437.1054
        51.2504         51.7504
 -16359787.85947 -12613774.43046  21915043.0474                   21915035.2194
        46.5004         36.5004
 -12672891.89847  -8550639.75845  21635840.5784                   21635835.8524
        46.5004         35.5004
  23703885.98047  18547811.13746  23069242.9534                   23069240.3094
        42.7504         36.0004
  34207320.87147  27520624.41844  23632137.2194                   23632133.6994
        42.5004         27.2504
 25  7 15 22  6 30.0000000  0  9G08G10G23G27G32G02G28G31G01
   2746417.46946   2208678.96145  23532814.8364                   23532813.6954
        40.0004         33.7504
   2535061.27747   2033336.38348  21578512.0704                   21578508.8914
        47.0004         48.0004
  14241833.17646  11143121.24243  24218009.3984                   24218007.3754
        37.5004         20.2504
  14688257.12146  11497890.14545  24332638.8674                   24332639.0234
        39.2504         35.2504
  -1687638.85548  -1245427.47748  20877000.2974                   20876996.7424
        51.0004         51.7504
 -16677109.57447 -12861038.10246  21854658.6174                   21854651.1454
        47.0004         37.0004
 -13004998.19947  -8809423.84046  21572642.9774                   21572638.3054
        46.7504         36.2504
  23330129.20347  18256572.20746  22998119.7424                   22998116.0514
        42.5004         36.7504
  33845592.13747  27238757.91843  23563303.3914                   23563298.7544
        42.0004         23.5004
 25  7 15 22  7  0.0000000  0  9G08G10G23G27G32G02G28G31G01
   4121601.19546   3280250.66045  23794503.5314                   23794503.2774
        39.5004         34.0004
   3879013.96148   3080572.21947  21834257.5004                   21834254.6054
        48.5004         47.7504
  15628254.82046  12223449.73443  24481837.8134                   24481834.6524
        37.7504         20.5004
  16089957.15646  12590123.82445  24599374.2344                   24599373.8484
        38.5004         34.5004
   -334961.62148   -191393.27748  21134406.3054                   21134402.6254
        51.0004         51.5004
 -15418616.46147 -11880394.11346  22094141.7584                   22094134.1214
        47.2504         37.0004
 -11761241.75847  -7840262.92646  21809321.9064                   21809317.3204
        47.0004         36.0004
  24531941.41047  19193049.37146  23226816.4064                   23226813.2034
        42.5004         36.7504
  35059450.41447  28184621.55144  23794292.3364                   23794287.8524
        42.0004         26.2504
 25  7 15 22  7 30.0000000  0  9G08G10G23G27G32G02G28G31G01
   3921605.32846   3124409.62545  23756446.5704                   23756445.0204
        40.2504         33.5004
   3647734.88348   2900354.74248  21790246.7504                   21790243.4024
        48.7504         48.0004
  15439361.39146  12076259.93443  24445891.9304                   24445889.3324
        37.7504         19.2504
  15916212.19946  12454738.02745  24566311.2734                   24566311.5164
        37.7504         33.2504
   -557437.16448   -364750.86348  21092070.4064                   21092067.3874
        50.7504         51.5004
 -15735167.77347 -12127057.46146  22033903.9384                   22033896.7584
        47.2504         36.7504
 -12092482.35247  -8098372.44546  21746289.1174                   21746284.3874
        46.7504         36.0004
  24158461.14547  18902025.90646  23155746.4304                   23155742.6764
        42.5004         37.2504
  34698033.74246  27902998.21944  23725515.6094                   23725512.5904
        41.0004         26.0004
 25  7 15 22  8  0.0000000  0  9G08G10G23G27G32G02G28G31G01
   3721851.29746   2968757.07845  23718433.3834                   23718433.0354
        39.0004         33.2504
   3416650.03548   2720288.60947  21746272.3054                   21746269.6484
        48.2504         47.7504
  15250576.91445  11929155.10943  24409967.8134                   24409965.5164
        35.0004         19.5004
  15742442.86346  12319333.22345  24533244.5554                   24533244.1564
        38.0004         33.0004
   -779642.09448   -537897.57448  21049786.1804                   21049782.4964
        51.0004         51.5004
 -16051333.45347 -12373420.32046  21973739.8834                   21973732.5004
        46.5004         37.0004
 -12423288.76247  -8356143.63346  21683338.4454                   21683333.6484
        46.7504         36.0004
  23785121.08647  18611111.68046  23084701.3524                   23084697.8284
        42.0004         37.0004
  34336774.33646  27621497.44944  23656771.9064                   23656767.4264
        41.0004         24.5004
 25  7 15 22  8 30.0000000  0  9G08G10G23G27G32G02G28G31G01
   3522338.34446   2813292.35545  23680468.9924                   23680467.6604
        39.7504         33.0004
   3185761.97748   2540375.82047  21702336.0314                   21702332.8794
        48.7504         47.7504
  15061903.46946  11782136.76643  24374064.6414                   24374061.9534
        36.5004         20.7504
  15568648.35546  12183908.80945  24500172.2734                   24500172.6914
        37.5004         33.0004
  -1001576.17648   -710833.23848  21007553.7814                   21007549.8594
        51.0004         51.5004
 -16367109.45347 -12619479.53946  21913649.3834                   21913641.8754
        46.5004         37.0004
 -12753656.57047  -8613573.05546  21620471.6254                   21620467.0204
        46.7504         36.0004
  23411927.12547  18320311.31346  23013684.9064                   23013681.2624
        42.5004         37.5004
  33975676.58246  27340122.61344  23588056.8284                   23588052.7664
        41.0004         25.0004
 25  7 15 22  9  0.0000000  0  9G08G10G23G27G32G02G28G31G01
   3323062.63746   2658012.49645  23642547.7504                   23642546.4494
        40.2504         32.0004
   2955070.47748   2360616.18847  21658437.1254                   21658434.1484
        48.5004         47.7504
  14873340.15645  11635204.23443  24338182.1884                   24338179.4734
        35.0004         20.2504
  15394824.86345  12048461.78945  24467094.6564                   24467095.0204
        35.7504         31.0004
  -1223242.03148   -883559.89148  20965372.0704                   20965368.6454
        50.0004         51.2504
 -16682494.78947 -12865234.34446  21853633.5784                   21853626.6254
        46.5004         38.0004
 -13083584.13347  -8870659.43446  21557688.5944                   21557683.6094
        47.0004         36.7504
  23038880.63347  18029625.83246  22942696.5234                   22942692.7934
        43.0004         37.2504
  33614742.06646  27058875.00044  23519372.7274                   23519369.1024
        41.0004         26.0004
 25  7 15 22  9 30.0000000  0  9G08G10G23G27G32G02G28G31G01
   3124023.64846   2502917.14545  23604670.9144                   23604670.2384
        38.0004         31.5004
   2724578.42248   2181011.96547  21614575.8284                   21614572.4414
        49.0004         47.7504
  14684889.35946  11488359.38343  24302321.6884                   24302318.5124
        36.2504         21.5004
  15220971.93446  11912991.82845  24434012.1174                   24434011.6454
        36.0004         30.7504
  -1444639.14548  -1056077.13748  20923241.7894                   20923237.9804
        50.7504         51.5004
 -16997485.43447 -13110681.59446  21793692.9614                   21793685.4654
        47.2504         37.5004
 -13413066.76247  -9127399.10545  21494989.8204                   21494984.9534
        46.7504         35.7504
  22665987.55547  17739059.89846  22871737.6884                   22871733.4654
        42.5004         37.5004
  33253975.59846  26777758.30544  23450721.8134                   23450717.8404
        41.5004         27.5004
 25  7 15 22 10  0.0000000  0  9G08G10G23G27G32G02G28G31G01
   4500644.46546   3575608.59845  23866633.3204                   23866632.5434
        38.2504         31.0004
   4069713.41047   3229169.08247  21870546.4694                   21870543.6094
        47.5004         47.7504
  16071976.69146  12569206.59443  24566275.4454                   24566272.6954
        37.0004         20.7504
  16622511.76646  13005100.66845  24700716.2734                   24700716.3594
        36.0004         30.0004
    -90342.56648      -781.11348  21180955.4534                   21180952.0434
        50.5004         51.2504
 -15736649.67647 -12128212.16446  22033621.8674                   22033614.3834
        46.5004         37.2504
 -12166671.69947  -8156182.12546  21732170.6414                   21732165.9414
        46.5004         36.5004
  23868682.47747  18676224.87946  23100602.7664                   23100598.9384
        42.0004         37.7504
  34468810.94947  27724383.29744  23681897.1334                   23681893.1134
        42.5004         28.0004
 25  7 15 22 10 30.0000000  0  9G08G10G23G27G32G02G28G31G01
   4302068.10946   3420873.69945  23828845.6334                   23828845.0474
        37.5004         31.2504
   3839619.79348   3049875.33647  21826761.3674                   21826758.4144
        48.7504         47.7504
  15883748.67246  12422535.34443  24530456.6644                   24530454.2894
        37.5004         21.5004
  16448589.24245  12869576.46544  24667619.5784                   24667620.0204
        34.2504         29.5004
   -311209.64148   -172885.34448  21138926.0864                   21138922.3324
        50.2504         51.0004
 -16050847.34447 -12373041.50446  21973831.9384                   21973824.6214
        47.0004         37.0004
 -12495259.33647  -8412224.40646  21669642.6724                   21669638.3444
        46.0004         36.2504
  23496102.90647  18385903.22746  23029702.8524                   23029698.8554
        42.7504         38.0004
  34108385.69947  27443532.51644  23613310.2344                   23613306.5514
        42.5004         28.0004
 25  7 15 22 11  0.0000000  0  9G08G10G23G27G32G02G28G31G01
   4103717.30546   3266314.57445  23791099.9454                   23791099.7664
        36.5004         31.5004
   3609725.04348   2870736.55147  21783013.6024                   21783010.4454
        49.0004         47.7504
  15695630.77346  12275949.87143  24494659.0704                   24494656.7974
        36.2504         22.0004
  16274626.26645  12734020.75444  24634515.7894                   24634516.2304
        35.7504         29.5004
   -531815.65248   -344786.14548  21096946.1954                   21096942.7194
        50.2504         51.0004
 -16364647.00447 -12617560.71546  21914117.9694                   21914110.5824
        47.0004         37.0004
 -12823397.15247  -8667916.18046  21607199.8754                   21607195.7504
        46.5004         36.5004
  23123683.80547  18095706.62146  22958833.6024                   22958829.9264
        43.5004         38.7504
  33748133.48847  27162816.55544  23544756.5864                   23544752.5784
        42.2504         28.0004
 25  7 15 22 11 30.0000000  0  9G08G10G23G27G32G02G28G31G01
   3905585.72746   3111926.23045  23753398.8674                   23753397.4844
        40.5004         32.0004
   3380026.04748   2691750.29747  21739303.3674                   21739300.2774
        48.7504         47.7504
  15507619.46546  12129447.48843  24458881.7194                   24458878.9104
        37.5004         22.0004
  16100616.57446  12598428.64544  24601404.3594                   24601403.2664
        36.2504         29.7504
   -752165.92648   -516487.66848  21055014.9774                   21055011.5394
        50.2504         51.0004
 -16678050.46547 -12861771.20346  21854479.1334                   21854471.7774
        46.5004         37.2504
 -13151086.43447  -8923258.44946  21544842.8524                   21544838.4494
        47.0004         37.0004
  22751424.64147  17805634.64846  22887995.1254                   22887991.2424
        43.0004         38.7504
  33388053.14147  26882234.50844  23476235.4774                   23476231.3244
        43.5004         28.2504
 25  7 15 22 12  0.0000000  0  9G08G10G23G27G32G02G28G31G01
   3707677.73046   2957712.12545  23715737.6484                   23715736.8204
        39.0004         33.0004
   3150530.85248   2512922.85247  21695632.2114                   21695629.0864
        49.2504         47.5004
  15319722.05145  11983033.82843  24423125.9384                   24423123.4964
        34.5004         19.5004
  15926564.64845  12462803.62544  24568281.4774                   24568282.6294
        35.7504         28.5004
   -972254.88748   -687985.57048  21013133.3364                   21013129.6484
        49.7504         51.0004
 -16991048.73047 -13105665.94546  21794917.7504                   21794910.4844
        47.0004         37.0004
 -13478317.42247  -9178243.61346  21482572.9454                   21482568.3094
        46.2504         36.5004
  22379335.84447  17515695.42246  22817188.8754                   22817185.1884
        42.5004         38.7504
  33028154.56347  26601794.09444  23407748.6024                   23407744.8714
        43.2504         29.5004
 25  7 15 22 12 30.0000000  0  9G08G10G23G27G32G02G28G31G01
   3509987.31646   2803667.59445  23678117.7344                   23678117.8444
        38.0004         31.5004
   2921236.88348   2334252.21147  21651998.6414                   21651996.1844
        48.7504         47.5004
  15131935.46146  11836706.50043  24387391.7894                   24387389.6054
        37.2504         21.0004
  15752464.61746  12327141.14544  24535151.2974                   24535152.5274
        36.0004         29.2504
  -1192087.37948   -859283.62948  20971300.5944                   20971297.0084
        50.2504         51.0004
 -17303642.77747 -13349245.71546  21735432.8204                   21735425.5704
        46.5004         37.2504
 -13805090.94547  -9432872.30146  21420389.8984                   21420385.0984
        45.5004         36.5004
  22007417.40647  17225888.94546  22746415.1564                   22746411.2504
        43.5004         39.0004
  32668437.07047  26321494.79344  23339296.8984                   23339292.9184
        42.2504         28.2504
 25  7 15 22 13  0.0000000  0  9G08G10G23G27G32G02G28G31G01
   4887934.41046   3877392.45745  23940334.0784                   23940332.0474
        39.5004         31.5004
   4267568.65648   3383341.88347  21908197.2424                   21908194.4304
        49.0004         47.5004
  16519682.07045  12918067.45343  24651471.5004                   24651468.6414
        34.2504         18.2504
  17153735.65246  13419040.50444  24801804.8594                   24801805.4614
        36.5004         28.5004
    163758.44548    197219.59448  21229309.3444                   21229305.5274
        50.0004         51.0004
 -16040404.32047 -12364904.05146  21975819.0554                   21975812.0474
        46.5004         37.5004
 -12555977.48447  -8459537.11746  21658088.5634                   21658083.9184
        46.0004         37.0004
  23211100.94947  18163824.27346  22975468.1564                   22975464.3204
        43.7504         39.0004
  33884331.37947  27268944.95344  23570674.1484                   23570669.8324
        43.2504         29.0004
 25  7 15 22 13 30.0000000  0  9G08G10G23G27G32G02G28G31G01
   4690667.83246   3723678.19145  23902794.2814                   23902793.8444
        38.2504         31.5004
   4038676.38348   3204984.25047  21864640.5474                   21864637.3674
        49.0004         47.5004
  16332114.49646  12771910.79343  24615779.0164                   24615776.1954
        37.2504         20.2504
  16979528.34446  13283294.42244  24768653.8834                   24768654.5354
        37.5004         27.2504
    -55568.94148     26315.12548  21187572.8444                   21187569.1954
        49.7504         51.0004
 -16352187.46147 -12607851.94546  21916488.9844                   21916481.5274
        46.5004         37.2504
 -12881831.58247  -8713449.37946  21596080.3984                   21596075.8984
        46.0004         36.5004
  22839529.93447  17874288.51246  22904760.7194                   22904756.6844
        43.7504         39.7504
  33524980.89147  26988931.63344  23502292.3204                   23502287.7544
        42.5004         29.0004
 25  7 15 22 14  0.0000000  0  9G08G10G23G27G32G02G28G31G01
   4493612.32046   3570128.35545  23865296.7114                   23865295.3054
        39.0004         31.5004
   3809989.23848   3026786.45347  21821123.2114                   21821119.7734
        49.5004         47.0004
  16144659.85246  12625842.16443  24580106.6954                   24580104.8984
        38.2504         19.2504
  16805266.65646  13147505.96944  24735494.1334                   24735494.0474
        38.5004         28.5004
   -274643.02748   -144391.96948  21145884.2664                   21145880.9184
        50.2504         51.0004
 -16663558.86747 -12850479.00846  21857236.9694                   21857229.4884
        45.5004         36.7504
 -13207219.09447  -8966998.05945  21534161.1414                   21534156.5164
        45.7504         35.7504
  22468140.83647  17584894.50846  22834087.9304                   22834083.4344
        44.0004         39.0004
  33165821.15647  26709066.94944  23433946.1334                   23433942.2274
        43.5004         29.7504
 25  7 15 22 14 30.0000000  0  9G08G10G23G27G32G02G28G31G01
   4296764.64146   3416740.48045  23827837.6484                   23827836.4534
        39.0004         32.2504
   3581507.69148   2848748.86347  21777644.1094                   21777640.8984
        48.7504         47.2504
  15957317.81646  12479861.28543  24544457.2814                   24544454.5274
        38.2504         21.2504
  16630947.66446  13011672.87544  24702322.2194                   24702322.2814
        39.2504         28.7504
   -493465.71148   -314903.16448  21104243.8754                   21104240.3484
        50.5004         51.0004
 -16974517.37547 -13092784.33646  21798063.2194                   21798056.0394
        47.0004         37.5004
 -13532137.93747  -9220181.54746  21472331.1564                   21472326.3794
        46.7504         36.7504
  22096936.77047  17295644.68046  22763449.1884                   22763445.5204
        43.5004         39.0004
  32806854.41447  26429352.64844  23365636.8364                   23365632.6454
        42.7504         29.5004
 25  7 15 22 15  0.0000000  0  9G08G10G23G27G32G02G28G31G01
   4100123.14146   3263513.27045  23790417.6724                   23790417.2854
        38.7504         33.0004
   3353233.44148   2670872.80147  21734205.0634                   21734202.1094
        49.2504         47.5004
  15770089.60246  12333969.10943  24508828.6804                   24508826.1644
        39.2504         21.5004
  16456569.76246  12875793.87944  24669139.9534                   24669138.4304
        39.5004         27.7504
   -712037.55948   -485218.90248  21062651.0704                   21062647.5314
        50.0004         51.0004
 -17285059.62147 -13334765.29346  21738969.0554                   21738961.9694
        46.5004         38.0004
 -13856584.67247  -9472997.16846  21410591.1334                   21410586.3324
        46.5004         36.5004
  21725921.83647  17006542.23446  22692847.6024                   22692843.3094
        42.5004         38.5004
  32448084.36347  26149791.61344  23297364.8984                   23297360.6644
        42.0004         28.5004
 25  7 15 22 15 30.0000000  0  9G08G10G23G27G32G02G28G31G01
   3903683.18846   3110443.08245  23753036.5704                   23753036.4184
        39.5004         33.2504
   3125165.43448   2493157.44547  21690805.3444                   21690802.1294
        48.7504         47.0004
  15582973.61746  12188164.34843  24473221.5634                   24473219.2304
        37.5004         20.5004
  16282128.50446  12739865.53544  24635944.9454                   24635944.0004
        39.0004         29.5004
   -930361.98448   -655341.84448  21021104.9534                   21021102.1374
        50.0004         51.0004
 -17595185.66847 -13576421.94546  21679954.3444                   21679947.0594
        47.0004         38.2504
 -14180558.69947  -9725444.43746  21348940.8674                   21348936.0354
        46.5004         36.7504
  21355097.54347  16717588.33646  22622282.5554                   22622277.8204
        43.2504         38.7504
  32089511.80147  25870384.48044  23229130.3364                   23229126.8914
        42.2504         28.0004
 25  7 15 22 16  0.0000000  0  9G08G10G23G27G32G02G28G31G01
   5282869.61346   4185133.71545  24015486.6644                   24015486.1914
        39.0004         33.5004
   4472733.00448   3543210.07847  21947238.8054                   21947235.6994
        49.2504         47.0004
  16971397.19946  13270052.80943  24737430.2894                   24737427.1214
        38.7504         20.7504
  17683048.09846  13831491.06344  24902531.0634                   24902530.6604
        39.5004         28.0004
    426987.70748    402333.22748  21279400.5394                   21279396.9304
        50.0004         51.0004
 -16329462.48447 -12590144.13746  21920813.5234                   21920806.1374
        46.5004         37.5004
 -12928625.85947  -8749912.32846  21587175.5864                   21587170.7464
        46.7504         36.5004
  22559900.75847  17656396.13346  22851548.3204                   22851544.7114
        42.7504         39.7504
  33306572.41446  26818743.43444  23460729.5394                   23460725.8444
        41.7504         26.7504
 25  7 15 22 16 30.0000000  0  9G08G10G23G27G32G02G28G31G01
   5086826.75046   4032372.96945  23978181.1254                   23978180.8984
        39.5004         33.5004
   4245081.95748   3365819.62947  21903918.2894                   21903915.2464
        48.2504         47.0004
  16784508.15646  13124424.90643  24701865.9384                   24701864.1994
        37.0004         22.5004
  17508474.57446  13695459.59844  24869310.6334                   24869310.4304
        39.7504         29.7504
    209155.61748    232593.92248  21237948.5234                   21237945.1724
        50.5004         50.7504
 -16638748.44147 -12831146.17246  21861958.3524                   21861951.0044
        46.5004         37.2504
 -13251645.11347  -9001615.61746  21525707.2274                   21525702.3634
        46.7504         36.5004
  22189470.14547  17367749.00446  22781057.8054                   22781053.6294
        43.2504         38.7504
  32948405.16846  26539652.11344  23392572.6484                   23392568.1134
        41.7504         27.0004
 25  7 15 22 17  0.0000000  0  9G08G10G23G27G32G02G28G31G01
   4890979.23446   3879764.37145  23940913.9534                   23940912.4264
        39.2504         33.5004
   4017641.34048   3188593.15247  21860638.1094                   21860634.9454
        49.2504         47.0004
  16597733.57846  12978886.12943  24666324.2894                   24666321.8324
        38.5004         22.0004
  17333831.92646  13559374.30544  24836077.7114                   24836077.3444
        39.7504         29.2504
     -8431.80548     63045.27348  21196542.7664                   21196539.1804
        50.7504         50.7504
 -16947610.64147 -13071818.01246  21803183.5004                   21803176.3164
        47.0004         37.5004
 -13574182.57047  -9252943.48446  21464330.4304                   21464325.6724
        46.0004         37.0004
  21819242.16847  17079259.76646  22710606.1644                   22710601.1644
        43.5004         39.5004
  32590445.50446  26260722.55544  23324455.0474                   23324450.6954
        41.0004         25.2504
 25  7 15 22 17 30.0000000  0  9G08G10G23G27G32G02G28G31G01
   4695322.80546   3727304.78145  23903681.0004                   23903680.3554
        40.5004         34.5004
   3790410.70348   3011530.30147  21817397.2114                   21817394.2704
        49.0004         47.0004
  16411072.34846  12833435.77743  24630803.4694                   24630801.3524
        37.0004         20.7504
  17159116.33246  13423232.15245  24802829.9304                   24802830.0554
        40.0004         30.0004
   -225777.40648   -106314.94948  21155183.5234                   21155179.8404
        50.5004         50.5004
 -17256048.53947 -13312159.22746  21744490.1644                   21744482.3524
        47.0004         37.7504
 -13896237.13347  -9503895.06246  21403045.3364                   21403040.9384
        46.2504         36.7504
  21449218.78947  16790929.96146  22640192.9694                   22640188.7194
        43.7504         39.2504
  32232694.79346  25981955.80544  23256376.7974                   23256373.0314
        41.0004         26.2504
 25  7 15 22 18  0.0000000  0  9G08G10G23G27G32G02G28G31G01
   4499851.62946   3574989.49645  23866484.2814                   23866482.9384
        40.7504         34.0004
   3563387.50848   2834629.09047  21774195.9144                   21774192.9304
        49.0004         46.7504
  16224521.48046  12688071.30543  24595305.1414                   24595302.5784
        38.2504         22.0004
  16984321.94946  13287028.60945  24769568.1644                   24769568.4454
        39.5004         30.2504
   -442886.04348   -275490.52348  21113868.8134                   21113865.0744
        51.0004         50.7504
 -17564063.44547 -13552170.84046  21685876.5394                   21685868.8244
        47.2504         37.5004
 -14217809.83647  -9754471.16846  21341851.9384                   21341847.3054
        45.7504         36.7504
  21079400.09847  16502759.63746  22569818.0784                   22569814.6374
        43.0004         39.0004
  31875152.45746  25703351.42643  23188339.5004                   23188335.1804
        41.2504         23.7504
 25  7 15 22 18 30.0000000  0  9G08G10G23G27G32G02G28G31G01
   4304567.00046   3422819.55145  23829324.0004                   23829321.9494
        40.0004         34.2504
   3336576.54748   2657893.25847  21731035.4614                   21731032.4144
        48.5004         46.7504
  16038085.01646  12542796.04743  24559826.9304                   24559824.8554
        39.2504         20.7504
  16809450.34046  13150764.86745  24736291.1024                   24736292.1764
        40.0004         31.0004
   -659755.19148   -444479.49248  21072600.2504                   21072596.5634
        50.7504         50.5004
 -17871649.16447 -13791848.01646  21627344.8674                   21627337.7664
        47.5004         38.2504
 -14538894.19947 -10004666.75046  21280751.4224                   21280746.5944
        46.0004         37.2504
  20709793.68047  16214754.72346  22499485.0634                   22499480.1764
        43.0004         39.2504
  31517825.33647  25424914.73844  23120342.5864                   23120338.3404
        42.0004         26.2504
 25  7 15 22 19  0.0000000  0  9G08G10G23G27G32G02G28G31G01
   5684891.94946   4498397.35945  24091990.3284                   24091989.5314
        41.5004         34.0004
   4685405.57048   3708928.83647  21987708.9614                   21987705.9654
        48.0004         46.7504
  17427188.71546  13625214.42243  24824164.7274                   24824163.1454
        39.7504         20.0004
  18209924.17646  14242043.04745  25002792.7974                   25002793.4104
        39.5004         31.5004
    699040.23448    614322.12948  21331170.3674                   21331166.9494
        50.5004         50.5004
 -16603374.39847 -12803581.96146  21868689.4614                   21868681.8444
        47.5004         38.7504
 -13284057.86347  -9026872.18746  21519539.1484                   21519534.4574
        46.2504         36.7504
  21915834.33247  17154526.75446  22728986.6094                   22728981.6844
        43.0004         39.0004
  32736147.38347  26374256.62544  23352181.2424                   23352176.9144
        43.2504         25.2504
 25  7 15 22 19 30.0000000  0  9G08G10G23G27G32G02G28G31G01
   5489969.98846   4346510.04745  24054897.5864                   24054896.9654
        39.5004         34.5004
   4459019.43848   3532524.03547  21944629.3134                   21944626.0634
        48.0004         46.5004
  17240979.53946  13480116.29343  24788730.2974                   24788727.5554
        40.5004         20.7504
  18034888.52346  14105651.48845  24969484.8284                   24969485.0124
        39.5004         31.2504
    482643.46948    445701.25448  21289991.2584                   21289987.7814
        50.5004         50.2504
 -16910098.88748 -13042588.05546  21810322.3444                   21810314.3444
        48.2504         37.5004
 -13604160.66847  -9276302.91846  21458625.3594                   21458621.0904
        46.2504         36.5004
  21546660.09047  16866858.59846  22658734.8754                   22658730.4734
        43.7504         40.2504
  32379256.72747  26096160.03944  23284267.4064                   23284263.0204
        43.0004         27.7504
 25  7 15 22 20  0.0000000  0  9G08G10G23G27G32G02G28G31G01
   5295228.03946   4194763.00045  24017839.3204                   24017839.2934
        39.5004         34.5004
   4232849.53947   3356287.73447  21901590.2424                   21901587.4804
        47.7504         46.5004
  17054886.78546  13335108.82843  24753318.1094                   24753316.1134
        41.0004         21.2504
  17859769.74246  13969195.14145  24936160.7664                   24936161.5314
        39.0004         31.0004
    266483.27348    277264.72348  21248857.6804                   21248854.1024
        50.7504         50.5004
 -17216387.37947 -13281254.41446  21752036.8444                   21752029.7664
        47.7504         38.0004
 -13923766.60547  -9525346.48046  21397806.4614                   21397801.5394
        46.5004         37.2504
  21177709.62547  16579364.81346  22588526.1484                   22588521.7624
        43.2504         39.7504
  32022591.12147  25818238.82844  23216396.3524                   23216392.0514
        43.0004         28.5004
 25  7 15 22 20 30.0000000  0  9G08G10G23G27G32G02G28G31G01
   5100662.85246   4043153.68845  23980813.7584                   23980814.7504
        39.5004         34.2504
   4006896.26648   3180220.21947  21858593.1564                   21858590.3874
        48.0004         46.5004
  16868910.41046  13190192.09443  24717928.2894                   24717925.7114
        41.2504         19.2504
  17684565.00046  13832671.80145  24902820.6954                   24902821.4924
        37.7504         31.0004
     50557.75048    109011.05148  21207768.2504                   21207764.6414
        50.5004         50.2504
 -17522238.21948 -13519579.74646  21693835.4924                   21693828.5864
        48.0004         38.2504
 -14242873.81247  -9774001.42646  21337082.5704                   21337077.6024
        46.2504         37.2504
  20808986.14847  16292047.89846  22518360.0704                   22518355.6564
        44.5004         39.7504
  31666152.89147  25540494.78944  23148568.0314                   23148563.9614
        43.0004         28.5004
 25  7 15 22 21  0.0000000  0  9G08G10G23G27G32G02G28G31G01
   4906271.54346   3891679.84445  23943823.1254                   23943823.8134
        40.0004         34.2504
   3781160.19548   3004321.96547  21815636.6644                   21815634.1524
        48.0004         46.5004
  16683050.16446  13045365.85543  24682560.6024                   24682558.5044
        39.0004         19.0004
  17509271.64146  13696079.43845  24869462.8914                   24869464.0394
        37.0004         30.0004
   -165134.85948    -59061.12548  21166723.1954                   21166719.6844
        50.2504         50.2504
 -17827649.93047 -13757562.89146  21635717.3984                   21635710.1094
        47.7504         38.0004
 -14561480.21147 -10022266.13346  21276453.7344                   21276448.7424
        45.7504         37.5004
  20440492.35247  16004909.95346  22448238.4534                   22448233.6254
        43.7504         39.7504
  31309944.62147  25262929.93445  23080783.5704                   23080779.5234
        44.5004         30.0004
 25  7 15 22 21 30.0000000  0  9G08G10G23G27G32G02G28G31G01
   4712051.50447   3740339.44945  23906866.2344                   23906864.4344
        42.0004         34.5004
   3555642.22747   2828593.64547  21772722.6024                   21772719.6684
        47.5004         46.5004
  16497306.38346  12900630.35243  24647214.1024                   24647212.3754
        39.0004         18.2504
  17333887.30545  13559416.16044  24836088.0234                   24836089.7194
        35.5004         29.7504
   -380595.91048   -226952.86748  21125722.4224                   21125718.8444
        50.2504         50.2504
 -18132620.53147 -13995202.32446  21577683.3914                   21577676.1024
        47.7504         38.0004
 -14879583.39847 -10270138.72746  21215920.7114                   21215915.9844
        46.0004         37.0004
  20072232.07047  15717953.96946  22378160.5084                   22378155.7194
        44.5004         40.0004
  30953969.19147  24985546.51245  23013043.7114                   23013039.9454
        44.5004         30.0004
 25  7 15 22 22  0.0000000  0  9G08G10G23G27G32G02G28G31G01
   6093420.50446   4816730.79745  24169730.7274                   24169730.2624
        39.7504         34.0004
   4905764.70748   3880637.10947  22029642.0234                   22029639.3404
        48.7504         46.5004
  17887099.31746  13983585.77942  24911682.9844                   24911681.2304
        38.7504         16.2504
  18733829.41845  14650279.98444  25102489.0084                   25102489.9104
        35.5004         29.5004
    979594.26648    832935.57048  21384558.1024                   21384554.6414
        50.0004         50.5004
 -16861723.94148 -13004893.28946  21819527.2344                   21819520.0434
        48.0004         38.0004
 -13621756.60247  -9290013.92246  21455277.2974                   21455272.3364
        46.5004         36.7504
  21279634.73847  16658787.29346  22607921.3444                   22607916.8874
        44.5004         39.7504
  32173655.20347  25935951.22745  23245142.6564                   23245138.0984
        44.0004         30.0004
 25  7 15 22 22 30.0000000  0  9G08G10G23G27G32G02G28G31G01
   5899517.71946   4665637.64545  24132831.4384                   24132831.6644
        38.5004         33.7504
   4680668.32048   3705237.30147  21986807.7504                   21986805.1254
        48.7504         46.5004
  17701571.89146  13839018.95742  24876379.4844                   24876377.3754
        38.5004         14.7504
  18558238.78145  14513455.96944  25069075.2504                   25069075.9064
        35.2504         29.5004
    764574.77348    665387.89848  21343641.3364                   21343637.4534
        50.2504         50.2504
 -17165823.87548 -13241854.27046  21761659.0864                   21761651.6844
        48.0004         38.2504
 -13938863.85247  -9537110.45746  21394933.3204                   21394928.8874
        46.2504         37.2504
  20911834.32847  16372189.64146  22537931.0004                   22537926.3204
        44.0004         40.0004
  31818136.66847  25658923.83245  23177489.2974                   23177485.4694
        44.0004         30.5004
 25  7 15 22 23  0.0000000  0  9G08G10G23G27G32G02G28G31G01
   5705764.18846   4514660.73445  24095963.6334                   24095962.0044
        40.0004         33.5004
   4455778.44548   3529998.41047  21944012.5634                   21944009.6884
        48.2504         46.5004
  17516147.27746  13694532.10542  24841093.5474                   24841092.1844
        36.7504         14.7504
  18382535.97745  14376544.49244  25035640.1484                   25035641.4104
        35.0004         28.5004
    549768.43448    498006.30948  21302765.0474                   21302761.5704
        49.7504         50.2504
 -17469491.33247 -13478478.27046  21703873.3594                   21703865.9224
        47.7504         38.5004
 -14255475.20347  -9783820.57446  21334684.5164                   21334679.8754
        46.2504         37.7504
  20544263.51247  16085770.88746  22467984.7664                   22467979.9964
        44.7504         40.0004
  31462845.40247  25382073.53545  23109879.9924                   23109875.5434
        43.7504         30.2504
 25  7 15 22 23 30.0000000  0 10G08G10G03G23G27G32G02G28G31G01
   5512158.87146   4363799.39845  24059120.1094                   24059120.1604
        37.5004         33.2504
   4231097.78148   3354922.54347  21901257.5004                   21901254.5944
        48.2504         46.5004
  69623266.00454  54343395.04753  24792077.2814                   24792077.2074
        28.5004         21.5004
  17330827.60246  13550127.20742  24805828.7274                   24805827.8134
        37.0004         14.7504
  18206720.32845  14239545.12944  25002184.1644                   25002184.6564
        33.7504         27.5004
    335175.60948    330791.10948  21261929.3134                   21261925.9694
        50.2504         50.0004
 -17772722.53947 -13714762.32446  21646170.3284                   21646162.3674
        47.7504         38.0004
 -14571586.69947 -10030141.19946  21274530.7504                   21274525.9184
        46.5004         37.7504
  20176927.68447  15799535.24646  22398083.2734                   22398078.1994
        44.7504         40.0004
  31107785.93447  25105403.85245  23042313.9064                   23042309.8954
        43.2504         30.7504
 25  7 15 22 24  0.0000000  0  9G08G10G23G27G32G02G28G31G01
   5318700.94146   4213052.85245  24022306.6724                   24022306.1644
        39.7504         32.5004
   4006628.86348   3180011.67247  21858542.4304                   21858539.5704
        48.7504         46.5004
  17145614.648 5                  24770583.758
        34.500
  18030791.39145  14102457.47744  24968705.4064                   24968706.6804
        33.5004         27.0004
    120796.60548    163742.51648  21221134.5554                   21221131.0274
        50.0004         50.2504
 -18075513.99247 -13950703.71946  21588550.8914                   21588543.4144
        47.5004         38.5004
 -14887194.31247 -10276069.18446  21214472.2034                   21214467.4924
        47.5004         37.2504
  19809831.66847  15513486.47346  22328227.1174                   22328222.5474
        44.7504         40.5004
  30752962.92247  24828918.43845  22974793.6414                   22974789.4344
        43.5004         31.7504
 25  7 15 22 24 30.0000000  0 10G08G10G03G23G27G32G02G28G31G01
   5125390.44546   4062421.21545  23985520.1094                   23985521.1334
        39.0004         32.7504
   3782375.25848   3005268.57847  21815868.2974                   21815865.3794
        48.0004         46.5004
  70589428.08655  54149627.32453  24659405.3984                   24659403.2344
        33.7504         20.5004
  16960511.496 5                  24735360.641
        33.750
  17854749.43445  13965281.77744  24935205.7734                   24935206.9304
        33.7504         27.0004
    -93367.24248     -3138.42248  21180380.2504                   21180376.9184
        49.5004         50.2504
 -18377861.11748 -14186298.87946  21531016.1094                   21531008.6214
        48.5004         38.5004
 -15202293.15647 -10521600.72346  21154510.8754                   21154506.4104
        47.0004         37.5004
  19442981.87147  15227629.55146  22258417.5944                   22258413.3244
        44.5004         41.0004
  30398381.91847  24552621.60245  22907318.8754                   22907314.5354
        43.0004         30.0004
 25  7 15 22 25  0.0000000  0 10G08G10G03G23G27G32G02G28G31G01
   6507651.14846   5139507.34845  24248556.4384                   24248557.0124
        39.0004         32.2504
   5133765.35248   4058299.78947  22073029.2894                   22073026.2344
        48.2504         46.0004
  71816182.41445  55105539.90244  24892847.9694                   24892847.2814
        35.5004         25.2504
  18350944.418 5                  24999951.070
        34.000
  19254017.92245  15055620.71544  25201477.9924                   25201478.8204
        34.2504         26.5004
   1268109.77048   1057752.74648  21439460.8284                   21439457.4104
        49.7504         50.0004
 -17104332.24247 -13193938.71946  21773360.7424                   21773353.1844
        46.7504         38.7504
 -13941450.54347  -9539125.93446  21394441.1644                   21394436.5354
        47.5004         37.2504
  20651813.80547  16169576.59046  22488450.7894                   22488446.4384
        44.7504         41.0004
  31619477.57047  25504124.75445  23139685.8754                   23139681.5044
        42.2504         30.0004
 25  7 15 22 25 30.0000000  0 10G08G10G03G23G27G32G02G28G31G01
   6314627.19546   4989099.01245  24211825.6334                   24211826.1454
        39.7504         33.2504
   4909944.64848   3883894.01647  22030437.4614                   22030435.0554
        48.0004         46.0004
  71467453.73045  54833803.32043  24826487.1174                   24826486.6374
        33.5004         22.0004
  18166060.793 5                  24964768.844
        32.000
  19077742.62145  14918263.12944  25167934.8524                   25167935.6094
        34.5004         28.7504
   1054371.68448    891203.57048  21398787.9304                   21398784.4774
        49.5004         50.2504
 -17405785.62148 -13428837.45346  21715996.0314                   21715988.1994
        48.2504         38.5004
 -14255525.59847  -9783859.71946  21334674.6804                   21334670.0044
        47.2504         37.7504
  20285466.06347  15884110.88746  22418736.8754                   22418732.2384
        44.7504         41.2504
  31265388.80547  25228211.47345  23072304.7664                   23072301.3484
        43.0004         30.2504
 25  7 15 22 26  0.0000000  0 10G08G10G03G23G27G32G02G28G31G01
   6121743.72746   4838800.09045  24175121.6804                   24175120.9024
        38.7504         32.2504
   4686342.78148   3709658.77047  21987887.8204                   21987884.8554
        48.2504         46.0004
  71118675.32456  54562028.03553  24760117.4384                   24760115.7584
        36.0004         21.7504
                                  24929606.578
        27.250
  18901348.29345  14780812.78144  25134367.4144                   25134369.2344
        34.0004         28.2504
    840845.52048    724819.53148  21358155.2344                   21358151.7034
        49.5004         50.0004
 -17706788.36748 -13663385.04746  21658717.1644                   21658709.6564
        48.0004         38.0004
 -14569084.46947 -10028191.27746  21275006.5004                   21275002.0354
        47.7504         38.0004
  19919375.92247  15598845.90246  22349072.9064                   22349067.6094
        44.7504         41.2504
  30911551.55947  24952494.18445  23004971.7114                   23004967.7854
        42.2504         30.0004
 25  7 15 22 26 30.0000000  0  9G08G10G03G27G32G02G28G31G01
   5928996.94146   4688607.69545  24138443.5164                   24138441.7854
        39.5004         31.7504
   4462959.59048   3535593.91447  21945379.3674                   21945376.8324
        48.2504         46.0004
  70769847.15246  54290213.81344  24693737.7974                   24693736.0784
        37.2504         26.0004
  18724831.78145  14643267.26644  25100777.5944                   25100779.1884
        34.7504         28.2504
    627528.87148    558598.75048  21317562.3204                   21317559.0824
        50.0004         50.2504
 -18007339.71947 -13897580.89846  21601523.7974                   21601516.2974
        47.2504         38.5004
 -14882126.00047 -10272119.73046  21215436.5084                   21215431.7034
        47.7504         37.5004
  19553545.75047  15313783.50046  22279457.1954                   22279452.4224
        45.0004         41.5004
  30557967.75447  24676974.38344  22937687.0394                   22937683.0944
        43.0004         28.7504
