     2.11           OBSERVATION DATA    G (GPS)             RINEX VERSION / TYPE
teqc  2019Feb25                         20250821 06:26:13UTCPGM / RUN BY / DATE
Linux 2.6.32-573.12.1.x86_64|x86_64|gcc -static|Linux 64|=+ COMMENT
BIT 2 OF LLI FLAGS DATA COLLECTED UNDER A/S CONDITION       COMMENT
35323571                                                    MARKER NAME
3571                                                        MARKER NUMBER
-Unknown-           -Unknown-                               OBSERVER / AGENCY
0220413532          TRIMBLE R7          2.32                REC # / TYPE / VERS
-Unknown-           TRM39105.00     NONE                    ANT # / TYPE
 -2418318.2723 -4604949.0350  3681199.9441                  APPROX POSITION XYZ
        0.0000        0.0000        0.0000                  ANTENNA: DELTA H/E/N
     1     1                                                WAVELENGTH FACT L1/2
     7    L1    L2    C1    P1    P2    S1    S2            # / TYPES OF OBSERV
    18                                                      LEAP SECONDS
 SNR is mapped to RINEX snr flag value [0-9]                COMMENT
  L1 & L2: min(max(int(snr_dBHz/6), 0), 9)                  COMMENT
  2025     8     8     8    38   30.0000000     GPS         TIME OF FIRST OBS
                                                            END OF HEADER
 25  8  8  8 38 30.0000000  0  8G06G11G14G17G19G24G30G12
   -174535.30157    -71748.62557  21650306.8524                   21650307.0084
        46.5004         45.5004
   -175110.53556    -28301.72754  23941618.6334                   23941617.2774
        39.5004         24.0004
   -106780.87157    -49062.51655  21687363.9064                   21687361.4734
        46.5004         33.5004
    -97553.35258    -41644.01257  21503219.6414                   21503216.6374
        48.0004         46.5004
   -127065.08658    -52300.03957  20065590.2504                   20065585.4654
        49.7504         43.7504
   -167916.47757    -68992.64857  21784126.6724                   21784126.3794
        45.0004         43.7504
    -65301.87556    -11986.98055  23853822.4924                   23853822.6254
        38.7504         32.5004
   -161729.12156    -26441.49255  24677202.9924                   24677201.1994
        37.5004         30.7504
 25  8  8  8 39  0.0000000  0 12G06G11G13G14G01G17G19G22G24G30G15G12
   -503135.43747   -327800.64847  21587776.7034                   21587776.2664
        46.7504         45.0004
   -536884.17246   -310203.18443  23872774.9064                   23872773.7154
        39.0004         23.0004
   -230775.24656   -112977.25054  23330259.0474                   23330256.1454
        41.5004         24.2504
   -307888.24647   -205769.58245  21649094.5164                   21649091.9454
        47.0004         32.5004
   -208345.75856   -120032.16053  24727118.2584                   24727116.0594
        37.0004         19.7504
   -283609.93448   -186623.18047  21467814.3754                   21467811.1724
        48.2504         45.0004
   -366244.14148   -238673.34446  20020076.5004                   20020071.0744
        48.7504         41.7504
   -316162.06257   -185527.14555  21469761.2814                   21469757.6524
        47.7504         35.7504
   -484009.73847   -315299.05146  21723975.7584                   21723975.6054
        44.7504         41.5004
   -210142.70746   -124850.03145  23826259.7734                   23826260.4384
        39.2504         31.2504
   -220381.85956   -126988.79355  24113496.3914                   24113495.1994
        39.0004         30.2504
   -500576.63746   -290478.39845  24612722.0164                   24612720.6174
        38.2504         30.2504
 25  8  8  8 39 30.0000000  0 12G06G11G13G14G01G17G19G22G24G30G15G12
    744075.00047    644051.67247  21825112.8914                   21825112.9304
        47.0004         44.7504
    676782.86746    635511.43844  24103728.2894                   24103726.7464
        39.2504         24.5004
   1184777.25846    990050.71543  23599628.5944                   23599627.0864
        40.0004         21.7504
   1066583.94547    865247.69145  21910647.6644                   21910645.2974
        46.2504         32.5004
   1197455.11746    975397.14843  24994633.1564                   24994630.9694
        38.0004         18.5004
   1105901.68848    896113.13747  21732229.6414                   21732226.1564
        48.5004         44.5004
    970352.47748    802830.51647  20274422.3134                   20274416.7234
        48.5004         42.0004
   1038917.03947    870378.64145  21727623.6254                   21727620.2274
        47.5004         35.7504
    775756.32447    666336.85247  21963701.9694                   21963701.1954
        45.7504         42.0004
   1220533.28946    989962.41045  24098507.9144                   24098508.6174
        38.5004         30.0004
   1175426.85546    960654.32445  24379109.5394                   24379108.9924
        39.2504         31.0004
    735945.75446    673045.66445  24848024.1334                   24848023.0044
        37.0004         30.0004
 25  8  8  8 40  0.0000000  0 12G06G11G13G14G01G17G19G22G24G30G15G12
    416271.87147    388620.68847  21762734.1954                   21762734.1174
        46.7504         44.7504
    315064.12146    353652.74243  24034895.3284                   24034894.0634
        39.2504         22.7504
   1024986.10247    865538.08243  23569222.7034                   23569219.5234
        42.0004         22.5004
    865817.50447    708806.28945  21872443.4304                   21872440.9344
        46.2504         32.7504
   1028142.56346    843465.25842  24962413.7974                   24962412.1024
        36.0004         17.7504
    920162.38748    751381.20347  21696884.5554                   21696881.3364
        49.0004         44.7504
    731903.03148    617025.75446  20229046.4844                   20229041.2424
        49.0004         41.5004
    818703.15247    698783.40645  21685718.5474                   21685715.1254
        47.0004         35.2504
    460557.89547    420727.70347  21903721.4304                   21903720.7774
        45.2504         42.5004
   1075909.36346    877268.37544  24070987.4614                   24070988.2154
        38.0004         29.2504
    995966.91046    820815.32044  24344959.3204                   24344958.6374
        37.7504         29.7504
    397011.69146    408941.30144  24783527.3134                   24783525.9184
        38.0004         29.7504
 25  8  8  8 40 30.0000000  0 12G06G11G13G14G01G17G19G22G24G30G15G12
     88895.46947    133522.22747  21700436.2344                   21700436.1024
        47.5004         45.0004
    -46598.93746     71837.39544  23966072.6484                   23966072.2544
        39.5004         25.0004
    865279.84046    741091.50043  23538829.7894                   23538828.9774
        39.5004         22.5004
    665245.87147    552516.68445  21834275.4454                   21834273.1764
        45.5004         32.2504
    859146.30946    711779.75843  24930254.5394                   24930252.6334
        38.0004         19.5004
    734602.25448    606788.88747  21661573.8984                   21661570.7384
        48.5004         44.7504
    493840.39548    431522.39846  20183744.7974                   20183739.8324
        49.5004         41.2504
    598630.48448    527298.21545  21643840.1484                   21643836.4494
        48.0004         35.5004
    145834.25047    175488.51647  21843831.7274                   21843830.8984
        45.2504         42.5004
    931414.65646    764675.03544  24043489.8914                   24043491.4694
        38.7504         29.2504
    816667.83645    681101.67644  24310839.3674                   24310839.3524
        35.5004         27.0004
     58057.78146    144821.47344  24719026.0554                   24719025.1564
        38.2504         29.5004
 25  8  8  8 41  0.0000000  0 12G06G11G13G14G01G17G19G22G24G30G15G12
   -238046.37947   -121237.63347  21638221.3524                   21638220.9454
        46.5004         44.7504
   -408198.48846   -209928.42643  23897263.3834                   23897262.1174
        40.0004         23.7504
    705660.80546    616712.97343  23508456.0944                   23508454.0474
        41.7504         22.0004
    464874.38747    396383.02745  21796146.4064                   21796144.1254
        46.2504         32.0004
    690468.96146    580342.99642  24898156.7194                   24898154.9224
        37.7504         16.7504
    549224.53148    462338.69947  21626297.7974                   21626294.2194
        48.5004         44.5004
    256168.31648    246323.37146  20138517.1644                   20138512.1054
        48.5004         41.5004
    378704.32847    355927.18045  21601989.7344                   21601986.0904
        47.2504         35.5004
   -168407.24647    -69374.98447  21784033.0004                   21784032.7664
        45.7504         42.7504
    787052.10246    652184.70344  24016019.9064                   24016020.1884
        38.2504         28.5004
    637531.38346    541514.71944  24276751.9304                   24276750.6054
        36.5004         26.0004
   -280909.87146   -119309.05145  24654522.5634                   24654521.3594
        37.7504         30.0004
 25  8  8  8 41 30.0000000  0 12G06G11G13G14G01G17G19G22G24G30G15G12
   -564548.06247   -375654.48847  21576090.1024                   21576090.1254
        47.0004         44.7504
   -769728.78546   -491640.32043  23828466.4454                   23828464.8444
        40.0004         22.7504
    546128.55146    492401.99643  23478098.3914                   23478096.8714
        41.0004         22.5004
    264706.14147    240407.74245  21758055.6094                   21758053.4344
        46.0004         32.5004
    522110.97746    449154.89843  24866119.5164                   24866117.1564
        38.5004         22.2504
    364030.26648    318031.47347  21591056.4224                   21591053.0394
        48.5004         45.0004
     18888.50048     61430.00846  20093364.2504                   20093359.5394
        49.0004         41.5004
    158928.09048    184672.96945  21560167.7894                   21560163.9614
        48.0004         35.0004
   -482161.55547   -313858.84447  21724327.8134                   21724327.2624
        45.0004         42.0004
    642822.37946    539797.82844  23988573.4614                   23988574.5394
        37.0004         29.2504
    458557.23846    402054.30544  24242694.1254                   24242692.8204
        37.5004         28.2504
   -619888.26646   -383447.97744  24590018.5084                   24590015.6914
        38.2504         29.5004
 25  8  8  8 42  0.0000000  0 12G06G11G13G14G01G17G19G22G24G30G15G12
   -890605.89847   -629725.50447  21514043.3524                   21514043.2854
        47.0004         44.7504
  -1131186.03546   -773295.28544  23759683.2974                   23759681.3984
        39.7504         25.5004
    386681.23446    368157.24243  23447756.3284                   23447754.0554
        40.7504         22.2504
     64742.28947     84591.73845  21720003.7424                   21720001.3134
        46.0004         32.5004
    354070.94545    318214.48043  24834141.3914                   24834140.4414
        35.2504         19.0004
    179018.19148    173866.21147  21555849.7344                   21555846.2934
        49.0004         44.7504
   -217999.24248   -123157.84846  20048285.8914                   20048281.0354
        48.5004         41.2504
    -60697.22747     13536.35245  21518374.1254                   21518370.9384
        47.5004         34.7504
   -795425.57447   -557960.67647  21664715.5784                   21664714.9184
        44.5004         42.5004
    498724.18446    427513.48844  23961152.7734                   23961153.1134
        37.2504         28.2504
    279742.89146    262718.43844  24208666.8364                   24208665.8634
        38.2504         29.2504
   -958875.46546   -647593.71945  24525510.3284                   24525509.1724
        38.2504         30.7504
 25  8  8  8 42 30.0000000  0 12G06G11G13G14G01G17G19G22G24G30G15G12
    359213.30147    344159.61747  21751875.7274                   21751875.7074
        47.2504         45.5004
     82864.29346    172717.97744  23990709.0394                   23990707.5704
        40.7504         24.7504
   1802740.66046   1471580.06643  23717223.9384                   23717221.9884
        40.5004         22.0004
   1440409.33647   1156540.04345  21981784.5944                   21981782.1094
        46.5004         32.5004
   1761771.719 6                  25102018.859
        36.750
   1569611.97348   1257445.77347  21820470.8524                   21820467.7194
        48.2504         44.5004
   1120931.00048    920164.42646  20303076.1564                   20303070.9884
        49.0004         41.0004
   1295255.94947   1070123.25045  21776403.5944                   21776400.1174
        47.0004         35.5004
    467232.96147    425929.09847  21904991.2194                   21904991.0944
        45.0004         43.0004
   1930179.80146   1542933.35544  24233549.7734                   24233551.1684
        39.5004         29.5004
   1676511.27046   1351109.34445  24474463.3834                   24474462.0314
        38.7504         30.0004
    277560.03946    315862.59844  24760796.2504                   24760794.2974
        37.7504         29.5004
 25  8  8  8 43  0.0000000  0 12G06G11G13G14G01G17G19G22G24G30G15G12
     34050.05147     90785.68847  21689999.1644                   21689999.1724
        47.2504         45.2504
   -278439.61346   -108817.46144  23921954.7424                   23921953.7814
        41.0004         24.7504
   1643452.66846   1347459.51243  23686912.5164                   23686910.5634
        40.7504         22.2504
   1240853.70747   1001042.14145  21943810.3444                   21943807.8834
        45.5004         32.5004
   1594358.80546   1396932.76653  25070161.4304                   25070159.2974
        36.5004         18.2504
   1384957.43848   1113559.11747  21785332.2274                   21785329.0084
        48.5004         44.7504
    884821.72348    736183.16046  20258145.9384                   20258140.6414
        48.2504         41.5004
   1075933.00447    899222.25045  21734667.8204                   21734664.5594
        47.0004         35.2504
    154954.84847    182595.51647  21845566.3204                   21845566.0634
        44.5004         43.0004
   1786336.90646   1430847.93444  24206177.3594                   24206177.8284
        38.2504         28.0004
   1498006.68846   1212014.80144  24440495.0944                   24440494.0394
        36.0004         29.2504
    -61444.95346     51702.94545  24696285.1174                   24696284.0084
        38.0004         30.0004
 25  8  8  8 43 30.0000000  0 12G06G11G13G14G01G17G19G22G24G30G15G12
   -290660.73847   -162235.67247  21628208.9454                   21628208.6414
        47.5004         45.2504
   -639661.42646   -390288.94144  23853216.3834                   23853215.1844
        41.2504         24.7504
   1484240.64846   1223398.12543  23656615.8674                   23656613.7304
        41.5004         22.7504
   1041503.60247    845704.35245  21905875.7734                   21905872.7304
        46.0004         31.5004
   1427257.07845   1266723.53143  25038362.5864                   25038360.8594
        35.2504         19.0004
   1200480.27348    969810.66047  21750227.3444                   21750223.9574
        48.7504         44.2504
    649101.64848    552505.19146  20213289.9304                   20213284.8404
        49.2504         41.5004
    856762.82047    728440.28545  21692961.2034                   21692957.4304
        47.5004         35.5004
   -156825.93047    -60350.53547  21786236.7814                   21786236.3914
        44.0004         42.5004
   1642619.51646   1318860.31344  24178828.5084                   24178829.3404
        38.2504         28.5004
   1319653.32846   1073038.08644  24406555.8054                   24406554.8054
        38.5004         29.2504
   -400457.43446   -212462.50844  24631773.0234                   24631771.5314
        37.5004         28.5004
 25  8  8  8 44  0.0000000  0 12G06G11G13G14G01G17G19G22G24G30G15G12
   -614917.94547   -414903.59047  21566504.7894                   21566504.8754
        47.2504         45.2504
  -1000799.87546   -671695.41444  23784494.1644                   23784493.4264
        41.5004         24.5004
   1325100.08646   1099392.42643  23626332.2424                   23626330.0084
        40.2504         21.0004
    842357.69147    690525.70345  21867979.4694                   21867976.4654
        45.7504         32.0004
   1260462.30546   1136753.58242  25006622.2504                   25006620.9774
        36.5004         16.7504
   1016176.67648    826197.46147  21715155.7114                   21715152.4614
        48.7504         44.5004
    413767.59448    369128.00046  20168507.4534                   20168502.2854
        49.0004         41.5004
    637744.24647    557776.46145  21651283.0784                   21651279.6994
        47.0004         35.2504
   -468108.82847   -302908.63347  21727001.5394                   21727001.1214
        43.7504         42.5004
   1499023.82046   1206967.47744  24151503.2894                   24151504.4534
        39.5004         29.0004
   1141446.62146    934175.64544  24372644.2424                   24372643.3554
        38.2504         29.5004
   -739478.61346   -476634.75744  24567259.2974                   24567258.6684
        38.0004         29.7504
 25  8  8  8 44 30.0000000  0 12G06G11G13G14G01G17G19G22G24G30G15G12
   -938717.75048   -667215.09047  21504887.7814                   21504887.6174
        48.2504         45.5004
  -1361850.89846   -953033.75844  23715788.8054                   23715787.0234
        41.2504         25.5004
   1166028.94946    975440.85943  23596061.0314                   23596060.0354
        40.5004         22.2504
    643417.31647    535507.19545  21830122.2504                   21830119.6484
        46.0004         32.2504
   1093973.12145   1007021.71142  24974940.6644                   24974939.6644
        33.2504         14.7504
    832046.00848    682719.01647  21680117.1884                   21680113.5554
        49.2504         44.7504
    178819.28548    186051.39846  20123798.4454                   20123793.3244
        49.2504         41.0004
    418879.02747    387232.13745  21609635.0704                   21609631.0744
        47.2504         35.5004
   -778890.56647   -545076.19947  21667862.2734                   21667861.6954
        44.5004         42.5004
   1355548.79746   1095168.68444  24124200.8914                   24124202.0084
        38.7504         28.5004
    963384.50046    795425.90244  24338759.3754                   24338759.2234
        39.0004         29.2504
  -1078506.56646   -740812.29344  24502744.7114                   24502743.2194
        38.0004         29.2504
 25  8  8  8 45  0.0000000  0 12G06G11G13G14G01G17G19G22G24G30G15G12
  -1262057.69147   -919168.26247  21443358.0944                   21443358.0634
        47.5004         45.7504
  -1722812.13746  -1234302.17244  23647099.9774                   23647098.5004
        41.2504         26.2504
   1007024.27046    851541.00843  23565804.1644                   23565801.9534
        40.7504         22.0004
    444682.55547    380648.90245  21792304.3984                   21792301.5514
        45.7504         32.0004
    927786.95745    877526.00042  24943316.4924                   24943316.4614
        34.5004         15.5004
    648086.22748    539373.72747  21645110.7274                   21645107.3714
        48.0004         44.2504
    -55744.95348      3274.06646  20079162.3524                   20079157.2034
        48.5004         41.5004
    200167.28547    216807.40245  21568015.0634                   21568011.8164
        47.7504         35.0004
  -1089169.21547   -786851.74647  21608818.0634                   21608817.7544
        44.7504         43.0004
   1212192.03946    983462.05544  24096921.7424                   24096922.0984
        38.5004         28.0004
    785463.75046    656786.31344  24304902.8834                   24304902.0124
        38.5004         29.2504
  -1417541.29646  -1004995.12244  24438228.9534                   24438227.1884
        38.7504         29.2504
 25  8  8  8 45 30.0000000  0 12G06G11G13G14G01G17G19G22G24G30G15G12
     -9504.44947     56847.28547  21681711.1954                   21681711.2194
        47.5004         45.7504
   -508248.48447   -287888.83644  23878223.5394                   23878222.5314
        42.0004         25.2504
   2423508.07046   1955294.57043  23835351.4144                   23835350.4344
        39.7504         22.5004
   1821580.21147   1453556.14845  22054319.0004                   22054316.6684
        45.5004         32.5004
   2337326.85245   1975868.79742  25211543.3134                   25211542.7074
        34.5004         16.2504
   2039720.96548   1623764.42247  21909929.8674                   21909926.2034
        49.2504         44.0004
   1285501.40248   1048401.09446  20334392.8444                   20334387.9024
        48.5004         41.0004
   1557036.63347   1274108.19545  21826219.0394                   21826215.3914
        47.5004         34.7504
    176487.61347    199374.36747  21849664.2344                   21849663.8284
        45.5004         42.7504
   2644376.13746   2099449.59044  24369457.6024                   24369457.7814
        38.0004         28.2504
   2183106.93046   1745858.87144  24570865.3674                   24570864.6884
        39.5004         29.7504
   -181151.09446    -41574.13044  24673505.9534                   24673503.9844
        39.2504         28.5004
 25  8  8  8 46  0.0000000  0 12G06G11G13G14G01G17G19G22G24G30G15G12
   -331915.22747   -194381.86347  21620358.2664                   21620358.3954
        47.0004         46.0004
   -869019.62146   -569009.08244  23809570.6804                   23809569.6524
        41.5004         25.5004
   2264628.74646   1831492.38343  23805118.7584                   23805116.6374
        41.0004         22.2504
   1623258.90247   1299020.02345  22016580.0704                   22016577.0274
        45.5004         31.7504
   2171740.81345   1846840.73442  25180032.1254                   25180032.3594
        34.5004         14.7504
   1856098.32048   1480681.83247  21874987.2974                   21874984.2664
        48.2504         44.0004
   1051703.12948    866220.62946  20289902.3594                   20289897.4884
        48.7504         41.7504
   1338634.51247   1103924.72345  21784658.5004                   21784654.5234
        47.5004         35.0004
   -132777.01647    -41611.02747  21790813.3204                   21790812.6994
        46.2504         43.7504
   2501250.97346   1987923.41444  24342221.2034                   24342221.5984
        38.0004         26.7504
   2005460.83646   1607433.28944  24537060.2664                   24537059.6134
        39.7504         29.7504
   -520196.43046   -305765.18044  24608987.9304                   24608985.8794
        38.7504         29.0004
 25  8  8  8 46 30.0000000  0 12G06G11G13G14G01G17G19G22G24G30G15G12
   -653858.95347   -445247.07847  21559094.1954                   21559094.0474
        46.7504         45.5004
  -1229692.88346   -850053.07044  23740936.9064                   23740935.5204
        41.7504         26.0004
   2105805.66446   1707734.17243  23774895.9224                   23774893.3954
        41.2504         21.5004
   1425143.13347   1144644.07845  21978879.9774                   21978877.3404
        45.5004         32.7504
   2006449.82845   1718042.52342  25148578.9144                   25148579.2034
        33.0004         16.2504
   1672640.23448   1337727.48047  21840076.4064                   21840073.6454
        48.0004         44.0004
    818284.74648    684336.17646  20245484.2274                   20245479.4774
        48.5004         41.0004
   1120386.38747    933861.25045  21743127.2974                   21743124.0824
        47.7504         35.5004
   -441533.00447   -282200.08247  21732059.1094                   21732058.2664
        46.0004         43.2504
   2358236.82846   1876483.76644  24315006.9304                   24315007.6844
        37.5004         27.0004
   1827946.05946   1469110.02344  24503279.8984                   24503280.0434
        40.2504         29.5004
   -859247.77346   -569960.94544  24544468.1254                   24544466.4384
        38.2504         28.7504
 25  8  8  8 47  0.0000000  0 12G06G11G13G14G01G17G19G22G24G30G15G12
   -975333.84047   -695746.96947  21497919.8834                   21497919.6684
        46.5004         46.0004
  -1590266.21946  -1131019.18444  23672322.0084                   23672320.5234
        41.7504         25.7504
   1947035.40246   1584017.00843  23744682.5474                   23744680.6804
        40.2504         21.0004
   1227232.32447    990427.84445  21941218.6564                   21941216.3754
        44.5004         31.7504
   1841450.26245   1589471.37942  25117180.3444                   25117181.6334
        33.5004         14.7504
   1489343.93048   1194899.18047  21805196.3054                   21805193.2934
        48.5004         43.7504
    585243.72348    502745.76646  20201138.1954                   20201133.2154
        48.7504         41.0004
    902291.52747    763917.20345  21701625.2114                   21701621.4844
        47.7504         34.5004
   -749779.09047   -522391.81247  21673401.8444                   21673401.2504
        46.2504         43.0004
   2215330.65646   1765128.22344  24287812.6954                   24287813.4534
        36.0004         26.7504
   1650558.87546   1330886.21144  24469525.4534                   24469524.4104
        39.5004         28.5004
  -1198305.59846   -834161.76244  24479947.1414                   24479945.3914
        38.5004         29.0004
 25  8  8  8 47 30.0000000  0 11G06G11G13G14G17G19G22G24G30G15G12
  -1296336.15247   -945878.61747  21436835.2504                   21436834.9534
        46.5004         46.0004
  -1950735.71146  -1411904.38744  23603727.5944                   23603725.3554
        41.7504         26.0004
   1788315.95746   1460339.52043  23714478.8204                   23714477.5124
        40.7504         22.5004
   1029527.84047    836372.37945  21903597.0234                   21903594.2544
        45.7504         32.2504
   1306208.53148   1052196.27047  21770347.2194                   21770343.7114
        48.2504         44.2504
    352580.21948    321449.53146  20156863.8444                   20156858.7704
        48.2504         41.0004
    684352.16848    594094.31645  21660152.3444                   21660148.8014
        48.2504         34.7504
  -1057512.03147   -762183.69547  21614841.7274                   21614841.6054
        46.2504         42.7504
   2072531.47746   1653856.05144  24260638.7114                   24260639.5634
        36.5004         27.5004
   1473296.94146   1192759.99244  24435792.3984                   24435792.4184
        38.7504         28.2504
  -1537368.25846  -1098366.36344  24415426.0784                   24415424.3754
        37.2504         28.5004
 25  8  8  8 48  0.0000000  0 11G06G11G13G14G17G19G22G24G30G15G12
  -1616861.68747  -1195638.75447  21375841.1644                   21375841.2304
        46.0004         46.0004
  -2311096.80946  -1692705.14144  23535152.7974                   23535151.0904
        41.2504         26.5004
   1629645.87146   1336700.42643  23684285.5704                   23684283.2074
        40.5004         21.5004
    832031.52047    682479.11745  21866014.3594                   21866011.6644
        44.7504         31.2504
   1123233.88348    909618.60947  21735527.7974                   21735524.5044
        48.2504         44.2504
    120294.44147    140447.62546  20112661.0394                   20112656.4884
        47.5004         41.0004
    466570.07447    424393.99645  21618710.0164                   21618706.4304
        47.5004         34.7504
  -1364728.21547  -1001572.89547  21556380.2114                   21556380.1804
        45.5004         43.0004
   1929838.64546   1542666.74244  24233485.1644                   24233486.1684
        37.0004         25.7504
   1296158.96946   1054730.34444  24402085.3524                   24402084.4734
        38.5004         29.0004
  -1876433.60946  -1362573.02744  24350903.4534                   24350902.1954
        37.0004         27.7504
 25  8  8  8 48 30.0000000  0 11G06G11G13G14G17G19G22G24G30G15G12
   -361475.64147   -217415.83247  21614733.0234                   21614733.1884
        47.0004         45.7504
  -1095913.02747   -745808.60944  23766393.8284                   23766392.5434
        42.0004         25.2504
   3046449.06346   2440702.89543  23953894.1024                   23953892.5594
        40.2504         22.2504
   2210171.75047   1756354.59845  22128265.5704                   22128263.2034
        45.2504         31.5004
   2515845.89148   1994770.81647  22000532.9064                   22000530.0274
        48.0004         43.7504
   1463814.42648   1187346.31346  20368324.7504                   20368319.3364
        48.5004         40.5004
   1824374.44948   1482423.36745  21877091.7114                   21877087.9184
        48.0004         34.5004
    -95993.88747    -12948.71147  21797812.6024                   21797812.1764
        45.5004         43.2504
   3362676.41845   2659163.60944  24506145.5634                   24506146.5044
        35.5004         26.5004
   2694569.34046   2144400.70344  24668194.0784                   24668193.1564
        38.5004         29.2504
   -640068.25846   -399171.40644  24586176.4614                   24586173.6804
        37.5004         28.5004
 25  8  8  8 49  0.0000000  0 11G06G11G13G14G17G19G22G24G30G15G12
   -681035.67647   -466423.62947  21553923.2584                   21553923.0744
        47.0004         46.2504
  -1456044.34847  -1026430.32444  23697863.6254                   23697861.6844
        42.0004         25.7504
   2887873.30146   2317137.31643  23923718.2734                   23923715.9614
        39.5004         20.7504
   2013096.73447   1602789.62545  22090763.6884                   22090761.3134
        45.0004         31.2504
   2333191.53947   1852442.74647  21965775.1954                   21965771.9924
        47.7504         44.0004
   1232284.51248   1006933.39846  20324266.1094                   20324260.9024
        48.2504         40.7504
   1606912.35548   1312972.38345  21835709.9614                   21835706.4574
        48.0004         35.0004
   -402166.21547   -251524.53147  21739550.0084                   21739549.5784
        45.5004         43.0004
   3220194.15245   2548138.37144  24479031.5394                   24479032.7664
        35.0004         26.2504
   2517674.53946   2006560.56644  24634531.6414                   24634531.6764
        39.5004         29.0004
   -979133.32046   -663377.86744  24521654.7194                   24521652.5354
        37.5004         28.5004
 25  8  8  8 49 30.0000000  0 11G06G11G13G14G17G19G22G24G30G15G12
  -1000104.28947   -715048.49247  21493206.5944                   21493205.7974
        47.7504         46.2504
  -1816051.66847  -1306955.43744  23629356.1884                   23629354.5594
        42.0004         26.0004
   2729344.90246   2193608.69143  23893551.0944                   23893549.4884
        40.0004         21.2504
   1816237.50447   1449392.78545  22053303.1564                   22053300.2344
        45.2504         32.2504
   2150699.49647   1710241.14847  21931048.0944                   21931045.1374
        47.7504         44.2504
   1001135.03148    826816.91446  20280279.8674                   20280274.7424
        49.0004         41.5004
   1389615.71947   1143650.31645  21794359.7664                   21794356.3054
        47.0004         34.7504
   -707808.80147   -489687.55147  21681388.1334                   21681387.2704
        45.0004         43.2504
   3077818.64845   2437196.32444  24451938.9144                   24451939.7384
        35.5004         26.7504
   2340901.23446   1868815.07445  24600892.6254                   24600892.5554
        39.7504         30.0004
  -1318192.43746   -927579.70744  24457133.9844                   24457132.0514
        38.0004         29.5004
 25  8  8  8 50  0.0000000  0 11G06G11G13G14G17G19G22G24G30G15G12
  -1318680.11747   -963289.36747  21432583.1724                   21432583.0394
        46.7504         46.2504
  -2175933.15247  -1587382.48844  23560873.2194                   23560871.2974
        42.2504         26.2504
   2570860.02746   2070113.89543  23863393.2814                   23863391.6254
        40.5004         21.2504
   1619593.22747   1296163.47345  22015882.3594                   22015880.0234
        43.7504         31.7504
   1968366.52748   1568163.50847  21896351.6414                   21896348.3204
        48.0004         43.7504
    770363.92248    646995.28146  20236365.6884                   20236360.4534
        48.2504         41.2504
   1172484.17247    974456.90245  21753041.3984                   21753037.9694
        46.7504         35.0004
  -1012920.73047   -727437.07847  21623327.5944                   21623327.0044
        43.7504         43.7504
   2935546.69945   2326334.94544  24424865.1884                   24424866.4614
        35.0004         28.0004
   2164245.45746   1731161.16044  24567276.6884                   24567275.4224
        39.7504         29.5004
  -1657246.30146  -1191777.48044  24392614.0004                   24392611.1994
        38.0004         25.5004
 25  8  8  8 50 30.0000000  0 11G06G11G13G14G17G19G22G24G30G15G12
  -1636760.70347  -1211144.34447  21372054.2424                   21372053.9774
        46.7504         46.5004
  -2535685.98847  -1867709.33244  23492414.0784                   23492412.5004
        42.5004         27.0004
   2412415.56646   1946650.69943  23833241.2584                   23833239.5274
        39.0004         21.2504
   1423163.97747   1143101.69945  21978503.2034                   21978500.5314
        43.7504         31.7504
   1786191.18848   1426208.68847  21861684.7894                   21861681.2734
        48.0004         43.7504
    539969.77747    467467.37146  20192523.0944                   20192517.9384
        47.7504         41.0004
    955517.89547    805392.26645  21711753.5944                   21711749.6724
        47.2504         35.0004
  -1317500.14147   -964771.65647  21565367.8914                   21565367.3674
        45.0004         43.5004
   2793376.01646   2215552.50444  24397811.2034                   24397812.2114
        36.0004         26.0004
   1987704.17646   1593596.44944  24533681.7584                   24533681.0474
        39.2504         29.5004
  -1996294.68746  -1455970.93744  24328095.4844                   24328093.4104
        37.5004         28.5004
 25  8  8  8 51  0.0000000  0 11G06G11G13G14G17G19G22G24G30G15G12
  -1954349.35947  -1458615.99647  21311619.2424                   21311619.3244
        47.0004         46.5004
  -2895313.07847  -2147938.16444  23423979.8054                   23423977.8674
        42.5004         26.2504
   2254002.89546   1823212.18443  23803096.0234                   23803095.0984
        39.2504         22.0004
   1226944.19547    990203.15645  21941163.9694                   21941160.9884
        44.5004         31.5004
   1604165.88748   1284370.78547  21827046.0394                   21827042.8204
        48.2504         43.7504
    309945.52747    288227.69946  20148750.5554                   20148745.6884
        47.7504         40.5004
    738711.59847    636452.28145  21670496.5704                   21670493.2274
        47.5004         34.7504
  -1621550.85247  -1201694.27347  21507508.7344                   21507508.2424
        45.0004         43.5004
   2651298.70346   2104842.82444  24370775.0784                   24370775.9884
        36.7504         27.0004
   1811268.44546   1456113.99644  24500106.9534                   24500106.5944
        38.7504         29.0004
  -2335342.62546  -1720164.07844  24263575.6484                   24263574.3054
        37.2504         27.7504
 25  8  8  8 51 30.0000000  0 11G06G11G13G14G17G19G22G24G30G15G12
   -696012.43747   -478093.69947  21551072.5634                   21551072.6804
        47.0004         46.5004
  -1679378.95346  -1200456.98444  23655363.8984                   23655362.6174
        41.0004         27.7504
   3671044.64546   2927400.52743  24072750.7584                   24072749.2974
        41.2504         21.5004
   2606361.25047   2065073.57045  22203658.4534                   22203655.9024
        44.0004         32.0004
   2997715.43847   2370253.55147  22092229.8444                   22092226.5514
        47.7504         43.7504
   1655717.73847   1336881.37946  20404842.4924                   20404837.6134
        47.5004         40.2504
   2097493.33247   1695243.23045  21929064.5314                   21929061.0204
        47.2504         34.7504
   -349640.23047   -210595.05547  21749545.7114                   21749544.5984
        44.7504         43.7504
   4084737.78946   3221808.21944  24643548.8134                   24643550.5314
        36.0004         28.0004
   3210361.19546   2546316.06344  24766345.7584                   24766345.0354
        39.7504         27.7504
  -1098957.90646   -756747.38744  24498851.8834                   24498850.0594
        38.7504         28.0004
 25  8  8  8 52  0.0000000  0 11G06G11G13G14G17G19G22G24G30G15G12
  -1012609.71547   -724792.85947  21490826.3284                   21490826.0124
        46.5004         46.5004
  -2038745.68746  -1480482.97344  23586978.2894                   23586976.6884
        41.7504         26.7504
   3512686.46546   2804004.47743  24042615.7814                   24042614.6214
        39.5004         20.5004
   2410561.23047   1912502.11745  22166398.5084                   22166396.3364
        44.0004         32.0004
   2815984.76248   2228645.22347  22057647.9224                   22057644.3204
        48.0004         43.7504
   1426428.81347   1158214.69146  20361210.2734                   20361205.4494
        47.0004         40.2504
   1881008.20747   1526553.52045  21887868.7034                   21887865.0234
        47.5004         35.2504
   -652627.66847   -446689.14847  21691888.9774                   21691888.0784
        46.0004         43.5004
   3942840.61746   3111238.93844  24616547.8134                   24616548.4534
        37.0004         28.0004
   3034127.47746   2408991.02344  24732810.5784                   24732809.1094
        40.0004         28.5004
  -1438003.52746  -1020938.72344  24434333.8914                   24434332.2774
        38.5004         28.5004
 25  8  8  8 52 30.0000000  0 11G06G11G13G14G17G19G22G24G30G15G12
  -1328708.78547   -971103.79747  21430674.5394                   21430674.6174
        47.0004         46.5004
  -2397979.05547  -1760405.03144  23518618.2974                   23518617.2974
        42.5004         27.0004
   3354349.98446   2680625.35943  24012486.8594                   24012484.5864
        40.7504         20.5004
   2214970.19947   1760093.49645  22129178.9924                   22129176.9414
        44.0004         32.0004
   2634397.51247   2087148.65247  22023093.0084                   22023089.6844
        47.5004         43.7504
   1197504.52048    979832.12546  20317647.8134                   20317642.3284
        48.2504         40.7504
   1664683.50447   1357988.80945  21846703.4224                   21846699.8164
        47.0004         34.5004
   -955081.74247   -682367.63347  21634333.4774                   21634333.0234
        46.0004         44.0004
   3801029.12546   3000736.36344  24589561.1884                   24589562.9734
        36.7504         28.5004
   2857989.02346   2271740.19544  24699291.6254                   24699291.2664
        39.5004         28.5004
  -1777048.30946  -1285129.40644  24369816.0474                   24369814.4844
        38.2504         28.5004
 25  8  8  8 53  0.0000000  0 11G06G11G13G14G17G19G22G24G30G15G12
  -1644308.72347  -1217025.80547  21370618.3984                   21370617.6294
        46.2504         46.5004
  -2757077.60547  -2040222.03144  23450284.5634                   23450283.0864
        42.0004         27.5004
   3196030.62546   2557259.50443  23982358.5944                   23982357.2934
        38.7504         20.2504
   2019586.95347   1607846.79745  22091998.6254                   22091996.4184
        44.2504         31.0004
   2452950.49248   1945761.35947  21988564.8054                   21988561.4264
        48.2504         43.2504
    968942.08248    801731.52346  20274153.7664                   20274148.4964
        48.2504         41.0004
   1448518.18447   1189548.29745  21805568.4144                   21805564.9064
        47.5004         34.2504
  -1257002.02047   -917630.17647  21576880.2034                   21576879.5664
        45.7504         43.7504
   3659299.63746   2890297.71944  24562592.4694                   24562592.4224
        36.7504         27.7504
   2681941.29746   2134560.06344  24665791.2664                   24665790.4064
        39.5004         29.0004
  -2116092.90246  -1549319.99644  24305297.8204                   24305295.9264
        38.2504         28.5004
 25  8  8  8 53 30.0000000  0 11G06G11G13G14G17G19G22G24G30G15G12
  -1959408.27348  -1462557.91447  21310656.5944                   21310656.2464
        48.0004         46.7504
  -3116039.58647  -2319932.60944  23381976.9384                   23381974.5904
        43.0004         26.7504
   3037724.52046   2433903.97343  23952233.9924                   23952232.4774
        40.5004         20.5004
   1824410.52047   1455761.24645  22054857.9694                   22054855.8954
        44.7504         31.5004
   2271640.64547   1804480.95747  21954062.4844                   21954059.4184
        47.7504         43.5004
    740738.80547    623910.79346  20230727.7734                   20230722.8404
        47.5004         40.2504
   1232511.33247   1021231.26245  21764463.8054                   21764460.7854
        47.5004         34.7504
  -1558387.87547  -1152476.28147  21519528.5164                   21519527.5744
        47.0004         43.7504
   3517648.76246   2779920.31644  24535636.0554                   24535637.1294
        36.2504         27.7504
   2505980.36346   1997447.59845  24632307.2114                   24632306.3984
        40.0004         30.0004
  -2455138.19146  -1813511.07444  24240779.5474                   24240778.0514
        39.0004         29.7504
 25  8  8  8 54  0.0000000  0 11G06G11G13G14G17G19G22G24G30G15G12
  -2274003.50447  -1707697.03547  21250790.8364                   21250790.8364
        47.2504         46.7504
  -3474860.52347  -2599533.27744  23313694.7344                   23313693.1254
        42.5004         27.5004
   2879430.30146   2310557.79743  23922111.6884                   23922110.6334
        39.2504         20.5004
   1629442.62947   1303838.19945  22017757.2504                   22017754.7154
        43.7504         31.7504
   2090468.00048   1663307.45747  21919586.4924                   21919583.2274
        48.0004         43.2504
    512894.94147    446370.11746  20187370.8364                   20187365.6454
        47.2504         41.0004
   1016664.77347    853039.12945  21723389.8444                   21723385.8094
        47.5004         34.2504
  -1859235.83647  -1386903.26247  21462278.8914                   21462278.2274
        46.2504         43.7504
   3376075.94546   2669603.72744  24508695.8594                   24508696.8484
        38.0004         28.7504
   2330104.56646   1860401.44944  24598838.3134                   24598838.5434
        40.0004         29.7504
  -2794182.05146  -2077701.06644  24176262.4454                   24176259.6134
        39.0004         28.7504
 25  8  8  8 54 30.0000000  0 11G06G11G13G14G17G19G22G24G30G15G12
  -2588093.00447  -1952442.08647  21191021.6644                   21191021.8054
        47.7504         46.7504
  -3833538.47747  -2879022.50844  23245441.1334                   23245438.8874
        43.0004         27.2504
   2721144.07046   2187217.69543  23891991.7114                   23891989.3874
        40.5004         19.5004
   1434682.52747   1152077.06645  21980695.4774                   21980692.9654
        43.7504         30.5004
   1909429.69548   1522238.64847  21885135.9924                   21885132.8834
        48.0004         43.5004
    285408.28947    269107.79346  20144081.5704                   20144076.2464
        46.7504         40.5004
    800978.38347    684971.80945  21682346.2114                   21682342.4264
        47.2504         34.7504
  -2159545.03547  -1620910.41447  21405131.5084                   21405131.1374
        47.0004         43.7504
   3234578.03146   2559345.51644  24481768.7894                   24481771.4384
        37.2504         29.0004
   2154309.78946   1723418.43044  24565385.8984                   24565385.6414
        39.2504         29.2504
  -3133224.66846  -2341890.07445  24111744.1564                   24111742.3444
        38.7504         30.0004
 25  8  8  8 55  0.0000000  0 11G06G11G13G14G17G19G22G24G30G15G12
  -1326243.70348   -969182.87547  21431143.6884                   21431143.3484
        48.0004         46.7504
  -2616638.35247  -1930788.57844  23477009.6174                   23477007.7114
        43.0004         26.7504
   4138288.44546   3291486.00043  24161664.9924                   24161663.2584
        40.2504         20.5004
   2815557.10947   2228083.21145  22243467.0314                   22243464.4144
        43.2504         31.0004
   3303950.47747   2608878.20747  22150504.6724                   22150501.2304
        47.7504         43.5004
   1633705.13348   1319728.71546  20400653.6484                   20400648.6024
        48.0004         40.0004
   2160880.09048   1744635.46945  21941126.3674                   21941122.5944
        48.0004         34.7504
   -883883.43047   -626888.38347  21647882.2274                   21647881.7424
        46.5004         44.2504
   4668577.79346   3676747.81844  24754650.9774                   24754652.4104
        38.0004         29.0004
   3554019.45746   2814101.24644  24831742.0864                   24831741.7814
        39.0004         29.5004
  -1896834.03946  -1378468.75844  24347021.2584                   24347019.5394
        37.5004         28.5004
 25  8  8  8 55 30.0000000  0 11G06G11G13G14G17G19G22G24G30G15G12
  -1639314.59847  -1213134.20747  21371567.7974                   21371568.1334
        47.0004         46.7504
  -2975021.43747  -2210048.03544  23408812.0314                   23408809.4884
        43.2504         28.5004
   3980009.78546   3168151.79343  24131545.6564                   24131544.0164
        39.5004         20.0004
   2621213.34847   2076646.49645  22206484.4614                   22206482.4614
        43.5004         30.5004
   3123176.18047   2468015.11347  22116104.4304                   22116100.9494
        47.2504         43.0004
   1406928.59848   1143019.73046  20357499.3524                   20357494.8014
        48.2504         40.5004
   1945515.67647   1576819.03945  21900144.3524                   21900140.3714
        47.5004         34.0004
  -1183109.60247   -860051.62947  21590941.5394                   21590940.6954
        46.0004         43.7504
   4527223.16846   3566601.21544  24727752.0164                   24727753.3014
        36.7504         27.5004
   3378378.09446   2677237.78944  24798318.2894                   24798318.2074
        38.7504         28.7504
  -2235872.57446  -1642654.57444  24282503.6564                   24282501.6174
        37.7504         26.2504
 25  8  8  8 56  0.0000000  0 11G06G11G13G14G17G19G22G24G30G15G12
  -1951873.41447  -1456686.52047  21312090.0554                   21312089.8134
        47.0004         47.0004
  -3333253.48447  -2489189.80144  23340642.0084                   23340639.7664
        42.5004         29.2504
   3821729.71946   3044816.53943  24101426.6724                   24101424.3634
        40.5004         20.7504
   2427077.25047   1925371.60245  22169541.7274                   22169539.3674
        43.0004         31.5004
   2942530.46947   2327252.21947  22081728.6644                   22081725.4454
        47.2504         43.0004
   1180504.48847    966585.36346  20314412.9224                   20314407.8324
        46.5004         40.5004
   1730312.04747   1409127.89845  21859192.1254                   21859188.3674
        47.7504         34.5004
  -1481792.25847  -1092791.35547  21534103.6254                   21534103.5944
        46.0004         43.7504
   4385936.28546   3456507.43044  24700866.4534                   24700867.6294
        37.7504         29.7504
   3202808.24646   2540430.03944  24764908.8984                   24764908.5634
        39.0004         29.7504
  -2574908.65646  -1906838.51645  24217988.0004                   24217986.8754
        39.5004         30.2504
 25  8  8  8 56 30.0000000  0 11G06G11G13G14G17G19G22G24G30G15G12
  -2263917.24247  -1699837.53947  21252710.3444                   21252709.8834
        46.7504         47.0004
  -3691330.97347  -2768211.15644  23272501.9534                   23272499.9184
        43.5004         27.7504
   3663445.73446   2921478.26643  24071305.2814                   24071304.5274
        38.2504         20.2504
   2233149.75847   1774259.25045  22132638.5944                   22132636.4224
        43.5004         30.5004
   2762012.37947   2186588.75847  22047377.3754                   22047374.0124
        47.5004         43.0004
    954432.07047    790425.03946  20271392.4774                   20271387.5824
        47.0004         40.2504
   1515270.36347   1241562.94145  21818271.1174                   21818267.6134
        47.7504         35.2504
  -1779929.03147  -1325105.73447  21477370.7894                   21477369.8404
        45.5004         44.7504
   4244715.50046   3346465.13744  24673992.6094                   24673994.1254
        37.7504         29.2504
   3027307.34846   2403675.98844  24731513.3984                   24731511.8444
        38.0004         27.7504
  -2913941.29746  -2171019.69544  24153471.3364                   24153470.2774
        36.7504         26.5004
 25  8  8  8 57  0.0000000  0 11G06G11G13G14G17G19G22G24G30G15G12
  -2575444.72747  -1942586.21947  21193428.6024                   21193428.0274
        46.7504         47.0004
  -4049251.86747  -3047110.48044  23204391.9454                   23204389.8054
        43.0004         27.7504
   3505154.55946   2798134.33243  24041183.4534                   24041182.3204
        39.0004         20.5004
   2039430.05947   1623308.81345  22095774.8984                   22095772.2624
        43.7504         31.0004
   2581619.24647   2046022.68047  22013049.5944                   22013046.3094
        46.5004         42.7504
    728708.64848    614536.66446  20228438.7424                   20228434.0744
        48.0004         40.2504
   1300390.39848   1074124.00045  21777381.0704                   21777377.3054
        48.2504         34.2504
  -2077519.12947  -1556994.11747  21420740.9534                   21420740.4184
        46.5004         44.0004
   4103557.82046   3236471.97345  24647131.9534                   24647133.2304
        38.5004         31.2504
   2851871.74646   2266972.85244  24698128.6024                   24698128.0124
        39.0004         28.5004
  -3252970.50846  -2435198.32044  24088958.0234                   24088955.1844
        39.0004         29.2504
 25  8  8  8 57 30.0000000  0 11G06G11G13G14G17G19G22G24G30G15G12
  -2886452.98447  -2184930.29747  21134245.3054                   21134245.0944
        47.7504         47.0004
  -4407012.65247  -3325885.06644  23136311.7894                   23136309.6644
        42.7504         28.0004
   3346853.93846   2674783.00843  24011060.3524                   24011059.2774
        39.0004         19.5004
   1845918.99247   1472520.96545  22058951.3984                   22058949.1604
        43.5004         30.5004
   2401349.76247   1905552.92647  21978745.5554                   21978741.9384
        46.5004         43.5004
    503333.73047    438919.84846  20185551.1564                   20185545.9964
        47.5004         40.2504
   1085673.02048    906811.75845  21736521.2814                   21736517.8204
        48.2504         34.7504
  -2374560.16447  -1788454.67247  21364216.0554                   21364215.4884
        46.2504         44.5004
   3962461.61346   3126526.78544  24620282.4454                   24620283.4884
        38.7504         29.7504
   2676498.80546   2130318.53144  24664755.1804                   24664755.4774
        38.5004         27.7504
  -3591995.16846  -2699373.28144  24024442.6254                   24024441.4654
        38.2504         29.2504
 25  8  8  8 58  0.0000000  0 11G06G11G13G14G17G19G22G24G30G15G12
  -1621508.27347  -1199259.07047  21374956.6724                   21374955.9654
        47.2504         47.0004
  -3189177.24647  -2376922.33644  23368058.3284                   23368056.4454
        43.2504         28.0004
   4763967.28146   3779027.01243  24280728.3054                   24280726.7304
        39.0004         19.0004
   3228044.34847   2549501.72745  22321960.5004                   22321958.5664
        42.5004         30.7504
   3796629.85947   2992784.16847  22244258.3134                   22244255.3674
        47.2504         42.5004
   1853734.90247   1491180.50846  20442524.1414                   20442519.2304
        46.2504         39.7504
   2446547.25448   1967233.23045  21995487.4924                   21995483.9734
        48.2504         34.7504
  -1095619.32447   -791877.39847  21607590.1484                   21607589.7854
        46.5004         44.2504
   5396850.59446   4244232.32844  24893236.9064                   24893238.5824
        38.5004         29.0004
   4076612.88746   3221316.43044  24931188.0474                   24931188.3754
        40.0004         29.7504
  -2355582.51246  -1735934.82844  24259724.0234                   24259721.8204
        39.5004         29.2504
 25  8  8  8 58 30.0000000  0 11G06G11G13G14G17G19G22G24G30G15G12
  -1931470.62147  -1440788.16447  21315972.7274                   21315972.4534
        47.5004         47.0004
  -3546608.16847  -2655439.87144  23300041.2274                   23300039.7774
        43.5004         29.0004
   4605639.75846   3655654.73843  24250598.9924                   24250598.1804
        38.5004         19.0004
   3034951.85947   2399040.03145  22285216.2584                   22285214.2734
        43.2504         31.7504
   3616603.87947   2852504.18047  22210000.6174                   22209997.2304
        47.0004         42.7504
   1629054.02747   1316104.50046  20399768.9064                   20399763.7934
        47.2504         40.2504
   2232157.71948   1800176.44945  21954690.6724                   21954686.5984
        48.2504         34.2504
  -1391556.34847  -1022477.68047  21551274.9774                   21551274.6174
        47.0004         44.0004
   5255871.64546   4134378.46544  24866410.2664                   24866411.4184
        38.7504         29.2504
   3901357.37946   3084753.57044  24897838.8444                   24897838.3914
        39.2504         28.7504
  -2694595.73046  -2000100.94144  24195211.4774                   24195209.9774
        37.5004         28.0004
 25  8  8  8 59  0.0000000  0 11G06G11G13G14G17G19G22G24G30G15G12
  -2240905.30548  -1681906.07847  21257089.3914                   21257088.9024
        48.2504         47.0004
  -3903868.39147  -2933824.35944  23232057.0474                   23232055.1994
        42.7504         28.5004
   4447295.82846   3532269.68843  24220468.1334                   24220466.8484
        38.2504         20.0004
   2842070.30147   2248742.69545  22248512.5004                   22248509.8874
        44.0004         30.7504
   3436698.44947   2712318.12147  22175765.3524                   22175762.5004
        47.2504         43.0004
   1404718.77047   1141297.80946  20357078.9384                   20357074.0664
        47.2504         40.0004
   2017933.64848   1633248.60545  21913924.7584                   21913921.3754
        48.0004         34.7504
  -1686937.43747  -1252644.76647  21495066.1334                   21495065.6254
        47.2504         44.7504
   5114949.50846   4024568.85544  24839593.4304                   24839595.2344
        38.2504         29.0004
   3726157.44146   2948234.03944  24864499.3204                   24864499.2154
        40.2504         29.2504
  -3033600.89546  -2264260.73845  24130701.8134                   24130700.0634
        40.2504         30.7504
 25  8  8  8 59 30.0000000  0 11G06G11G13G14G17G19G22G24G30G15G12
  -2549811.73448  -1922612.37547  21198306.2114                   21198305.7934
        48.2504         47.0004
  -4260956.64147  -3212074.88744  23164105.1564                   23164103.4884
        43.7504         28.0004
   4288931.04346   3408868.41843  24190332.1954                   24190331.3594
        40.5004         19.5004
   2649398.30547   2098608.66445  22211847.7034                   22211845.5904
        43.0004         30.0004
   3256910.50048   2572223.61747  22141553.0634                   22141550.1454
        48.0004         42.7504
   1180726.73847    966758.57446  20314454.6414                   20314449.6414
        47.2504         40.2504
   1803874.47747   1466449.25045  21873190.8594                   21873186.9454
        47.5004         34.2504
  -1981762.55147  -1482378.62147  21438962.9844                   21438962.2304
        47.2504         44.0004
   4974080.35946   3914800.53145  24812787.4614                   24812788.6024
        38.7504         30.2504
   3551008.77046   2811754.44545  24831169.6954                   24831169.6334
        38.7504         30.2504
  -3372598.50446  -2528414.66844  24066192.1804                   24066190.0824
        38.2504         29.0004
 25  8  8  9  0  0.0000000  0 11G06G11G13G14G17G19G22G24G30G15G12
  -2858187.93748  -2162905.49647  21139623.9774                   21139624.0784
        48.2504         47.0004
  -4617870.12547  -3490189.23044  23096186.8364                   23096185.0594
        44.2504         29.2504
   4130542.23846   3285448.41843  24160191.3204                   24160190.9414
        37.7504         19.2504
   2456935.86747   1948637.91845  22175223.4534                   22175221.4614
        43.2504         31.0004
   3077238.18047   2432219.20747  22107362.6174                   22107359.2934
        46.5004         42.7504
    957076.61747    792485.75846  20271895.4534                   20271890.5664
        47.5004         40.2504
   1589981.01247   1299779.02045  21832488.2344                   21832484.5204
        47.0004         35.0004
  -2276030.25847  -1711678.14147  21382965.6334                   21382965.0594
        47.0004         44.7504
   4833261.86746   3805071.67245  24785990.1804                   24785991.7734
        38.7504         30.5004
   3375908.06646   2675312.19144  24797849.5004                   24797848.9774
        38.2504         28.5004
  -3711588.44146  -2792562.64545  24001685.1564                   24001683.3874
        39.5004         31.5004
 25  8  8  9  0 30.0000000  0 11G06G11G13G14G17G19G22G24G30G15G12
  -3166030.90247  -2402783.12147  21081043.7734                   21081043.0394
        47.7504         47.0004
  -4974605.11347  -3768164.51644  23028302.2344                   23028300.7114
        43.0004         29.0004
   3972127.93446   3162008.50443  24130047.8364                   24130045.7704
        39.5004         18.2504
   2264683.97347   1798831.22345  22138639.3674                   22138637.5594
        43.2504         30.5004
   2897680.74247   2292304.30547  22073194.0314                   22073191.1804
        47.7504         42.0004
    733767.62147    618478.75846  20229401.0084                   20229395.8164
        47.7504         41.0004
   1376254.07447   1133238.54745  21791817.5164                   21791813.6564
        47.5004         34.2504
  -2569738.03147  -1940541.34047  21327074.9064                   21327074.3014
        46.5004         44.5004
   4692492.85546   3695381.36744  24759203.1644                   24759204.7234
        37.5004         28.5004
   3200853.40246   2538905.78944  24764538.0634                   24764537.3984
        37.5004         28.5004
  -4050568.93746  -3056703.20344  23937178.8284                   23937176.5984
        37.0004         28.5004
 25  8  8  9  1  0.0000000  0 11G06G11G13G14G17G19G22G24G30G15G12
  -1897908.38348  -1414635.67647  21322359.2114                   21322359.0314
        48.0004         47.2504
  -3755726.93047  -2818389.28144  23260247.2734                   23260245.2154
        44.0004         28.2504
   5389110.44546   4266150.55543  24399688.9844                   24399689.0744
        37.2504         18.5004
   3648069.14547   2876793.68445  22401889.1644                   22401886.6914
        42.5004         30.7504
   4293662.45748   3380082.25847  22338840.4694                   22338837.4924
        48.0004         42.5004
   2086225.43047   1672341.98046  20486765.5944                   20486760.3134
        47.5004         40.2504
   2738121.20747   2194433.71145  22050971.7034                   22050968.4924
        47.5004         34.2504
  -1287454.66447   -941359.49647  21571085.2974                   21571084.8714
        46.7504         44.2504
   6127195.54346   4813331.38744  25032217.8914                   25032219.7814
        37.5004         28.2504
   4601267.32446   3630137.27344  25031027.8834                   25031027.7854
        37.5004         28.7504
  -2814108.10246  -2093227.19144  24172469.7194                   24172466.9224
        39.0004         29.2504
 25  8  8  9  1 30.0000000  0 11G06G11G13G14G17G19G22G24G30G15G12
  -2204680.28948  -1653678.69547  21263982.3204                   21263982.8284
        48.0004         47.2504
  -4112097.81647  -3096080.84044  23192432.1334                   23192430.2664
        43.7504         29.2504
   5230634.58646   4142662.70343  24369533.6024                   24369531.6604
        38.5004         18.5004
   3456237.12947   2727314.18045  22365384.4384                   22365382.0474
        43.2504         30.7504
   4114328.11747   3240341.20347  22304714.7114                   22304710.7664
        47.2504         42.0004
   1863592.41448   1498861.72346  20444400.0474                   20444394.9574
        48.0004         40.5004
   2524726.99647   2028152.50445  22010364.3364                   22010360.5124
        46.5004         34.7504
  -1580039.57847  -1169347.74247  21515407.7504                   21515407.5904
        47.0004         44.5004
   5986516.97346   4703711.56645  25005447.4224                   25005449.3914
        37.7504         30.0004
   4426293.51646   3493793.88744  24997730.8984                   24997731.0864
        38.5004         29.5004
  -3153069.57846  -2357352.93445  24107967.0394                   24107965.6994
        37.5004         31.0004
 25  8  8  9  2  0.0000000  0 11G06G11G13G14G17G19G22G24G30G15G12
  -2510913.43048  -1892301.89847  21205707.9774                   21205707.8284
        48.0004         47.2504
  -4468282.17647  -3373627.05144  23124652.6094                   23124650.6334
        44.0004         29.7504
   5072123.67246   4019147.48843  24339370.4844                   24339368.5984
        37.0004         20.7504
   3264615.41047   2577998.54744  22328919.9384                   22328917.9454
        44.0004         29.7504
   3935102.80547   3100685.10546  22270609.3674                   22270606.0984
        47.0004         41.7504
   1641295.00047   1325642.96546  20402098.0944                   20402093.2274
        47.7504         40.2504
   2311500.06647   1862001.64145  21969788.6254                   21969785.0664
        46.5004         35.0004
  -1872060.68747  -1396896.65647  21459838.3754                   21459837.5594
        47.2504         44.5004
   5845880.60246   4594124.62544  24978685.9144                   24978687.5634
        38.2504         29.0004
   4251355.95046   3357478.78344  24964442.9144                   24964441.9924
        38.5004         28.7504
  -3492020.39546  -2621470.38344  24043467.5234                   24043465.1134
        39.0004         29.5004
 25  8  8  9  2 30.0000000  0 11G06G11G13G14G17G19G22G24G30G15G12
  -2816607.08248  -2130504.72747  21147536.4614                   21147536.5944
        48.2504         47.2504
  -4824278.37147  -3651026.62544  23056908.7034                   23056906.8054
        44.5004         29.5004
   4913573.82446   3895602.00843  24309199.0314                   24309197.4494
        37.5004         18.2504
   3073202.82847   2428845.87545  22292496.0234                   22292493.5864
        43.5004         30.0004
   3755983.83247   2961111.88747  22236523.5474                   22236520.5784
        47.0004         42.5004
   1419330.76647   1152683.82046  20359859.6644                   20359854.4924
        47.5004         40.0004
   2098439.60247   1695980.50045  21929244.8834                   21929241.0124
        47.7504         34.5004
  -2163517.67647  -1624005.98447  21404375.8444                   21404375.3794
        47.0004         44.0004
   5705282.79346   4484567.75444  24951930.8594                   24951932.8524
        38.5004         29.5004
   4076450.32046   3221188.57045  24931158.4144                   24931158.4224
        39.2504         30.7504
  -3830961.16846  -2885580.03945  23978968.3134                   23978966.7304
        38.2504         30.2504
 25  8  8  9  3  0.0000000  0 11G06G11G13G14G17G19G22G24G30G15G12
  -3121759.77748  -2368286.03147  21089467.9064                   21089467.6214
        48.5004         47.2504
  -5180084.07047  -3928277.75045  22989200.9304                   22989198.5274
        44.5004         30.0004
   4754981.52746   3772023.42243  24279020.1174                   24279018.9804
        38.2504         19.0004
   2881998.98447   2279855.84445  22256110.8284                   22256108.1604
        43.2504         30.0004
   3576968.61747   2821619.49647  22202458.7194                   22202454.6524
        46.7504         42.5004
   1197698.11747    979983.05946  20317684.3364                   20317679.1844
        47.7504         40.0004
   1885545.57047   1530089.03545  21888732.2504                   21888728.9224
        47.0004         34.2504
  -2454409.66047  -1850675.05547  21349020.8914                   21349020.2624
        47.5004         44.5004
   5564720.85546   4375038.80544  24925182.9384                   24925185.2234
        38.0004         28.7504
   3901573.31846   3084920.70544  24897881.0004                   24897880.9494
        38.2504         29.2504
  -4169891.79346  -3149681.73045  23914472.0704                   23914470.8054
        39.5004         30.2504
 25  8  8  9  3 30.0000000  0 11G06G11G13G14G17G19G22G24G30G15G12
  -3426367.24648  -2605642.48047  21031503.3984                   21031502.6724
        48.0004         47.0004
  -5535694.10547  -4205376.41845  22921530.4454                   22921528.0784
        44.5004         30.0004
   4596346.63746   3648411.68443  24248832.6254                   24248832.0124
        38.7504         19.5004
   2691006.25047   2131030.33245  22219766.1174                   22219763.8324
        43.7504         30.5004
   3398058.55547   2682209.04747  22168413.2034                   22168409.7734
        47.2504         42.2504
    976397.56347    807541.07446  20275572.2734                   20275567.2974
        47.5004         39.7504
   1672820.80547   1364329.47345  21848252.0944                   21848248.5984
        47.0004         33.7504
  -2744732.86747  -2076900.92247  21293774.1024                   21293773.6804
        46.7504         44.5004
   5424195.02046   4265538.00444  24898442.0084                   24898443.8404
        38.2504         28.2504
   3726723.97746   2948674.36744  24864608.7344                   24864608.2704
        40.0004         28.0004
  -4508809.27046  -3413773.18745  23849978.3054                   23849975.9454
        39.5004         31.0004
 25  8  8  9  4  0.0000000  0 10G06G11G13G14G17G19G22G24G15G12
  -2154998.82848  -1614965.77347  21273436.1954                   21273435.9614
        49.0004         47.2504
  -4315675.19547  -3254712.27045  23153692.3204                   23153690.2934
        45.2504         30.5004
   6013089.89846   4752367.29343  24518430.8984                   24518429.4614
        38.7504         19.0004
   4075649.61747   3209973.19545  22483255.1564                   22483252.4104
        44.2504         31.0004
   4794676.03147   3770482.40247  22434180.1564                   22434177.3794
        46.7504         42.0004
   2330853.45747   1862961.25846  20533316.6564                   20533311.7034
        47.7504         40.0004
   3035691.27347   2426306.46145  22107597.8524                   22107594.2854
        47.2504         33.7504
  -1459057.66847  -1075076.08247  21538430.1724                   21538429.6644
        47.0004         44.7504
   5127324.18846   4040051.11744  25131134.1484                   25131132.8204
        40.2504         28.5004
  -3272282.99246  -2450246.14845  24085281.7894                   24085279.9304
        40.2504         32.2504
 25  8  8  9  4 30.0000000  0 10G06G11G13G14G17G19G22G24G15G12
  -2458512.89148  -1851470.22747  21215679.5944                   21215679.4614
        48.5004         47.5004
  -4670888.23447  -3531501.62144  23086096.8204                   23086095.4414
        45.2504         29.7504
   5854357.91846   4628679.88742  24488224.2274                   24488224.4064
        38.7504         17.7504
   3885076.53547   3061474.68445  22446990.0314                   22446987.5274
        44.2504         30.2504
   4615967.80547   3631229.23046  22400173.3444                   22400169.6294
        46.7504         41.5004
   2110209.85248   1691031.18046  20491329.4304                   20491324.4614
        48.0004         40.2504
   2823303.37547   2260809.38745  22067181.2344                   22067177.9654
        47.5004         34.0004
  -1748241.94547  -1300414.46947  21483400.2894                   21483399.4454
        47.2504         44.5004
   4952519.14546   3903839.38344  25097869.3674                   25097869.1684
        40.5004         29.2504
  -3611175.07046  -2714317.82045  24020792.2664                   24020789.8634
        39.0004         30.2504
 25  8  8  9  5  0.0000000  0 10G06G11G13G14G17G19G22G24G15G12
  -2761476.17248  -2087545.49647  21158027.3134                   21158027.3404
        48.7504         47.2504
  -5025897.29347  -3808132.02745  23018541.5474                   23018539.3594
        44.5004         30.5004
   5695574.40246   4504952.30143  24458009.8364                   24458008.5744
        38.2504         19.2504
   3694714.58647   2913140.68845  22410765.1484                   22410762.9804
        43.5004         30.0004
   4437359.29747   3492053.75847  22366185.2664                   22366182.2854
        46.0004         42.0004
   1889893.63747   1519356.20346  20449404.8674                   20449399.4104
        47.2504         40.0004
   2611085.61347   2095444.89145  22026797.7974                   22026793.8984
        47.2504         34.0004
  -2036853.54347  -1525306.60947  21428479.3054                   21428478.9844
        47.2504         44.5004
   4777732.83646   3767642.21544  25064608.0164                   25064608.1914
        39.5004         28.2504
  -3950052.03146  -2978377.70745  23956306.0004                   23956303.8204
        40.2504         32.5004
 25  8  8  9  5 30.0000000  0 10G06G11G13G14G17G19G22G24G15G12
  -3063883.52348  -2323187.57047  21100481.4844                   21100481.3554
        49.0004         47.5004
  -5380696.18747  -4084598.67245  22951025.4144                   22951023.6214
        45.0004         30.0004
   5536740.14846   4381185.23443  24427784.1484                   24427783.2304
        39.0004         19.5004
   3504567.18447   2764973.87545  22374581.5234                   22374579.2114
        43.7504         30.0004
   4258852.32847   3352957.41047  22332216.2664                   22332213.1954
        46.5004         42.0004
   1669906.60948   1347937.74646  20407542.7814                   20407537.7584
        48.5004         40.0004
   2399042.04747   1930216.13345  21986447.2894                   21986443.8094
        47.7504         34.2504
  -2324887.75447  -1749748.84447  21373668.1804                   21373667.2934
        47.0004         45.0004
   4602965.46946   3631459.78944  25031351.6174                   25031351.7584
        38.7504         27.5004
  -4288909.84046  -3242422.64145  23891822.7894                   23891821.0394
        40.5004         30.7504
 25  8  8  9  6  0.0000000  0 10G06G11G13G14G17G19G22G24G15G12
  -3365734.41448  -2558396.03547  21043040.8914                   21043040.4224
        49.0004         47.7504
  -5735283.39847  -4360900.37945  22883549.9614                   22883547.3444
        45.0004         30.0004
   5377850.79446   4257375.16243  24397548.1174                   24397547.7974
        39.5004         19.2504
   3314633.05547   2616973.23445  22338438.5394                   22338436.1024
        43.0004         30.2504
   4080443.83647   3213937.78547  22298266.9304                   22298263.1254
        45.7504         42.0004
   1450246.23847   1176773.82446  20365742.8754                   20365737.6214
        47.5004         39.2504
   2187171.64147   1765122.30545  21946129.7734                   21946126.1604
        47.7504         34.0004
  -2612344.59047  -1973741.17247  21318967.1884                   21318966.5394
        47.0004         44.7504
   4428212.93446   3495288.96144  24998096.7034                   24998097.2934
        38.5004         27.7504
  -4627749.34846  -3506453.35945  23827343.9534                   23827341.8874
        40.7504         30.7504
 25  8  8  9  6 30.0000000  0 10G06G11G13G14G17G19G22G24G15G12
  -3667026.86748  -2793169.35947  20985706.7344                   20985706.7154
        48.0004         47.5004
  -6089655.88347  -4637034.78145  22816115.2504                   22816113.1994
        44.2504         30.5004
   5218903.47346   4133519.96143  24367302.0784                   24367301.6604
        39.7504         19.5004
   3124912.50447   2469139.03144  22302335.4454                   22302333.5704
        44.0004         29.7504
   3902132.58247   3074993.93046  22264334.8594                   22264332.0594
        46.0004         41.5004
   1230911.18048   1005863.39146  20324004.5554                   20323999.4884
        48.5004         39.5004
   1975474.96148   1600163.83245  21905845.2894                   21905841.5004
        48.0004         34.0004
  -2899222.55547  -2197282.43447  21264376.0704                   21264375.3794
        47.5004         44.5004
   4253472.44946   3359127.53944  24964844.8984                   24964844.8634
        38.7504         27.0004
  -4966569.67646  -3770469.13345  23762869.1254                   23762866.7154
        40.5004         32.2504
 25  8  8  9  7  0.0000000  0 10G06G11G13G14G17G19G22G24G15G12
  -2392330.94548  -1799899.79347  21228273.3284                   21228273.3794
        48.0004         47.5004
  -4868380.90247  -3685391.92245  23048516.4844                   23048513.7234
        45.2504         31.2504
   6635319.01246   5237220.24643  24636836.6724                   24636836.3284
        38.2504         19.0004
   4510829.85947   3549074.62145  22566066.8524                   22566064.6684
        44.5004         30.0004
   5299340.78147   4163727.57846  22530215.0394                   22530211.5634
        44.5004         41.2504
   2587324.96548   2062809.19546  20582121.2424                   20582116.4774
        48.5004         39.5004
   3339377.65247   2662945.14845  22165387.4384                   22165383.2154
        46.7504         33.5004
  -1610092.76247  -1192765.71147  21509688.9774                   21509688.4344
        45.2504         44.5004
   5654164.96546   4450576.27044  25231388.0164                   25231388.0004
        36.7504         25.2504
  -3729940.34846  -2806861.77745  23998192.0234                   23998187.8054
        41.7504         31.0004
 25  8  8  9  7 30.0000000  0 10G06G11G13G14G17G19G22G24G15G12
  -2692504.73048  -2033801.42247  21171152.4304                   21171152.2154
        48.5004         47.5004
  -5222319.02347  -3961187.85945  22981163.6724                   22981161.6804
        46.0004         31.0004
   6476244.48846   5113265.87243  24606565.5864                   24606565.7344
        38.2504         18.5004
   4321532.84047   3401570.44945  22530045.2584                   22530042.8284
        43.7504         30.2504
   5121215.50447   4024928.65246  22496318.5164                   22496315.3164
        45.2504         41.5004
   2368631.95747   1892399.06646  20540505.5554                   20540500.7234
        47.5004         40.0004
   3128026.44547   2498255.88345  22125168.5554                   22125165.2934
        46.5004         34.2504
  -1895812.84447  -1415404.72347  21455317.8754                   21455317.3754
        45.5004         44.7504
   5479436.14546   4314423.91844  25198138.3674                   25198137.9774
        38.5004         26.2504
  -4068723.58246  -3070848.66045  23933723.3914                   23933721.8284
        40.0004         32.2504
 25  8  8  9  8  0.0000000  0 10G06G11G13G14G17G19G22G24G15G12
  -2992118.15648  -2267266.40647  21114138.0634                   21114137.3794
        48.0004         47.7504
  -5576037.27347  -4236812.43745  22913853.4304                   22913851.1174
        44.5004         30.0004
   6317100.66446   4989257.59043  24576281.9924                   24576281.4574
        37.5004         18.5004
   4132446.09047   3254230.10945  22494063.0004                   22494060.7664
        43.2504         31.0004
   4943179.07847   3886198.95746  22462439.4614                   22462436.7274
        45.5004         41.7504
   2150256.04348   1722236.00446  20498950.3754                   20498945.2464
        48.0004         39.7504
   2916846.90647   2333700.39545  22084982.4694                   22084978.7544
        47.5004         34.2504
  -2180953.66847  -1637592.36747  21401057.9384                   21401057.1254
        47.0004         45.0004
   5304707.36346   4178271.57844  25164888.7424                   25164888.5274
        38.5004         28.2504
  -4407488.82846  -3334821.47345  23869258.5314                   23869255.8954
        41.0004         32.0004
 25  8  8  9  8 30.0000000  0 10G06G11G13G14G17G19G22G24G15G12
  -3291169.57848  -2500293.47748  21057230.3914                   21057229.9384
        48.5004         48.0004
  -5929532.88347  -4512263.52345  22846584.9384                   22846583.4414
        45.2504         31.0004
   6157884.59446   4865192.91843  24545984.4774                   24545983.9264
        38.0004         18.2504
   3943569.63747   3107053.63745  22458120.7734                   22458118.2384
        43.5004         30.0004
   4765229.87947   3747537.23046  22428576.9534                   22428573.5354
        46.2504         41.0004
   1932195.77048   1552318.91046  20457454.6174                   20457449.4144
        48.5004         39.5004
   2705839.65647   2169279.14145  22044828.8364                   22044825.6914
        46.7504         34.0004
  -2465514.14847  -1859327.79347  21346907.7344                   21346906.8874
        47.0004         45.0004
   5129975.37546   4042116.79744  25131638.0784                   25131638.4414
        38.5004         28.0004
  -4746235.34846  -3598779.73845  23804797.5634                   23804794.2504
        41.0004         33.2504
 25  8  8  9  9  0.0000000  0 10G06G11G13G14G17G19G22G24G15G12
  -3589658.85248  -2732882.50048  21000429.8284                   21000429.4534
        48.5004         48.0004
  -6282804.66847  -4787540.18045  22779359.9614                   22779357.8594
        45.5004         31.2504
   5998591.85246   4741068.60543  24515671.6414                   24515672.1484
        38.2504         19.0004
   3754901.81347   2960039.73045  22422218.9924                   22422216.3324
        43.7504         30.0004
   4587364.86347   3608941.10246  22394730.4304                   22394727.5394
        45.7504         41.2504
   1714448.08248   1382645.39146  20416018.7194                   20416013.6884
        48.0004         40.0004
   2495003.27747   2004991.03945  22004708.2504                   22004704.7934
        47.0004         34.2504
  -2749494.69547  -2080611.32447  21292868.1724                   21292867.3244
        47.0004         45.0004
   4955235.73446   3905956.03144  25098386.7274                   25098386.6174
        36.5004         26.0004
  -5084963.93046  -3862724.01245  23740338.8984                   23740337.3484
        39.0004         32.0004
 25  8  8  9  9 30.0000000  0 10G06G11G13G14G17G19G22G24G15G12
  -3887582.91048  -2965031.10248  20943736.5394                   20943736.3364
        49.0004         48.0004
  -6635848.27047  -5062639.01645  22712178.1174                   22712176.0274
        45.0004         30.5004
   5839221.18846   4616883.49642  24485344.6564                   24485344.9614
        38.2504         17.7504
   3566444.18447   2813189.60945  22386356.5784                   22386354.3244
        43.5004         30.2504
   4409583.79347   3470410.38346  22360900.0474                   22360896.6764
        46.7504         41.5004
   1497012.95348   1213215.42246  20374641.9384                   20374637.0234
        48.0004         40.2504
   2284339.77047   1840837.65245  21964620.3444                   21964616.7624
        47.0004         33.2504
  -3032892.66447  -2301440.90247  21238939.3204                   21238938.2154
        46.5004         44.7504
   4780486.85246   3769788.07844  25065132.9454                   25065132.5204
        37.5004         28.5004
  -5423672.52047  -4126652.77745  23675885.6414                   23675881.7154
        43.0004         33.0004
 25  8  8  9 10  0.0000000  0 10G06G11G13G14G17G19G22G24G15G12
  -4184941.12148  -3196738.77348  20887151.2664                   20887150.7814
        48.7504         48.0004
  -6988662.03547  -5337558.78145  22645039.7034                   22645037.5744
        45.0004         31.2504
   5679768.69546   4492634.66043  24455002.8524                   24455001.7504
        37.2504         18.5004
   3378195.70747   2666502.48444  22350534.0944                   22350531.2894
        43.7504         29.2504
   4231884.25447   3331943.19146  22327084.6254                   22327081.1844
        46.5004         41.0004
   1279887.71148   1044026.92246  20333324.3754                   20333319.5314
        48.0004         39.5004
   2073848.38347   1676818.37945  21924565.2034                   21924561.5944
        47.2504         33.0004
  -3315708.02047  -2521816.49647  21185121.2114                   21185120.6054
        46.7504         45.0004
   4605724.86746   3633609.95344  25031876.4614                   25031876.2734
        36.7504         28.2504
  -5762361.35546  -4390566.03945  23611434.0234                   23611432.7154
        40.0004         32.5004
 25  8  8  9 10 30.0000000  0 10G06G11G13G14G17G19G22G24G15G12
  -2906299.30148  -2200394.48048  21130468.6254                   21130468.3244
        49.0004         48.0004
  -5765808.66047  -4384685.96945  22877740.7894                   22877738.7274
        45.2504         31.2504
   7095659.97346   5595926.43842  24724437.7194                   24724437.2814
        37.7504         17.7504
   4765585.37547   3747585.32445  22614545.3594                   22614542.7664
        42.5004         30.5004
   5629693.46547   4421145.16046  22593078.7034                   22593075.6214
        46.0004         41.0004
   2638500.77048   2102686.44146  20591860.0314                   20591854.7894
        48.0004         40.0004
   3438959.52347   2740541.34845  22184337.3834                   22184333.5514
        47.0004         33.7504
  -2022507.54347  -1514127.80547  21431209.1094                   21431208.5124
        46.7504         44.7504
   6006375.66445   4725026.18044  25298411.3754                   25298411.3984
        35.5004         27.2504
  -4525595.56246  -3426852.41845  23846783.5944                   23846779.6094
        39.5004         31.7504
 25  8  8  9 11  0.0000000  0 10G06G11G13G14G17G19G22G24G15G12
  -3202518.61748  -2431214.71148  21074099.8524                   21074099.4184
        48.5004         48.0004
  -6118151.87547  -4659239.09045  22810692.2584                   22810690.2234
        45.0004         31.2504
   6936038.59045   5471545.96543  24694061.1954                   24694062.7274
        35.5004         19.2504
   4577757.55947   3601225.97744  22578802.7274                   22578800.4414
        43.0004         29.7504
   5452154.93847   4282803.44146  22559294.4144                   22559291.1294
        45.2504         41.2504
   2421993.14547   1933979.20346  20550659.8834                   20550654.7234
        47.5004         40.2504
   3228816.55947   2576793.56645  22144348.0474                   22144345.0124
        47.2504         34.0004
  -2304151.95747  -1733590.98047  21377614.2584                   21377613.2504
        46.0004         44.7504
   5831581.57846   4588823.02044  25265150.0474                   25265149.1844
        37.0004         28.0004
  -4864240.04346  -3690731.10245  23782341.9534                   23782339.8954
        41.0004         33.2504
 25  8  8  9 11 30.0000000  0 10G06G11G13G14G17G19G22G24G15G12
  -3498165.52748  -2661588.90648  21017840.3834                   21017839.8404
        49.0004         48.2504
  -6470254.99247  -4933605.10545  22743689.5004                   22743686.6454
        45.5004         31.5004
   6776328.93846   5347096.71543  24663671.3284                   24663670.9654
        37.7504         18.2504
   4390140.74247   3455031.02744  22543100.5314                   22543098.4384
        43.2504         29.5004
   5274694.95747   4144522.92646  22525524.8674                   22525521.8444
        45.0004         41.2504
   2205792.51248   1765511.16846  20509518.4614                   20509513.3524
        48.5004         39.5004
   3018848.87947   2413182.37545  22104392.9064                   22104389.5274
        47.5004         33.5004
  -2585208.68447  -1952596.21547  21324130.7344                   21324130.0744
        47.5004         44.7504
   5656767.33646   4452604.12945  25231883.2734                   25231883.3404
        39.0004         31.0004
  -5202860.71146  -3954591.35545  23717903.0394                   23717899.3134
        39.0004         31.5004
 25  8  8  9 12  0.0000000  0 10G06G11G13G14G17G19G22G24G15G12
  -3793239.57048  -2891516.72348  20961690.0394                   20961688.8984
        49.0004         48.5004
  -6822116.32847  -5207782.72745  22676732.4454                   22676729.7384
        45.2504         30.7504
   6616527.60946   5222576.03543  24633262.7894                   24633261.7074
        39.2504         19.5004
   4202733.73847   3308999.57444  22507438.4534                   22507436.1094
        43.0004         29.5004
   5097311.09847   4006301.71946  22491769.6644                   22491767.2074
        45.7504         41.0004
   1989896.28148   1597280.34446  20468434.3834                   20468429.4844
        48.2504         39.0004
   2809055.96147   2249707.36745  22064470.6644                   22064467.1484
        46.7504         33.7504
  -2865677.85247  -2171143.60947  21270759.2974                   21270758.5124
        46.5004         45.2504
   5481928.97346   4316366.46144  25198613.2974                   25198612.9494
        37.2504         29.5004
  -5541457.94946  -4218433.25845  23653470.7814                   23653468.9614
        40.2504         33.0004
 25  8  8  9 12 30.0000000  0 10G06G11G13G14G17G19G22G24G15G12
  -4087741.00448  -3120998.34448  20905647.7584                   20905647.2584
        48.7504         48.2504
  -7173734.83647  -5481771.13745  22609821.5784                   22609819.2774
        44.2504         31.2504
   6456630.00046   5097980.35543  24602834.9224                   24602834.7894
        37.7504         19.0004
   4015534.85947   3163130.28944  22471815.6174                   22471813.5704
        42.2504         28.5004
   4920000.48447   3868137.59446  22458029.2424                   22458026.2854
        46.0004         41.0004
   1774301.68448   1429284.55546  20427408.7734                   20427403.5234
        48.7504         39.5004
   2599436.27747   2086367.34045  22024581.2814                   22024577.7624
        47.5004         33.2504
  -3145560.10947  -2389233.68447  21217499.6024                   21217498.6054
        47.5004         45.5004
   5307061.86746   4180106.34644  25165336.2584                   25165336.9694
        39.2504         29.2504
  -5880032.54346  -4482257.60945  23589042.4924                   23589038.2774
        41.2504         32.7504
 25  8  8  9 13  0.0000000  0 10G06G11G13G14G17G19G22G24G15G12
  -4381665.14148  -3350030.11748  20849715.8984                   20849715.3324
        49.0004         48.5004
  -7525104.53147  -5755565.65645  22542957.4774                   22542955.8874
        45.2504         31.0004
   6296636.64846   4973310.11742  24572387.6094                   24572389.1374
        37.0004         17.2504
   3828547.21547   3017425.60544  22436233.1174                   22436230.8594
        42.0004         27.7504
   4742764.43447   3730031.57046  22424302.2504                   22424298.9184
        46.0004         41.0004
   1559010.05948   1261524.84446  20386439.8134                   20386434.5514
        48.7504         39.2504
   2389993.37947   1923165.06645  21984725.5634                   21984722.3204
        47.5004         32.7504
  -3424851.35247  -2606863.22347  21164352.1564                   21164351.4384
        47.0004         45.0004
   5132166.59446   4043824.28944  25132055.3914                   25132055.3244
        38.0004         29.2504
  -6218580.52746  -4746061.11345  23524618.5084                   23524616.5234
        41.5004         33.5004
 25  8  8  9 13 30.0000000  0 10G06G11G13G14G17G19G22G24G15G12
  -3099581.47748  -2351003.86748  21093688.1564                   21093688.0044
        49.0004         48.5004
  -6300791.65647  -4801555.57845  22775936.8984                   22775934.4924
        45.0004         31.7504
   7711969.09446   6076166.33243  24841717.7114                   24841718.8674
        36.7504         19.2504
   5217196.33246   4099489.82844  22700483.8524                   22700481.6644
        41.5004         29.0004
   6141026.36747   4819586.31346  22690382.6484                   22690378.8984
        46.5004         40.5004
   2919445.89848   2321604.71946  20645322.2344                   20645317.2664
        48.5004         39.2504
   3756154.05947   2987705.85245  22244697.4614                   22244694.1804
        46.5004         33.2504
  -2128122.07847  -1596424.82047  21411111.2344                   21411110.8014
        46.5004         45.2504
   6532665.19146   5135121.84044  25398561.3054                   25398560.9144
        38.5004         29.0004
  -4981670.69946  -3782235.26245  23759994.3984                   23759992.4024
        40.7504         33.5004
 25  8  8  9 14  0.0000000  0 10G06G11G13G14G17G19G22G24G15G12
  -3392348.61748  -2579134.08648  21037976.0784                   21037975.6454
        49.5004         48.5004
  -6651657.33647  -5074957.35545  22709169.5084                   22709167.1884
        45.0004         32.0004
   7551773.92246   5951338.77343  24811235.2664                   24811234.3834
        39.0004         20.0004
   5030629.18047   3954112.80944  22664981.6174                   22664979.2464
        42.7504         29.2504
   5963932.88347   4681591.37546  22656683.1724                   22656679.3524
        47.0004         41.0004
   2704753.31348   2154311.78946  20604467.5474                   20604461.9534
        48.0004         39.2504
   3547064.30947   2824778.76245  22204908.7734                   22204905.6914
        47.0004         33.0004
  -2406230.41447  -1813132.60947  21358189.3204                   21358188.1254
        47.0004         45.2504
   6357702.68046   4998787.35944  25365267.1804                   25365266.7934
        38.0004         28.2504
  -5320165.22746  -4045997.13745  23695580.9694                   23695579.0204
        41.2504         32.5004
 25  8  8  9 14 30.0000000  0  9G06G11G13G14G17G19G22G24G12
  -3684538.07048  -2806814.16448  20982374.4924                   20982374.0204
        49.2504         48.5004
  -7002269.83647  -5348161.87145  22642450.5004                   22642447.5474
        45.2504         31.5004
   7391471.03946   5826427.25443  24780729.5634                   24780729.9574
        36.0004         19.0004
   4844269.27747   3808897.27044  22629518.8984                   22629516.6644
        42.2504         29.2504
   5786905.48847   4543647.93846  22622995.2274                   22622991.9654
        46.2504         41.0004
   2490354.90248   1987248.08646  20563668.9454                   20563664.1414
        48.2504         39.5004
   3338149.11347   2661987.68445  22165153.4534                   22165149.9694
        47.2504         33.2504
  -2683748.84047  -2029380.73447  21305378.9304                   21305378.0664
        47.5004         45.5004
  -5658634.85946  -4309739.68045  23631172.8524                   23631169.9384
        40.7504         33.7504
 25  8  8  9 15  0.0000000  0  9G06G11G13G14G17G19G22G24G12
  -3976146.17248  -3034041.23048  20926883.3054                   20926882.9304
        49.0004         48.5004
  -7352624.09047  -5621165.14545  22575779.5634                   22575777.6954
        44.7504         31.5004
   7231059.59846   5701431.22343  24750204.7424                   24750204.6724
        38.7504         19.2504
   4658118.80947   3663844.91844  22594095.1254                   22594093.0664
        43.0004         29.2504
   5609944.95347   4405756.60246  22589320.8524                   22589318.5354
        46.0004         40.5004
   2276251.39848   1820414.18446  20522926.6414                   20522921.4534
        48.7504         40.0004
   3129410.30947   2499334.05145  22125431.5474                   22125428.6294
        47.0004         32.7504
  -2960674.22347  -2245166.75047  21252681.8444                   21252681.4574
        47.5004         45.2504
  -5997076.23046  -4573460.19545  23566768.5394                   23566766.4574
        41.0004         32.0004
 25  8  8  9 15 30.0000000  0  9G06G11G13G14G17G19G22G24G12
  -4267167.63348  -3260811.18448  20871504.1024                   20871503.3674
        48.5004         48.5004
  -7702713.39147  -5893961.99245  22509159.9694                   22509157.6804
        45.5004         31.7504
   7070541.28146   5576351.85943  24719658.8524                   24719659.1024
        40.0004         20.0004
   4472181.76647   3518958.88744  22558712.9534                   22558710.5704
        42.7504         28.7504
   5433053.94547   4267919.46946  22555659.8364                   22555657.0904
        47.0004         40.5004
   2062445.75048   1653812.37146  20482240.3594                   20482235.0514
        48.5004         40.0004
   2920852.93847   2336821.80545  22085744.5084                   22085741.5204
        47.0004         33.0004
  -3237001.76647  -2460486.91047  21200098.7194                   21200097.8674
        46.5004         45.2504
  -6335484.84846  -4837155.12145  23502372.4614                   23502369.9184
        41.5004         34.0004
 25  8  8  9 16  0.0000000  0  9G06G11G13G14G17G19G22G24G12
  -4557600.65648  -3487122.61348  20816236.3524                   20816235.4574
        49.2504         48.5004
  -8052534.56647  -6166549.90245  22442590.7584                   22442589.0434
        45.5004         32.7504
   6909914.10246   5451187.68443  24689092.5554                   24689093.1214
        37.5004         18.5004
   4286458.42247   3374239.37544  22523370.7424                   22523368.4534
        42.7504         29.2504
   5256231.50047   4130135.71946  22522011.9454                   22522008.6094
        46.5004         40.5004
   1848936.66847   1487441.65246  20441610.6564                   20441605.9454
        47.0004         39.7504
   2712477.90647   2174451.64145  22046092.4844                   22046089.0004
        46.2504         32.2504
  -3512730.20347  -2675340.23447  21147629.3204                   21147628.6914
        45.7504         45.5004
  -6673859.18446  -5100823.41445  23437981.7504                   23437978.7274
        40.5004         33.5004
 25  8  8  9 16 30.0000000  0  9G06G11G13G14G17G19G22G24G12
  -3272014.36748  -2485367.05148  21060875.1804                   21060874.7664
        49.2504         48.5004
  -6826653.22347  -5211317.65645  22675868.4144                   22675866.4264
        44.7504         32.5004
   8324600.19546   6553540.36343  24958298.8284                   24958298.7584
        39.0004         19.0004
   5676374.92646   4457291.15644  22787862.8524                   22787860.8094
        41.2504         27.5004
   6654902.03947   5220008.86746  22788169.8134                   22788166.4344
        46.0004         40.0004
   3211149.55948   2548906.23446  20700831.5234                   20700826.2734
        48.2504         39.5004
   4079712.52047   3239829.25045  22306268.8284                   22306265.2504
        46.7504         33.2504
  -2212429.58647  -1662118.97347  21395068.2344                   21395067.1174
        47.2504         45.0004
  -5436767.80547  -4136856.00045  23673392.7814                   23673390.0664
        42.7504         34.5004
 25  8  8  9 17  0.0000000  0  9G06G11G13G14G17G19G22G24G12
  -3561266.84848  -2710758.57048  21005832.2734                   21005832.0234
        49.2504         48.5004
  -7175930.02747  -5483481.37945  22609403.2424                   22609401.0664
        45.0004         31.7504
   8163746.46946   6428199.64143  24927689.3754                   24927689.7974
        38.0004         18.2504
   5491078.76647   4312904.50044  22752601.9694                   22752600.2114
        42.5004         27.7504
   6478212.16847   5082328.44146  22754546.5704                   22754543.9024
        46.5004         40.7504
   2998228.35548   2382993.59846  20660313.7664                   20660308.4924
        48.5004         39.5004
   3871703.05147   3077743.93445  22266685.6174                   22266682.0164
        47.0004         33.0004
  -2486957.59447  -1876036.89147  21342827.4924                   21342826.3874
        46.5004         45.2504
  -5775071.41446  -4400469.19945  23609014.5864                   23609011.8524
        40.7504         33.0004
 25  8  8  9 17 30.0000000  0  9G06G11G13G14G17G19G22G24G12
  -3849928.40648  -2935689.63748  20950901.8134                   20950901.3754
        48.7504         48.7504
  -7524931.75447  -5755430.74645  22542991.0234                   22542988.3674
        44.7504         32.0004
   8002774.43046   6302766.69143  24897057.6174                   24897057.8014
        38.2504         18.2504
   5305994.85947   4168683.23044  22717382.2504                   22717380.0084
        42.5004         29.2504
   6301585.09447   4944696.94146  22720936.1884                   22720933.0044
        47.0004         40.5004
   2785597.58248   2217307.27346  20619851.5004                   20619846.4384
        48.0004         39.0004
   3663875.67247   2915800.51645  22227137.5944                   22227133.8094
        46.7504         32.7504
  -2760885.47747  -2089487.19147  21290700.4924                   21290699.7974
        47.5004         45.0004
  -6113339.52747  -4664054.66045  23544645.1254                   23544642.5354
        43.0004         34.0004
 25  8  8  9 18  0.0000000  0  9G06G11G13G14G17G19G22G24G12
  -4138000.24248  -3160161.18048  20896083.4694                   20896083.0044
        49.2504         48.7504
  -7873658.13747  -6027165.57045  22476629.8204                   22476627.6724
        45.5004         31.5004
   7841678.88346   6177237.50443  24866402.6484                   24866401.9774
        38.7504         19.0004
   5121120.57047   4024625.32044  22682202.2974                   22682199.8954
        42.0004         28.0004
   6125016.96147   4807111.38346  22687336.1094                   22687332.8794
        46.5004         40.5004
   2573252.97748   2051843.94146  20579443.9384                   20579439.0904
        48.2504         39.2504
   3456228.27747   2753997.34045  22187623.3834                   22187620.0554
        47.0004         32.5004
  -3034214.93747  -2302471.18447  21238687.3834                   21238686.6334
        47.0004         45.5004
  -6451574.01647  -4927613.99245  23480281.2424                   23480278.2624
        43.0004         34.5004
 25  8  8  9 18 30.0000000  0  9G06G11G13G14G17G19G22G24G12
  -4425480.19148  -3384171.51648  20841377.8364                   20841377.3054
        48.7504         48.7504
  -8222105.51647  -6298682.99245  22410322.6954                   22410320.6684
        44.7504         32.5004
   7680458.21546   6051610.75042  24835722.0394                   24835723.0904
        38.0004         17.7504
   4936456.92247   3880731.53544  22647061.3914                   22647059.1914
        42.2504         28.0004
   5948507.30147   4669571.38346  22653746.7664                   22653743.8094
        46.0004         40.7504
   2361194.38348   1886603.46946  20539090.0784                   20539085.8204
        48.0004         39.2504
   3248762.09447   2592335.36745  22148143.7504                   22148140.4184
        47.5004         32.5004
  -3306944.34048  -2514987.60247  21186788.7894                   21186788.0314
        48.0004         45.0004
  -6789772.80146  -5191145.38745  23415923.9384                   23415920.6954
        41.7504         32.7504
 25  8  8  9 19  0.0000000  0  9G06G11G13G14G17G19G22G24G12
  -4712368.65248  -3607720.94948  20786785.0474                   20786784.1174
        48.0004         48.7504
  -8570272.66047  -6569982.03145  22344068.8984                   22344066.2464
        45.2504         32.7504
   7519108.18846   5925883.23843  24805019.7974                   24805019.6374
        38.5004         18.2504
   4752002.18047   3737000.53544  22611961.1094                   22611958.4454
        43.0004         29.0004
   5772053.26647   4532074.73046  22620169.0554                   22620165.8324
        46.5004         40.5004
   2149418.68048   1721583.44146  20498791.0554                   20498785.6294
        48.5004         39.2504
   3041476.09447   2430813.78945  22108698.6564                   22108695.1724
        47.2504         32.2504
  -3579074.59447  -2727037.15647  21135004.0394                   21135003.6334
        47.7504         45.0004
  -7127936.83247  -5454649.85945  23351573.6024                   23351570.8524
        42.5004         34.2504
 25  8  8  9 19 30.0000000  0  9G06G11G13G14G17G19G22G24G12
  -3423235.42648  -2603201.53548  21032098.9694                   21032098.0984
        48.7504         48.7504
  -7342725.78547  -5613451.96945  22577662.6414                   22577660.9024
        45.2504         32.5004
   8933050.76646   7027656.50843  25074084.2664                   25074084.1684
        38.0004         18.5004
   6143181.94946   4821036.68844  22876693.2814                   22876691.2584
        41.7504         28.0004
   7171078.79347   5622224.47346  22886395.1254                   22886392.3244
        46.7504         40.2504
   3513350.77048   2784387.65646  20758338.3054                   20758333.6174
        48.5004         38.7504
   4409796.91047   3497037.79745  22369081.8984                   22369078.3914
        47.0004         33.0004
  -2275176.41447  -1711012.60247  21383127.6484                   21383127.0904
        47.5004         44.7504
  -5890634.23447  -4490517.85545  23587024.7974                   23587021.0164
        43.5004         35.0004
 25  8  8  9 20  0.0000000  0  9G06G11G13G14G17G19G22G24G12
  -3708938.88748  -2825827.59848  20977731.1564                   20977730.2464
        48.0004         49.0004
  -7690325.78147  -5884309.07445  22511516.7194                   22511514.5474
        45.0004         32.5004
   8771432.82446   6901720.17243  25043328.8204                   25043329.6994
        37.5004         18.2504
   5959143.37946   4677629.97744  22841672.1564                   22841670.0984
        41.7504         28.5004
   6994730.44947   5484810.17246  22852836.9774                   22852834.6374
        45.5004         39.7504
   3302134.43048   2619803.48846  20718145.3524                   20718140.4264
        48.2504         38.7504
   4202870.82047   3335796.67245  22329704.8364                   22329701.3834
        46.5004         32.5004
  -2546107.77747  -1922127.94947  21331571.1724                   21331570.2624
        47.2504         45.0004
  -6228727.17247  -4753966.85545  23522686.5784                   23522684.8984
        42.5004         34.5004
 25  8  8  9 20 30.0000000  0  9G06G11G13G14G17G19G22G24G12
  -3994048.06648  -3047990.57848  20923476.6484                   20923476.3954
        49.0004         49.0004
  -8037638.00447  -6154941.93445  22445425.5004                   22445423.3594
        45.5004         32.2504
   8609677.36346   6775676.71142  25012548.0864                   25012549.2664
        36.7504         17.7504
   5775312.84847   4534385.37944  22806690.4144                   22806688.3014
        42.0004         26.7504
   6818432.79347   5347435.39146  22819288.6174                   22819285.3714
        46.2504         40.5004
   3091195.78148   2455435.69546  20678004.8984                   20678000.1374
        48.7504         38.7504
   3996125.26647   3174696.21945  22290362.5554                   22290359.1214
        47.0004         32.7504
  -2816438.64547  -2132775.37947  21280128.8834                   21280128.3524
        47.0004         45.0004
  -6566782.89846  -5017386.88745  23458357.1724                   23458353.9184
        41.7504         34.0004
 25  8  8  9 21  0.0000000  0  9G06G11G13G14G17G19G22G24G12
  -4278561.75848  -3269689.54748  20869335.3674                   20869335.1454
        48.5004         49.0004
  -8384659.66847  -6425348.39145  22379389.3754                   22379387.2624
        45.5004         32.5004
   8447781.88346   6649524.22343  24981740.8134                   24981741.5474
        37.0004         18.5004
   5591690.37947   4391302.88744  22771748.7194                   22771746.6804
        42.5004         27.0004
   6642184.88347   5210099.32446  22785749.5784                   22785746.6174
        46.0004         40.5004
   2880533.38348   2291283.17646  20637917.1954                   20637912.2774
        48.0004         39.5004
   3789561.39547   3013737.35245  22251054.6094                   22251051.3014
        46.7504         32.5004
  -3086168.32047  -2342954.35247  21228801.1564                   21228800.2774
        46.5004         45.0004
  -6904800.76247  -5280777.35945  23394034.9064                   23394032.1724
        44.0004         35.0004
 25  8  8  9 21 30.0000000  0  9G06G11G13G14G17G19G22G24G12
  -4562477.25048  -3490922.38748  20815308.0634                   20815307.9884
        48.7504         49.0004
  -8731386.48447  -6695525.12945  22313409.8284                   22313407.3444
        45.2504         33.7504
   8285745.52046   6523261.87142  24950906.5314                   24950907.1684
        37.5004         16.7504
   5408277.54347   4248383.75044  22736845.8754                   22736843.9224
        43.0004         28.2504
   6465986.53547   5072801.90646  22752220.4384                   22752217.5704
        45.0004         39.7504
   2670146.91447   2127345.66046  20597881.9384                   20597877.0784
        47.5004         39.0004
   3583180.84847   2852921.33245  22211781.8524                   22211778.2194
        45.5004         31.2504
  -3355294.59047  -2552663.14547  21177588.0704                   21177587.2234
        46.7504         45.0004
  -7242778.03947  -5544136.25045  23329719.3134                   23329716.3794
        43.0004         34.2504
 25  8  8  9 22  0.0000000  0  9G06G11G13G14G17G19G22G24G12
  -4845795.46548  -3711689.80948  20761394.7114                   20761394.0234
        48.7504         49.0004
  -9077817.56647  -6965471.43445  22247486.3674                   22247483.7704
        45.7504         32.5004
   8123563.50846   6396886.04743  24920044.4144                   24920045.1024
        36.2504         18.2504
   5225072.24647   4105626.34844  22701983.1334                   22701981.4064
        43.0004         28.7504
   6289834.94547   4935540.92246  22718699.7034                   22718696.8714
        45.2504         39.7504
   2460033.12947   1963620.62946  20557899.0704                   20557893.8324
        47.5004         39.0004
   3376981.80147   2692246.73445  22172543.0314                   22172539.9184
        47.0004         32.0004
  -3623818.87147  -2761902.84447  21126489.7114                   21126489.0084
        46.0004         45.0004
  -7580715.51247  -5807464.10945  23265411.3134                   23265409.7194
        42.2504         34.7504
 25  8  8  9 22 30.0000000  0  9G06G11G13G14G17G19G22G24G12
  -3553086.13748  -2704383.82448  21007388.9304                   21007388.4774
        48.0004         49.2504
  -7848518.82847  -6007576.25445  22481413.8674                   22481411.9184
        46.5004         33.5004
   9536658.77046   7497998.96542  25188947.5314                   25188948.3484
        38.2504         16.7504
   6617500.32847   5190635.19144  22966953.7664                   22966951.6684
        42.7504         27.2504
   7689154.49647   6025919.79346  22984981.7344                   22984978.6604
        45.0004         40.0004
   3825617.28547   3027712.17646  20817760.8364                   20817755.8054
        47.2504         39.0004
   4746391.81347   3759319.46145  22433132.8204                   22433129.5784
        44.7504         32.0004
  -2316311.91047  -1743066.26647  21375299.8444                   21375299.3324
        46.0004         45.0004
  -6343181.50047  -4843151.84045  23500907.8204                   23500903.4454
        44.0004         34.5004
 25  8  8  9 23  0.0000000  0  9G06G11G13G14G17G19G22G24G12
  -3835206.50048  -2924217.86348  20953703.5634                   20953702.7424
        49.5004         49.2504
  -8194350.13747  -6277055.18445  22415604.5474                   22415602.4064
        46.0004         33.7504
   9374178.80546   7371390.93842  25158029.4534                   25158029.9454
        37.5004         16.2504
   6434710.12547   5048201.23444  22932169.9844                   22932167.9844
        42.7504         28.0004
   7513093.16447   5888729.11346  22951478.5004                   22951474.7584
        45.5004         39.7504
   3616045.42647   2864409.41446  20777880.7584                   20777875.6054
        47.0004         38.7504
   4540558.54747   3598929.89545  22393964.6254                   22393961.0824
        46.2504         31.5004
  -2583630.36747  -1951366.36747  21324430.7584                   21324430.1254
        46.0004         45.2504
  -6681036.42247  -5106415.35545  23436615.6414                   23436613.8324
        43.2504         35.7504
 25  8  8  9 23 30.0000000  0  9G06G11G13G14G17G19G22G24G12
  -4116725.37948  -3143583.21148  20900131.8054                   20900131.4264
        48.7504         49.2504
  -8539876.33647  -6546296.32845  22349852.9304                   22349850.4224
        46.2504         33.0004
   9211546.85946   7244664.48442  25127081.4384                   25127081.9844
        36.2504         16.7504
   6252128.35947   4905929.67644  22897425.4694                   22897423.4304
        42.5004         26.7504
   7337075.59447   5751572.56346  22917983.2344                   22917980.0234
        46.0004         40.0004
   3406743.07847   2701316.66846  20738051.9304                   20738046.4924
        46.5004         38.7504
   4334909.28147   3438683.70345  22354830.8204                   22354827.7464
        45.5004         32.7504
  -2850344.09847  -2159195.25847  21273677.0784                   21273676.3954
        47.0004         45.5004
  -7018847.41847  -5369644.67645  23372332.2114                   23372327.9734
        42.0004         33.5004
 25  8  8  9 24  0.0000000  0  9G06G11G13G14G17G19G22G24G12
  -4397642.80548  -3362479.89548  20846675.1954                   20846674.8094
        48.5004         49.5004
  -8885095.81647  -6815298.49245  22284159.8524                   22284157.1884
        46.5004         32.5004
   9048759.86346   7117817.22342  25096105.1414                   25096105.4844
        36.5004         17.2504
   6069753.96147   4763819.72744  22862721.0004                   22862718.8674
        43.2504         25.2504
   7161099.78947   5614448.55146  22884496.4064                   22884492.9414
        45.0004         39.5004
   3197707.65247   2538431.90246  20698273.4144                   20698268.6254
        47.7504         38.7504
   4129443.62147   3278580.57045  22315732.0234                   22315728.6484
        46.5004         31.5004
  -3116453.64147  -2366553.34847  21223038.3284                   21223037.6134
        46.5004         45.5004
  -7356614.58646  -5632839.82045  23308056.7504                   23308055.4694
        40.0004         34.7504
 25  8  8  9 24 30.0000000  0  9G06G11G13G14G17G19G22G24G12
  -4677957.82848  -3580907.17248  20793332.9384                   20793332.4224
        48.0004         49.5004
  -9230005.81247  -7084059.48445  22218525.5554                   22218523.1054
        46.0004         33.5004
   8885815.34445   6990847.11742  25065097.1644                   25065098.3244
        35.5004         17.2504
   5887586.91447   4621871.33244  22828055.9144                   22828053.7624
        43.0004         27.7504
   6985164.49247   5477356.11346  22851017.0314                   22851013.5594
        45.0004         39.5004
   2988937.36748   2375753.76646  20658545.7894                   20658540.9184
        48.5004         38.5004
   3924162.05947   3118620.89845  22276668.3364                   22276665.1024
        45.7504         32.0004
  -3381958.52047  -2573440.27047  21172514.0164                   21172513.4534
        47.0004         45.2504
  -7694337.03147  -5896000.17645  23243790.8444                   23243787.6804
        42.5004         35.5004
 25  8  8  9 25  0.0000000  0  9G06G11G13G14G17G19G22G24G12
  -4957669.23848  -3798864.09848  20740105.5784                   20740105.3834
        49.2504         49.5004
  -9574603.43447  -7352577.10245  22152950.4694                   22152947.9224
        46.7504         33.0004
   8722710.86346   6863752.51242  25034059.4064                   25034060.3484
        37.2504         17.2504
   5705627.33247   4480084.60944  22793429.9224                   22793428.1134
        42.5004         26.7504
   6809268.58247   5340294.36746  22817544.3754                   22817540.9454
        44.5004         39.0004
   2780431.31347   2213281.50446  20618868.4384                   20618863.6254
        47.0004         38.5004
   3719065.11747   2958805.09045  22237639.8674                   22237636.3324
        45.7504         32.0004
  -3646857.98847  -2779855.44947  21122105.4144                   21122104.9844
        47.0004         45.5004
  -8032013.02047  -6159124.23445  23179533.2584                   23179530.0554
        43.2504         34.5004
 25  8  8  9 25 30.0000000  0  9G06G11G13G14G17G19G22G24G12
  -5236776.26248  -4016350.07848  20686993.3204                   20686992.7464
        48.7504         49.5004
  -9918885.94147  -7620849.17245  22087435.7114                   22087433.0904
        46.5004         33.5004
   8559444.05546   6736531.34842  25002990.4774                   25002992.2424
        37.0004         16.2504
   5523875.01247   4338459.38344  22758843.8834                   22758841.9224
        43.0004         26.5004
   6633410.84047   5203262.35946  22784080.1644                   22784077.7034
        44.7504         39.5004
   2572188.53948   2051014.39546  20579241.4384                   20579236.5984
        48.7504         39.0004
   3514153.48047   2799133.66845  22198646.3364                   22198643.0234
        46.2504         32.0004
  -3911151.80547  -2985798.69147  21071811.8594                   21071811.1684
        47.5004         45.5004
  -8369641.95746  -6422211.69545  23115284.3674                   23115281.5474
        41.5004         35.0004
 25  8  8  9 26  0.0000000  0  9G06G11G13G14G17G19G22G24G12
  -3939848.97348  -3005757.37548  20933790.2424                   20933789.7624
        49.7504         49.5004
  -8687419.42247  -6661264.82845  22321775.8444                   22321773.7774
        46.2504         34.0004
   9971437.91046   7836786.03542  25271685.0554                   25271686.5004
        37.5004         14.7504
   6917755.66447   5424600.12144  23024090.2974                   23024088.3914
        43.2504         26.5004
   8033015.81347   6293863.63346  23050417.0164                   23050412.7274
        44.2504         39.0004
   3939633.39148   3116555.83246  20839457.3444                   20839452.3484
        48.2504         38.7504
   4884854.26647   3867212.18445  22459482.0004                   22459478.5554
        46.2504         31.5004
  -2599410.93747  -1963662.95347  21321427.9844                   21321427.2424
        47.0004         45.2504
  -7131791.92647  -5457653.21545  23350838.9774                   23350836.3054
        42.7504         35.2504
 25  8  8  9 26 30.0000000  0  9G06G11G13G14G17G19G22G24G12
  -4217745.52748  -3222300.13748  20880908.1884                   20880907.5474
        49.7504         49.5004
  -9031064.62147  -6929040.28545  22256382.5944                   22256380.1334
        46.5004         33.7504
   9807838.59846   7709305.78542  25240553.6094                   25240554.9654
        37.5004         17.2504
   6736416.70747   5283296.98444  22989582.3914                   22989580.7344
        43.7504         27.0004
   7857230.09447   6156887.76646  23016964.7584                   23016961.6954
        42.7504         38.7504
   3731910.78947   2954694.05946  20799929.2504                   20799924.1724
        46.5004         39.0004
   4680313.45347   3707829.72345  22420559.2114                   22420555.8204
        44.0004         32.5004
  -2862493.15647  -2168662.08647  21271365.1724                   21271364.4924
        47.5004         45.2504
  -7469324.84447  -5720665.83245  23286608.9774                   23286605.6994
        44.0004         35.5004
 25  8  8  9 27  0.0000000  0  9G06G11G13G14G17G19G22G24G12
  -4495034.95748  -3438369.80548  20828141.9064                   20828141.3834
        50.0004         49.5004
  -9374386.54347  -7196563.85545  22191050.6024                   22191048.4264
        46.2504         32.5004
   9644069.91446   7581693.57442  25209389.2034                   25209391.1764
        37.7504         16.2504
   6555284.88347   5142155.27044  22955114.9614                   22955112.7344
        43.5004         27.0004
   7681479.14547   6019938.96546  22983520.6484                   22983517.1994
        45.0004         38.5004
   3524446.61748   2793033.66046  20760450.2664                   20760444.9344
        49.0004         38.5004
   4475959.26247   3548592.68045  22381671.5314                   22381668.5664
        45.7504         32.2504
  -3124968.37547  -2373188.23047  21221417.6024                   21221417.1254
        47.2504         45.2504
  -7806806.89147  -5983638.81646  23222388.2114                   23222385.2344
        44.5004         36.0004
 25  8  8  9 27 30.0000000  0  9G06G11G13G14G17G19G22G24G12
  -4771717.61748  -3653966.67648  20775491.0084                   20775490.5434
        50.0004         49.5004
  -9717383.53947  -7463834.22345  22125780.3984                   22125778.0474
        46.5004         33.0004
   9480128.34846   7453946.71542  25178192.1954                   25178194.3674
        37.5004         16.7504
   6374358.98447   5001174.00844  22920685.8054                   22920683.6524
        43.7504         26.5004
   7505760.73847   5883015.53546  22950082.7424                   22950080.9574
        44.7504         39.7504
   3317238.79348   2631573.01246  20721020.1884                   20721014.6644
        48.2504         39.0004
   4271790.94547   3389500.46545  22342820.0474                   22342816.4804
        45.5004         31.5004
  -3386837.44547  -2577242.04747  21171586.0004                   21171585.2464
        47.0004         45.2504
  -8144238.37147  -6246572.40645  23158177.6954                   23158173.2584
        43.5004         35.5004
 25  8  8  9 28  0.0000000  0  9G06G11G13G14G17G19G22G24G12
  -5047793.31248  -3869090.58648  20722955.5004                   20722954.9734
        50.2504         49.5004
 -10060053.55547  -7730849.81245  22060572.1174                   22060570.0864
        46.0004         34.0004
   9316011.14846   7326062.99242  25146961.6954                   25146963.7384
        37.7504         16.7504
   6193638.24647   4860352.62144  22886296.3914                   22886293.6764
        43.7504         27.0004
   7330073.07847   5746116.08246  22916649.6724                   22916646.7934
        44.2504         38.5004
   3110284.79747   2470310.15246  20681637.5394                   20681633.0004
        47.7504         38.2504
   4067808.43047   3230553.03145  22304003.3674                   22303999.9184
        45.2504         31.0004
  -3648100.68447  -2780823.79747  21121868.9534                   21121868.3834
        47.0004         45.5004
  -8481618.76247  -6509466.16045  23093975.2114                   23093973.9104
        42.5004         35.7504
 25  8  8  9 28 30.0000000  0  9G06G11G13G14G17G19G22G24G12
  -5323260.75048  -4083740.52348  20670535.7344                   20670535.3094
        50.0004         49.5004
 -10402393.34047  -7997608.05145  21995427.1724                   21995425.2974
        46.2504         33.5004
   9151716.37146   7198040.82442  25115697.3674                   25115699.7854
        37.2504         16.2504
   6013123.14147   4719691.49244  22851945.1564                   22851942.6414
        43.2504         27.2504
   7154415.79747   5609240.23846  22883223.9774                   22883221.5204
        45.0004         39.2504
   2903583.88348   2309244.50046  20642303.5944                   20642298.8014
        48.5004         37.7504
   3864012.80547   3071751.23845  22265222.5944                   22265218.7774
        45.7504         31.5004
  -3908757.27347  -2983932.82847  21072267.8834                   21072267.4104
        47.5004         45.5004
  -8818946.54747  -6772318.99245  23029783.9064                   23029781.1524
        42.2504         35.5004
 25  8  8  9 29  0.0000000  0  8G06G11G14G17G19G22G24G12
  -4022688.09048  -3070307.27348  20918026.4924                   20918026.0004
        49.5004         49.5004
  -9168966.91047  -7036496.52745  22230140.2734                   22230138.3834
        46.5004         33.5004
   7408241.51247   5806796.68444  23117427.0784                   23117424.5274
        43.0004         26.5004
   8554215.50047   6699993.25446  23149597.4694                   23149593.8204
        45.2504         38.2504
   4272563.63748   3375981.96546  20902812.0394                   20902806.9414
        49.5004         38.7504
   5235832.99647   4140702.02045  22526271.2424                   22526267.8324
        46.2504         31.5004
  -2593376.32847  -1958960.66847  21322576.4924                   21322575.8244
        47.5004         46.0004
  -7580787.35547  -5807519.53546  23265398.4614                   23265394.3444
        43.7504         36.0004
 25  8  8  9 29 30.0000000  0  8G06G11G14G17G19G22G24G12
  -4296934.00848  -3284005.37148  20865839.2274                   20865838.3364
        49.5004         49.5004
  -9510635.42647  -7302731.70345  22165123.3594                   22165121.1724
        46.5004         33.7504
   7228140.18447   5666457.96144  23083154.4384                   23083153.0164
        42.2504         25.5004
   8378618.20347   6563164.21946  23116182.2974                   23116178.7544
        45.2504         38.7504
   4066367.62148   3215309.73846  20863574.3284                   20863569.1884
        48.5004         38.2504
   5032415.16047   3982194.60545  22487562.3444                   22487558.6994
        45.5004         30.5004
  -2852816.00447  -2161121.45347  21273206.4144                   21273205.7704
        47.5004         45.7504
  -7918003.68047  -6070285.48846  23201228.3674                   23201227.0904
        43.2504         37.2504
 25  8  8  9 30  0.0000000  0  8G06G11G14G17G19G22G24G12
  -4570567.68748  -3497226.41048  20813768.7504                   20813767.9654
        50.0004         49.5004
  -9851963.82847  -7568701.85245  22100170.4694                   22100168.7814
        45.5004         33.5004
   7048246.03547   5526280.65244  23048921.8524                   23048920.4574
        42.0004         27.0004
   8203049.41447   6426357.35946  23082772.9224                   23082768.6334
        45.5004         38.0004
   3860422.45747   3054832.98846  20824383.9304                   20824379.1994
        47.7504         37.7504
   4829187.22347   3823835.16445  22448888.9454                   22448886.0664
        45.0004         31.0004
  -3111646.47348  -2362807.53147  21223952.9144                   21223952.2934
        48.2504         45.7504
  -8255162.09847  -6333006.30145  23137069.0314                   23137065.3054
        44.5004         35.0004
 25  8  8  9 30 30.0000000  0  8G06G11G14G17G19G22G24G12
  -4843587.04748  -3709968.75848  20761814.6724                   20761814.0434
        49.2504         49.7504
 -10192948.07847  -7834403.83645  22035283.2114                   22035281.4304
        46.2504         33.5004
   6868560.28147   5386265.72744  23014729.1804                   23014727.6644
        42.0004         26.7504
   8027509.82447   6289573.27746  23049368.2344                   23049366.3054
        43.2504         38.7504
   3654727.82848   2894551.45746  20785242.0004                   20785236.7734
        48.5004         38.0004
   4626150.70347   3665624.87545  22410252.9304                   22410249.2814
        45.0004         30.0004
  -3369866.12548  -2564017.64847  21174815.5314                   21174814.7734
        48.5004         45.5004
  -8592259.79347  -6595679.75445  23072921.4924                   23072918.3204
        44.5004         35.5004
 25  8  8  9 31  0.0000000  0  8G06G11G14G17G19G22G24G12
  -5115989.68748  -3922230.55148  20709978.2584                   20709977.6884
        49.0004         49.5004
 -10533583.74647  -8099834.19145  21970462.5864                   21970460.3324
        46.0004         34.2504
   6689084.61747   5246414.54744  22980576.3754                   22980574.6054
        42.2504         26.2504
   7852000.00847   6152812.37546  23015970.1254                   23015965.5984
        44.5004         38.0004
   3449284.43448   2734465.69546  20746147.3674                   20746142.3244
        48.2504         38.2504
   4423308.52747   3507566.02045  22371653.3284                   22371649.6254
        45.2504         30.7504
  -3627473.04347  -2764750.31247  21125794.3914                   21125793.8164
        47.0004         45.2504
  -8929293.71947  -6858303.57445  23008785.6804                   23008782.6374
        42.5004         35.5004
 25  8  8  9 31 30.0000000  0  8G06G11G14G17G19G22G24G12
  -5387776.10948  -4134012.16448  20658258.9304                   20658258.4534
        50.2504         49.5004
 -10873869.26647  -8364991.70745  21905708.4694                   21905705.6724
        45.2504         33.7504
   6509817.78947   5106726.07444  22946462.9384                   22946460.8954
        42.7504         26.7504
   7676517.47747   6016072.73046  22982576.3364                   22982574.4104
        43.7504         38.0004
   3244089.76648   2574573.74646  20707100.0784                   20707095.1024
        48.7504         38.0004
   4220659.82847   3349657.93045  22333089.9924                   22333086.8054
        45.5004         30.2504
  -3884468.17647  -2965006.25047  21076889.5864                   21076889.2704
        45.7504         46.0004
  -9266264.04346  -7120877.82045  22944661.9774                   22944659.5474
        41.5004         35.5004
 25  8  8  9 32  0.0000000  0  8G06G11G14G17G19G22G24G12
  -4083518.55148  -3117707.56248  20906450.9064                   20906450.2774
        50.0004         49.5004
  -9638372.53947  -7402266.94145  22140815.2894                   22140813.2894
        46.5004         34.0004
   7906183.80947   6194803.48444  23212182.7194                   23212180.2234
        42.2504         26.5004
   9076485.64147   7106957.02746  23248981.8134                   23248978.6724
        45.0004         38.5004
   4614567.14548   3642478.18846  20967893.1254                   20967887.7504
        48.5004         38.0004
   5593630.01647   4419504.82044  22594357.7274                   22594354.6914
        44.2504         29.7504
  -2565424.72748  -1937180.18047  21327895.5084                   21327894.9964
        48.0004         45.5004
  -8027740.32047  -6155794.35246  23180346.0864                   23180343.2154
        44.0004         36.5004
 25  8  8  9 32 30.0000000  0  8G06G11G14G17G19G22G24G12
  -4354077.40248  -3328532.62948  20854965.2584                   20854964.6994
        49.2504         49.5004
  -9977956.43047  -7666877.72345  22076195.0394                   22076192.5474
        46.2504         34.7504
   7727327.73846   6055435.09844  23178147.0554                   23178145.1724
        41.2504         24.5004
   8901048.75847   6970252.96146  23215597.7664                   23215594.3324
        45.2504         38.2504
   4409858.95748   3482965.31346  20928938.6414                   20928933.3014
        48.2504         38.5004
   5391363.01647   4261894.16445  22555867.6484                   22555864.1134
        43.7504         30.7504
  -2821202.62147  -2136487.62947  21279222.2194                   21279222.0434
        45.5004         45.7504
  -8364586.54747  -6418271.90245  23116245.4534                   23116242.7974
        43.5004         35.7504
 25  8  8  9 33  0.0000000  0  8G06G11G14G17G19G22G24G12
  -4624022.76648  -3538879.66048  20803596.3524                   20803595.7384
        50.0004         49.5004
 -10317186.66847  -7931212.93445  22011641.5314                   22011639.4344
        46.2504         34.0004
   7548675.65646   5916225.66044  23144150.8524                   23144148.9224
        40.7504         24.5004
   8725631.93447   6833564.51246  23182216.5784                   23182213.1414
        43.2504         37.2504
   4205390.64148   3323639.34446  20890029.7734                   20890024.3404
        49.2504         37.7504
   5189286.20347   4104431.68445  22517413.2034                   22517410.2624
        46.0004         31.0004
  -3076372.83247  -2335321.56647  21230665.2114                   21230664.7194
        47.2504         45.7504
  -8701370.01647  -6680700.53146  23052158.5084                   23052155.3094
        43.0004         36.5004
 25  8  8  9 33 30.0000000  0  8G06G11G14G17G19G22G24G12
  -4893354.68448  -3748748.68048  20752343.9454                   20752343.8674
        50.0004         49.7504
 -10656061.25447  -8195271.00845  21947155.5944                   21947153.0004
        46.5004         34.5004
   7370226.91046   5777174.65244  23110193.2814                   23110191.5274
        41.2504         25.7504
   8550233.66047   6696890.58646  23148839.6414                   23148836.8594
        44.2504         38.7504
   4001160.62948   3164499.07046  20851165.9304                   20851161.0664
        48.2504         38.5004
   4987399.40647   3947117.28945  22478995.6804                   22478992.4964
        45.5004         30.5004
  -3330936.00848  -2533682.48447  21182223.0944                   21182223.0164
        48.5004         46.0004
  -9038089.80547  -6943079.55146  22988082.4224                   22988078.4414
        44.7504         36.0004
 25  8  8  9 34  0.0000000  0  8G06G11G14G17G19G22G24G12
  -5162072.01248  -3958138.80148  20701209.0784                   20701208.5474
        49.2504         49.5004
 -10994576.82447  -8459049.33645  21882738.1254                   21882736.2074
        46.5004         34.0004
   7191982.06347   5638282.52344  23076274.4224                   23076272.6214
        42.0004         26.0004
   8374853.68047   6560230.84046  23115465.0084                   23115462.0784
        42.5004         37.0004
   3797167.98048   3005543.75446  20812347.0084                   20812342.4384
        48.5004         38.0004
   4785703.73847   3789951.81345  22440614.6884                   22440611.3054
        45.5004         30.0004
  -3584891.34448  -2731569.75847  21133897.5234                   21133896.8284
        48.0004         45.7504
  -9374744.05947  -7205407.48846  22924019.2114                   22924016.2894
        45.2504         37.2504
 25  8  8  9 34 30.0000000  0  8G06G11G14G17G19G22G24G12
  -5430172.23048  -4167048.04348  20650191.1804                   20650190.3914
        50.0004         49.5004
 -11332728.71547  -8722544.27345  21818390.0164                   21818387.4964
        47.5004         34.2504
   7013942.94947   5499550.74244  23042394.6804                   23042392.7154
        42.5004         26.5004
   8199492.94547   6423586.11746  23082095.0784                   23082093.1804
        42.2504         38.0004
   3593413.48447   2846774.01246  20773573.8204                   20773569.3404
        47.7504         38.0004
   4584202.04747   3632937.49245  22402269.9694                   22402266.8404
        43.7504         30.5004
  -3838236.81248  -2928981.80947  21085687.3524                   21085686.4964
        49.0004         46.0004
  -9711329.50847  -7467681.83646  22859969.0234                   22859966.7344
        44.7504         37.2504
 25  8  8  9 35  0.0000000  0  8G06G11G14G17G19G22G24G12
  -4122227.78548  -3147870.54748  20899084.4304                   20899083.9804
        49.2504         49.5004
 -10095084.89147  -7758146.45345  22053905.8444                   22053903.3164
        46.0004         34.5004
   8411533.62547   6588582.41044  23308347.8444                   23308345.5944
        43.0004         25.5004
   9599574.15647   7514558.48046  23348522.6334                   23348519.6054
        44.0004         38.0004
   4965320.77047   3915792.67246  21034639.9694                   21034634.2894
        47.5004         38.0004
   5958319.72747   4703678.53545  22663755.9304                   22663752.9694
        45.0004         30.2504
  -2515545.82047  -1898313.50447  21337387.1094                   21337386.2814
        47.2504         46.0004
  -8472415.48447  -6502294.24246  23095726.5704                   23095724.0164
        43.5004         37.7504
 25  8  8  9 35 30.0000000  0  8G06G11G14G17G19G22G24G12
  -4389097.30148  -3355820.81648  20848301.1804                   20848300.4414
        49.7504         50.0004
 -10432506.42247  -8021072.28545  21989696.9534                   21989694.4024
        46.5004         34.0004
   8233900.82446   6450167.23044  23274545.7424                   23274543.1294
        41.5004         26.0004
   9424244.02047   7377937.60246  23315158.0944                   23315153.8484
        42.2504         37.0004
   4762033.82047   3757387.25846  20995954.9844                   20995950.1844
        47.0004         37.7504
   5757202.35247   4546963.67245  22625484.4304                   22625481.5664
        43.7504         31.2504
  -2767676.51647  -2094778.97747  21289408.6884                   21289407.6134
        45.5004         46.0004
  -8808864.23447  -6764462.07446  23031702.7814                   23031700.0634
        45.5004         37.5004
 25  8  8  9 36  0.0000000  0  8G06G11G14G17G19G22G24G12
  -4655353.07848  -3563292.84048  20797634.2734                   20797633.7114
        50.0004         49.5004
 -10769561.13347  -8283712.27345  21925556.9454                   21925554.6914
        46.5004         33.7504
   8056468.71546   6311908.41044  23240780.4694                   23240778.6994
        41.0004         25.5004
   9248925.68847   7241325.92646  23281796.1024                   23281793.1884
        42.0004         38.2504
   4558976.36747   3599160.66446  20957314.6564                   20957309.2894
        46.5004         38.0004
   5556275.34047   4390397.15645  22587249.3984                   22587246.1054
        45.5004         30.2504
  -3019202.09048  -2290772.93047  21241544.5004                   21241543.4104
        48.2504         46.0004
  -9145244.90247  -7026576.83646  22967691.6954                   22967688.4224
        45.7504         37.5004
 25  8  8  9 36 30.0000000  0  8G06G11G14G17G19G22G24G12
  -4920992.86748  -3770284.87548  20747084.7274                   20747084.4774
        49.0004         49.7504
 -11106244.45347  -8546062.86745  21861488.2664                   21861486.0354
        47.2504         34.7504
   7879239.05946   6173807.36344  23207054.7034                   23207053.4064
        40.0004         24.2504
   9073619.88347   7104723.98846  23248436.4454                   23248432.6724
        45.0004         37.0004
   4356149.05547   3441113.40246  20918717.7584                   20918712.7114
        47.7504         38.0004
   5355541.23447   4233980.94945  22549051.0004                   22549047.7544
        45.0004         30.0004
  -3270120.78547  -2486293.99247  21193796.2504                   21193795.3054
        45.5004         46.0004
  -9481554.38347  -7288636.11746  22903694.0784                   22903690.2624
        45.2504         37.2504
 25  8  8  9 37  0.0000000  0  8G06G11G14G17G19G22G24G12
  -5186015.76248  -3976796.21148  20696652.4304                   20696652.0124
        49.2504         49.7504
 -11442553.35247  -8808121.71145  21797491.0314                   21797488.6454
        46.5004         34.5004
   7702212.19546   6035864.32844  23173367.9304                   23173366.4534
        41.0004         24.5004
   8898326.51247   6968131.74646  23215078.7814                   23215077.0554
        43.5004         38.2504
   4153550.90647   3283244.71546  20880164.3204                   20880159.8014
        47.2504         37.5004
   5155001.04747   4077715.84445  22510889.3284                   22510886.1484
        45.0004         30.5004
  -3520432.17248  -2681341.82047  21146163.4924                   21146163.1604
        48.0004         45.5004
  -9817790.62547  -7550638.36346  22839709.9304                   22839706.2814
        43.5004         36.7504
 25  8  8  9 37 30.0000000  0  8G06G11G14G17G19G22G24G12
  -5450424.72348  -4182829.15648  20646337.0084                   20646336.6414
        49.0004         49.7504
 -11778488.45347  -9069889.29345  21733564.7584                   21733562.1374
        47.0004         34.5004
   7525384.75446   5898076.67644  23139719.1024                   23139717.2894
        40.0004         26.0004
   8723041.74247   6831546.21946  23181724.1564                   23181720.1134
        44.0004         37.0004
   3951177.45747   3125551.10946  20841654.1094                   20841649.3484
        47.5004         38.0004
   4954651.79747   3921599.53145  22472764.0314                   22472760.7854
        45.2504         30.0004
  -3770139.60548  -2875919.03947  21098645.4774                   21098645.1644
        48.7504         46.0004
 -10153955.60547  -7812585.05946  22775740.0704                   22775737.9734
        45.0004         38.2504
 25  8  8  9 38  0.0000000  0  8G06G11G14G17G19G22G24G12
  -5714218.29748  -4388382.58248  20596138.7114                   20596138.1054
        49.0004         49.7504
 -12114046.08647  -9331362.74245  21669710.3054                   21669707.7934
        47.0004         34.7504
   7348757.64846   5760445.16044  23106108.4224                   23106105.8554
        41.2504         26.0004
   8547764.99647   6694966.95346  23148369.6954                   23148366.5744
        42.7504         37.7504
   3749028.46147   2968032.40646  20803186.6094                   20803181.4654
        47.5004         37.5004
   4754495.00847   3765633.18444  22434675.6334                   22434672.7464
        45.0004         29.2504
  -4019242.15648  -3070024.92247  21051243.2344                   21051242.6884
        48.0004         46.2504
 -10490047.05147  -8074474.46546  22711784.0864                   22711780.9494
        44.7504         38.2504
 25  8  8  9 38 30.0000000  0  8G06G11G14G17G19G22G24G12
  -4401966.09048  -3365848.38348  20845852.4064                   20845851.3484
        49.0004         49.7504
 -10873791.13347  -8364930.26645  21905722.7344                   21905720.2974
        46.2504         34.5004
   8747758.03147   6850575.31344  23372328.9224                   23372326.8914
        42.2504         27.0004
   9947922.75047   7785998.98046  23414810.8834                   23414807.5594
        44.5004         38.0004
   5122530.69947   4038293.88746  21064555.3444                   21064550.6094
        47.0004         38.0004
   6129959.39847   4837423.59845  22696418.0394                   22696414.9064
        44.7504         30.2504
  -2692310.37547  -2036052.10947  21303749.9924                   21303749.2734
        47.0004         45.7504
  -9250630.75847  -7108695.48046  22947637.1414                   22947633.6214
        42.5004         37.5004
 25  8  8  9 39  0.0000000  0  8G06G11G14G17G19G22G24G12
  -4664527.48848  -3570441.66848  20795888.1414                   20795887.8954
        48.7504         49.7504
 -11208585.49647  -8625808.96145  21842013.6724                   21842011.2424
        46.5004         35.0004
   8571531.82046   6713256.17244  23338794.2344                   23338792.0864
        41.5004         25.0004
   9772660.39547   7649430.88746  23381459.7894                   23381455.2894
        43.5004         37.0004
   4920827.69148   3881122.70346  21026172.7814                   21026167.7274
        48.5004         38.0004
   5930189.81647   4681758.97345  22658402.8204                   22658400.0594
        45.0004         30.0004
  -2940203.10547  -2229215.27347  21256577.8364                   21256576.8164
        47.2504         46.2504
  -9586569.89847  -7370466.23446  22883709.4384                   22883708.1684
        43.2504         39.2504
 25  8  8  9 39 30.0000000  0  8G06G11G14G17G19G22G24G12
  -4926472.96948  -3774555.02048  20746041.7194                   20746041.2304
        49.7504         49.7504
 -11542994.86347  -8886387.65645  21778377.3364                   21778375.1254
        47.7504         35.0004
   8395505.29746   6576092.62944  23305297.5084                   23305295.6564
        41.0004         24.7504
   9597403.84447   7512867.32846  23348109.2194                   23348107.0354
        44.2504         37.5004
   4719345.17648   3724123.34046  20987831.8914                   20987826.9694
        48.5004         37.5004
   5730613.97347   4526245.28944  22620425.1334                   22620421.8094
        45.0004         29.7504
  -3187491.72347  -2421907.70347  21209519.9844                   21209519.5704
        47.2504         46.0004
  -9922431.50047  -7632176.54746  22819797.6024                   22819793.8874
        44.5004         38.2504
 25  8  8  9 40  0.0000000  0  8G06G11G14G17G19G22G24G12
  -5187802.61748  -3978188.50448  20696312.3984                   20696312.1054
        50.0004         49.7504
 -11877016.99247  -9146664.61745  21714815.0394                   21714812.6644
        47.5004         35.0004
   8219678.02046   6439084.34044  23271838.8134                   23271836.6414
        40.2504         24.0004
   9422151.89547   7376307.39146  23314758.9774                   23314756.3164
        42.5004         36.5004
   4518081.60548   3567294.58246  20949532.3054                   20949527.8404
        48.0004         37.0004
   5531232.10947   4370882.77745  22582484.0004                   22582480.9104
        45.0004         30.2504
  -3434176.78147  -2614129.82447  21162577.3984                   21162576.8054
        47.5004         45.7504
 -10258214.19147  -7893825.31646  22755899.9064                   22755896.3014
        44.2504         38.2504
 25  8  8  9 40 30.0000000  0  8G06G11G14G17G19G22G24G12
  -5448514.22748  -4181340.40648  20646700.8364                   20646700.1174
        49.0004         49.5004
 -12210647.37947  -9406636.30945  21651327.1954                   21651325.0594
        46.2504         35.7504
   8044051.78546   6302232.70744  23238418.2734                   23238416.4734
        41.0004         24.2504
   9246905.52347   7239751.74246  23281411.3754                   23281408.7034
        45.0004         37.5004
   4317037.53947   3410636.85946  20911274.9384                   20911269.9224
        47.7504         37.5004
   5332046.65247   4215673.30944  22544580.5004                   22544577.1524
        43.7504         29.5004
  -3680256.56247  -2805880.30147  21115749.8284                   21115749.1134
        47.7504         46.0004
 -10593914.64147  -8155410.05146  22692018.4844                   22692016.3444
        42.7504         39.0004
 25  8  8  9 41  0.0000000  0  8G06G11G14G17G19G22G24G12
  -5708608.83648  -4384011.52048  20597206.4694                   20597205.6884
        49.2504         50.0004
 -12543884.67247  -9666301.70345  21587913.8674                   21587912.2814
        47.0004         34.7504
   7868625.23447   6165536.68844  23205035.7034                   23205034.1454
        42.2504         25.7504
   9071662.94147   7103199.05146  23248064.1414                   23248060.7344
        44.5004         36.5004
   4116210.68048   3254148.39146  20873059.3364                   20873053.9774
        48.5004         37.5004
   5133056.91047   4060616.35244  22506714.1024                   22506710.0864
        45.2504         29.7504
  -3925732.53147  -2997160.27047  21069037.4694                   21069036.6294
        47.0004         46.0004
 -10929532.63747  -8416930.55146  22628152.1254                   22628150.0784
        44.7504         38.5004
 25  8  8  9 41 30.0000000  0  8G06G11G14G17G19G22G24G12
  -4392658.73848  -3358595.85248  20847623.3754                   20847622.8324
        49.2504         49.5004
 -11301296.28547  -8698050.98445  21824371.0084                   21824368.9184
        47.5004         35.2504
   9268822.97346   7256599.85244  23471484.8284                   23471482.6484
        41.5004         24.5004
  10471847.73447   8194252.15646  23514510.6884                   23514507.8284
        45.2504         37.2504
   5491025.69947   4325432.82446  21134677.6954                   21134672.9064
        47.0004         37.2504
   6509688.78147   5133316.48845  22768678.2814                   22768674.9774
        43.0004         30.0004
  -2595177.90647  -1960364.45747  21322233.3284                   21322232.9494
        47.5004         45.7504
  -9689636.78947  -7450777.88346  22864096.8754                   22864093.0314
        45.2504         38.5004
 25  8  8  9 42  0.0000000  0  8G06G11G14G17G19G22G24G12
  -4651521.16048  -3560306.82848  20798363.2034                   20798362.5514
        48.0004         49.7504
 -11633741.98047  -8957099.55145  21761108.6804                   21761106.4924
        47.0004         34.7504
   9093793.05147   7120212.87144  23438177.2894                   23438175.4654
        42.0004         26.0004
  10296607.56647   8057701.34846  23481164.1254                   23481159.7034
        45.2504         36.5004
   5290627.69547   4169278.53146  21096543.4774                   21096538.4064
        47.5004         37.7504
   6311089.25447   4978563.59045  22730886.1724                   22730882.8444
        44.5004         30.2504
  -2839449.43447  -2150705.89847  21275750.3054                   21275749.6214
        47.5004         46.0004
 -10025087.59047  -7712168.07846  22800262.7584                   22800259.4064
        44.5004         38.5004
 25  8  8  9 42 30.0000000  0  8G06G11G14G17G19G22G24G12
  -4909766.73448  -3761537.13748  20749220.8364                   20749220.3594
        49.5004         49.7504
 -11965787.52047  -9215836.30145  21697922.5314                   21697920.3444
        47.7504         35.5004
   8918961.82446   6983980.76244  23404907.8204                   23404906.1604
        40.7504         24.2504
  10121368.22747   7921151.20746  23447816.6804                   23447813.7854
        45.0004         36.7504
   5090442.52747   4013290.08646  21058449.1094                   21058444.1684
        46.2504         37.7504
   6112686.39147   4823963.94144  22693131.5394                   22693127.9734
        43.0004         29.5004
  -3083118.63347  -2340577.99647  21229381.2504                   21229380.7664
        47.0004         45.7504
 -10360452.05147  -7973491.01246  22736444.7344                   22736440.8364
        43.2504         37.7504
 25  8  8  9 43  0.0000000  0  8G06G11G14G17G19G22G24G12
  -5167395.49248  -3962286.81248  20700195.5084                   20700195.1024
        48.5004         49.5004
 -12297430.46147  -9474259.34845  21634813.2584                   21634810.6844
        47.0004         35.2504
   8744329.03546   6847903.22743  23371676.6484                   23371674.5354
        41.2504         23.7504
   9946128.77347   7784600.98446  23414469.6094                   23414466.4384
        44.5004         37.0004
   4890469.26247   3857466.75846  21020395.4614                   21020390.8054
        46.0004         37.0004
   5914480.25447   4669517.58244  22655414.1724                   22655410.6884
        43.0004         29.2504
  -3326185.96547  -2529981.10947  21183127.7424                   21183126.7814
        47.7504         45.7504
 -10695728.69547  -8234745.48046  22672643.9384                   22672640.0554
        42.0004         38.0004
 25  8  8  9 43 30.0000000  0  8G06G11G14G17G19G22G24G12
  -5424407.21948  -4162555.68448  20651287.9064                   20651287.5084
        48.0004         49.5004
 -12628668.18448  -9732366.63346  21571780.7974                   21571778.4024
        48.5004         36.0004
   8569894.58646   6711980.28144  23338483.0394                   23338481.1374
        40.7504         25.5004
   9770888.62547   7648050.21545  23381122.4844                   23381118.9574
        44.2504         35.5004
   4690706.59047   3701807.52346  20982382.1254                   20982377.2274
        46.7504         37.2504
   5716471.56347   4515225.07844  22617734.4534                   22617730.9734
        44.5004         29.5004
  -3568651.71948  -2718915.46147  21136987.3594                   21136986.8794
        48.2504         46.0004
 -11030915.95347  -8495930.32046  22608859.6804                   22608856.5004
        44.5004         38.0004
 25  8  8  9 44  0.0000000  0  8G06G11G14G17G19G22G24G12
  -5680803.93748  -4362345.32448  20602497.4384                   20602496.7384
        49.7504         49.5004
 -12959500.22748  -9990157.81646  21508825.5554                   21508822.8054
        48.0004         36.0004
   8395656.32046   6576210.18843  23305326.3364                   23305324.4494
        41.2504         23.5004
   9595645.10247   7511496.82046  23347774.7734                   23347772.2034
        44.5004         37.2504
   4491151.31647   3546309.91046  20944407.8204                   20944402.7814
        47.5004         37.2504
   5518658.85547   4361085.29744  22580091.5234                   22580088.3164
        44.0004         29.2504
  -3810518.32048  -2907382.94947  21090961.7504                   21090961.3594
        48.0004         46.0004
 -11366014.27747  -8757045.87946  22545092.3914                   22545089.3794
        43.2504         38.5004
 25  8  8  9 44 30.0000000  0  8G06G11G14G17G19G22G24G12
  -4361156.43048  -3334048.55948  20853618.2274                   20853617.4534
        49.0004         49.5004
 -11714492.41448  -9020021.82846  21745742.5704                   21745739.7424
        48.0004         36.0004
   9797040.48046   7668197.84044  23572001.3204                   23571999.1454
        41.0004         25.0004
  10995823.98447   8602545.27745  23614219.3054                   23614216.2114
        43.7504         34.7504
   5867229.92647   4618578.95346  21206266.8444                   21206262.3754
        47.5004         38.0004
   6896469.83247   5434704.22344  22842280.0314                   22842277.0124
        43.7504         28.2504
  -2476357.46148  -1867777.09447  21344844.3524                   21344843.7624
        48.5004         46.0004
 -10125590.32847  -7790481.72346  22781137.0554                   22781134.0664
        44.5004         38.5004
 25  8  8  9 45  0.0000000  0  8G06G11G14G17G19G22G24G12
  -4616321.93748  -3532878.82048  20805061.3284                   20805061.1254
        48.0004         49.5004
 -12044504.41848  -9277174.01245  21682942.9224                   21682940.6644
        48.7504         35.5004
   9623195.16446   7532733.94144  23538919.2424                   23538917.2734
        39.5004         24.5004
  10820572.68047   8465985.82846  23580871.3204                   23580868.5704
        45.0004         37.5004
   5668087.34847   4463402.92246  21168371.2424                   21168366.5124
        47.7504         37.7504
   6699051.50447   5280871.73844  22804712.6094                   22804709.4224
        44.0004         29.2504
  -2717025.89848  -2055310.94147  21299046.5704                   21299046.2074
        48.2504         46.0004
 -10460504.79347  -8051454.00446  22717404.5004                   22717402.3634
        44.2504         38.7504
 25  8  8  9 45 30.0000000  0  8G06G11G14G17G19G22G24G12
  -4870871.64848  -3731229.24248  20756622.3284                   20756621.9344
        49.0004         50.0004
 -12374102.48048  -9534003.64145  21620222.6334                   21620219.8634
        48.0004         35.7504
   9449546.24646   7397423.07044  23505874.7664                   23505873.3134
        40.7504         25.2504
  10645316.90247   8329422.81345  23547520.8134                   23547517.0704
        44.0004         35.2504
   5469149.69548   4308386.55146  21130514.7974                   21130509.6254
        48.5004         37.2504
   6501831.16047   5127193.52744  22767183.1564                   22767179.5514
        43.5004         28.2504
  -2957095.69548  -2242378.32047  21253363.0784                   21253362.0984
        49.0004         46.2504
 -10795324.85247  -8312352.71546  22653691.1174                   22653687.4104
        44.5004         38.5004
 25  8  8  9 46  0.0000000  0  8G06G11G14G17G19G22G24G12
  -5124807.28148  -3929101.15248  20708300.1334                   20708299.3054
        49.2504         49.7504
 -12703285.80547  -9790510.09446  21557581.5004                   21557578.7734
        47.2504         36.2504
   9276091.98846   7262263.90643  23472867.6414                   23472866.2974
        41.0004         22.5004
  10470054.19947   8192854.49246  23514169.3984                   23514167.2074
        43.7504         36.2504
   5270414.00047   4153527.56646  21092696.9224                   21092691.8484
        46.7504         37.2504
   6304807.76247   4973668.78544  22729690.8204                   22729687.5234
        42.2504         28.0004
  -3196568.99248  -2428980.88747  21207792.2504                   21207792.2234
        49.2504         46.0004
 -11130050.63347  -8573177.95346  22589994.8364                   22589991.8324
        45.5004         39.5004
 25  8  8  9 46 30.0000000  0  8G06G11G14G17G19G22G24G12
  -5378127.60548  -4126493.60248  20660094.6024                   20660094.0314
        48.7504         49.7504
 -13032050.59048 -10046690.41846  21495019.0634                   21495016.8364
        48.2504         36.2504
   9102833.40246   7127257.19944  23439897.7894                   23439895.3754
        39.2504         24.0004
  10294785.09047   8056281.15645  23480817.0084                   23480813.3554
        43.5004         35.5004
   5071880.43448   3998826.08246  21054916.9064                   21054912.0314
        48.5004         36.7504
   6107982.89847   4820298.74244  22692235.9304                   22692232.9184
        43.7504         28.7504
  -3435445.05548  -2615118.08247  21162336.1254                   21162335.3834
        48.7504         46.0004
 -11464679.16447  -8833927.43046  22526316.4534                   22526314.1764
        45.2504         39.7504
 25  8  8  9 47  0.0000000  0  8G06G11G14G17G19G22G24G12
  -5630834.23448  -4323407.85548  20612006.1564                   20612005.8984
        48.2504         50.0004
 -13360395.94948 -10302543.90646  21432537.0314                   21432534.8404
        48.0004         36.0004
   8929768.87146   6992401.71543  23406964.7034                   23406962.6764
        39.5004         22.0004
  10119507.58247   7919701.26646  23447462.7194                   23447459.1524
        42.7504         36.0004
   4873546.37148   3844280.04746  21017175.3594                   21017170.0944
        48.2504         37.2504
   5911355.51247   4667082.57044  22654819.2894                   22654816.3984
        43.7504         28.0004
  -3673725.93048  -2800791.50047  21116993.0314                   21116991.9804
        48.5004         46.0004
 -11799210.46947  -9094601.14146  22462657.6414                   22462654.7034
        45.2504         39.0004
 25  8  8  9 47 30.0000000  0  8G06G11G14G17G19G22G24G12
  -4307497.06648  -3292236.02348  20863829.0084                   20863828.4964
        49.7504         50.0004
 -12112886.65247  -9330458.71146  21669930.2424                   21669927.7664
        47.7504         36.0004
  10332325.75446   8085303.13743  23673862.1254                   23673860.7774
        39.7504         22.2504
  11519648.74647   9010720.35946  23713900.7114                   23713897.7584
        43.5004         36.0004
   6250839.09847   4917495.16446  21279265.7034                   21279260.7894
        47.5004         36.5004
   7290354.80947   5741627.46144  22917234.4064                   22917231.0514
        44.5004         28.5004
  -2335982.37548  -1758393.92247  21371556.9144                   21371556.1994
        48.5004         46.0004
 -10558209.77047  -8127587.55946  22698812.5784                   22698809.0164
        45.2504         38.5004
 25  8  8  9 48  0.0000000  0  8G06G11G14G17G19G22G24G12
  -4558975.52748  -3488193.25448  20815973.6564                   20815973.8794
        50.0004         49.7504
 -12440384.55548  -9585651.84446  21607609.8134                   21607607.0664
        48.2504         36.0004
  10159649.89146   7950750.49243  23641003.2734                   23641001.5394
        40.0004         22.0004
  11344353.95747   8874126.94946  23680543.4534                   23680541.8094
        43.7504         37.0004
   6052901.91847   4763258.39146  21241599.3444                   21241594.4534
        47.2504         37.2504
   7094125.40647   5588721.40244  22879892.4844                   22879889.6684
        43.7504         28.2504
  -2573073.27748  -1943140.07847  21326439.9454                   21326439.3444
        48.5004         46.0004
 -10892540.27347  -8388104.79746  22635191.7584                   22635188.1174
        44.7504         38.5004
 25  8  8  9 48 30.0000000  0  8G06G11G14G17G19G22G24G12
  -4809841.02348  -3683672.85948  20768235.7894                   20768235.3674
        50.0004         49.7504
 -12767456.02348  -9840512.69945  21545369.7664                   21545367.5354
        48.0004         35.7504
   9987167.19946   7816348.37944  23608180.7274                   23608178.6994
        40.5004         24.2504
  11169048.34446   8737525.21145  23647182.9924                   23647180.6884
        41.5004         35.0004
   5855160.80547   4609174.40646  21203970.0864                   21203965.0044
        47.5004         37.0004
   6898094.70747   5435970.19944  22842589.6024                   22842586.5124
        43.0004         28.7504
  -2809571.02048  -2127424.03547  21281435.8834                   21281435.2234
        48.2504         46.2504
 -11226768.85547  -8648542.62946  22571589.2424                   22571586.6994
        44.0004         38.5004
 25  8  8  9 49  0.0000000  0  8G06G11G14G17G19G22G24G12
  -5060094.54348  -3878675.59848  20720614.1884                   20720613.9574
        50.0004         49.7504
 -13094099.44548 -10095040.01246  21483211.5314                   21483209.0704
        48.0004         36.0004
   9814876.69146   7682096.00844  23575395.4844                   23575393.2304
        39.7504         25.0004
  10993730.95347   8600914.20746  23613823.3204                   23613818.7194
        45.5004         36.7504
   5657613.55948   4455241.48446  21166378.3674                   21166373.3484
        48.0004         37.5004
   6702262.37147   5283373.55144  22805323.6174                   22805321.1454
        43.7504         29.0004
  -3045476.98048  -2311246.87147  21236544.3284                   21236543.8594
        48.0004         46.2504
 -11560894.79747  -8908900.46946  22508008.2114                   22508004.3284
        45.5004         38.5004
 25  8  8  9 49 30.0000000  0  8G06G11G14G17G19G22G24G12
  -5309734.89848  -4073200.54348  20673109.4384                   20673108.6604
        50.2504         50.0004
 -13420310.98847 -10349230.79746  21421135.5704                   21421133.2734
        47.7504         36.5004
   9642779.55546   7547994.32444  23542646.3834                   23542644.4734
        40.5004         24.5004
  10818402.39547   8464294.48045  23580458.4384                   23580456.5904
        43.7504         35.2504
   5460260.50447   4301459.88346  21128823.4384                   21128818.3914
        47.0004         36.7504
   6506630.34447   5130932.97344  22768096.7274                   22768093.3204
        42.5004         28.5004
  -3280790.38347  -2494607.96547  21191765.6724                   21191765.3634
        47.0004         46.0004
 -11894914.63347  -9169175.64146  22444445.6954                   22444442.3714
        45.0004         39.0004
 25  8  8  9 50  0.0000000  0  8G06G11G14G17G19G22G24G12
  -5558763.61748  -4267248.88748  20625720.6254                   20625720.0824
        48.7504         49.5004
 -13746089.55948 -10603084.19546  21359141.9534                   21359139.4924
        48.0004         36.7504
   9470874.29346   7414042.14844  23509933.5164                   23509931.8204
        39.7504         24.5004
  10643061.14147   8327664.97345  23547091.2344                   23547087.3834
        43.5004         35.2504
   5263099.54347   4147827.95746  21091304.9534                   21091299.9064
        47.2504         37.0004
   6311197.77047   4978647.82844  22730907.2114                   22730903.7774
        43.7504         28.7504
  -3515513.23047  -2677508.89547  21147100.0004                   21147098.8244
        47.5004         45.7504
 -12228828.30947  -9429368.09846  22380904.1644                   22380900.5234
        45.2504         39.0004
 25  8  8  9 50 30.0000000  0  8G06G11G14G17G19G22G24G12
  -4231754.60548  -3233215.88348  20878242.3914                   20878241.8164
        49.0004         49.5004
 -12496003.81647  -9628991.37145  21597025.5314                   21597023.0984
        47.7504         35.5004
  10874584.56646   8507842.32844  23777051.1644                   23777049.1564
        40.2504         24.2504
  12043129.94146   9418627.66045  23813515.3054                   23813513.1914
        41.5004         35.5004
   6641553.97747   5221948.29746  21353615.6564                   21353611.0044
        46.2504         37.0004
   7691389.65647   6054122.00044  22993548.6094                   22993545.2734
        42.0004         28.0004
  -2174220.26647  -1632345.54747  21402339.3364                   21402338.4264
        47.0004         46.0004
 -10987204.67247  -8461869.14146  22617176.8984                   22617174.2464
        45.2504         39.0004
 25  8  8  9 51  0.0000000  0  8G06G11G14G17G19G22G24G12
  -4479562.61348  -3426313.02748  20831086.0234                   20831085.6134
        50.2504         49.7504
 -12820911.05147  -9882165.82845  21535197.8054                   21535195.4184
        47.7504         35.5004
  10703060.77746   8374187.42243  23744410.8984                   23744409.3914
        40.0004         23.7504
  11867759.09447   9281974.96945  23780144.9774                   23780139.9534
        43.0004         34.7504
   6444772.11747   5068611.76646  21316169.8524                   21316164.4304
        46.5004         37.2504
   7496355.57847   5902147.36344  22956434.7584                   22956431.6914
        43.5004         28.2504
  -2407765.74247  -1814329.03947  21357897.0234                   21357896.3484
        47.5004         46.2504
 -11320902.18447  -8721893.14546  22553676.3284                   22553673.3014
        44.2504         39.0004
 25  8  8  9 51 30.0000000  0  8G06G11G14G17G19G22G24G12
  -4726759.67648  -3618934.10948  20784045.5474                   20784045.5434
        49.7504         49.5004
 -13145378.10947 -10134997.28146  21473454.0164                   21473451.1214
        46.5004         36.0004
  10531728.40646   8240681.64843  23711807.9454                   23711805.6174
        40.0004         22.5004
  11692373.96146   9145311.27746  23746768.4304                   23746769.0274
        41.2504         36.7504
   6248179.17247   4915422.44946  21278759.5474                   21278754.5634
        47.0004         37.0004
   7301522.41447   5750329.28944  22919359.2504                   22919356.2304
        43.7504         29.0004
  -2640722.57447  -1995853.84847  21313567.0474                   21313566.2504
        46.7504         45.7504
 -11654488.26647  -8981830.30146  22490197.6414                   22490194.2624
        44.0004         39.0004
 25  8  8  9 52  0.0000000  0  8G06G11G14G17G19G22G24G12
  -4973349.12148  -3811081.71948  20737121.3594                   20737120.7544
        49.0004         49.5004
 -13469405.52347 -10387486.15246  21411793.0314                   21411790.8094
        47.7504         36.7504
  10360584.27746   8107322.57444  23679239.9694                   23679238.0274
        39.0004         24.0004
  11516970.89847   9008633.48045  23713392.2814                   23713387.4924
        43.5004         35.5004
   6051771.14547   4762377.23046  21241384.2584                   21241379.2464
        46.0004         37.0004
   7106887.70747   5598665.83644  22882322.0004                   22882319.2194
        43.5004         28.5004
  -2873094.57447  -2176922.94547  21269348.0394                   21269347.0164
        46.0004         46.0004
 -11987963.79347  -9241681.35246  22426738.6644                   22426735.8794
        44.5004         39.0004
 25  8  8  9 52 30.0000000  0  8G06G11G14G17G19G22G24G12
  -5219329.02348  -4002754.36348  20690313.1334                   20690312.0234
        49.5004         49.7504
 -13792988.75447 -10639628.92246  21350217.4614                   21350214.9224
        46.5004         36.5004
  10189630.43446   7974111.77043  23646708.7504                   23646706.5004
        39.5004         22.0004
  11341551.77047   8871943.24645  23680009.7814                   23680007.8444
        42.0004         35.7504
   5855549.23847   4609477.03546  21204044.4534                   21204039.0944
        47.2504         36.5004
   6912454.16847   5447159.16044  22845322.3284                   22845319.2304
        45.5004         29.2504
  -3104880.15647  -2357535.08647  21225240.5394                   21225239.6024
        46.5004         46.0004
 -12321325.29747  -9501443.53546  22363302.4844                   22363299.1024
        44.0004         39.7504
 25  8  8  9 53  0.0000000  0  8G06G11G14G17G19G22G24G12
  -5464700.11748  -4193952.61748  20643620.4304                   20643619.7194
        50.0004         49.7504
 -14116125.80947 -10891424.01646  21288726.4774                   21288724.0474
        47.7504         36.2504
  10018866.23846   7841048.73443  23614213.6414                   23614211.3594
        39.2504         20.5004
  11166115.70747   8735239.76246  23646626.2974                   23646624.1804
        43.7504         36.5004
   5659512.23047   4456720.93046  21166739.8984                   21166734.4884
        46.0004         37.0004
   6718221.58247   5295809.06344  22808361.1024                   22808358.1804
        42.5004         28.5004
  -3336080.53547  -2537691.23047  21181244.4844                   21181243.9924
        47.5004         45.5004
 -12654570.94147  -9761115.44146  22299888.0314                   22299884.5744
        45.0004         39.0004
 25  8  8  9 53 30.0000000  0  8G06G11G14G17G19G22G24G12
  -5709463.34848  -4384677.19948  20597043.2974                   20597043.2424
        49.5004         49.7504
 -14438814.96147 -11142870.09846  21227320.4844                   21227318.3054
        46.5004         37.0004
   9848291.02046   7708132.98043  23581753.2424                   23581751.1094
        39.2504         21.5004
  10990661.91447   8598522.50846  23613239.2194                   23613234.0904
        44.2504         36.2504
   5463658.56347   4304107.68046  21129470.0084                   21129465.3134
        46.5004         36.0004
   6524190.28147   5144615.81644  22771438.1334                   22771434.9804
        43.7504         28.5004
  -3566697.02347  -2717392.39547  21137359.8524                   21137359.1844
        46.5004         45.7504
 -12987699.51647 -10020696.11746  22236495.1024                   22236492.2584
        44.5004         39.0004
 25  8  8  9 54  0.0000000  0  8G06G11G14G17G19G22G24G12
  -4378192.38748  -3347323.20348  20850375.7584                   20850375.5274
        49.5004         50.0004
 -13185624.53147 -10166358.05546  21465794.6024                   21465792.2424
        47.2504         36.7504
  11253328.85546   8802967.64143  23849123.0234                   23849121.7274
        38.7504         21.5004
  12390614.05547   9689394.27745  23879640.6884                   23879635.0354
        42.2504         34.0004
   6843412.24647   5379240.42246  21392028.5704                   21392023.5904
        45.5004         36.0004
   7905785.64547   6221183.59444  23034346.8834                   23034343.8634
        42.5004         28.5004
  -2221304.19147  -1669034.35947  21393379.4844                   21393378.6484
        47.5004         45.7504
 -11745279.55547  -9052576.64146  22472919.8054                   22472916.9534
        45.0004         40.0004
 25  8  8  9 54 30.0000000  0  9G06G11G25G14G17G19G22G24G12
  -4621744.55948  -3537104.10948  20804029.5394                   20804028.8244
        49.7504         49.7504
 -13507414.32047 -10417103.33646  21404560.3674                   21404557.8594
        46.7504         36.5004
  38952188.73056  30442011.40654  24803459.9384                   24803460.2074
        38.5004         28.0004
  11083127.47346   8670343.14543  23816735.4694                   23816733.5864
        38.2504         22.0004
  12215119.41447   9552645.22346  23846244.3284                   23846241.9574
        43.5004         36.0004
   6647918.60947   5226907.70346  21354827.3594                   21354821.9344
        46.2504         36.5004
   7712154.57847   6070302.21144  22997500.7034                   22997497.2384
        44.5004         28.7504
  -2450758.88347  -1847830.23047  21349715.5784                   21349715.3204
        46.2504         46.0004
 -12078172.14547  -9311973.43746  22409572.5474                   22409569.6054
        45.5004         39.7504
 25  8  8  9 55  0.0000000  0  9G06G11G25G14G17G19G22G24G12
  -4864692.75848  -3726414.38748  20757798.2504                   20757797.2194
        50.0004         49.7504
 -13828751.87947 -10667496.23446  21343411.9924                   21343409.0474
        47.2504         36.7504
  38599757.82846  30167389.93045  24736394.5634                   24736395.0234
        40.2504         30.5004
  10913111.78946   8537863.35243  23784383.0394                   23784380.4454
        39.2504         22.0004
  12039602.89147   9415879.03545  23812843.9844                   23812841.6134
        42.0004         34.0004
   6452602.69547   5074713.48446  21317659.7034                   21317655.1294
        47.2504         36.2504
   7518723.55147   5919576.69144  22960691.3674                   22960688.4064
        45.0004         28.0004
  -2679634.79347  -2026175.10947  21306161.6884                   21306161.1564
        47.0004         45.5004
 -12410944.87147  -9571276.83246  22346248.8754                   22346245.4024
        45.2504         39.5004
 25  8  8  9 55 30.0000000  0  9G06G11G25G14G17G19G22G24G12
  -5107040.04748  -3915256.42648  20711680.5864                   20711680.3984
        50.0004         49.7504
 -14149637.56247 -10917537.01246  21282349.1414                   21282346.4614
        47.7504         37.2504
  38247292.13346  29892741.36745  24669321.9064                   24669322.6294
        38.0004         30.5004
  10743278.92246   8405526.02043  23752064.5394                   23752063.0204
        39.5004         22.5004
  11864061.66447   9279093.59846  23779440.9614                   23779439.0234
        44.0004         36.0004
   6257460.39847   4922654.55146  21280525.2974                   21280520.7274
        46.0004         36.0004
   7325490.33647   5769005.32444  22923920.2734                   22923917.4694
        44.0004         28.0004
  -2907935.48047  -2204071.75847  21262717.5084                   21262717.4574
        46.5004         46.0004
 -12743598.59047  -9830487.51246  22282946.6884                   22282943.4384
        45.5004         40.0004
 25  8  8  9 56  0.0000000  0  9G06G11G25G14G17G19G22G24G12
  -5348788.69548  -4103631.98848  20665677.6724                   20665677.2624
        49.7504         49.7504
 -14470070.80147 -11167225.23446  21221372.8834                   21221370.2854
        47.5004         37.2504
  37894791.38746  29618065.52044  24602244.1724                   24602244.2194
        36.0004         29.5004
  10573626.99246   8273329.68443  23719781.2894                   23719778.9414
        39.7504         21.5004
  11688493.36746   9142287.12945  23746029.5784                   23746029.6174
        41.2504         35.0004
   6062490.03947   4770729.58246  21243423.7344                   21243418.8634
        45.7504         36.5004
   7132453.49247   5618586.97344  22887186.7664                   22887183.7734
        44.2504         28.0004
  -3135663.54747  -2381522.21947  21219382.5164                   21219382.0984
        46.2504         46.0004
 -13076133.37147 -10089605.49646  22219667.1724                   22219664.1994
        44.2504         40.0004
 25  8  8  9 56 30.0000000  0  9G06G11G25G14G17G19G22G24G12
  -5589937.20348  -4291539.90648  20619788.5084                   20619788.1414
        50.0004         49.7504
 -14790047.41848 -11416557.66046  21160483.2974                   21160480.9924
        48.0004         37.5004
  37542258.96145  29343365.01644  24535158.9614                   24535160.0234
        35.0004         29.7504
  10404157.68846   8141275.67643  23687531.4224                   23687529.9574
        40.0004         22.5004
  11512899.86347   9005460.94545  23712617.7504                   23712614.0664
        43.0004         34.7504
   5867692.46147   4618939.26246  21206355.1414                   21206350.3984
        46.5004         36.0004
   6939615.55547   5468323.62144  22850490.9064                   22850488.1454
        43.0004         28.5004
  -3362817.94147  -2558525.65647  21176156.6564                   21176156.0784
        45.7504         45.5004
 -13408545.18747 -10348627.68046  22156411.1884                   22156408.2304
        44.7504         40.0004
 25  8  8  9 57  0.0000000  0  9G06G11G25G14G17G19G22G24G12
  -4255058.09048  -3251374.37148  20873807.2424                   20873807.1484
        49.7504         49.5004
 -13534134.44147 -10437924.15646  21399475.5634                   21399472.8674
        47.7504         37.2504
  38765128.20746  30296250.21545  24767863.5474                   24767863.8794
        37.0004         30.2504
  11810296.46546   9236968.22343  23955111.2344                   23955109.4844
        40.0004         22.0004
  12912706.44947  10096219.32845  23978991.3134                   23978987.7934
        43.0004         34.5004
   7248492.60247   5694887.43446  21469112.5004                   21469107.7624
        47.2504         36.2504
   8322403.20347   6545820.45744  23113626.8204                   23113623.8444
        42.2504         28.7504
  -2013972.07047  -1507476.94147  21432832.8524                   21432832.6454
        46.0004         45.2504
 -12165400.84447  -9379943.73846  22392973.6804                   22392970.2854
        45.7504         40.5004
 25  8  8  9 57 30.0000000  0  9G06G11G25G14G17G19G22G24G12
  -4495007.25848  -3438347.74248  20828146.7814                   20828146.2194
        49.7504         49.5004
 -13853190.29747 -10686539.09846  21338761.2974                   21338759.0744
        47.5004         37.2504
  38412537.67246  30021504.35544  24700767.7194                   24700768.0354
        37.7504         29.5004
  11641192.48846   9105198.85243  23922931.9614                   23922930.1564
        40.5004         22.0004
  12737061.71947   9959353.28545  23945567.8594                   23945564.0124
        43.5004         35.0004
   7054037.76647   5543364.18446  21432109.1644                   21432103.6954
        46.2504         37.0004
   8129965.04347   6395868.60544  23077007.3054                   23077004.1804
        43.5004         28.2504
  -2239981.31647  -1683588.05547  21389825.5164                   21389824.5864
        45.5004         46.0004
 -12497560.20747  -9638769.19946  22329765.8364                   22329762.8594
        45.2504         40.2504
 25  8  8  9 58  0.0000000  0  9G06G11G25G14G17G19G22G24G12
  -4734356.63748  -3624853.74248  20782600.3914                   20782599.6954
        50.0004         49.5004
 -14171781.46147 -10934791.93746  21278135.3754                   21278132.5084
        47.7504         37.5004
  38059921.28146  29746738.35244  24633666.5004                   24633667.1884
        36.7504         28.5004
  11472271.79746   8973572.31343  23890787.2274                   23890785.8244
        41.0004         21.5004
  12561391.94147   9822467.69545  23912138.6174                   23912135.9654
        43.2504         34.5004
   6859754.11747   5391974.32046  21395138.0474                   21395133.3054
        47.0004         36.5004
   7937728.35947   6246073.75444  23040425.3754                   23040422.6054
        42.7504         28.2504
  -2465418.41447  -1859253.34047  21346926.2814                   21346925.5354
        47.2504         45.2504
 -12829589.59847  -9897493.38346  22266582.8204                   22266579.5744
        46.0004         40.5004
 25  8  8  9 58 30.0000000  0  9G06G11G25G14G17G19G22G24G12
  -4973108.80148  -3810894.38748  20737167.1174                   20737166.6844
        48.5004         49.7504
 -14489907.71147 -11182682.50846  21217598.2504                   21217595.4654
        46.5004         38.0004
  37707278.50846  29471951.82445  24566561.3754                   24566561.3054
        38.7504         30.7504
  11303532.18446   8842086.89543  23858677.6804                   23858675.1884
        40.5004         21.5004
  12385694.76246   9685560.75845  23878704.5944                   23878702.0824
        41.7504         33.7504
   6665638.53947   5240715.42245  21358199.5944                   21358194.5434
        46.2504         35.5004
   7745691.97747   6096434.97744  23003882.3984                   23003879.3754
        42.5004         28.0004
  -2690286.35947  -2034475.12947  21304135.0864                   21304134.6054
        46.0004         45.5004
 -13161489.13747 -10156116.39146  22203423.8594                   22203420.8524
        46.0004         40.2504
 25  8  8  9 59  0.0000000  0  9G06G11G25G14G17G19G22G24G12
  -5211262.23848  -3996468.48848  20691847.9224                   20691847.3284
        49.0004         49.5004
 -14807564.78147 -11430207.48446  21157150.0474                   21157147.0354
        46.5004         37.7504
  37354613.02046  29197147.54345  24499450.9694                   24499451.4304
        39.2504         30.2504
  11134975.48446   8710743.99243  23826601.9064                   23826599.5824
        39.7504         21.5004
  12209972.03146   9548633.93845  23845265.0704                   23845263.6994
        41.0004         34.2504
   6471692.43447   5089588.59046  21321292.3204                   21321287.2774
        46.5004         36.2504
   7553858.34847   5946954.18044  22967377.7664                   22967374.6724
        42.5004         26.7504
  -2914584.13747  -2209252.64547  21261452.8524                   21261452.4494
        46.5004         45.0004
 -13493254.82447 -10414635.07846  22140291.9454                   22140288.0204
        46.2504         40.0004
 25  8  8  9 59 30.0000000  0  9G06G11G25G14G17G19G22G24G12
  -5448816.65648  -4181575.82448  20646643.0004                   20646642.2934
        49.5004         49.5004
 -15124749.50047 -11677364.39846  21096791.6564                   21096788.8054
        47.5004         37.2504
  37001927.34846  28922327.53544  24432337.8984                   24432337.8244
        36.2504         27.7504
  10966602.46146   8579544.18843  23794561.5864                   23794559.4804
        40.2504         22.5004
  12034224.33247   9411687.65645  23811822.0944                   23811819.5824
        42.5004         33.5004
   6277915.90247   4938593.89145  21284417.7664                   21284413.4924
        47.5004         35.7504
   7362228.53147   5797632.21544  22930912.0784                   22930908.3984
        42.2504         27.0004
  -3138311.74247  -2383585.85547  21218878.6414                   21218877.8984
        46.5004         45.2504
 -13824883.54747 -10673047.05946  22077184.2424                   22077181.2384
        45.5004         40.0004
 25  8  8 10  0  0.0000000  0  9G06G11G25G14G17G19G22G24G12
  -4110346.05548  -3138611.71148  20901345.2424                   20901344.6844
        49.5004         49.5004
 -13866030.41447 -10696544.31246  21336318.0004                   21336314.8324
        46.7504         37.5004
  38224653.42245  29875101.16444  24665014.9144                   24665014.5274
        35.0004         27.2504
  12373837.21146   9676090.73443  24062349.2274                   24062347.9884
        40.2504         21.5004
  13433876.15247  10502325.40645  24078167.1564                   24078164.1914
        43.2504         33.7504
   7659733.09847   6015334.55945  21547369.1484                   21547364.0044
        45.7504         35.2504
   8746228.22746   6876073.52344  23194278.7504                   23194275.2814
        41.7504         27.5004
  -1786044.10547  -1329870.83247  21476206.8834                   21476206.1484
        45.5004         45.0004
 -12580943.62947  -9703743.19546  22313898.7974                   22313894.6374
        47.2504         39.7504
 25  8  8 10  0 30.0000000  0  9G06G11G25G14G17G19G22G24G12
  -4346707.65248  -3322789.58248  20856367.2194                   20856366.2624
        50.0004         49.5004
 -14182267.19147 -10942962.57046  21276139.9144                   21276137.5204
        45.7504         37.2504
  37871928.67646  29600250.73444  24597893.2814                   24597893.5354
        36.7504         29.7504
  12205827.48846   9545174.03943  24030377.7274                   24030376.4344
        39.7504         22.0004
  13258074.63347  10365337.21945  24044712.4924                   24044709.7544
        42.5004         33.5004
   7466289.69147   5864599.41845  21510558.2584                   21510553.3404
        45.5004         35.5004
   8555004.53947   6727068.02044  23157890.1724                   23157886.6134
        43.7504         26.7504
  -2008637.92647  -1503320.58647  21433848.6484                   21433847.5704
        46.5004         45.5004
 -12912296.08647  -9961939.91046  22250843.9144                   22250841.1374
        46.0004         40.0004
 25  8  8 10  1  0.0000000  0  9G06G11G25G14G17G19G22G24G12
  -4582475.53548  -3506504.80948  20811502.1174                   20811501.7704
        49.2504         49.5004
 -14498028.46147 -11189010.30546  21216052.7974                   21216050.1844
        46.0004         37.5004
  37519185.16845  29325385.67244  24530767.9224                   24530768.3914
        35.7504         29.5004
  12037997.43046   9414397.33243  23998441.1954                   23998439.6604
        39.2504         22.7504
  13082244.05947  10228326.36345  24011252.7424                   24011249.6254
        42.5004         33.7504
   7273009.93047   5713991.80945  21473778.0634                   21473773.4454
        45.7504         35.5004
   8363983.02047   6578220.07044  23121539.8444                   23121536.5394
        43.5004         27.7504
  -2230668.08647  -1676331.12147  21391597.5004                   21391596.8094
        46.0004         45.0004
 -13243509.45747 -10220028.23446  22187816.5554                   22187812.9344
        46.2504         40.2504
 25  8  8 10  1 30.0000000  0  9G06G11G25G14G17G19G22G24G12
  -4817651.29748  -3689758.64548  20766749.8754                   20766748.8634
        49.7504         49.5004
 -14813312.95747 -11434686.52346  21156055.8524                   21156053.4384
        46.7504         37.5004
  37166423.55146  29050506.48444  24463639.9774                   24463640.0004
        36.5004         29.2504
  11870345.86746   9283759.72743  23966538.8204                   23966536.2974
        38.7504         23.5004
  12906383.27347  10091291.93445  23977787.6724                   23977785.1374
        42.7504         34.0004
   7079892.06647   5563510.36345  21437029.3284                   21437024.0274
        45.7504         35.7504
   8173163.12147   6429529.20744  23085228.1254                   23085224.5904
        42.2504         27.7504
  -2452136.62147  -1848904.02747  21349453.7974                   21349453.1994
        45.5004         45.0004
 -13574582.09447 -10478006.89546  22124814.9304                   22124811.8204
        46.2504         40.2504
 25  8  8 10  2  0.0000000  0  9G06G11G25G14G17G19G22G24G12
  -5052232.62948  -3872549.28548  20722110.3364                   20722110.0274
        49.0004         49.5004
 -15128115.48847 -11679987.18746  21096150.9844                   21096148.5124
        47.0004         37.5004
  36813648.47345  28775616.79744  24396508.4534                   24396509.1524
        35.7504         27.5004
  11702875.65246   9153263.39843  23934669.3054                   23934668.6914
        39.5004         22.5004
  12730495.21146   9954236.31345  23944317.6334                   23944314.6024
        40.7504         34.0004
   6886938.53947   5413156.96545  21400311.2424                   21400306.3674
        45.5004         35.2504
   7982548.25846   6280998.11744  23048954.9534                   23048952.3554
        41.5004         27.5004
  -2673041.58647  -2021037.78947  21307416.7504                   21307416.0944
        45.7504         45.2504
 -13905509.09447 -10735872.07446  22061841.4774                   22061838.5744
        46.7504         40.0004
 25  8  8 10  2 30.0000000  0  9G06G11G25G14G17G19G22G24G12
  -5286223.68748  -4054879.98448  20677583.1644                   20677582.6254
        49.7504         49.5004
 -15442437.37147 -11924913.32046  21036337.2194                   21036334.7664
        47.2504         38.0004
  36460858.05945  28500715.23044  24329375.2114                   24329375.7504
        34.2504         26.2504
  11535583.01646   9022905.45743  23902835.2504                   23902833.6604
        38.2504         22.2504
  12554576.21946   9817156.53545  23910841.7504                   23910838.7304
        40.0004         34.5004
   6694145.02047   5262928.24645  21363623.6484                   21363618.8164
        46.2504         35.5004
   7792135.39847   6132624.43044  23012720.2114                   23012717.1764
        43.0004         27.2504
  -2893387.58647  -2192735.99247  21265486.3204                   21265485.3054
        46.2504         45.2504
 -14236291.90647 -10993624.90246  21998896.1644                   21998892.7854
        47.5004         40.5004
 25  8  8 10  3  0.0000000  0  9G06G11G25G14G17G19G22G24G12
  -3944196.14548  -3009144.23048  20932962.4924                   20932962.0904
        49.2504         49.7504
 -14180844.70747 -10941854.09046  21276410.5234                   21276407.9694
        47.0004         37.7504
  37683487.34046  29453413.34444  24562033.4534                   24562034.3324
        36.0004         28.0004
  12943894.71146  10120291.15643  24170827.4064                   24170826.5594
        38.0004         21.7504
  13954053.23846  10907658.12545  24177152.5634                   24177149.6804
        40.7504         32.7504
   8076938.41847   6340429.59045  21626760.9694                   21626755.5474
        45.2504         35.2504
   9177352.94146   7212014.69544  23276318.8914                   23276315.1454
        41.5004         26.5004
  -1537747.07447  -1136392.76247  21523456.2274                   21523455.7664
        46.5004         45.0004
 -12991496.21947 -10023654.22346  22235773.0084                   22235769.2114
        46.7504         40.2504
 25  8  8 10  3 30.0000000  0  9G06G11G25G14G17G19G22G24G12
  -4177008.73048  -3190556.63348  20888659.7114                   20888659.3754
        49.7504         49.5004
 -14494198.76248 -11186026.06646  21216781.3134                   21216778.5314
        48.0004         37.7504
  37330671.75846  29178492.12944  24494895.3594                   24494895.7854
        36.5004         29.0004
  12776956.91046   9990209.67643  24139060.7114                   24139059.8554
        36.7504         21.2504
  13778071.78147  10770529.66845  24143665.0394                   24143662.3094
        42.2504         34.5004
   7884462.60947   6190448.41845  21590133.5944                   21590128.8874
        45.5004         35.2504
   8987346.08646   7063957.38344  23240161.3594                   23240158.7774
        41.5004         26.5004
  -1756978.28547  -1307222.29347  21481737.5234                   21481737.3164
        46.0004         45.2504
 -13321984.39847 -10281177.45746  22172883.0164                   22172879.4924
        46.5004         40.2504
 25  8  8 10  4  0.0000000  0  9G06G11G25G14G17G19G22G24G12
  -4409234.31648  -3371511.63748  20844468.8134                   20844468.3094
        49.5004         49.5004
 -14807066.79347 -11429819.33246  21157244.2974                   21157242.0394
        47.7504         38.2504
  36977845.09845  28903562.21944  24427754.4844                   24427755.1374
        34.7504         26.2504
  12610195.07846   9860265.34043  24107327.5784                   24107325.0784
        36.2504         19.2504
  13602058.03547  10633376.11745  24110170.5164                   24110167.4884
        42.0004         33.5004
   7692143.48447   6040589.37545  21553536.4224                   21553531.5984
        46.2504         35.2504
   8797541.77747   6916057.88344  23204042.8444                   23204040.3014
        42.2504         27.0004
  -1975654.98047  -1477619.72747  21440125.0394                   21440124.6454
        46.5004         45.2504
 -13652323.21547 -10538584.32446  22110021.6094                   22110018.4264
        47.0004         41.2504
 25  8  8 10  4 30.0000000  0  9G06G11G25G14G17G19G22G24G12
  -4640872.21548  -3552008.69148  20800389.7894                   20800388.9734
        49.5004         49.5004
 -15119445.27048 -11673231.11346  21097801.1564                   21097798.5594
        48.0004         38.0004
  36625010.41845  28628626.10944  24360611.8914                   24360612.5474
        34.5004         26.2504
  12443610.54746   9730459.14542  24075627.7114                   24075625.6174
        36.0004         17.7504
  13426013.16447  10496198.22745  24076670.9844                   24076667.5904
        44.0004         33.5004
   7499982.07847   5890853.19545  21516968.9064                   21516964.3674
        45.7504         35.0004
   8607941.88746   6768317.67644  23167963.3674                   23167960.2074
        40.7504         26.0004
  -2193776.80547  -1647584.80947  21398618.1094                   21398617.2974
        47.5004         45.5004
 -13982508.87147 -10795871.83246  22047189.2194                   22047185.7624
        47.0004         40.5004
 25  8  8 10  5  0.0000000  0  9G06G11G25G14G17G19G22G24G12
  -4871925.37548  -3732050.11348  20756421.4614                   20756421.1054
        49.5004         49.5004
 -15431334.24647 -11916261.47746  21038450.1724                   21038447.7934
        47.0004         38.5004
  36272167.37545  28353683.46944  24293468.4534                   24293468.8714
        34.5004         24.5004
  12277200.77746   9600789.11342  24043960.3134                   24043958.6914
        37.2504         17.7504
  13249934.95347  10358994.43045  24043164.6484                   24043161.0004
        43.7504         34.0004
   7307975.00047   5741237.28546  21480431.7584                   21480426.7384
        46.0004         36.0004
   8418545.02746   6620735.67644  23131922.8834                   23131919.7114
        41.7504         26.0004
  -2411347.15247  -1817120.16447  21357215.7504                   21357215.3594
        47.7504         45.0004
 -14312541.75047 -11053040.29746  21984385.9224                   21984382.9264
        46.5004         41.0004
 25  8  8 10  5 30.0000000  0  9G06G11G25G14G17G19G22G24G12
  -5102394.48448  -3911636.43748  20712564.5004                   20712564.3204
        49.5004         49.7504
 -15742731.50447 -12158908.68446  20979193.1564                   20979190.5864
        46.7504         37.7504
  35919317.95345  28078735.83244  24226324.1564                   24226324.4614
        35.5004         28.0004
  12110965.80946   9471255.28943  24012327.1174                   24012325.4804
        37.0004         18.5004
  13073823.28546  10221764.55945  24009650.0394                   24009647.4884
        40.5004         33.5004
   7116121.93047   5591741.38345  21443923.6094                   21443918.4414
        46.2504         34.7504
   8229351.50047   6473312.12144  23095919.9534                   23095917.2464
        42.2504         27.0004
  -2628367.03547  -1986226.59047  21315918.1804                   21315917.8094
        46.7504         45.0004
 -14642419.31647 -11310087.73446  21921612.7194                   21921609.4024
        47.2504         40.2504
 25  8  8 10  6  0.0000000  0  9G06G11G25G14G17G19G22G24G12
  -3756853.26248  -2863162.75048  20968612.7114                   20968611.9804
        50.0004         49.5004
 -14478205.21547 -11173563.51246  21219824.3134                   21219821.9614
        47.0004         38.7504
  37141894.99245  29031393.27744  24458971.9304                   24458972.6564
        34.5004         26.2504
  13520330.38346  10569461.43442  24280520.3444                   24280518.4964
        37.5004         16.7504
  14473103.74247  11312112.89845  24275926.2274                   24275923.1764
        42.2504         34.5004
   8499848.08247   6669969.54745  21707237.7344                   21707232.7274
        45.7504         34.7504
   9615787.57846   7553651.89144  23359750.0704                   23359747.0514
        41.0004         27.0004
  -1269411.04747   -927299.86747  21574519.0784                   21574518.4884
        47.7504         45.2504
 -13396709.22347 -10339404.53546  22158663.3444                   22158660.2384
        47.0004         40.7504
 25  8  8 10  6 30.0000000  0  9G06G11G25G14G17G19G22G24G12
  -3986159.66448  -3041843.06248  20924977.1644                   20924976.7424
        49.2504         49.7504
 -14788615.78947 -11415441.87146  21160755.8054                   21160753.2894
        46.7504         38.0004
  36789035.06345  28756437.54744  24391824.7194                   24391825.6254
        34.7504         26.7504
  13354441.48046  10440197.32842  24248953.0004                   24248951.2154
        37.7504         16.7504
  14296922.48047  11174828.80145  24242399.4144                   24242395.0164
        43.2504         33.2504
   8308298.43047   6520710.08245  21670786.9384                   21670782.5204
        45.7504         35.5004
   9426999.45747   7406544.25044  23323825.0084                   23323821.9304
        43.0004         25.7504
  -1485336.60947  -1095553.57047  21533429.3754                   21533429.3594
        47.7504         45.2504
 -13726272.75047 -10596207.27046  22095949.0634                   22095946.3054
        47.5004         40.7504
 25  8  8 10  7  0.0000000  0 10G06G11G25G14G21G17G19G22G24G12
  -4214886.88748  -3220072.06248  20881451.8284                   20881451.4454
        49.5004         49.7504
 -15098530.80547 -11656934.07846  21101780.6564                   21101778.2774
        47.5004         37.7504
  36436171.68046  28481478.98044  24324677.8134                   24324677.4574
        36.5004         26.7504
  13188724.31646  10311067.02343  24217418.1094                   24217416.2544
        38.7504         18.2504
  45270024.05156  35356378.43853  25179306.0634                   25179305.1884
        38.0004         21.7504
  14120705.28146  11037516.68445  24208866.0864                   24208864.2704
        40.7504         33.5004
   8116898.41047   6371567.19145  21634365.3594                   21634360.2464
        46.2504         35.5004
   9238413.67646   7259594.25844  23287938.3674                   23287935.0704
        41.5004         24.7504
  -1700717.80147  -1263383.09447  21492444.1254                   21492443.8594
        47.7504         45.2504
 -14055676.78147 -10852885.71546  22033266.2274                   22033262.6174
        47.0004         41.5004
 25  8  8 10  7 30.0000000  0 10G06G11G25G14G21G17G19G22G24G12
  -4443036.00848  -3397850.59448  20838036.4614                   20838036.2774
        49.2504         49.5004
 -15407948.46947 -11898038.73446  21042900.5394                   21042897.8674
        47.7504         37.5004
  36083306.53945  28206519.13744  24257529.1564                   24257530.1294
        35.7504         26.5004
  13023178.62946  10182070.35242  24185915.6174                   24185913.5004
        39.7504         17.2504
  44930677.78946  35091952.84443  25114731.5634                   25114729.9614
        38.0004         21.5004
  13944452.15247  10900176.53945  24175326.5394                   24175322.4654
        42.0004         33.5004
   7925647.39847   6222540.43045  21597971.0084                   21597966.4104
        44.7504         35.5004
   9050030.86346   7112802.43044  23252090.3054                   23252087.2894
        40.0004         26.5004
  -1915556.00847  -1430789.50847  21451561.4534                   21451561.4774
        47.7504         45.2504
 -14384919.44547 -11109438.43446  21970612.6724                   21970609.9774
        47.0004         41.0004
 25  8  8 10  8  0.0000000  0 10G06G11G25G14G21G17G19G22G24G12
  -4670613.44548  -3575183.66448  20794729.8284                   20794729.4774
        49.0004         49.5004
 -15716872.28547 -12138758.59046  20984114.4454                   20984111.8284
        47.7504         38.5004
  35730435.91846  27931555.05544  24190380.3594                   24190381.1564
        36.2504         28.0004
  12857798.57446  10053202.79343  24154445.1724                   24154443.4774
        39.5004         19.0004
  44591181.35546  34827410.23843  25050127.0164                   25050126.4654
        38.7504         21.2504
  13768157.34046  10762803.98045  24141777.7974                   24141775.3244
        41.2504         33.7504
   7734539.00847   6073624.78945  21561604.2194                   21561598.8554
        44.5004         35.0004
   8861846.07847   6966164.89844  23216279.7424                   23216277.0084
        42.0004         25.7504
  -2129858.08247  -1597778.15247  21410781.5234                   21410780.9654
        47.5004         45.0004
 -14714003.94547 -11365867.89846  21907990.3594                   21907987.0124
        46.7504         40.5004
 25  8  8 10  8 30.0000000  0 10G06G11G25G14G21G17G19G22G24G12
  -4897619.96148  -3752071.85948  20751532.1174                   20751531.4774
        49.0004         49.5004
 -16025300.09047 -12379091.93046  20925422.1724                   20925419.2814
        47.5004         38.2504
  35377561.80546  27656588.25044  24123231.0634                   24123230.7194
        38.0004         27.0004
  12692584.12946   9924464.23843  24123005.5474                   24123004.2234
        39.2504         19.0004
  44251537.77746  34562752.97343  24985495.0394                   24985494.5204
        38.2504         21.5004
  13591821.14547  10625399.07045  24108224.4694                   24108219.8324
        43.2504         34.5004
   7543572.28947   5924819.55945  21525264.6094                   21525259.7934
        44.7504         34.2504
   8673859.44947   6819681.77744  23180507.1804                   23180504.7384
        42.0004         26.2504
  -2343625.15647  -1764349.91847  21370102.6884                   21370102.2774
        47.0004         45.5004
 -15042928.24247 -11622172.52346  21845398.7034                   21845395.0204
        47.0004         41.0004
 25  8  8 10  9  0.0000000  0 10G06G11G25G14G21G17G19G22G24G12
  -5124056.23048  -3928515.70748  20708442.5314                   20708442.2424
        49.0004         49.5004
 -16333229.68047 -12619037.05146  20866825.4064                   20866822.5554
        47.5004         38.5004
  35024686.41846  27381620.42244  24056080.5944                   24056080.9804
        37.5004         26.0004
  12527535.26246   9795854.68443  24091597.6884                   24091596.7384
        39.5004         19.2504
  43911750.35546  34297983.67243  24920834.9304                   24920834.4694
        38.2504         22.7504
  13415444.07846  10487962.37545  24074659.5784                   24074657.0824
        41.0004         32.0004
   7352748.23847   5776125.47745  21488951.9224                   21488946.8244
        44.7504         34.0004
   8486071.99246   6673353.86344  23144772.6174                   23144769.7734
        40.5004         26.7504
  -2556858.30147  -1930505.63347  21329525.9304                   21329525.6884
        47.7504         45.0004
 -15371690.27747 -11878350.71146  21782837.1484                   21782833.5554
        46.7504         41.0004
 25  8  8 10  9 30.0000000  0 10G06G11G25G14G21G17G19G22G24G12
  -3774494.84448  -2876909.42648  20965255.8134                   20965254.9224
        48.5004         49.5004
 -15065227.94547 -11630983.73846  21108118.0164                   21108115.5664
        47.2504         38.5004
  36247244.16446  28334262.87144  24288725.8594                   24288726.2034
        36.2504         26.5004
  13938078.18046  10894979.00043  24360015.3134                   24360013.8954
        38.7504         20.7504
  45147254.39546  35260714.15243  25155943.9774                   25155942.9344
        38.2504         22.5004
  14814452.47747  11578098.82445  24340882.9144                   24340878.8754
        42.5004         33.7504
   8737492.57047   6855147.00845  21752460.5314                   21752454.9264
        45.2504         34.2504
   9873911.14146   7754786.94944  23408869.5634                   23408866.8914
        41.2504         25.5004
  -1194130.89547   -868640.13747  21588844.6254                   21588844.0274
        47.5004         44.7504
 -14124854.61347 -10906790.44947  22020101.4304                   22020098.4104
        46.5004         42.0004
 25  8  8 10 10  0.0000000  0 10G06G11G25G14G21G17G19G22G24G12
  -3999789.45348  -3052463.66448  20922383.3674                   20922383.0474
        48.5004         49.5004
 -15372151.08248 -11870144.62146  21049712.4454                   21049710.0204
        48.2504         38.5004
  35894375.80546  28059300.55144  24221576.7504                   24221577.5434
        37.0004         27.7504
  13773363.93046  10766630.19943  24328670.6334                   24328669.6414
        38.0004         19.5004
  44807192.50846  34995730.91443  25091232.8594                   25091231.6954
        38.7504         22.7504
  14637996.79747  11440600.86745  24307303.0084                   24307301.9804
        42.0004         34.5004
   8546954.12947   6706675.50845  21716201.9384                   21716197.2934
        45.0004         34.5004
   9686527.40246   7608773.61744  23373211.5784                   23373209.0634
        41.7504         25.2504
  -1406296.08647  -1033963.68047  21548470.7664                   21548470.3594
        46.5004         44.7504
 -14453279.10947 -11162705.61747  21957604.6954                   21957601.3484
        46.7504         42.2504
 25  8  8 10 10 30.0000000  0 10G06G11G25G14G21G17G19G22G24G12
  -4224514.17648  -3227573.84448  20879619.7814                   20879619.0314
        49.0004         49.5004
 -15678567.59048 -12108910.71546  20991403.1094                   20991400.7734
        48.2504         38.2504
  35541514.27046  27784343.53944  24154428.8364                   24154429.6214
        37.2504         26.0004
  13608817.19946  10638411.92243  24297359.5554                   24297358.1094
        37.5004         19.5004
  44466998.50446  34730644.77043  25026495.8524                   25026494.6414
        38.0004         22.5004
  14461502.53946  11303072.93044  24273715.2584                   24273712.1414
        37.5004         29.2504
   8356558.61347   6558315.35945  21679970.4614                   21679965.2344
        46.2504         34.0004
   9499346.85946   7462918.61744  23337592.4064                   23337589.8164
        41.5004         25.5004
  -1617928.83247  -1198872.32447  21508198.4534                   21508197.7344
        47.2504         45.2504
 -14781531.27747 -11418486.52047  21895140.5634                   21895137.3364
        47.0004         42.0004
 25  8  8 10 11  0.0000000  0 10G06G11G25G14G21G17G19G22G24G12
  -4448668.00448  -3402239.16048  20836964.7424                   20836964.5234
        49.2504         49.5004
 -15984473.49247 -12347278.94146  20933191.0864                   20933188.6484
        47.7504         37.7504
  35188663.62946  27509395.02744  24087284.4774                   24087284.7774
        37.0004         26.7504
  13444439.72345  10510325.52343  24266079.2584                   24266078.1254
        35.7504         19.2504
  44126677.52746  34465459.69143  24961734.8444                   24961733.7584
        39.0004         21.7504
  14284972.03947  11165516.57445  24240126.4694                   24240123.1644
        43.2504         35.0004
   8166307.48047   6410067.71145  21643767.6804                   21643762.7074
        45.5004         34.7504
   9312371.76247   7317223.73444  23302011.7734                   23302009.3754
        42.7504         25.2504
  -1829028.51247  -1363365.59447  21468027.3594                   21468026.8134
        47.0004         45.2504
 -15109607.18047 -11674130.06247  21832709.3524                   21832706.4924
        46.2504         42.5004
 25  8  8 10 11 30.0000000  0 10G06G11G25G14G21G17G19G22G24G12
  -4672257.16048  -3576464.48448  20794417.3914                   20794416.5084
        48.7504         49.5004
 -16289872.12148 -12585251.88346  20875075.7974                   20875073.3674
        48.7504         38.2504
  34835820.50446  27234452.38744  24020139.8834                   24020141.5274
        36.7504         28.5004
  13280226.07045  10382366.79742  24234829.8674                   24234828.9534
        34.2504         17.7504
  43786227.49246  34200174.02743  24896948.7974                   24896947.9534
        39.0004         22.5004
  14108399.62546  11027927.69945  24206523.6334                   24206520.6844
        40.0004         31.2504
   7976194.71547   6261927.88745  21607590.0864                   21607584.5824
        45.7504         34.2504
   9125597.53547   7171685.33644  23266470.2894                   23266467.5164
        42.0004         24.0004
  -2039601.70347  -1527448.60947  21427956.6884                   21427956.1054
        47.2504         45.0004
 -15437509.50047 -11929638.34447  21770312.0944                   21770308.4384
        47.0004         42.0004
 25  8  8 10 12  0.0000000  0 10G06G11G25G14G21G17G19G22G24G12
  -4895280.28548  -3750248.73448  20751977.4454                   20751976.8524
        48.7504         49.5004
 -16594759.15648 -12822826.19146  20817057.7974                   20817055.3984
        48.2504         38.7504
  34482989.31346  26959519.05144  23952999.0474                   23952999.2584
        37.0004         27.2504
  13116178.51255  10254537.44953  24203612.7584                   24203611.9844
        32.7504         18.2504
  43445653.81646  33934792.02043  24832139.7424                   24832138.8794
        38.2504         22.2504
  13931788.18046  10890308.33245  24172916.9924                   24172913.0314
        41.5004         32.5004
   7786222.10547   6113897.27745  21571438.7974                   21571434.9384
        44.5004         34.2504
   8939026.98446   7026305.70344  23230967.2974                   23230963.8014
        41.5004         24.5004
  -2249647.40247  -1691120.59047  21387986.0864                   21387986.1374
        46.5004         44.7504
 -15765233.51247 -12185007.69146  21707947.9534                   21707944.4574
        46.5004         41.5004
 25  8  8 10 12 30.0000000  0 10G06G11G25G14G21G17G19G22G24G12
  -3542311.81248  -2695987.57848  21009438.6484                   21009438.1914
        48.5004         49.5004
 -15323703.41048 -11832393.12546  21058931.6094                   21058928.8914
        48.0004         38.5004
  35705602.92246  27912204.99644  24185655.1094                   24185654.8914
        37.0004         27.0004
  14527721.27045  11354440.85243  24472221.6414                   24472219.4964
        32.7504         18.5004
  44680390.22746  34896924.35943  25067102.0864                   25067101.5434
        38.0004         22.0004
  15330562.65647  11980262.50045  24439094.3524                   24439091.8674
        42.2504         34.2504
   9171814.62547   7193579.76245  21835108.6564                   21835103.7274
        45.5004         33.7504
  10328086.07046   8108689.37944  23495296.7194                   23495293.3244
        40.2504         24.2504
   -883740.91447   -626777.87547  21647909.7274                   21647909.3484
        47.0004         45.0004
 -14517346.89547 -11212628.49247  21945412.5634                   21945409.4804
        47.0004         42.0004
 25  8  8 10 13  0.0000000  0 10G06G11G25G14G21G17G19G22G24G12
  -3764208.20348  -2868893.85948  20967213.2814                   20967212.7584
        49.0004         49.2504
 -15627563.85248 -12069167.48446  21001108.9304                   21001106.4024
        48.5004         38.5004
  35352799.25446  27637293.06644  24118517.4064                   24118519.0084
        37.0004         28.5004
  14364002.60245  11226867.78143  24441066.0704                   24441065.4494
        33.7504         19.0004
  44339576.52746  34631355.34843  25002247.6954                   25002246.7234
        38.0004         21.7504
  15153871.18846  11842580.82445  24405469.2034                   24405469.6644
        36.2504         32.2504
   8982118.72747   7045764.74245  21799011.0474                   21799006.0634
        46.5004         34.2504
  10141921.99246   7963626.45344  23459869.3834                   23459867.8444
        40.5004         24.0004
  -1092738.11747   -789632.84847  21608138.5864                   21608138.5474
        47.2504         45.2504
 -14844709.55547 -11467716.26247  21883118.0394                   21883114.5204
        46.7504         42.0004
 25  8  8 10 13 30.0000000  0 10G06G11G25G14G21G17G19G22G24G12
  -3985544.25848  -3041363.51248  20925094.2584                   20925093.8014
        49.5004         49.2504
 -15930909.62948 -12305540.80946  20943383.9614                   20943381.3204
        49.0004         39.0004
  35000010.97746  27362393.18044  24051385.0474                   24051384.8364
        38.0004         29.0004
  14200446.75845  11099421.60243  24409943.5554                   24409940.8284
        34.5004         19.0004
  43998646.12946  34365695.41443  24937370.5314                   24937369.5164
        37.7504         21.7504
  14977138.53946  11704866.97745  24371840.9614                   24371836.0984
        41.7504         31.7504
   8792558.96547   6898055.84045  21762939.1884                   21762934.0514
        45.5004         33.7504
   9955960.53946   7818721.39143  23424482.7424                   23424479.8284
        41.2504         22.5004
  -1301214.69947   -952082.13747  21568467.2734                   21568466.8444
        47.5004         44.5004
 -15171889.35547 -11722661.54747  21820857.9144                   21820854.0164
        47.2504         42.0004
 25  8  8 10 14  0.0000000  0 10G06G11G25G14G21G17G19G22G24G12
  -4206322.39548  -3213398.42648  20883081.4144                   20883080.9924
        49.2504         49.2504
 -16233740.23048 -12541512.68746  20885757.4224                   20885755.1564
        49.0004         38.7504
  34647238.69146  27087505.75444  23984254.4384                   23984254.3134
        36.7504         26.0004
  14037052.15245  10972101.10942  24378849.7344                   24378848.3874
        35.2504         17.7504
  43657600.89846  34099945.97743  24872471.5474                   24872470.6604
        38.0004         22.5004
  14800363.35546  11567120.09445  24338200.2114                   24338199.0234
        40.5004         33.0004
   8603133.60547   6750451.67245  21726892.1254                   21726886.8754
        45.0004         33.5004
   9770200.84046   7673973.54743  23389134.2114                   23389131.6054
        41.0004         22.0004
  -1509173.38747  -1114127.87947  21528893.9304                   21528893.8134
        47.0004         44.7504
 -15498885.43748 -11977463.66847  21758632.4924                   21758628.7344
        48.0004         42.0004
 25  8  8 10 14 30.0000000  0 10G06G11G25G14G21G17G19G22G24G12
  -4426542.05148  -3384998.15648  20841175.1174                   20841174.8594
        48.7504         49.2504
 -16536052.16048 -12777080.41446  20828229.1564                   20828226.9844
        48.7504         38.5004
  34294486.11346  26812633.65244  23917127.6414                   23917128.0124
        37.5004         27.0004
  13873820.10546  10844907.24643  24347787.8054                   24347786.0824
        36.5004         19.2504
  43316445.59046  33834110.73843  24807552.2894                   24807551.2304
        37.2504         21.5004
  14623547.36346  11429341.32445  24304553.6564                   24304550.4414
        39.7504         30.0004
   8413843.90247   6602953.19545  21690871.8134                   21690867.3484
        46.5004         33.5004
   9584645.13747   7529384.68043  23353824.1884                   23353821.1724
        42.2504         22.7504
  -1716614.02347  -1275769.93747  21489419.2814                   21489418.7344
        47.7504         45.0004
 -15825693.48047 -12232119.27047  21696442.3834                   21696439.1134
        47.2504         42.5004
 25  8  8 10 15  0.0000000  0 10G06G11G25G14G21G17G19G22G24G12
  -4646205.09048  -3556164.16448  20799374.6024                   20799374.3014
        49.7504         49.0004
 -16837844.37948 -13012243.16846  20770799.8984                   20770797.5474
        48.0004         38.2504
  33941754.57846  26537777.99644  23850005.3524                   23850006.1134
        37.5004         28.7504
  13710749.71946  10717839.40243  24316756.6564                   24316754.6804
        37.7504         20.2504
  42975182.74246  33568191.72743  24742612.1414                   24742610.6054
        37.0004         22.7504
  14446690.10547  11291530.46945  24270900.0474                   24270897.8284
        42.5004         35.0004
   8224688.62947   6455559.46145  21654877.0314                   21654871.3484
        46.2504         33.7504
   9399292.77747   7384954.24644  23318552.5314                   23318549.7464
        42.0004         25.5004
  -1923538.80547  -1437010.03547  21450042.8284                   21450042.3244
        47.0004         44.5004
 -16152312.33247 -12486627.45347  21634289.0314                   21634286.0514
        47.2504         42.0004
 25  8  8 10 15 30.0000000  0 10G06G11G25G14G21G17G19G22G24G12
  -3289886.37948  -2499292.44548  21057473.5704                   21057472.8364
        49.2504         49.0004
 -15563686.08648 -12019392.53546  21013264.2894                   21013261.8984
        48.0004         39.0004
  35164476.84846  27490548.64544  24082681.7274                   24082681.9264
        36.7504         27.2504
  15123265.10246  11818500.66443  24585548.7274                   24585547.9144
        38.7504         20.2504
  44209245.82446  34529799.43043  24977446.3754                   24977444.8484
        37.2504         22.0004
  15845216.48846  12381291.30144  24537028.7894                   24537025.3204
        40.0004         29.7504
   9611092.45347   7535874.13345  21918700.8754                   21918696.1684
        45.7504         34.2504
  10789569.16847   8468286.48843  23583113.8364                   23583111.1684
        42.7504         23.2504
   -554523.47347   -370244.84447  21710557.3204                   21710557.4454
        47.0004         44.5004
 -14903309.41847 -11513378.41847  21871966.8134                   21871963.2504
        46.7504         42.7504
 25  8  8 10 16  0.0000000  0 10G06G11G25G14G21G17G19G22G24G12
  -3508443.30548  -2669596.54348  21015883.7114                   21015883.0274
        49.5004         49.0004
 -15864437.17648 -12253744.02046  20956033.3594                   20956030.8634
        48.2504         38.0004
  34811789.85245  27215727.63344  24015567.4454                   24015567.7934
        35.5004         27.7504
  14960513.50046  11691681.20743  24554578.9694                   24554576.7384
        38.7504         19.2504
  43867773.78946  34263717.41043  24912466.1334                   24912465.2624
        37.7504         22.0004
  15668273.54746  12243413.64545  24503358.9064                   24503354.8754
        40.0004         31.5004
   9422200.84047   7388685.87145  21882755.9224                   21882750.7154
        45.7504         34.0004
  10604621.40246   8324171.31344  23547919.2814                   23547916.4884
        41.5004         24.5004
   -760424.87547   -530687.50047  21671375.5634                   21671375.8204
        47.0004         44.5004
 -15229545.63347 -11767588.43046  21809885.3754                   21809882.3874
        47.0004         41.7504
 25  8  8 10 16 30.0000000  0 10G06G11G25G14G21G17G19G22G24G12
  -3726448.87948  -2839471.01248  20974398.2664                   20974397.9414
        49.2504         49.0004
 -16164665.01248 -12487687.77746  20898902.0784                   20898899.0864
        48.0004         39.0004
  34459128.32846  26940926.50044  23948458.1644                   23948458.1174
        36.5004         28.0004
  14797921.05146  11564985.77743  24523639.1174                   24523636.4734
        39.2504         18.2504
  43526202.10546  33997557.70743  24847467.1484                   24847465.8874
        36.5004         20.2504
  15491288.13346  12105502.90245  24469679.7814                   24469676.9774
        40.5004         32.2504
   9233440.42247   7241599.81345  21846835.3674                   21846831.1024
        45.5004         34.5004
  10419876.67246   8180214.35543  23512763.0554                   23512760.7274
        40.7504         23.2504
   -965816.78147   -690733.14147  21632291.3754                   21632290.8164
        47.0004         45.0004
 -15555587.31247 -12021646.86347  21747842.0634                   21747838.5944
        47.5004         42.5004
 25  8  8 10 17  0.0000000  0 10G06G11G25G14G21G17G19G22G24G12
  -3943905.35548  -3008917.61748  20933017.8914                   20933017.2664
        49.7504         49.0004
 -16464369.02347 -12721223.35946  20841869.9924                   20841867.3834
        47.7504         38.7504
  34106493.15646  26666145.92644  23881353.8364                   23881353.6954
        37.0004         27.0004
  14635486.26646  11438413.22343  24492728.3204                   24492727.4224
        39.2504         18.2504
  43184532.79346  33731321.98043  24782449.7664                   24782448.5984
        37.5004         20.5004
  15314259.34446  11967558.30145  24435991.5554                   24435990.2934
        37.5004         30.0004
   9044809.59447   7094614.74245  21810941.1024                   21810935.5944
        44.5004         34.5004
  10235334.31646   8036415.08644  23477646.0394                   23477643.1564
        40.7504         24.0004
  -1170701.89847   -850383.89547  21593303.0474                   21593302.1174
        47.5004         44.2504
 -15881432.51247 -12275552.19947  21685836.1484                   21685832.8714
        47.5004         42.2504
 25  8  8 10 17 30.0000000  0 10G06G11G25G14G21G17G19G22G24G12
  -4160815.40648  -3177938.43748  20891741.5234                   20891740.7234
        49.5004         49.0004
 -16763548.80948 -12954350.45346  20784937.9534                   20784935.3094
        48.2504         38.2504
  33753885.18046  26391386.43444  23814254.8594                   23814254.8284
        37.2504         28.0004
  14473207.55946  11311962.24243  24461847.3754                   24461846.2384
        38.0004         19.2504
  42842767.87146  33465011.71143  24717414.7424                   24717412.5004
        37.7504         21.5004
  15137186.05946  11829579.09845  24402296.8054                   24402294.5474
        39.5004         32.5004
   8856306.57847   6947729.27745  21775069.6174                   21775064.9454
        45.0004         34.0004
  10050993.35546   7892772.75043  23442567.3914                   23442564.2074
        41.2504         23.0004
  -1375083.18747  -1009642.04347  21554410.2814                   21554409.9694
        46.7504         44.0004
 -16207080.44947 -12529303.82447  21623867.3984                   21623863.9844
        47.0004         42.0004
 25  8  8 10 18  0.0000000  0 10G06G11G25G14G21G17G19G22G24G12
  -4377180.77048  -3346534.82048  20850568.7584                   20850567.8914
        49.0004         49.0004
 -17062203.30547 -13187068.22346  20728106.0004                   20728103.5784
        47.7504         38.5004
  33401305.73845  26116649.33644  23747160.0084                   23747162.3094
        35.0004         27.5004
  14311084.04746  11185632.20742  24430996.3364                   24430995.8554
        37.5004         17.2504
  42500909.89546  33198628.92643  24652360.1094                   24652358.8134
        36.7504         20.5004
  14960067.36746  11691564.64845  24368590.0864                   24368587.6174
        37.5004         30.2504
   8667930.71547   6800942.88745  21739222.9774                   21739218.2274
        45.0004         34.0004
   9866853.55546   7749287.18043  23407526.7194                   23407523.9884
        41.0004         22.5004
  -1578962.81647  -1168509.29347  21515613.6334                   21515613.1484
        46.5004         44.2504
 -16532529.41447 -12782900.40647  21561936.2034                   21561932.9414
        46.2504         42.7504
 25  8  8 10 18 30.0000000  0 10G06G11G25G14G21G17G19G22G24G12
  -3017575.64548  -2287102.25848  21109292.5634                   21109292.3244
        49.5004         48.7504
 -15784901.00048 -12191767.71146  20971168.4144                   20971165.7974
        48.5004         38.7504
  34624188.80546  27069545.22344  23979868.3524                   23979867.9804
        37.7504         28.5004
  15724540.78546  12287027.04742  24699968.1414                   24699967.0744
        37.5004         17.7504
  43734393.41845  34159784.97343  24887084.2194                   24887082.7544
        35.7504         19.5004
  16358329.81346  12781119.62945  24634672.2814                   24634670.9534
        38.7504         31.7504
  10055107.48447   7881859.82445  22003193.8204                   22003188.1804
        45.5004         34.0004
  11258341.60547   8833563.56343  23672317.9924                   23672314.9884
        42.2504         23.0004
   -206915.70747    -99381.67647  21776705.0474                   21776705.1994
        45.5004         44.2504
 -15282346.21947 -11808731.65247  21799838.3134                   21799834.8874
        46.5004         42.5004
 25  8  8 10 19  0.0000000  0 10G06G11G25G14G21G17G19G22G24G12
  -3232857.55948  -2454854.39548  21068326.0554                   21068325.2704
        49.0004         49.0004
 -16082501.98448 -12423664.57046  20914537.1024                   20914534.0514
        48.0004         38.7504
  34271671.03946  26794856.10544  23912786.7114                   23912785.8674
        37.0004         29.2504
  15562724.81646  12160936.71542  24669176.0164                   24669175.1174
        36.2504         16.7504
  43392357.09446  33893263.22343  24821997.0084                   24821995.8204
        36.5004         19.7504
  16181120.05146  12643034.12145  24600949.6254                   24600946.3484
        39.2504         30.5004
   9866981.97347   7735268.54345  21967394.5944                   21967390.3054
        45.0004         33.0004
  11074603.57047   8690391.07443  23637354.0164                   23637350.7624
        42.5004         22.7504
   -409798.93047   -257472.50847  21738097.7664                   21738097.6414
        46.0004         44.0004
 -15607392.05547 -12062014.11747  21737984.2034                   21737980.3914
        46.5004         42.5004
 25  8  8 10 19 30.0000000  0 10G06G11G25G14G21G17G19G22G24G12
  -3447599.57048  -2622185.83648  21027461.8984                   21027461.3134
        49.2504         48.7504
 -16379573.68748 -12655148.99646  20858005.8054                   20858003.3754
        48.5004         38.2504
  33919187.35946  26520193.52744  23845711.1094                   23845710.9384
        37.7504         29.2504
  15401062.18445  12034965.78542  24638412.2814                   24638411.3364
        35.0004         16.7504
  43050236.65246  33626675.96143  24756894.1644                   24756892.4534
        36.5004         20.2504
  16003865.20746  12504913.39145  24567219.8754                   24567217.4924
        39.2504         31.5004
   9678981.18447   7588774.40245  21931619.1724                   21931614.5744
        46.0004         33.0004
  10891066.95747   8547375.52743  23602428.1414                   23602425.2854
        42.5004         22.0004
   -612186.35947   -415177.00447  21699584.8834                   21699584.4344
        47.0004         44.0004
 -15932232.38747 -12315136.43447  21676168.8834                   21676165.4694
        47.0004         43.0004
 25  8  8 10 20  0.0000000  0 10G06G11G25G14G21G17G19G22G24G12
  -3661802.52048  -2789097.22348  20986700.2584                   20986699.8524
        49.7504         48.7504
 -16676114.06248 -12886219.40646  20801576.0554                   20801573.5354
        48.0004         39.0004
  33566740.30545  26245559.52044  23778641.3134                   23778642.6094
        35.5004         27.0004
  15239553.12945  11909114.56342  24607678.7034                   24607677.7504
        34.0004         15.5004
  42708035.73446  33360025.89543  24691775.0004                   24691773.3284
        36.2504         19.2504
  15826565.46146  12366757.77044  24533479.0084                   24533478.2194
        36.7504         29.7504
   9491105.22347   7442377.52745  21895868.1884                   21895863.0824
        46.0004         33.2504
  10707732.87547   8404517.79343  23567541.1564                   23567537.4574
        42.5004         22.2504
   -814079.16847   -572496.08247  21661166.0234                   21661165.6644
        46.2504         44.0004
 -16256864.21147 -12568096.28547  21614393.4614                   21614390.3404
        47.0004         43.0004
 25  8  8 10 20 30.0000000  0 10G06G11G25G14G21G17G19G22G24G12
  -3875469.88348  -2955591.27048  20946040.8914                   20946040.4614
        49.7504         49.0004
 -16972123.68447 -13116876.23846  20745247.6724                   20745244.9104
        47.5004         39.5004
  33214330.02746  25970954.14845  23711581.6804                   23711580.9804
        37.7504         30.0004
  15078195.11745  11783381.01642  24576973.1024                   24576972.9964
        32.2504         15.5004
  42365755.60246  33093314.18043  24626641.7584                   24626639.8594
        37.0004         19.5004
  15649219.44546  12228566.03145  24499733.8914                   24499729.5554
        40.5004         31.5004
   9303351.44147   7296075.87545  21860139.7584                   21860134.2664
        45.0004         33.0004
  10524599.10247   8261816.13743  23532692.1564                   23532688.6414
        43.2504         22.5004
  -1015481.23847   -729432.76247  21622840.4694                   21622839.9024
        46.2504         44.0004
 -16581287.59447 -12820893.71147  21552657.8444                   21552654.3594
        46.7504         42.7504
 25  8  8 10 21  0.0000000  0 10G06G11G25G14G21G17G19G22G24G12
  -4088603.69548  -3121669.55948  20905482.6804                   20905482.2584
        49.5004         48.7504
 -17267601.66447 -13347118.80946  20689019.9614                   20689017.3444
        47.5004         39.0004
  32861957.87545  25696378.47744  23644525.4694                   23644526.3054
        33.0004         25.0004
  14916987.24245  11657764.40642  24546295.5554                   24546296.2464
        31.5004         16.2504
  42023398.78945  32826542.63742  24561493.0004                   24561491.0514
        35.7504         17.7504
  15471826.61746  12090337.78945  24465977.5394                   24465975.1334
        40.7504         33.2504
   9115718.90647   7149868.70745  21824434.3364                   21824429.8594
        46.0004         34.0004
  10341665.64547   8119270.58643  23497881.0864                   23497877.5904
        43.0004         23.0004
  -1216394.93447   -885988.90247  21584607.5314                   21584607.1884
        47.2504         44.0004
 -16905500.82047 -13073527.37947  21490961.8914                   21490958.6294
        47.2504         43.2504
 25  8  8 10 21 30.0000000  0 10G06G11G25G14G21G17G19G22G24G12
  -2725780.20348  -2059729.17248  21164819.5784                   21164819.0944
        49.2504         48.5004
 -15987118.57448 -12349339.75846  20932687.7034                   20932685.0634
        48.0004         39.0004
  34085055.80946  26649441.85545  23877274.8914                   23877274.9844
        37.7504         31.2504
  16331352.59445  12759867.21142  24815440.5084                   24815441.5044
        32.0004         17.2504
  43256398.12945  33787321.43043  24796123.5084                   24796122.6954
        35.5004         19.0004
  16869811.07846  13179676.33045  24732004.6954                   24732001.1374
        39.2504         31.0004
  10503631.53547   8231359.04745  22088545.5784                   22088540.2114
        45.5004         33.2504
  11734356.96947   9204484.57044  23762901.0944                   23762898.1804
        43.2504         24.5004
    158602.75047    185437.85547  21846261.1414                   21846260.6644
        46.7504         44.5004
 -15654072.22748 -12098388.20747  21729101.0234                   21729097.7774
        48.0004         43.5004
 25  8  8 10 22  0.0000000  0 10G06G11G25G14G21G17G19G22G24G12
  -2937856.60248  -2224983.51248  21124462.7664                   21124461.9414
        49.7504         48.7504
 -16281534.27748 -12578754.58246  20876662.4774                   20876659.6214
        48.2504         39.2504
  33732760.88745  26374926.42244  23810234.6644                   23810233.9654
        35.5004         25.5004
  16170438.28145  12634479.40242  24784819.7894                   24784820.2344
        30.7504         14.7504
  42913892.41845  33520433.91842  24730948.6564                   24730946.3054
        35.7504         17.7504
  16692319.51646  13041371.18845  24698229.4774                   24698225.7774
        40.2504         33.0004
  10316234.63747   8085335.49645  22052884.8674                   22052880.2464
        45.7504         33.5004
  11551819.53147   9062247.58243  23728165.6024                   23728162.3204
        42.7504         22.7504
    -41344.93747     29634.44547  21808212.1334                   21808211.8714
        46.5004         44.2504
 -15977862.89147 -12350692.61347  21667485.5234                   21667482.1804
        47.7504         43.0004
 25  8  8 10 22 30.0000000  0 10G06G11G25G14G21G17G19G22G24G12
  -3149404.47348  -2389826.00048  21084206.5004                   21084205.6764
        49.5004         48.7504
 -16575414.72348 -12807752.32046  20820738.2424                   20820736.4184
        48.2504         38.7504
  33380509.78146  26100445.02345  23743204.2424                   23743203.9534
        37.0004         30.7504
  16009672.20345  12509207.00842  24754226.1564                   24754227.5354
        30.7504         16.7504
  42571319.03945  33253493.64543  24665757.9694                   24665757.0664
        35.0004         18.2504
  16514781.00046  12903029.48444  24664443.2734                   24664440.6024
        37.2504         29.2504
  10128956.95347   7939404.82045  22017247.3364                   22017241.5164
        47.0004         32.7504
  11369482.52347   8920166.77343  23693467.9614                   23693465.1644
        42.2504         22.5004
   -240810.37147   -125793.17647  21770255.3204                   21770254.7114
        46.5004         44.0004
 -16301436.55548 -12602827.91847  21605911.8914                   21605908.5634
        48.2504         43.5004
 25  8  8 10 23  0.0000000  0 10G06G11G25G14G21G17G19G22G24G12
  -3360426.78548  -2554258.96948  21044050.3284                   21044049.6094
        50.0004         48.5004
 -16868759.97348 -13036333.01646  20764917.1024                   20764914.1524
        48.7504         39.2504
  33028303.00846  25825998.37544  23676181.3054                   23676181.6484
        37.5004         27.0004
  15849052.39545  12384048.69142  24723662.3364                   24723662.6764
        31.7504         15.5004
  42228679.88346  32986502.18843  24600556.1484                   24600555.0514
        36.0004         18.2504
  16337194.47746  12764650.31645  24630651.2194                   24630648.8014
        39.0004         32.5004
   9941796.50047   7793565.50445  21981631.2814                   21981627.2774
        45.0004         33.5004
  11187344.63347   8778241.12143  23658807.9064                   23658805.1414
        42.0004         22.5004
   -439796.84047   -280847.57847  21732389.3204                   21732389.4414
        46.5004         44.0004
 -16624792.45748 -12854793.54747  21544379.3444                   21544376.0204
        48.0004         43.0004
 25  8  8 10 23 30.0000000  0 10G06G11G25G14G21G17G19G22G24G12
  -3570925.82448  -2718284.19548  21003993.4694                   21003993.3484
        50.0004         48.5004
 -17161569.39548 -13264496.19146  20709196.9064                   20709194.3714
        48.7504         39.2504
  32676142.18446  25551587.22744  23609167.0314                   23609166.6174
        36.5004         26.5004
  15688577.69945  12259003.36742  24693125.3674                   24693124.3634
        33.5004         16.7504
  41885977.44145  32719461.37143  24535342.0784                   24535341.0984
        35.0004         19.2504
  16159559.04346  12626233.05944  24596846.4064                   24596843.2194
        36.7504         27.5004
   9754752.12547   7647816.62945  21946038.5394                   21946032.6454
        45.2504         32.7504
  11005405.39146   8636470.25043  23624186.0234                   23624183.5044
        41.5004         23.2504
   -638307.02047   -435530.85247  21694614.3674                   21694613.9804
        46.2504         44.2504
 -16947928.88348 -13106588.15647  21482888.2194                   21482884.9384
        48.0004         43.5004
 25  8  8 10 24  0.0000000  0 10G06G11G25G14G21G17G19G22G24G12
  -3780902.77748  -2881902.60248  20964036.2274                   20964036.1174
        49.7504         48.5004
 -17453841.39848 -13492240.59446  20653579.5704                   20653576.9614
        48.5004         39.7504
  32324029.50846  25277213.87945  23542162.0394                   23542162.9184
        39.0004         30.7504
  15528247.96545  12134071.06642  24662615.0474                   24662615.1054
        34.7504         17.7504
  41543215.19945  32452373.92242  24470117.0164                   24470115.1374
        35.7504         17.7504
  15981875.32046  12487778.20345  24563036.2274                   24563033.4884
        39.0004         31.5004
   9567823.37947   7502157.85545  21910467.0474                   21910462.5944
        46.7504         33.5004
  10823665.33646   8494854.60243  23589602.2814                   23589598.8984
        41.5004         23.7504
   -836342.44947   -589844.19147  21656929.6334                   21656929.3164
        46.5004         44.2504
 -17270843.19148 -13358209.68447  21421439.5314                   21421436.2814
        48.0004         43.2504
 25  8  8 10 24 30.0000000  0 10G06G11G25G14G21G17G19G22G24G12
  -3990359.90648  -3045115.94548  20924177.6024                   20924177.1884
        49.5004         48.5004
 -17745575.30948 -13719565.71146  20598064.2974                   20598061.8554
        48.0004         39.0004
  31971966.56345  25002879.07043  23475165.1094                   23475165.7304
        34.7504         22.5004
  15368062.08645  12009250.84443  24632133.4384                   24632132.2464
        35.5004         20.2504
  41200395.74246  32185241.94943  24404880.8984                   24404878.7734
        36.0004         20.0004
  15804142.87146  12349285.35245  24529213.8914                   24529213.2274
        38.0004         31.5004
   9381009.88347   7356588.87945  21874917.1724                   21874912.1054
        46.0004         32.7504
  10642124.28946   8353394.05543  23555056.2424                   23555053.3524
        40.5004         23.0004
  -1033905.74647   -743789.63747  21619334.2664                   21619334.2734
        45.7504         43.7504
 -17593533.67647 -13609656.80147  21360033.7974                   21360030.1564
        47.7504         42.7504
 25  8  8 10 25  0.0000000  0 10G06G11G25G14G21G17G19G22G24G12
  -2623869.63348  -1980318.32848  21184212.3444                   21184211.6054
        49.5004         48.5004
 -16461338.00447 -12718861.30546  20842446.5164                   20842443.7274
        47.2504         39.0004
  33195389.43046  25956195.68845  23707976.4614                   23707977.5704
        38.2504         32.2504
  16783447.00446  13112148.14543  24901472.4064                   24901470.7624
        36.7504         20.5004
  42432955.98845  33145678.53543  24639428.3984                   24639427.2974
        35.0004         19.2504
  17201789.96946  13438361.02744  24795177.5394                   24795172.5744
        39.5004         26.2504
  10769739.20347   8438715.61745  22139183.6724                   22139179.7114
        45.5004         32.5004
  12036210.48446   9439694.94943  23820342.2424                   23820339.0434
        40.5004         22.5004
    344429.91447    330238.12947  21881622.8914                   21881622.7734
        46.0004         43.7504
 -16340564.98847 -12633317.55947  21598465.6334                   21598462.5124
        46.5004         43.2504
 25  8  8 10 25 30.0000000  0 10G06G11G25G14G21G17G19G22G24G12
  -2832291.97348  -2142725.34048  21144551.0554                   21144550.1024
        49.5004         48.2504
 -16751992.09848 -12945344.99646  20787137.0234                   20787134.4734
        48.2504         38.7504
  32843432.05946  25681943.25444  23641000.4614                   23640999.8794
        38.2504         26.2504
  16623547.19146  12987550.81343  24871044.1024                   24871042.8754
        37.0004         20.7504
  42090031.87546  32878464.98042  24574172.4844                   24574171.1024
        36.5004         17.2504
  17023960.64546  13299792.70345  24761337.8364                   24761335.7974
        40.0004         32.2504
  10583153.96147   8293324.48445  22103678.5164                   22103672.5274
        45.7504         32.2504
  11855067.49646   9298544.57443  23785871.6334                   23785868.7194
        41.5004         22.0004
    147804.95747    177023.85247  21844206.4304                   21844205.9614
        46.7504         43.7504
 -16662800.55548 -12884410.20347  21537146.3204                   21537142.9694
        48.0004         43.0004
 25  8  8 10 26  0.0000000  0 10G06G11G25G14G21G17G19G22G24G12
  -3040200.80948  -2304732.22748  21104987.3914                   21104987.0084
        49.5004         48.0004
 -17042105.88347 -13171407.68046  20731930.1414                   20731927.4924
        47.7504         39.0004
  32491529.41445  25407733.39144  23574036.0314                   23574036.6914
        33.7504         28.0004
  16463788.21546  12863063.24243  24840642.8594                   24840642.1914
        37.5004         20.7504
  41747058.89145  32611213.34043  24508906.3754                   24508905.3404
        35.5004         18.5004
  16846081.72746  13161185.65645  24727489.5314                   24727487.1094
        40.2504         31.7504
  10396680.93047   8148020.82045  22068193.6174                   22068189.1214
        44.7504         31.7504
  11674122.11346   9157548.12943  23751438.8524                   23751435.8874
        41.7504         22.7504
    -48355.25847     24171.71947  21806878.3444                   21806878.0664
        45.7504         43.5004
 -16984806.63347 -13135324.02047  21475870.5314                   21475866.9964
        46.7504         43.5004
 25  8  8 10 26 30.0000000  0 10G06G11G25G14G21G17G19G22G24G12
  -3247598.71148  -2466340.98048  21065520.7584                   21065520.3444
        50.2504         48.2504
 -17331679.12948 -13397049.15246  20676826.2194                   20676823.5784
        48.0004         39.5004
  32139682.37546  25133566.93444  23507082.6334                   23507080.5594
        38.2504         25.7504
  16304168.63746  12738684.31343  24810268.7974                   24810267.5824
        38.2504         21.7504
  41404039.28545  32343925.39543  24443632.3594                   24443630.2194
        35.5004         18.5004
  16668152.28146  13022539.31644  24693630.0084                   24693625.7814
        37.2504         27.5004
  10210318.15647   8002803.07445  22032729.7424                   22032724.3204
        45.7504         32.0004
  11493373.50847   9016705.03943  23717043.6334                   23717040.9414
        42.0004         21.7504
   -244053.70347   -128320.60247  21769638.4774                   21769637.8594
        45.5004         43.5004
 -17306581.88347 -13386057.96947  21414638.6644                   21414635.5084
        47.2504         43.5004
 25  8  8 10 27  0.0000000  0  9G06G11G25G21G17G19G22G24G12
  -3454488.69948  -2627553.95348  21026150.9224                   21026150.2304
        49.5004         48.0004
 -17620711.97748 -13622269.54346  20621825.2814                   20621822.1994
        48.5004         39.5004
  31787892.05946  24859444.68044  23440137.0864                   23440138.2814
        36.0004         29.2504
  41060975.04746  32076602.66842  24378348.1644                   24378347.7384
        37.2504         17.7504
  16490171.46946  12883853.00845  24659762.2114                   24659759.4224
        40.7504         33.5004
  10024064.93847   7857670.67645  21997287.1024                   21997282.8984
        45.5004         32.5004
  11312821.07847   8876014.82443  23682685.9144                   23682682.8244
        42.0004         22.5004
   -439293.60547   -280455.61347  21732485.2424                   21732484.9384
        46.0004         43.5004
 -17628124.96148 -13636611.00847  21353451.3054                   21353447.8054
        48.2504         43.7504
 25  8  8 10 27 30.0000000  0  9G06G11G25G21G17G19G22G24G12
  -3660871.54348  -2788371.75448  20986877.5634                   20986877.1294
        49.2504         48.0004
 -17909202.37147 -13847067.23846  20566927.2814                   20566924.7704
        47.5004         39.2504
  31436161.40646  24585368.88344  23373206.1414                   23373204.0704
        37.7504         27.5004
  40717870.35246  31809248.41443  24313058.6414                   24313057.0474
        36.5004         19.2504
  16312140.46146  12745127.45744  24625883.9224                   24625878.6884
        36.2504         25.5004
   9837920.71147   7712623.24645  21961864.0704                   21961859.4224
        45.0004         30.7504
  11132465.57047   8735478.03143  23648364.5704                   23648362.0634
        42.0004         22.2504
   -634076.19547   -432234.26247  21695419.2814                   21695418.9774
        46.5004         43.0004
 -17949432.81247 -13886980.76647  21292308.4064                   21292305.0784
        47.0004         43.7504
 25  8  8 10 28  0.0000000  0  9G06G11G25G21G17G19G22G24G12
  -2291320.59448  -1721189.19948  21247494.2974                   21247493.7504
        49.2504         48.0004
 -16621718.18047 -12843832.78946  20811927.1884                   20811924.2114
        47.5004         39.7504
  32659925.71946  25538951.47745  23606080.7584                   23606081.6644
        38.5004         31.2504
  41950161.33246  32769475.15642  24547555.2974                   24547554.0084
        36.7504         17.7504
  17709486.50446  13833968.55945  24891789.5394                   24891786.3054
        41.2504         32.5004
  11227313.08647   8795266.64145  22226257.2274                   22226252.8364
        45.0004         33.0004
  12527734.60546   9822700.64543  23913876.2034                   23913873.1804
        41.0004         22.2504
    747024.39147    643948.00047  21958234.1954                   21958234.1484
        45.5004         43.7504
 -16695070.67647 -12909555.71147  21531005.4304                   21531002.3134
        47.2504         43.5004
 25  8  8 10 28 30.0000000  0  9G06G11G25G21G17G19G22G24G12
  -2496690.59848  -1881217.77047  21208413.8204                   21208412.9184
        48.7504         47.7504
 -16909116.74248 -13067779.71546  20757237.2344                   20757234.4614
        48.0004         39.5004
  32308324.45346  25264976.57444  23539172.7424                   23539173.3754
        37.2504         29.5004
  41606989.10946  32502068.29743  24482251.0004                   24482250.0204
        37.0004         19.2504
  17531358.92646  13695167.86744  24857891.3984                   24857888.7544
        36.2504         28.5004
  11041390.10247   8650391.57045  22190877.5784                   22190871.9614
        45.5004         31.2504
  12347777.04346   9682473.98043  23879631.0864                   23879628.2854
        40.2504         21.2504
    553153.92247    492880.09847  21921341.7344                   21921341.4064
        45.7504         43.5004
 -17015896.98448 -13159550.22747  21469954.1334                   21469950.9454
        48.2504         43.7504
 25  8  8 10 29  0.0000000  0  9G06G11G25G21G17G19G22G24G12
  -2701556.39848  -2040853.46147  21169428.8914                   21169428.3634
        49.2504         47.7504
 -17195967.42248 -13291299.71546  20702651.4844                   20702648.5824
        48.0004         39.7504
  31956791.54346  24991054.84845  23472279.1484                   23472279.2194
        38.2504         30.2504
  41263788.51646  32234639.28143  24416942.2974                   24416941.5314
        38.0004         19.5004
  17353183.80946  13556330.10545  24823987.0784                   24823984.9964
        40.2504         31.7504
  10855577.43047   8505602.46145  22155518.2664                   22155513.5984
        45.0004         32.2504
  12168018.93846   9542402.66443  23845424.6414                   23845421.9224
        39.5004         20.7504
    359736.71147    342165.38747  21884535.8364                   21884535.4414
        45.7504         43.5004
 -17336478.47347 -13409353.97347  21408949.8284                   21408946.2934
        47.2504         43.7504
 25  8  8 10 29 30.0000000  0  9G06G11G25G21G17G19G22G24G12
  -2905921.33648  -2200098.85947  21130539.4454                   21130538.9344
        49.7504         47.7504
 -17482270.74247 -13514393.19146  20648169.3754                   20648166.6094
        47.5004         40.0004
  31605327.48846  24717186.88744  23405397.1254                   23405396.8014
        38.0004         29.0004
  40920561.11746  31967189.42243  24351628.6564                   24351627.2384
        36.0004         19.5004
  17174959.69546  13417454.08644  24790071.5784                   24790070.2974
        38.5004         29.5004
  10669873.39547   8360898.01245  22120180.0234                   22120174.8984
        45.5004         31.5004
  11988458.71146   9402485.57043  23811254.5944                   23811252.7194
        40.0004         21.5004
    166769.15647    191801.05147  21847815.5864                   21847814.8674
        45.7504         43.5004
 -17656814.51648 -13658966.46947  21347991.9844                   21347988.3984
        48.0004         43.5004
 25  8  8 10 30  0.0000000  0  9G06G11G25G21G17G19G22G24G12
  -3109788.29748  -2358956.23047  21091745.1334                   21091744.5864
        48.5004         47.7504
 -17768026.77348 -13737060.22746  20593792.0474                   20593789.3794
        48.0004         39.7504
  31253933.62546  24443373.39144  23338528.7424                   23338528.0904
        36.5004         28.7504
  40577309.21946  31699720.46943  24286310.8054                   24286309.3404
        37.7504         18.5004
  16996685.73846  13278539.37945  24756148.3204                   24756145.1564
        40.2504         30.0004
  10484276.23447   8216276.82045  22084862.5704                   22084858.1454
        45.0004         31.7504
  11809095.42646   9262721.96143  23777123.4774                   23777121.1764
        39.7504         21.5004
    -25752.02047     41784.55147  21811179.4614                   21811179.5084
        45.2504         43.5004
 -17976903.65247 -13908386.56647  21287080.4924                   21287077.0824
        47.7504         43.7504
 25  8  8 10 30 30.0000000  0  9G06G11G25G21G17G19G22G24G12
  -3313159.60548  -2517427.38747  21053044.7584                   21053044.1684
        48.0004         47.5004
 -18053235.10547 -13959300.47746  20539518.5474                   20539515.7854
        47.7504         40.0004
  30902611.22346  24169615.80545  23271675.2664                   23271674.0514
        40.7504         32.2504
  40234035.46946  31432234.45343  24220987.9064                   24220985.9694
        37.2504         19.5004
  16818361.95346  13139585.66845  24722214.5314                   24722212.8014
        38.2504         30.5004
  10298784.84047   8071738.06345  22049564.4694                   22049559.1414
        45.5004         31.5004
  11629928.68046   9123111.48043  23743029.5314                   23743026.4774
        40.2504         22.5004
   -217829.53547   -107886.24247  21774628.4304                   21774628.2704
        44.2504         43.5004
 -18296744.25447 -14157613.00047  21226216.9694                   21226213.5394
        47.7504         44.0004
 25  8  8 10 31  0.0000000  0  9G06G11G25G21G17G19G22G24G12
  -1940611.66847  -1447909.51247  21314231.8834                   21314231.4344
        47.5004         47.5004
 -16762466.62948 -12953506.84446  20785143.6334                   20785140.8324
        48.0004         40.2504
  32126793.00046  25123523.77745  23504628.4144                   23504628.2194
        37.7504         30.5004
  41466173.30546  32392341.89843  24455455.8204                   24455454.1884
        38.0004         19.0004
  18215413.00446  14228196.91844  24988063.7344                   24988060.3914
        39.7504         27.7504
  11688823.71147   9154885.22345  22314080.8134                   22314075.5124
        46.0004         31.7504
  13026383.13746  10211257.77743  24008765.7424                   24008763.2504
        40.2504         22.5004
   1165959.52347    970390.93447  22037954.9304                   22037954.4574
        44.5004         43.7504
 -17040904.42247 -13179036.48847  21465195.4774                   21465192.0664
        47.5004         43.7504
 25  8  8 10 31 30.0000000  0  9G06G11G25G21G17G19G22G24G12
  -2143001.09848  -1605615.55947  21275718.7664                   21275718.0984
        48.2504         47.2504
 -17046580.72747 -13174894.44146  20731078.4384                   20731075.5784
        47.2504         40.0004
  31775616.69546  24849879.88344  23437801.7504                   23437801.3164
        37.5004         28.0004
  41122861.84446  32124826.52343  24390125.7114                   24390124.3634
        38.0004         20.2504
  18036985.81646  14089162.70744  24954110.9844                   24954107.2384
        40.2504         29.5004
  11503539.05147   9010507.54345  22278821.6564                   22278816.6174
        45.2504         31.5004
  12847605.56346  10071950.51643  23974745.3054                   23974742.8404
        40.2504         22.7504
    974758.91447    821403.43447  22001570.6644                   22001570.0824
        45.0004         43.5004
 -17360244.39147 -13427872.82047  21404427.2274                   21404423.2194
        47.2504         43.7504
 25  8  8 10 32  0.0000000  0  9G06G11G25G21G17G19G22G24G12
  -2344903.26248  -1762941.92247  21237297.6334                   21237297.1094
        48.5004         47.2504
 -17330147.18048 -13395855.30546  20677117.3594                   20677114.8524
        48.0004         40.0004
  31424515.50046  24576294.61345  23370990.4694                   23370989.9024
        40.7504         34.0004
  40779535.58246  31857299.66043  24324793.2344                   24324791.4844
        38.7504         20.7504
  17858506.40246  13950087.87545  24920146.9384                   24920144.4614
        41.0004         30.5004
  11318356.17247   8866209.19945  22243582.5474                   22243578.1174
        45.2504         32.2504
  12669021.69946   9932794.23443  23940761.8364                   23940759.5044
        40.7504         22.5004
    783992.57047    672754.33247  21965269.2034                   21965268.9144
        45.0004         43.7504
 -17679331.36747 -13676512.00847  21343706.9384                   21343702.9844
        47.7504         43.7504
 25  8  8 10 32 30.0000000  0  9G06G11G25G21G17G19G22G24G12
  -2546322.09448  -1919891.66047  21198969.3134                   21198968.2544
        48.5004         47.2504
 -17613167.25448 -13616390.41846  20623260.9064                   20623257.6914
        48.0004         40.2504
  31073489.83246  24302768.18044  23304191.6414                   23304190.3914
        38.2504         29.5004
  40436195.73846  31589762.15243  24259457.2274                   24259455.5394
        38.5004         20.5004
  17679973.00446  13810970.82444  24886172.5394                   24886170.8594
        36.5004         28.0004
  11133272.77747   8721988.35245  22208361.9144                   22208357.5044
        45.2504         31.7504
  12490629.49246   9793787.28543  23906815.3524                   23906812.9224
        39.2504         22.2504
    593656.17247    524440.24247  21929049.1954                   21929049.0824
        45.5004         43.2504
 -17998165.16847 -13924953.92247  21283034.6484                   21283031.2584
        47.5004         44.2504
 25  8  8 10 33  0.0000000  0  9G06G11G25G21G17G19G22G24G12
  -2747257.59047  -2076464.77347  21160732.5394                   21160731.7074
        47.5004         47.0004
 -17895638.18447 -13836497.61746  20569508.1094                   20569505.0704
        47.5004         40.5004
  30722543.77746  24029303.75445  23237408.3594                   23237408.9064
        39.7504         31.0004
  40092847.44146  31322218.08643  24194120.4924                   24194118.5164
        38.2504         21.0004
  17501387.53546  13671813.37944  24852189.5234                   24852186.6954
        40.5004         29.5004
  10948290.02047   8577845.93845  22173161.1724                   22173156.5474
        45.5004         32.0004
  12312430.99246   9654931.26243  23872905.1024                   23872902.3524
        38.7504         21.5004
    403749.39547    376460.93847  21892911.0394                   21892910.6764
        45.0004         43.5004
 -18316741.00047 -14173194.82047  21222411.7814                   21222408.4384
        47.2504         44.0004
 25  8  8 10 33 30.0000000  0  9G06G11G25G21G17G19G22G24G12
  -2947711.44948  -2232662.58647  21122587.4304                   21122586.5124
        48.0004         47.0004
 -18177558.98847 -14056176.16446  20515860.8284                   20515857.8284
        47.0004         40.5004
  30371679.50446  23755903.02345  23170641.7734                   23170641.3554
        39.5004         32.5004
  39749494.21146  31054670.18443  24128782.2194                   24128780.5164
        38.2504         20.7504
  17322750.59046  13532615.72745  24818196.0784                   24818193.6334
        40.7504         30.2504
  10763407.96947   8433781.96945  22137978.8444                   22137974.7274
        44.2504         30.7504
  12134426.14146   9516226.13343  23839032.0704                   23839029.1334
        38.5004         21.2504
    214270.14847    228814.75847  21856854.3444                   21856854.5234
        45.0004         43.0004
 -18635056.85247 -14421233.13347  21161838.2734                   21161834.8014
        47.7504         44.2504
 25  8  8 10 34  0.0000000  0  9G06G11G25G21G17G19G22G24G12
  -1572261.30147  -1160883.25447  21384326.6564                   21384326.2624
        47.7504         47.0004
 -16883501.84848 -13047819.94146  20762111.3594                   20762108.4454
        48.5004         40.2504
  31596328.75846  24710175.28945  23403684.1954                   23403684.8954
        39.0004         30.0004
  40981568.44146  32014728.08243  24363237.9384                   24363236.8594
        39.0004         21.2504
  18719485.85546  14620980.87945  25083985.6884                   25083984.3134
        40.2504         31.0004
  12154050.04347   9517399.16045  22402610.1174                   22402603.8404
        44.7504         30.2504
  13532038.51646  10605274.72343  24104988.9224                   24104986.2584
        39.7504         20.7504
   1600640.11747   1309103.04347  22120671.9614                   22120671.7624
        45.2504         43.5004
 -17377682.04747 -13441460.55147  21401109.0234                   21401105.3164
        47.2504         44.5004
 25  8  8 10 34 30.0000000  0  9G06G11G25G21G17G19G22G24G12
  -1771761.39548  -1316337.87547  21346362.9844                   21346362.7464
        48.0004         46.7504
 -17164323.81648 -13266642.23446  20708672.8444                   20708669.8794
        48.0004         40.7504
  31245631.37946  24436904.59845  23336948.1024                   23336948.9104
        38.5004         30.7504
  40638211.52346  31747177.30543  24297899.6334                   24297897.7344
        38.0004         21.5004
  18540742.77046  14481700.57845  25049972.4304                   25049969.1604
        40.7504         30.2504
  11969364.34847   9373488.21145  22367464.9144                   22367460.6134
        44.5004         30.7504
  13354417.42146  10466868.62143  24071188.8284                   24071185.7344
        40.0004         20.0004
   1412005.36347   1162114.92247  22084775.5004                   22084775.7894
        44.5004         43.2504
 -17695474.27347 -13689090.85247  21340634.7274                   21340631.5394
        47.7504         44.0004
 25  8  8 10 35  0.0000000  0  9G06G11G25G21G17G19G22G24G12
  -1970787.94547  -1471423.49247  21308489.7974                   21308489.0634
        47.2504         46.7504
 -17444595.60248 -13485035.82846  20655338.7584                   20655335.9534
        48.5004         40.7504
  30895020.32446  24163701.19945  23270230.0944                   23270230.2734
        39.0004         31.5004
  40294857.34046  31479628.65643  24232561.0084                   24232559.5084
        39.0004         22.0004
  18361946.57846  14342378.85245  25015947.5234                   25015947.5084
        38.7504         30.5004
  11784775.87547   9229653.01245  22332339.5394                   22332334.3284
        44.0004         31.0004
  13176987.74246  10328611.70343  24037424.8444                   24037422.3284
        39.5004         21.0004
   1223789.05547   1015452.86347  22048959.2894                   22048959.3404
        44.7504         43.0004
 -18013001.30547 -13936514.49647  21280211.6484                   21280208.4454
        47.5004         44.2504
 25  8  8 10 35 30.0000000  0  9G06G11G25G21G17G19G22G24G12
  -2169343.70347  -1626142.26247  21270705.5944                   21270705.3094
        47.5004         46.7504
 -17724317.35248 -13703000.82046  20602109.6724                   20602106.8714
        48.5004         40.0004
  30544496.91846  23890566.12145  23203527.8284                   23203526.0704
        41.2504         31.2504
  39951508.33646  31212084.02343  24167224.0084                   24167222.3914
        39.0004         22.5004
  18183096.74246  14203015.34044  24981913.6174                   24981911.3134
        38.5004         28.5004
  11600283.54747   9085892.75445  22297230.9384                   22297227.2974
        44.5004         31.2504
  12999748.73846  10190503.38743  24003698.0474                   24003695.3094
        38.5004         21.5004
   1035988.01647    869114.37947  22013222.1024                   22013221.7384
        45.0004         42.7504
 -18330261.53148 -14183730.24247  21219839.1174                   21219835.2424
        48.0004         44.5004
 25  8  8 10 36  0.0000000  0  9G06G11G25G21G17G19G22G24G12
  -2367430.27747  -1780495.43747  21233010.9694                   21233010.5904
        47.2504         46.5004
 -18003487.97348 -13920536.35546  20548984.8754                   20548982.4144
        48.5004         40.5004
  30194063.85546  23617501.50445  23136842.6484                   23136842.5704
        39.2504         31.7504
  39608168.18846  30944546.32043  24101888.6414                   24101887.1254
        39.2504         22.0004
  18004193.84046  14063610.53944  24947869.4304                   24947867.1174
        40.5004         28.5004
  11415887.21547   8942207.25445  22262141.8984                   22262137.3834
        45.0004         31.0004
  12822700.41446  10052543.62543  23970006.6254                   23970003.7974
        39.0004         19.2504
    848600.29347    723097.96147  21977563.2274                   21977563.2154
        45.2504         43.2504
 -18647252.37547 -14430736.09847  21159517.7974                   21159514.1334
        47.5004         44.2504
 25  8  8 10 36 30.0000000  0  9G06G11G25G21G17G19G22G24G12
  -2565052.04747  -1934486.42247  21195404.9064                   21195404.0004
        47.5004         46.7504
 -18282109.20748 -14137643.80146  20495965.2424                   20495962.5084
        48.7504         41.0004
  29843721.05946  23344507.08645  23070173.7894                   23070173.4964
        39.5004         31.5004
  39264837.89846  30677016.30543  24036555.1414                   24036552.9184
        38.7504         22.0004
  17825235.81346  13924162.60244  24913815.7974                   24913813.2854
        40.5004         26.7504
  11231584.06647   8798594.42245  22227070.0234                   22227065.4804
        44.0004         31.0004
  12645840.52346   9914730.68843  23936350.7344                   23936348.6564
        38.7504         19.7504
    661621.18847    577399.94147  21941982.6564                   21941982.3634
        45.0004         42.7504
 -18963973.93448 -14677532.10547  21099247.6644                   21099243.9614
        48.0004         44.7504
 25  8  8 10 37  0.0000000  0  9G06G11G25G21G17G19G22G24G12
  -1186783.25847   -860510.74247  21457681.0704                   21457680.3284
        47.5004         46.7504
 -16984749.97348 -13126714.51646  20742844.3134                   20742841.6914
        48.7504         40.7504
  31068903.45746  24299194.76245  23303318.3594                   23303318.9104
        40.0004         31.7504
  40496953.38346  31637106.34443  24271018.0864                   24271017.3874
        37.7504         21.7504
  19221650.01246  15012277.67644  25179544.3914                   25179541.2074
        40.0004         26.5004
  12622800.85547   9882659.42245  22491809.7584                   22491806.0274
        42.5004         31.0004
  14044596.12146  11004670.06343  24202525.4384                   24202522.7424
        38.0004         21.5004
   2050475.70747   1659624.23447  22206273.2504                   22206272.7114
        45.2504         42.7504
 -17704992.15247 -13696507.33247  21338823.7114                   21338820.0044
        47.5004         44.5004
 25  8  8 10 37 30.0000000  0  9G06G11G25G21G17G19G22G24G12
  -1383479.82448  -1013780.79347  21420250.5784                   21420250.1484
        48.0004         46.2504
 -17262268.94948 -13342963.05946  20690034.3674                   20690031.7464
        48.7504         40.5004
  30718749.34846  24026347.39145  23236686.4064                   23236685.5864
        40.0004         32.0004
  40153654.23846  31369600.58643  24205690.9064                   24205688.8164
        37.7504         21.5004
  19042584.44946  14872745.97744  25145468.6254                   25145467.0944
        38.0004         27.0004
  12438684.75047   9739192.31645  22456773.0084                   22456768.5004
        42.2504         30.0004
  13868114.39846  10867151.77043  24168942.3914                   24168939.8014
        39.0004         21.5004
   1864308.24247   1514558.64847  22170846.3524                   22170846.1484
        44.0004         42.7504
 -18021166.32847 -13942876.82047  21278657.5234                   21278654.2234
        47.5004         44.2504
 25  8  8 10 38  0.0000000  0  9G06G11G25G21G17G19G22G24G12
  -1579717.36747  -1166693.16447  21382908.0474                   21382907.5164
        47.5004         46.2504
 -17539236.43048 -13558781.86346  20637329.1804                   20637326.3634
        48.7504         41.0004
  30368692.52346  23753575.94144  23170070.9304                   23170072.5744
        37.0004         27.0004
  39810375.20746  31102110.50043  24140367.4064                   24140364.9494
        37.5004         22.0004
  18863464.96546  14733172.37544  25111384.6724                   25111380.6024
        41.2504         26.2504
  12254661.16447   9595797.28945  22421755.2974                   22421750.3984
        43.0004         30.7504
  13691821.04746  10729780.27043  24135395.4384                   24135392.3524
        40.5004         21.5004
   1678542.57447   1369806.17247  22135496.1094                   22135495.9534
        45.5004         43.0004
 -18337063.39548 -14189030.36747  21218544.4844                   21218540.9694
        48.5004         44.5004
 25  8  8 10 38 30.0000000  0  9G06G11G25G21G17G19G22G24G12
  -1775497.59847  -1319249.18447  21345652.1334                   21345651.4534
        47.5004         46.5004
 -17815651.54748 -13774170.25446  20584729.2424                   20584726.2894
        48.2504         40.7504
  30018735.51246  23480882.12945  23103478.3984                   23103480.9104
        40.2504         35.0004
  39467119.83646  30834638.85243  24075047.6724                   24075045.5124
        37.5004         22.5004
  18684291.58246  14593556.83244  25077288.6484                   25077283.6054
        40.5004         25.2504
  12070729.90247   9452474.21944  22386754.7344                   22386748.9144
        42.7504         29.2504
  13515716.32846  10592555.78543  24101883.3524                   24101880.6564
        41.0004         22.7504
   1493176.60947   1225365.14547  22100222.2974                   22100222.0394
        45.0004         42.2504
 -18652681.12948 -14434966.25847  21158484.3914                   21158480.7584
        48.2504         44.5004
 25  8  8 10 39  0.0000000  0  9G06G11G25G21G17G19G22G24G12
  -1970823.66447  -1471451.31647  21308482.5784                   21308482.6454
        47.5004         46.2504
 -18091514.87948 -13989128.68746  20532234.0234                   20532231.2734
        49.2504         41.0004
  29668879.43047  23208266.89845  23036904.7194                   23036901.4384
        44.0004         33.5004
  39123890.38746  30567187.41843  24009732.9304                   24009730.9924
        37.5004         21.2504
  18505063.73846  14453898.68444  25043182.6644                   25043180.0594
        39.5004         28.2504
  11886889.62547   9309222.05944  22351771.0164                   22351765.9024
        44.2504         29.7504
  13339798.96146  10455477.25844  24068407.1804                   24068404.3014
        41.5004         24.2504
   1308206.75447   1081232.77747  22065023.7424                   22065023.6024
        45.0004         42.5004
 -18968017.99247 -14680683.28147  21098478.2814                   21098474.5314
        47.7504         44.7504
 25  8  8 10 39 30.0000000  0  9G06G11G25G21G17G19G22G24G12
  -2165697.51247  -1623301.06247  21271399.6414                   21271398.9774
        47.0004         46.0004
 -18366825.75448 -14203656.62946  20479844.1334                   20479841.4964
        48.7504         41.0004
  29319126.68447  22935732.61745  22970348.5784                   22970349.5824
        44.5004         35.7504
  38780690.41046  30299758.92643  23944424.0704                   23944422.4614
        37.5004         21.5004
  18325781.91046  14314198.52044  25009065.2894                   25009065.0434
        38.0004         28.5004
  11703140.00847   9166040.51245  22316805.5084                   22316799.8284
        45.0004         30.0004
  13164068.89146  10318544.70743  24034967.0004                   24034964.5164
        41.7504         22.2504
   1123630.78547    937407.33647  22029900.5944                   22029900.0164
        44.5004         43.0004
 -19283071.14848 -14926179.24247  21038525.0784                   21038522.0474
        48.0004         44.5004
 25  8  8 10 40  0.0000000  0  9G06G11G25G21G17G19G22G24G12
  -2360122.03548  -1774800.69147  21234402.0394                   21234401.6764
        48.0004         46.0004
 -18641584.43748 -14417754.29746  20427559.1644                   20427556.5164
        48.5004         40.7504
  28969478.88346  22663279.70346  22903811.8204                   22903813.7544
        41.0004         36.2504
  38437522.27346  30032355.21543  23879121.6724                   23879119.2704
        37.0004         20.5004
  18146446.02346  14174456.36744  24974940.3674                   24974934.9454
        41.5004         26.5004
  11519480.08647   9022928.87945  22281855.3204                   22281849.8094
        43.7504         30.0004
  12988525.27046  10181757.43843  24001562.1804                   24001559.5594
        41.5004         22.7504
    939445.52047    793886.34047  21994850.4844                   21994850.5554
        45.5004         42.0004
 -19597839.48848 -15171453.26647  20978626.7504                   20978623.4024
        48.0004         44.7504
 25  8  8 10 40 30.0000000  0  9G06G11G25G21G17G19G22G24G12
   -978673.14847   -698347.01647  21497282.9774                   21497282.3204
        47.0004         46.2504
 -17340361.78548 -13403814.55946  20675173.6414                   20675170.9964
        49.0004         41.0004
  30195369.59046  23618519.18444  23137090.0004                   23137087.3634
        39.0004         29.0004
  39669820.55146  30992587.72343  24113619.8754                   24113618.4804
        38.5004         22.0004
  19542481.45346  15262276.19944  25240596.4064                   25240593.1094
        39.5004         25.2504
  12911335.07847  10107491.19945  22546716.6884                   22546711.6884
        44.7504         30.5004
  14388593.64546  11272719.77043  24267986.5944                   24267983.9224
        40.5004         21.5004
   2331074.14847   1878272.27047  22259668.4224                   22259668.8094
        44.7504         42.7504
 -18336890.30948 -14188895.45747  21218577.5474                   21218574.0164
        48.2504         45.0004
 25  8  8 10 41  0.0000000  0  9G06G11G25G21G17G19G22G24G12
  -1172204.94947   -849151.01647  21460454.8204                   21460454.5044
        47.5004         46.0004
 -17614014.54748 -13617050.46546  20623099.2424                   20623096.6994
        49.7504         41.0004
  29845938.84846  23346235.60245  23070595.7894                   23070597.2464
        40.5004         31.7504
  39326726.69146  30725241.93443  24048331.3914                   24048329.8134
        38.7504         22.0004
  19363037.59846  15122449.68844  25206449.3204                   25206447.2154
        39.5004         26.0004
  12727853.50047   9964518.55144  22511800.5864                   22511795.8404
        44.5004         29.7504
  14213422.66446  11136222.87143  24234652.5084                   24234649.7234
        39.7504         19.0004
   2147663.08247   1735354.54747  22224766.8914                   22224766.8054
        45.5004         42.2504
 -18651081.37948 -14433719.65647  21158788.6254                   21158785.2384
        48.5004         45.2504
 25  8  8 10 41 30.0000000  0  9G06G11G25G21G17G19G22G24G12
  -1365292.77347   -999609.05947  21423711.5784                   21423710.8954
        47.7504         45.7504
 -17887112.94548 -13829854.39846  20571130.1254                   20571127.2814
        49.5004         41.2504
  29496620.71946  23074039.62545  23004122.4614                   23004124.5904
        40.7504         35.7504
  38983675.68446  30457929.53543  23983051.0944                   23983048.8204
        38.2504         21.2504
  19183541.11746  14982582.31644  25172292.9774                   25172290.8674
        39.2504         28.7504
  12544461.94947   9821616.03144  22476903.0234                   22476897.6454
        43.7504         28.7504
  14038438.65646  10999871.66443  24201353.6094                   24201351.6174
        39.0004         18.5004
   1964636.19947   1592736.18047  22189938.9924                   22189938.1294
        45.2504         42.2504
 -18964979.58648 -14678315.64847  21099056.0164                   21099052.4144
        48.7504         45.0004
 25  8  8 10 42  0.0000000  0  9G06G11G25G21G17G19G22G24G12
  -1557941.52747  -1149724.97347  21387051.3284                   21387051.2974
        47.5004         45.7504
 -18159659.37148 -14042228.23046  20519266.6174                   20519263.9734
        50.0004         41.0004
  29147414.87146  22801931.14145  22937670.7194                   22937669.8204
        41.5004         32.5004
  38640668.23246  30190651.07843  23917778.7814                   23917776.6884
        39.0004         22.7504
  19003990.30546  14842672.62944  25138124.7974                   25138121.8874
        38.5004         26.0004
  12361156.49247   9678780.59444  22442020.9844                   22442016.3204
        43.5004         29.2504
  13863638.61746  10863663.78543  24168090.2274                   24168088.3134
        37.5004         18.2504
   1781988.25447   1450413.08246  22155181.2034                   22155180.9884
        45.0004         41.5004
 -19278584.72348 -14922683.27347  21039378.6884                   21039375.3524
        48.2504         45.5004
 25  8  8 10 42 30.0000000  0  9G06G11G25G21G17G19G22G24G12
  -1750154.08247  -1299500.98047  21350474.5084                   21350474.2344
        46.5004         45.5004
 -18431654.18448 -14254172.22746  20467507.5084                   20467504.8634
        49.2504         41.0004
  28798322.80946  22529911.43445  22871241.0234                   22871240.2974
        41.0004         31.5004
  38297706.78146  29923408.45743  23852515.3054                   23852513.0004
        39.5004         22.0004
  18824383.64146  14702719.48444  25103947.3134                   25103943.2384
        37.2504         25.0004
  12177936.40247   9536011.67644  22407154.6804                   22407150.7854
        42.2504         29.2504
  13689021.53546  10727598.47743  24134862.0864                   24134860.1294
        38.5004         19.0004
   1599716.00047   1308382.74247  22120496.2504                   22120496.0394
        45.0004         42.5004
 -19591895.23048 -15166821.32847  20979758.2424                   20979754.5004
        48.0004         45.2504
 25  8  8 10 43  0.0000000  0  9G06G11G25G21G17G19G22G24G12
  -1941933.62547  -1448939.57847  21313980.4694                   21313979.7774
        46.5004         46.0004
 -18703098.07448 -14465686.93446  20415853.6334                   20415851.1294
        49.0004         40.5004
  28449345.87947  22257981.42245  22804833.0234                   22804833.4064
        42.5004         35.0004
  37954793.82846  29656203.61743  23787261.1484                   23787258.7664
        39.2504         22.5004
  18644720.50846  14562722.00844  25069758.9694                   25069756.4804
        38.7504         28.0004
  11994800.22747   9393308.16844  22372305.8914                   22372301.5234
        43.0004         28.0004
  13514586.32546  10591674.89543  24101669.0234                   24101665.6094
        39.0004         18.5004
   1417815.89847   1166642.37947  22085881.9694                   22085881.5394
        44.7504         42.0004
 -19904910.16448 -15410729.05547  20920192.9454                   20920189.5434
        48.0004         45.2504
 25  8  8 10 43 30.0000000  0 10G06G11G25G29G21G17G19G22G24G12
   -557855.13747   -370436.86347  21577361.8594                   21577361.2274
        46.5004         45.7504
 -17398560.94148 -13449164.48046  20664098.9454                   20664096.2464
        49.5004         41.2504
  29675918.78947  23213752.53145  23038242.9454                   23038242.7974
        42.0004         35.0004
  64183264.19156  50092400.96154  25541109.1644                   25541108.7344
        37.5004         29.2504
  39187364.82046  30616648.62943  24021812.0704                   24021809.4804
        40.0004         22.5004
  20040428.06646  15650286.39144  25335354.1094                   25335350.3094
        41.0004         26.5004
  13387174.65647  10478275.25444  22637265.8524                   22637260.4344
        42.7504         29.0004
  14915759.17646  11683497.85543  24368303.2114                   24368300.3674
        40.5004         19.5004
   2811712.30947   2252795.41046  22351131.9384                   22351131.1094
        45.5004         41.0004
 -18642195.81248 -14426795.78547  21160479.6024                   21160476.3134
        48.0004         45.5004
 25  8  8 10 44  0.0000000  0 10G06G11G25G29G21G17G19G22G24G12
   -748773.22347   -519204.20347  21541031.1724                   21541030.6684
        46.2504         46.0004
 -17668900.18448 -13659818.43046  20612654.9064                   20612651.9614
        49.2504         41.5004
  29327180.98047  22942008.79745  22971879.3834                   22971878.4614
        42.0004         32.7504
  63850803.86346  49833341.03944  25477844.6174                   25477844.0904
        36.2504         28.0004
  38844560.65246  30349528.52743  23956578.5554                   23956575.7344
        39.2504         22.7504
  19860655.06645  15510203.55144  25301141.7894                   25301140.1254
        35.2504         25.0004
  13204207.55946  10335703.47744  22602447.9924                   22602443.5474
        41.5004         28.5004
  14741688.73046  11547858.53543  24335178.7344                   24335175.6214
        40.5004         20.7504
   2630550.89547   2111630.65246  22316657.8134                   22316657.2234
        44.0004         41.5004
 -18954610.28947 -14670235.62147  21101029.0944                   21101025.9534
        47.7504         45.5004
 25  8  8 10 44 30.0000000  0 10G06G11G25G29G21G17G19G22G24G12
   -939267.67247   -667641.43747  21504781.5864                   21504780.9574
        46.7504         46.0004
 -17938690.55148 -13870044.68046  20561315.6804                   20561313.0664
        49.5004         41.5004
  28978562.38347  22670358.04745  22905539.6094                   22905538.4104
        42.0004         32.5004
  63518405.96946  49574329.77044  25414590.8284                   25414590.3794
        36.7504         27.5004
  38501812.11746  30082451.80543  23891355.7734                   23891353.1214
        41.0004         21.7504
  19680823.79746  15370075.20744  25266923.0314                   25266919.3594
        38.5004         25.0004
  13021320.68047  10193194.21944  22567645.1094                   22567641.7194
        42.7504         29.2504
  14567796.14846  11412357.80143  24302087.9454                   24302084.4184
        41.5004         21.5004
   2449751.16847   1970747.71547  22282252.5554                   22282252.5204
        44.0004         42.0004
 -19266724.81248 -14913441.73047  21041635.6414                   21041632.2304
        48.5004         45.7504
 25  8  8 10 45  0.0000000  0 10G06G11G25G29G21G17G19G22G24G12
  -1129341.59847   -815750.98847  21468611.5084                   21468611.1954
        46.5004         46.0004
 -18207932.70348 -14079843.74646  20510080.4064                   20510077.9184
        49.5004         41.2504
  28630064.44547  22398801.24645  22839223.0554                   22839223.1884
        42.7504         35.7504
  63186069.71946  49315366.47344  25351349.2974                   25351348.8914
        37.2504         27.0004
  38159121.64846  29815420.32043  23826143.3914                   23826141.1724
        40.0004         22.7504
  19500933.56346  15229901.06643  25232689.5784                   25232687.4494
        37.0004         23.0004
  12838512.63347  10050746.36744  22532859.3444                   22532853.8134
        44.0004         29.2504
  14394080.59046  11276995.02043  24269031.1334                   24269028.2304
        41.5004         21.5004
   2269309.69147   1830143.93846  22247915.5474                   22247914.9804
        44.0004         41.7504
 -19578537.90248 -15156412.94947  20982299.7424                   20982296.3484
        48.0004         45.5004
 25  8  8 10 45 30.0000000  0 10G06G11G25G29G21G17G19G22G24G12
  -1318996.84847   -963534.30547  21432521.6954                   21432521.0634
        46.5004         45.7504
 -18476626.09448 -14289215.21546  20458949.5784                   20458946.9804
        49.7504         41.7504
  28281689.89547  22127340.54746  22772929.4774                   22772929.3324
        42.7504         36.2504
  62853796.00046  49056451.93044  25288119.7664                   25288119.0824
        38.7504         28.2504
  37816492.93046  29548436.96143  23760943.1174                   23760941.2114
        40.2504         23.2504
  19320985.33645  15089681.65644  25198446.0474                   25198445.1134
        34.5004         24.0004
  12655783.75047   9908360.21944  22498086.3754                   22498082.4694
        43.0004         29.2504
  14220542.16446  11141770.24643  24236007.2734                   24236005.1604
        41.5004         21.5004
   2089224.23047   1689817.58246  22213646.7274                   22213646.4614
        44.7504         41.7504
 -19890046.85248 -15399147.18047  20923021.7034                   20923018.2274
        48.7504         45.7504
 25  8  8 10 46  0.0000000  0 10G06G11G25G29G21G17G19G22G24G12
  -1508234.10547  -1110991.90247  21396510.6024                   21396510.0164
        45.7504         45.7504
 -18744769.03548 -14498157.75046  20407923.8444                   20407921.0274
        49.0004         41.5004
  27933442.55146  21855978.98445  22706659.9694                   22706659.8484
        41.7504         34.5004
  62521586.43846  48797587.37945  25224902.6414                   25224901.7384
        40.2504         30.5004
  37473930.88746  29281505.55543  23695755.5784                   23695753.6884
        39.2504         23.7504
  19140981.00846  14949418.46544  25164194.1024                   25164192.0124
        36.2504         27.0004
  12473135.34047   9766036.78544  22463329.5784                   22463324.6374
        44.2504         28.5004
  14047182.19946  11006684.52043  24203018.1884                   24203016.0274
        40.5004         20.7504
   1909493.73047   1549767.81346  22179444.8914                   22179445.0434
        44.5004         41.5004
 -20201247.41847 -15641641.11347  20863802.3674                   20863798.6334
        46.7504         46.0004
 25  8  8 10 46 30.0000000  0 10G06G11G25G29G21G17G19G22G24G12
   -121627.81647    -30519.46947  21660373.3054                   21660372.7814
        46.0004         45.5004
 -17436930.91448 -13479063.09846  20656797.2504                   20656794.3794
        49.7504         41.2504
  29160757.88746  22812328.61745  22940210.4694                   22940209.1764
        41.5004         33.7504
  63764874.21146  49766383.09445  25461492.0164                   25461491.6454
        39.7504         31.2504
  38706871.78146  30242238.77044  23930376.9694                   23930374.2194
        41.0004         25.0004
  20536348.19546  16036717.55144  25429722.5474                   25429721.2894
        36.5004         26.0004
  13865994.90647  10851381.86744  22728382.6954                   22728376.9454
        43.7504         27.7504
  15449427.90246  12099343.47343  24469856.8914                   24469854.3404
        40.2504         20.2504
   3305543.07447   2637598.43446  22445104.2974                   22445104.4574
        45.0004         41.5004
 -18936705.53148 -14656283.78547  21104436.3834                   21104432.8404
        48.2504         45.5004
 25  8  8 10 47  0.0000000  0 10G06G11G25G29G21G17G19G22G24G12
   -310035.39847   -177330.57047  21624520.4224                   21624519.9344
        46.2504         45.5004
 -17703972.05948 -13687147.09846  20605980.6414                   20605977.9304
        49.5004         41.5004
  28812772.48047  22541171.21145  22873991.4924                   22873989.1214
        43.0004         34.0004
  63432794.52346  49507619.75845  25398299.4694                   25398299.0124
        39.7504         31.0004
  38364453.55946  29975419.41843  23865215.7974                   23865214.6334
        39.7504         22.7504
  20356232.21145  15896367.41043  25395449.3754                   25395445.9924
        35.5004         19.5004
  13683506.60547  10709183.18044  22693655.7114                   22693650.9884
        43.2504         28.2504
  15276424.07846  11964535.28543  24436934.9534                   24436932.6254
        39.2504         19.0004
   3126515.16447   2498096.12946  22411036.5394                   22411036.2034
        44.2504         41.0004
 -19247282.47748 -14898291.78947  21045335.5474                   21045331.6214
        48.5004         45.7504
 25  8  8 10 47 30.0000000  0 10G06G11G25G29G21G17G19G22G24G12
   -498029.79747   -323819.71947  21588746.3834                   21588745.5594
        46.7504         45.5004
 -17970460.47348 -13894800.39846  20555269.8834                   20555267.2774
        50.0004         41.5004
  28464923.26647  22270119.98045  22807797.0314                   22807795.8794
        43.0004         34.0004
  63100781.79346  49248908.61745  25335118.8204                   25335118.8874
        39.0004         31.0004
  38022113.99646  29708661.34444  23800071.3134                   23800069.3164
        39.5004         24.7504
  20176063.27346  15755976.03944  25361163.3834                   25361160.7934
        37.2504         27.0004
  13501099.75447  10567047.97344  22658945.0704                   22658940.0084
        43.2504         28.2504
  15103599.93846  11829867.09843  24404048.1484                   24404045.3164
        38.0004         19.2504
   2947836.31647   2358865.83246  22377035.0704                   22377035.0554
        45.0004         41.5004
 -19557542.03147 -15140052.46947  20986294.9304                   20986291.5164
        47.7504         45.7504
 25  8  8 10 48  0.0000000  0 10G06G11G25G29G21G17G19G22G24G12
   -685614.28947   -469989.45747  21553050.2034                   21553049.8364
        46.5004         45.7504
 -18236397.03948 -14102023.68746  20504663.8204                   20504661.0354
        49.2504         41.0004
  28117211.58247  21999175.84846  22741630.2814                   22741631.6174
        42.2504         37.5004
  62768835.82446  48990249.50045  25271951.8284                   25271951.9024
        39.5004         30.2504
  37679855.43046  29441966.39844  23734941.6644                   23734939.9884
        41.0004         24.5004
  19995840.02345  15615542.41043  25326867.3204                   25326865.3714
        33.7504         20.7504
  13318773.07847  10424975.21944  22624250.1724                   22624244.3324
        43.5004         27.7504
  14930953.96546  11695337.71543  24371194.9144                   24371192.1214
        38.5004         20.0004
   2769502.89547   2219904.69546  22343099.4694                   22343099.1524
        44.2504         41.0004
 -19867483.17248 -15381565.03147  20927315.2344                   20927311.7344
        48.2504         45.5004
 25  8  8 10 48 30.0000000  0 10G06G11G25G29G21G17G19G22G24G12
   -872790.56247   -615841.09847  21517431.8204                   21517431.0634
        47.2504         45.5004
 -18501781.11348 -14308816.46546  20454162.7664                   20454159.8054
        49.5004         41.5004
  27769640.42646  21728341.16046  22675488.3364                   22675489.8984
        40.7504         36.5004
  62436957.02046  48731642.71545  25208798.1724                   25208797.5084
        38.7504         30.0004
  37337681.84046  29175337.68044  23669828.1484                   23669826.0084
        40.0004         24.0004
  19815563.59456  15475067.17253  25292563.5784                   25292559.9964
        38.0004         22.5004
  13136526.55147  10282964.93844  22589569.1884                   22589564.3754
        44.2504         28.2504
  14758486.22346  11560947.22743  24338375.5784                   24338371.9064
        37.2504         18.2504
   2591512.89847   2081211.16446  22309229.1804                   22309229.0664
        44.2504         41.2504
 -20177102.98048 -15622827.20347  20868396.4844                   20868393.0664
        48.2504         46.0004
 25  8  8 10 49  0.0000000  0 10G06G11G25G29G21G17G19G22G24G12
  -1059561.19547   -761376.66047  21481890.0864                   21481889.7814
        46.5004         45.2504
 -18766613.06648 -14515179.01246  20403766.8984                   20403764.0984
        49.7504         41.0004
  27422211.85546  21457617.65645  22609375.3524                   22609372.8984
        40.2504         32.2504
  62105145.37546  48473088.24644  25145656.1884                   25145655.7074
        40.0004         29.7504
  36995596.22346  28908777.51244  23604731.3914                   23604728.9844
        39.5004         24.0004
  19635233.62546  15334550.30144  25258246.9534                   25258244.5434
        39.5004         26.5004
  12954359.66847  10141016.69944  22554903.3134                   22554898.8754
        42.7504         27.0004
  14586196.12946  11426695.19943  24305588.6644                   24305586.6764
        38.0004         18.5004
   2413863.30547   1942782.89146  22275423.3134                   22275423.2704
        44.2504         41.0004
 -20486399.30548 -15863837.30947  20809539.0784                   20809535.7934
        48.7504         45.5004
 25  8  8 10 49 30.0000000  0 10G06G11G25G29G21G17G19G22G24G12
    329496.63347    321006.06647  21746219.1954                   21746218.9064
        46.7504         45.5004
 -17455465.17248 -13493505.31647  20653270.0704                   20653267.4734
        50.0004         42.0004
  28650358.69946  22414615.29345  22843083.7274                   22843082.6804
        40.5004         33.5004
  63348831.02046  49442193.98845  25382321.8754                   25382321.3714
        40.0004         30.0004
  38229032.24246  29869896.54744  23839446.3524                   23839444.6294
        40.5004         25.2504
  21030275.53946  16421595.89543  25523714.3834                   25523711.6484
        37.7504         22.0004
  14347697.37947  11226734.42244  22820046.8054                   22820043.9024
        44.0004         29.2504
  15989507.49246  12520184.56342  24572630.0084                   24572627.9024
        37.7504         17.7504
   3811976.31647   3032221.57446  22541475.5634                   22541475.3834
        43.5004         41.0004
 -19219940.60248 -14876986.35247  21050538.2974                   21050534.8554
        48.5004         45.7504
 25  8  8 10 50  0.0000000  0 10G06G11G25G29G21G17G19G22G24G12
    143528.62547    176095.92247  21710830.7814                   21710830.2504
        47.0004         45.2504
 -17719194.63748 -13699008.78546  20603083.7504                   20603080.8524
        50.0004         41.2504
  28303220.65646  22144118.10245  22777025.6644                   22777025.3954
        40.7504         34.2504
  63017152.75046  49183743.42245  25319205.8364                   25319204.6374
        40.7504         31.0004
  37887130.89146  29603479.94544  23774384.1024                   23774382.2544
        40.0004         24.2504
  20849838.09846  16280995.25043  25489379.2344                   25489376.4884
        37.2504         22.5004
  14165687.34447  11084908.38744  22785411.0234                   22785407.0164
        43.5004         27.5004
  15817569.69546  12386207.02042  24539912.2114                   24539909.0204
        37.7504         16.7504
   3634997.83247   2894316.23046  22507798.1254                   22507797.9774
        44.0004         41.0004
 -19528584.85548 -15117488.36347  20991805.2814                   20991801.7154
        49.0004         46.0004
