     2.11           OBSERVATION DATA    G (GPS)             RINEX VERSION / TYPE
teqc  2019Feb25     K Rivera            20250728 21:41:46UTCPGM / RUN BY / DATE
Linux 2.6.32-573.12.1.x86_64|x86_64|gcc -static|Linux 64|=+ COMMENT
teqc  2019Feb25                         20250728 21:41:30UTCCOMMENT
BIT 2 OF LLI FLAGS DATA COLLECTED UNDER A/S CONDITION       COMMENT
YERMO                                                       MARKER NAME
                                                            MARKER NUMBER
K Baraggiotta       University of California, Riverside     OBSERVER / AGENCY
0220413516          TRIMBLE R7          2.32                REC # / TYPE / VERS
12118428            TRM41249.00                             ANT # / TYPE
 -2365364.9880 -4672584.4678  3629199.2299                  APPROX POSITION XYZ
        1.2326        0.0000        0.0000                  ANTENNA: DELTA H/E/N
     1     1                                                WAVELENGTH FACT L1/2
     7    L1    L2    C1    P1    P2    S1    S2            # / TYPES OF OBSERV
    18                                                      LEAP SECONDS
 SNR is mapped to RINEX snr flag value [0-9]                COMMENT
  L1 & L2: min(max(int(snr_dBHz/6), 0), 9)                  COMMENT
  2025     7    16     0     0   30.0000000     GPS         TIME OF FIRST OBS
                                                            END OF HEADER
 25  7 16  0  0 30.0000000  0 10G01G02G03G25G10G28G31G32G04G26
 -21507469.43057 -16714306.45755  21143252.2894                   21143249.8204
        46.5004         35.0004
 -11686747.51257  -9085886.88355  21992921.0784                   21992916.5664
        45.5004         34.2504
 -27091135.28157 -21303618.76657  21692353.1414                   21692352.2934
        47.0004         42.0004
 -15061719.30155 -12117262.68453  24480830.9534                   24480832.2584
        31.0004         19.2504
  -3856776.20756  -2997260.31655  24226417.5084                   24226418.6724
        39.2504         32.2504
 -12373112.47757  -9618909.86355  21393710.2344                   21393707.8444
        46.0004         35.5004
 -22903090.61758 -17816012.55158  20130199.1414                   20130195.7274
        49.5004         49.0004
  -4345998.63357  -3380078.16456  23569797.5394                   23569797.2034
        42.0004         37.0004
 -21038796.37956 -15320833.25353  23311640.6724                   23311640.5084
        38.5004         21.0004
 -18817504.29756 -14619094.63355  23427959.0394                   23427960.7464
        39.2504         32.5004
 25  7 16  0  1  0.0000000  0 10G01G02G03G25G10G28G31G32G04G26
 -21594925.28547 -16782453.87945  21126610.1484                   21126607.6294
        47.2504         35.2504
 -11717787.72747  -9110074.10245  21987014.2114                   21987009.6884
        45.7504         34.5004
 -27255185.67247 -21431450.19947  21661135.0944                   21661134.6454
        46.2504         42.7504
 -15116494.02345 -12159944.31243  24470407.5864                   24470408.5164
        32.0004         20.2504
  -3856200.30546  -2996811.67245  24226526.8284                   24226528.0664
        38.5004         32.5004
 -12403549.08647  -9642626.71145  21387918.6334                   21387915.8284
        45.7504         35.5004
 -22996366.25848 -17888694.87948  20112449.7424                   20112445.8834
        48.0004         49.0004
  -4363811.86747  -3393958.64146  23566407.6174                   23566407.4304
        42.0004         36.0004
 -21192844.36746 -15440870.61743  23282326.5234                   23282325.9264
        39.2504         21.5004
 -18991083.19546 -14754350.80545  23394927.8444                   23394930.0474
        38.2504         32.0004
 25  7 16  0  1 30.0000000  0 10G01G02G03G25G10G28G31G32G04G26
 -21681750.08647 -16850109.57845  21110087.9064                   21110085.5314
        47.5004         35.2504
 -11748392.34447  -9133921.89845  21981190.6564                   21981185.7934
        46.2504         34.0004
 -27419020.54347 -21559113.69547  21629958.5004                   21629957.8954
        46.2504         42.2504
 -15170691.92645 -12202176.47743  24460094.1724                   24460095.2664
        31.0004         20.2504
  -3855365.51646  -2996161.33245  24226685.1334                   24226687.6094
        37.5004         31.5004
 -12433499.72747  -9665964.87945  21382219.3364                   21382216.6374
        45.2504         35.5004
 -23088979.45348 -17960860.99648  20094826.1254                   20094822.1484
        48.0004         49.0004
  -4381564.48847  -3407791.89846  23563029.0784                   23563029.7704
        42.7504         36.7504
 -21346720.41446 -15560773.95743  23253045.0944                   23253044.2774
        39.5004         21.7504
 -19164476.77346 -14889462.57445  23361932.3204                   23361934.1484
        38.5004         32.2504
 25  7 16  0  2  0.0000000  0 10G01G02G03G25G10G28G31G32G04G26
 -21767950.66447 -16917278.87145  21093684.2814                   21093681.8754
        46.5004         35.5004
 -11778571.03947  -9157437.80945  21975447.9454                   21975443.3014
        46.5004         34.5004
 -27582644.69147 -21686612.99647  21598821.1954                   21598821.1604
        46.5004         42.2504
 -15224320.50055 -12243964.96153  24449889.7194                   24449891.2814
        30.5004         19.0004
  -3854279.50446  -2995315.21144  24226891.9064                   24226893.3874
        37.2504         29.7504
 -12462973.51647  -9688931.48445  21376610.7814                   21376607.8134
        45.5004         34.7504
 -23180937.43748 -18032516.55948  20077326.8984                   20077323.5514
        48.0004         49.0004
  -4399263.58647  -3421583.46546  23559661.6024                   23559661.8204
        43.5004         36.7504
 -21500431.41446 -15680548.70743  23223794.9924                   23223794.0234
        39.0004         21.2504
 -19337688.55546 -15024432.70745  23328971.4224                   23328972.5164
        39.0004         31.5004
 25  7 16  0  2 30.0000000  0 10G01G02G03G25G10G28G31G32G04G26
 -21853527.14847 -16983961.85245  21077399.7274                   21077397.1954
        47.0004         35.2504
 -11808325.57847  -9180623.21145  21969785.5944                   21969781.2734
        46.0004         34.5004
 -27746055.99647 -21813946.44947  21567725.6484                   21567725.3834
        46.0004         42.7504
 -15277380.44154 -12285310.40653  24439792.0474                   24439795.2504
        28.7504         19.5004
  -3852943.12946  -2994273.95744  24227146.1334                   24227148.7384
        37.0004         28.7504
 -12491972.69947  -9711528.25445  21371092.1414                   21371089.7584
        46.2504         35.5004
 -23272240.35948 -18103661.69148  20059952.5634                   20059949.3914
        48.5004         49.0004
  -4416909.45747  -3435333.53546  23556303.9304                   23556303.9264
        43.5004         37.5004
 -21653977.52046 -15800194.93043  23194575.1024                   23194574.8874
        39.0004         20.5004
 -19510715.35946 -15159258.72345  23296045.1254                   23296046.7504
        39.0004         32.2504
 25  7 16  0  3  0.0000000  0 10G01G02G03G25G10G28G31G32G04G26
 -21938470.80548 -17050151.71945  21061235.6094                   21061233.1024
        48.0004         35.2504
 -11837649.23847  -9203472.85245  21964205.6644                   21964201.1524
        46.0004         33.7504
 -27909243.68047 -21941105.65647  21536671.6644                   21536671.5234
        45.7504         42.5004
 -15329863.67255 -12326206.48053  24429805.5084                   24429807.9264
        31.7504         20.5004
  -3851348.51646  -2993031.53145  24227450.1024                   24227452.2624
        37.2504         30.2504
 -12520490.81647  -9733750.18045  21365665.5704                   21365662.5234
        45.2504         35.0004
 -23362879.97748 -18174289.94948  20042704.5634                   20042701.0984
        49.0004         49.0004
  -4434493.50047  -3449035.43446  23552957.9144                   23552958.4844
        44.0004         38.0004
 -21807350.03546 -15919705.92243  23165389.6804                   23165389.1374
        39.5004         21.5004
 -19683545.15646 -15293931.18745  23263156.9774                   23263158.4264
        39.7504         32.7504
 25  7 16  0  3 30.0000000  0 10G01G02G03G25G10G28G31G32G04G26
 -22022780.11347 -17115847.29345  21045192.3134                   21045189.8524
        46.0004         35.7504
 -11866542.57847  -9225987.18745  21958707.5944                   21958703.0204
        46.0004         34.5004
 -28072203.96147 -22068087.66047  21505661.6644                   21505661.3554
        46.7504         43.2504
 -15381769.05945 -12366652.34443  24419927.6174                   24419930.2274
        31.0004         19.2504
  -3849494.76246  -2991587.16444  24227802.5864                   24227804.6804
        38.2504         28.2504
 -12548528.39547  -9755597.66045  21360330.0704                   21360327.0394
        45.7504         35.2504
 -23452855.10547 -18244400.44148  20025582.8594                   20025579.1914
        47.7504         49.2504
  -4452014.38347  -3462688.12946  23549623.6094                   23549624.0434
        43.7504         37.2504
 -21960547.45346 -16039080.46543  23136237.2814                   23136236.1524
        40.5004         22.7504
 -19856172.97346 -15428446.29345  23230306.6174                   23230308.4104
        40.2504         33.0004
 25  7 16  0  4  0.0000000  0 10G01G02G03G25G10G28G31G32G04G26
 -22106450.74247 -17181045.19145  21029269.6724                   21029267.5164
        46.7504         35.2504
 -11895003.28147  -9248164.40245  21953291.6024                   21953287.2734
        46.0004         34.2504
 -28234930.25447 -22194887.34047  21474696.0394                   21474695.5664
        46.7504         43.5004
 -15433092.80945 -12406644.86743  24410162.0474                   24410164.0354
        32.5004         19.5004
  -3847378.27746  -2989938.05544  24228205.3834                   24228207.7544
        36.5004         29.0004
 -12576083.19947  -9777068.94945  21355086.6174                   21355083.9574
        45.5004         35.2504
 -23542161.27748 -18313989.65648  20008588.4304                   20008584.8054
        48.5004         49.0004
  -4469467.78547  -3476288.21946  23546301.9694                   23546302.5554
        43.7504         37.5004
 -22113565.30546 -16158315.08643  23107119.4614                   23107118.5824
        39.5004         22.2504
 -20028591.09046 -15562797.99245  23197495.9694                   23197498.2774
        39.2504         33.0004
 25  7 16  0  4 30.0000000  0 10G01G02G03G25G10G28G31G32G04G26
 -22189487.20347 -17245748.93445  21013468.9774                   21013466.2304
        47.0004         35.5004
 -11923037.65647  -9270009.41445  21947956.9064                   21947952.4884
        46.0004         34.5004
 -28397424.81247 -22321506.44547  21443774.0784                   21443773.4734
        46.7504         43.7504
 -15483840.01645 -12446188.13743  24400505.7664                   24400506.2894
        32.5004         19.5004
  -3845004.31246  -2988088.35244  24228657.2344                   24228658.9534
        36.7504         25.0004
 -12603161.92247  -9798169.26645  21349933.8594                   21349930.9064
        45.2504         34.7504
 -23630803.31647 -18383061.37548  19991720.1174                   19991716.9184
        47.5004         49.0004
  -4486858.31647  -3489839.31246  23542993.4694                   23542993.5394
        44.5004         37.0004
 -22266408.09846 -16277413.30143  23078033.7974                   23078032.9454
        40.5004         21.5004
 -20200800.60546 -15696987.12945  23164725.9384                   23164727.4884
        40.5004         33.5004
 25  7 16  0  5  0.0000000  0 10G01G02G03G25G10G28G31G32G04G26
 -22271886.52348 -17309956.19945  20997788.9224                   20997786.4654
        48.0004         35.0004
 -11950644.89647  -9291521.59245  21942703.2974                   21942699.1094
        45.2504         34.0004
 -28559682.35247 -22447940.85547  21412897.6414                   21412897.7344
        46.7504         43.5004
 -15534008.50845 -12485280.45343  24390957.8204                   24390960.0124
        32.0004         20.7504
  -3842370.50446  -2986036.16044  24229158.8524                   24229160.4534
        37.0004         26.0004
 -12629763.61747  -9818897.87545  21344871.5704                   21344869.1644
        45.0004         35.0004
 -23718778.64548 -18451613.57448  19974979.1484                   19974975.5084
        49.0004         49.0004
  -4504182.95747  -3503339.06646  23539696.5314                   23539696.6214
        44.5004         37.5004
 -22419072.72746 -16396372.69143  23048982.6564                   23048982.4774
        40.2504         22.0004
 -20372795.00046 -15831008.66845  23131996.9224                   23131998.5664
        41.0004         33.5004
 25  7 16  0  5 30.0000000  0 10G01G02G03G25G10G28G31G32G04G26
 -20778227.60948 -16146066.14845  21282022.8364                   21282020.0554
        48.2504         35.5004
 -10402407.10947  -8085102.57845  22237323.0864                   22237318.7154
        46.2504         33.5004
 -27146276.87147 -21346585.90247  21681859.2424                   21681859.0594
        47.5004         43.7504
 -14008178.72345 -11296322.21143  24681315.1024                   24681315.7504
        32.2504         19.0004
  -2264059.41846  -1756183.39844  24529500.5634                   24529502.9064
        36.5004         25.5004
 -11080471.25047  -8611657.07845  21639691.8444                   21639689.0394
        45.7504         34.5004
 -22230665.93447 -17292045.22348  20258157.7664                   20258154.0394
        47.7504         49.0004
  -2946022.88347  -2289188.39846  23836204.8594                   23836204.4774
        45.0004         38.2504
 -20996135.66446 -15287590.48443  23319758.6484                   23319758.1174
        40.5004         22.5004
 -18969146.85546 -14737256.77345  23399101.7894                   23399103.7384
        41.0004         33.0004
 25  7 16  0  6  0.0000000  0 10G01G02G03G25G10G28G31G32G04G26
 -20859357.66048 -16209284.37945  21266583.8524                   21266581.5124
        48.7504         35.2504
 -10429170.44947  -8105957.17645  22232230.7814                   22232226.2074
        47.2504         33.2504
 -27308058.46947 -21472649.45747  21651073.5164                   21651072.9534
        47.5004         43.7504
 -14057196.16844 -11334517.61742  24671986.3834                   24671987.5354
        28.5004         17.2504
  -2260913.05146  -1753731.81644  24530100.1724                   24530102.3874
        37.0004         26.5004
 -11106130.29347  -8631651.16045  21634810.1174                   21634806.6334
        45.5004         35.2504
 -22317313.23447 -17359562.59848  20241669.2664                   20241665.1844
        47.7504         49.0004
  -2963220.89847  -2302589.48046  23832932.0704                   23832931.6884
        44.2504         37.5004
 -21148448.72346 -15406275.89543  23290774.0944                   23290773.6334
        41.0004         23.7504
 -19140705.75046 -14870938.95745  23366455.1484                   23366456.2664
        40.2504         33.0004
 25  7 16  0  6 30.0000000  0 10G01G02G03G25G10G28G31G32G04G26
 -20939857.01647 -16272011.15245  21251266.0314                   21251263.2304
        47.7504         35.7504
 -10455518.89547  -8126488.48045  22227216.5864                   22227212.2854
        47.2504         33.5004
 -27469602.39847 -21598527.82047  21620332.9534                   21620332.0944
        47.5004         44.0004
 -14105642.89144 -11372268.32842  24662765.7814                   24662769.1764
        28.5004         17.7504
  -2257515.32846  -1751084.32844  24530746.7034                   24530748.6644
        37.2504         26.5004
 -11131324.97747  -8651283.39845  21630015.0554                   21630012.4884
        46.2504         35.0004
 -22403300.96948 -17426566.02348  20225306.0864                   20225302.3834
        48.2504         49.0004
  -2980359.40647  -2315944.19946  23829670.7424                   23829670.5634
        43.5004         37.0004
 -21300589.63346 -15524827.18443  23261823.2504                   23261822.3874
        40.2504         23.0004
 -19312045.54346 -15004450.40645  23333850.2504                   23333851.8874
        40.0004         33.5004
 25  7 16  0  7  0.0000000  0 10G01G02G03G25G10G28G31G32G04G26
 -21019725.85247 -16334246.62145  21236066.9064                   21236064.5704
        47.5004         34.7504
 -10481454.36747  -8146697.98445  22222281.1174                   22222276.8484
        45.2504         33.2504
 -27630906.47747 -21724219.27747  21589637.5004                   21589637.0864
        47.2504         44.0004
 -14153519.63754 -11409574.85953  24653655.1174                   24653657.6764
        29.2504         18.2504
  -2253867.09846  -1748241.65644  24531441.4224                   24531443.4654
        38.5004         29.5004
 -11156057.50847  -8670555.50845  21625308.5704                   21625305.7234
        45.0004         34.5004
 -22488629.70348 -17493055.94548  20209068.9064                   20209065.3164
        48.2504         49.0004
  -2997438.48447  -2329252.60946  23826420.2274                   23826419.8714
        44.0004         36.0004
 -21452558.43046 -15643244.37544  23232903.8594                   23232903.3674
        41.2504         25.5004
 -19483162.74646 -15137788.41845  23301286.9694                   23301289.6294
        39.2504         33.2504
 25  7 16  0  7 30.0000000  0 10G01G02G03G25G10G28G31G32G04G26
 -21098967.19947 -16395993.14545  21220987.8834                   21220985.7894
        47.5004         35.5004
 -10506981.69547  -8166589.45345  22217423.8834                   22217419.3634
        46.5004         34.2504
 -27791971.23447 -21849724.25447  21558988.0164                   21558987.4924
        47.2504         44.0004
 -14200829.95355 -11446440.05152  24644654.2974                   24644655.3324
        32.2504         17.7504
  -2249971.87946  -1745206.50844  24532182.9224                   24532184.5204
        39.2504         29.5004
 -11180332.95347  -8689471.46545  21620689.0944                   21620686.2854
        45.7504         34.2504
 -22573302.43448 -17559034.69148  20192955.8674                   20192952.4844
        48.7504         49.2504
  -3014461.10947  -2342517.04345  23823180.9534                   23823180.9304
        43.2504         35.5004
 -21604357.93446 -15761529.64844  23204017.6254                   23204016.7234
        40.5004         24.7504
 -19654056.82046 -15270952.55145  23268766.8984                   23268769.1914
        39.5004         32.7504
 25  7 16  0  8  0.0000000  0 10G01G02G03G25G10G28G31G32G04G26
 -21177582.14547 -16457251.54745  21206028.1094                   21206025.2854
        47.0004         35.0004
 -10532104.11747  -8186165.41045  22212642.9534                   22212638.8054
        45.7504         33.2504
 -27952795.29748 -21975041.69147  21528384.5164                   21528383.3594
        48.0004         43.5004
 -14247575.69554 -11482865.34452  24635759.1254                   24635760.1604
        29.7504         16.7504
  -2245831.41046  -1741980.24244  24532969.5634                   24532972.4064
        38.2504         28.7504
 -11204154.37947  -8708033.62945  21616156.3444                   21616153.4064
        45.2504         34.5004
 -22657320.50048 -17624503.31648  20176968.1804                   20176964.2814
        48.7504         49.0004
  -3031428.05247  -2355738.08645  23819952.0864                   23819951.5904
        43.0004         35.5004
 -21755989.01246 -15879683.66044  23175163.0784                   23175162.4104
        41.2504         25.0004
 -19824725.27546 -15403940.88945  23236289.9534                   23236292.0004
        39.7504         33.5004
 25  7 16  0  8 30.0000000  0 10G01G02G03G25G10G28G31G32G04G26
 -21255572.70747 -16518023.43745  21191187.1254                   21191184.7194
        47.7504         35.0004
 -10556825.30547  -8205428.72345  22207938.7424                   22207934.1954
        45.0004         34.0004
 -28113378.17647 -22100171.16847  21497826.1884                   21497826.0784
        47.2504         43.5004
 -14293759.22355 -11518852.48052  24626970.2504                   24626972.2814
        31.0004         16.2504
  -2241448.28146  -1738564.93745  24533804.3914                   24533807.8444
        38.0004         31.5004
 -11227525.80547  -8726245.15245  21611708.6954                   21611706.2854
        44.7504         34.7504
 -22740686.27748 -17689463.66448  20161103.9694                   20161100.2624
        48.7504         49.0004
  -3048341.32047  -2368917.31245  23816733.8444                   23816734.1684
        43.5004         35.5004
 -21907453.45746 -15997707.82844  23146340.5004                   23146339.9344
        41.0004         25.7504
 -19995166.53146 -15536752.19545  23203856.4534                   23203858.1054
        39.7504         34.0004
 25  7 16  0  9  0.0000000  0 10G01G02G03G25G10G28G31G32G04G26
 -21332941.13748 -16578310.54345  21176464.4384                   21176461.3714
        48.0004         35.5004
 -10581149.37547  -8224382.58645  22203310.0084                   22203305.7504
        45.0004         33.7504
 -28273719.48847 -22225112.44147  21467313.9534                   21467313.7464
        47.5004         43.7504
 -14339383.25444 -11554403.69942  24618286.1254                   24618289.6214
        29.5004         17.7504
  -2236825.24246  -1734962.67245  24534683.9144                   24534686.6524
        39.0004         33.5004
 -11250451.37547  -8744109.24645  21607345.4384                   21607343.3554
        45.0004         34.5004
 -22823402.25048 -17753917.66848  20145364.2194                   20145359.9414
        49.5004         49.0004
  -3065202.73847  -2382056.12945  23813524.8054                   23813525.7854
        42.7504         35.2504
 -22058753.10346 -16115603.59644  23117549.0004                   23117548.2154
        40.7504         24.7504
 -20165379.02746 -15669385.23045  23171466.3594                   23171467.4654
        39.2504         34.2504
 25  7 16  0  9 30.0000000  0 10G01G02G03G25G10G28G31G32G04G26
 -21409683.71948 -16638109.97345  21161860.6644                   21161857.9264
        48.0004         35.5004
 -10605074.49247  -8243025.57045  22198757.1724                   22198752.8554
        45.5004         33.0004
 -28433812.94147 -22349860.55147  21436849.6724                   21436849.0554
        47.2504         43.5004
                                  24609713.9694                   24609714.9454
        28.0004         16.2504
  -2231959.22746  -1731171.09045  24535610.5394                   24535613.1374
        40.0004         33.5004
 -11272929.29747  -8761624.53145  21603068.7894                   21603066.4734
        45.5004         34.5004
 -22905464.52348 -17817862.29348  20129747.7664                   20129744.3714
        48.7504         49.0004
  -3082008.35947  -2395151.46145  23810327.5004                   23810327.6334
        43.0004         34.7504
 -22209884.09046 -16233367.94544  23088789.4534                   23088788.7074
        40.5004         24.2504
 -20335355.37546 -15801834.26245  23139120.6564                   23139121.8794
        39.5004         33.7504
 25  7 16  0 10  0.0000000  0 10G01G02G03G25G10G28G31G32G04G26
 -21485807.96548 -16697427.59445  21147374.5474                   21147372.4104
        48.0004         35.2504
 -10628609.91447  -8261364.89545  22194278.6804                   22194274.2734
        44.7504         32.7504
 -28593663.47347 -22474419.38747  21406430.8524                   21406430.6414
        47.5004         43.5004
 -14428951.68055 -11624197.36752  24601244.7114                   24601245.5704
        30.2504         15.5004
  -2226858.10546  -1727196.28945  24536580.9304                   24536583.9964
        38.2504         31.2504
 -11294969.04747  -8778798.38745  21598874.5784                   21598871.8484
        45.2504         35.0004
 -22986881.36348 -17881303.98048  20114254.6254                   20114250.8674
        48.5004         49.0004
  -3098765.47346  -2408209.01645  23807138.7734                   23807138.9734
        41.5004         33.0004
 -22360853.48046 -16351006.36743  23060061.7344                   23060060.8324
        40.2504         22.2504
 -20505099.38646 -15934102.26145  23106819.6804                   23106820.5634
        39.7504         34.2504
 25  7 16  0 10 30.0000000  0 10G01G02G03G25G10G28G31G32G04G26
 -21561311.95747 -16756261.88745  21133006.7424                   21133003.9414
        47.5004         35.5004
 -10651755.78147  -8279400.67645  22189874.1254                   22189869.9384
        45.5004         33.7504
 -28753266.46148 -22598785.33647  21376059.5084                   21376058.7664
        48.0004         43.7504
                                  24592881.0164                   24592882.9884
        28.5004         14.7504
  -2221520.52046  -1723037.24645  24537597.1024                   24537600.1884
        38.0004         31.5004
 -11316570.58647  -8795630.77745  21594763.9614                   21594761.4104
        45.5004         34.5004
 -23067651.17248 -17944241.49648  20098884.7974                   20098880.6764
        48.7504         49.0004
  -3115471.79746  -2421226.96545  23803959.2344                   23803960.0704
        41.5004         33.7504
 -22511659.00046 -16468517.09443  23031363.5474                   23031362.9654
        39.5004         23.2504
 -20674605.37346 -16066184.76445  23074563.0394                   23074565.1054
        39.5004         34.5004
 25  7 16  0 11  0.0000000  0 10G01G02G03G25G10G28G31G32G04G26
 -21636198.28148 -16814614.88745  21118756.5084                   21118754.1564
        48.5004         35.2504
 -10674516.34047  -8297136.21145  22185542.5394                   22185538.7194
        44.7504         33.0004
 -28912621.90647 -22722958.38747  21345735.1174                   21345735.0704
        47.5004         44.0004
 -14516301.12955 -11692261.82852  24584622.3834                   24584625.0004
        30.5004         15.5004
  -2215949.59046  -1718696.36345  24538657.0554                   24538660.2814
        38.5004         31.0004
 -11337738.40247  -8812125.19545  21590736.1254                   21590733.3834
        45.7504         35.0004
 -23147776.57048 -18006676.87548  20083637.2034                   20083633.3014
        48.0004         49.0004
  -3132129.59046  -2434207.12145  23800789.5704                   23800789.9414
        41.0004         33.5004
 -22662302.93046 -16585901.92244  23002696.9144                   23002696.2304
        39.0004         25.5004
 -20843872.14846 -16198080.88345  23042353.0314                   23042354.3794
        40.5004         35.0004
 25  7 16  0 11 30.0000000  0 10G01G02G03G25G10G28G31G32G04G26
 -21710465.46947 -16872485.44145  21104623.4614                   21104621.0554
        47.5004         35.2504
 -10696891.82047  -8314571.70345  22181285.1024                   22181280.4024
        44.5004         33.2504
 -29071725.45747 -22846935.16447  21315458.7894                   21315457.9534
        47.7504         44.0004
 -14559145.61755 -11725647.10252  24576470.5864                   24576471.8554
        30.5004         14.7504
  -2210144.21945  -1714172.81244  24539762.0704                   24539764.5044
        35.2504         28.0004
 -11358472.77747  -8828281.86745  21586790.5474                   21586787.7464
        45.5004         34.5004
 -23227256.13748 -18068609.00448  20068512.8914                   20068509.2894
        48.2504         48.7504
  -3148736.91046  -2447147.95745  23797629.1644                   23797629.1804
        40.7504         31.7504
 -22812783.25046 -16703159.23844  22974061.5164                   22974061.0984
        39.5004         24.0004
 -21012894.40246 -16329786.47345  23010189.2974                   23010190.3324
        40.0004         34.2504
 25  7 16  0 12  0.0000000  0 10G01G02G03G25G10G28G31G32G04G26
 -21784109.67647 -16929870.55945  21090609.9694                   21090607.2114
        47.7504         35.0004
 -10718879.86347  -8331705.28545  22177100.8754                   22177096.3834
        45.0004         32.2504
 -29230570.67647 -22970710.62947  21285231.4064                   21285230.8364
        47.7504         44.2504
 -14601433.07054 -11758598.49252  24568421.5394                   24568426.3244
        26.7504         16.2504
  -2204101.11745  -1709464.02344  24540912.8674                   24540914.2504
        35.5004         27.0004
 -11378771.84047  -8844099.33645  21582927.3914                   21582924.8404
        45.0004         35.0004
 -23306086.62947 -18130035.35548  20053511.5944                   20053508.4184
        47.7504         49.0004
  -3165289.50446  -2460046.14845  23794480.3284                   23794479.6884
        41.0004         32.7504
 -22963095.78946 -16820285.85944  22945458.0394                   22945457.6804
        39.7504         25.2504
 -21181664.49646 -16461295.55945  22978073.0474                   22978074.5204
        40.0004         34.0004
 25  7 16  0 12 30.0000000  0 10G01G02G03G25G10G28G31G32G04G26
 -21857133.33647 -16986772.14145  21076713.8364                   21076710.8164
        47.5004         34.7504
 -10740484.97347  -8348540.49645  22172989.8054                   22172985.4804
        45.2504         33.2504
 -29389157.17647 -23094284.52047  21255053.2974                   21255053.2704
        47.5004         44.2504
 -14643166.52014                  24560481.086
        26.750
  -2197822.97346  -1704572.11344  24542107.8834                   24542109.3244
        36.7504         28.5004
 -11398639.72747  -8859580.82045  21579147.2664                   21579143.9384
        46.5004         35.0004
 -23384270.56248 -18190957.90248  20038634.0634                   20038630.3364
        48.5004         49.0004
  -3181789.36746  -2472903.24645  23791339.0314                   23791339.4804
        40.7504         33.0004
 -23113242.50046 -16937283.23443  22916885.6884                   22916885.4884
        39.5004         23.7504
 -21350180.96946 -16592607.02745  22946005.7194                   22946006.6684
        41.2504         35.2504
 25  7 16  0 13  0.0000000  0  9G01G02G03G10G28G31G32G04G26
 -21929544.96548 -17043196.80545  21062934.4774                   21062932.2544
        48.0004         35.5004
 -10761717.46947  -8365085.35945  22168949.2894                   22168944.8094
        45.2504         33.5004
 -29547490.59447 -23217661.17647  21224923.3754                   21224922.8364
        47.2504         44.0004
  -2191318.89145  -1699504.08644  24543343.7034                   24543346.3484
        34.0004         26.0004
 -11418086.82847  -8874734.42645  21575446.3674                   21575443.2814
        45.2504         34.5004
 -23461816.55548 -18251383.35248  20023877.1094                   20023873.6644
        48.5004         49.0004
  -3198244.53946  -2485725.52745  23788208.1024                   23788208.8054
        41.2504         33.5004
 -23263231.44546 -17054157.68044  22888343.8364                   22888343.5394
        40.7504         24.5004
 -21518448.47346 -16723724.49245  22913984.8984                   22913986.5664
        40.0004         35.0004
 25  7 16  0 13 30.0000000  0  9G01G02G03G10G28G31G32G04G26
 -22001346.62547 -17099146.17245  21049271.1804                   21049268.3834
        47.0004         35.0004
 -10782581.13747  -8381342.81645  22164979.4924                   22164974.7854
        46.2504         33.5004
 -29705570.21147 -23340840.08647  21194841.9304                   21194841.7814
        47.0004         44.7504
  -2184591.32445  -1694261.93444  24544624.9924                   24544627.7384
        35.5004         28.7504
 -11437116.97747  -8889563.12945  21571824.8134                   21571822.3484
        46.2504         34.5004
 -23538727.15648 -18311313.68448  20009241.9614                   20009237.9454
        49.0004         49.0004
  -3214656.57046  -2498514.17645  23785085.1954                   23785085.8324
        40.0004         32.2504
 -23413064.14147 -17170910.38744  22859831.8204                   22859830.8634
        42.0004         24.2504
 -21686465.15446 -16854646.51445  22882012.7504                   22882013.9024
        40.2504         34.7504
 25  7 16  0 14  0.0000000  0  9G01G02G03G10G28G31G32G04G26
 -22072545.87547 -17154626.11745  21035722.0474                   21035719.9344
        47.5004         35.0004
 -10803085.02747  -8397319.93445  22161077.7034                   22161072.9384
        45.0004         33.0004
 -29863400.69147 -23463824.84847  21164807.4384                   21164807.4694
        46.2504         44.5004
  -2177648.03545  -1688851.75844  24545946.1024                   24545949.0514
        34.2504         28.7504
 -11455739.41847  -8904074.14145  21568281.4064                   21568278.3324
        45.2504         35.0004
 -23615009.96148 -18370754.83248  19994725.5864                   19994721.6884
        49.5004         48.7504
  -3231032.39546  -2511274.61745  23781969.2034                   23781969.9414
        41.2504         33.7504
 -23562747.59046 -17287546.79744  22831347.7894                   22831346.8714
        41.2504         26.0004
 -21854234.56646 -16985375.85945  22850086.3524                   22850088.0434
        40.2504         35.2504
 25  7 16  0 14 30.0000000  0 10G01G02G03G10G28G31G32G04G26G16
 -22143142.31248 -17209636.35945  21022288.4384                   21022285.9264
        48.0004         35.7504
 -10823230.61747  -8413017.85245  22157243.9774                   22157239.6844
        47.0004         33.0004
 -30020978.80947 -23586612.96947  21134821.3984                   21134821.0944
        46.7504         44.5004
  -2170489.19945  -1683273.58644  24547308.3054                   24547311.4384
        33.7504         27.2504
 -11473955.56247  -8918268.57045  21564815.1724                   21564812.1994
        46.5004         34.5004
 -23690664.91848 -18429706.74648  19980328.9924                   19980325.2504
        48.7504         48.7504
  -3247371.10946  -2524006.14845  23778860.0234                   23778860.8674
        39.5004         32.5004
 -23712280.87946 -17404066.19544  22802892.2344                   22802891.8244
        41.0004         26.5004
 -22021752.47746 -17115909.23445  22818209.5554                   22818210.5234
        40.5004         35.5004
   1338759.73855   1082145.12952  25040652.4844                   25040656.4964
        32.2504         12.5004
 25  7 16  0 15  0.0000000  0 10G01G02G03G10G28G31G32G04G26G16
 -20637723.64147 -16036582.85945  21308760.3054                   21308757.4574
        47.5004         35.0004
  -9267608.74247  -7200845.02345  22453269.1024                   22453264.6094
        45.2504         32.5004
 -28602886.28547 -22481605.79347  21404676.0554                   21404675.6414
        47.0004         45.0004
   -587705.19946   -449935.53544  24848502.3284                   24848505.1174
        36.0004         28.0004
  -9916356.52047  -7704555.04345  21861216.3054                   21861213.2384
        45.2504         34.7504
 -22190279.71948 -17260575.41848  20265842.8284                   20265839.4414
        49.2504         48.5004
  -1688261.49246  -1309115.58245  24075549.0084                   24075549.3244
        39.2504         32.0004
 -22286248.41846 -16292872.03544  23074257.0944                   23074256.8134
        41.5004         25.5004
 -20613599.25846 -16018646.92645  23086172.1024                   23086173.0004
        40.5004         34.5004
   2731011.37155   2167016.80552  25305590.1094                   25305593.2934
        34.7504         14.7504
 25  7 16  0 15 30.0000000  0 10G01G02G03G10G28G31G32G04G26G16
 -20707138.17647 -16090672.13745  21295550.7344                   21295548.1914
        47.7504         35.0004
  -9287065.99247  -7216006.57045  22449566.2194                   22449561.5744
        45.7504         32.5004
 -28759974.34047 -22604012.04347  21374782.7734                   21374782.1994
        47.2504         45.2504
   -580139.75846   -444040.45345  24849942.5784                   24849945.1484
        38.5004         30.5004
  -9933788.85947  -7718138.70345  21857898.8364                   21857896.2424
        46.0004         34.2504
 -22264703.20348 -17318567.74248  20251680.5944                   20251676.9344
        49.2504         48.5004
  -1704547.75846  -1321806.23445  24072450.3284                   24072449.4224
        40.5004         30.7504
 -22435503.27046 -16409174.45744  23045854.9534                   23045854.1214
        41.5004         24.2504
 -20780625.69546 -16148797.34445  23054388.2894                   23054388.9104
        41.5004         35.5004
   2547670.25046   2024153.87142  25270701.2194                   25270704.7034
        36.7504         16.2504
 25  7 16  0 16  0.0000000  0 10G01G02G03G10G28G31G32G04G26G16
 -20775960.13347 -16144299.65245  21282454.4774                   21282451.6214
        47.0004         35.0004
  -9306180.01647  -7230900.65645  22445929.0864                   22445924.8134
        45.5004         32.5004
 -28916811.34047 -22726222.68047  21344937.7274                   21344937.0634
        47.2504         45.2504
   -572369.90246   -437986.10245  24851421.0474                   24851423.3444
        38.7504         31.2504
  -9950830.18747  -7731417.67645  21854656.0554                   21854653.3054
        46.5004         34.0004
 -22338510.00048 -17376079.52748  20237635.5084                   20237632.1884
        49.5004         48.7504
  -1720805.13746  -1334474.38345  24069356.3444                   24069355.6724
        40.0004         31.5004
 -22584616.33246 -16525366.41044  23017479.1334                   23017479.1254
        41.2504         26.5004
 -20947398.77346 -16278750.33645  23022651.8054                   23022653.2384
        40.5004         35.5004
   2364169.44545   1881166.43042  25235780.9064                   25235784.8634
        35.5004         16.7504
 25  7 16  0 16 30.0000000  0 10G01G02G03G10G28G31G32G04G26G16
 -20844191.08647 -16197466.65245  21269470.6484                   21269468.0864
        47.7504         35.0004
  -9324953.99647  -7245529.78145  22442356.3054                   22442352.3204
        45.7504         32.5004
 -29073395.75047 -22848236.48847  21315140.4064                   21315140.1134
        47.7504         45.5004
   -564397.45346   -431773.91844  24852938.0704                   24852940.6564
        37.5004         29.5004
  -9967483.71147  -7744394.47345  21851487.2114                   21851484.6844
        46.5004         34.2504
 -22411701.54348 -17433111.89848  20223707.6024                   20223703.7384
        49.5004         49.0004
  -1737034.50046  -1347120.69945  24066267.6024                   24066267.9344
        40.0004         33.2504
 -22733588.50846 -16641448.57844  22989130.9064                   22989130.4344
        41.2504         25.2504
 -21113915.95746 -16408503.93445  22990964.6484                   22990965.9064
        41.0004         35.7504
   2180510.67646   1738055.95342  25200831.2194                   25200834.4264
        36.5004         17.2504
 25  7 16  0 17  0.0000000  0 10G01G02G03G10G28G31G32G04G26G16
 -20911828.42647 -16250171.08245  21256599.2194                   21256596.9654
        46.7504         35.0004
  -9343387.09847  -7259893.29745  22438849.1174                   22438844.5664
        44.5004         33.0004
 -29229721.99247 -22970049.12547  21285392.7194                   21285392.2544
        47.7504         45.5004
   -556220.07845   -425402.05944  24854493.8284                   24854497.1214
        34.7504         26.7504
  -9983748.49647  -7757068.34445  21848391.8594                   21848389.2584
        45.2504         34.0004
 -22484275.52748 -17489663.05948  20209897.2584                   20209893.2974
        49.5004         48.5004
  -1753232.58646  -1359742.62145  24063185.8054                   24063185.6174
        41.5004         32.7504
 -22882416.62147 -16757418.50843  22960810.2274                   22960809.0864
        42.0004         23.5004
 -21280170.64546 -16538052.97746  22959327.7974                   22959329.1414
        41.0004         36.0004
   1996699.93045   1594827.07042  25165852.8674                   25165855.6724
        34.2504         16.7504
 25  7 16  0 17 30.0000000  0 10G01G02G03G10G28G31G32G04G26G16
 -20978871.71148 -16302412.63345  21243841.6724                   21243839.6214
        48.2504         35.5004
  -9361480.01247  -7273991.71945  22435405.8444                   22435401.8244
        45.2504         32.7504
 -29385786.40647 -23091657.74247  21255694.6564                   21255694.1884
        47.5004         45.5004
   -547837.46145   -418870.30144  24856089.4384                   24856092.5354
        35.2504         28.5004
  -9999625.61747  -7769440.14145  21845370.3524                   21845368.1844
        47.0004         34.0004
 -22556231.88348 -17545732.94148  20196204.3054                   20196200.7934
        50.2504         48.5004
  -1769398.01246  -1372339.12945  24060109.5394                   24060109.1844
        41.5004         32.5004
 -23031099.36747 -16873275.14544  22932516.7814                   22932516.0984
        42.2504         25.0004
 -21446158.15647 -16667393.85546  22927741.3834                   22927742.1294
        42.0004         36.0004
   1812741.26646   1451482.90242  25130846.6644                   25130848.8484
        37.0004         17.2504
 25  7 16  0 18  0.0000000  0 10G01G02G03G10G28G31G32G04G26G16
 -21045320.48047 -16354190.91845  21231196.7814                   21231194.1524
        47.7504         35.2504
  -9379234.18047  -7287826.19545  22432027.7664                   22432023.6914
        44.0004         32.2504
 -29541585.53548 -23213059.64547  21226046.7344                   21226046.7074
        48.0004         45.5004
   -539249.66845   -412178.64144  24857724.2814                   24857726.7194
        35.5004         29.7504
 -10015116.28147  -7781510.81245  21842423.0704                   21842420.0824
        45.0004         33.7504
 -22627570.34848 -17601321.35948  20182629.4144                   20182625.4654
        49.7504         48.7504
  -1785529.68046  -1384909.32845  24057039.6954                   24057040.3054
        40.7504         33.0004
 -23179635.65247 -16989017.68044  22904251.3054                   22904249.9264
        42.5004         25.5004
 -21611874.00846 -16796523.04346  22896206.3134                   22896207.5984
        41.0004         36.0004
   1628638.64446   1308026.46842  25095813.1414                   25095815.7274
        38.0004         15.5004
 25  7 16  0 18 30.0000000  0 10G01G02G03G10G28G31G32G04G26G16
 -21111170.90647 -16405502.96145  21218666.1254                   21218663.6764
        47.7504         35.0004
  -9396647.52747  -7301395.09845  22428713.8754                   22428709.9454
        45.2504         32.7504
 -29697112.34848 -23334249.36347  21196451.2894                   21196451.0474
        48.0004         45.7504
   -530452.85946   -405324.17244  24859397.6414                   24859401.4924
        37.2504         29.7504
 -10030218.18747  -7793278.54745  21839548.9694                   21839546.3284
        45.2504         34.0004
 -22698287.10548 -17656425.32048  20169172.2664                   20169168.4384
        50.0004         48.7504
  -1801622.77746  -1397449.46945  24053977.4534                   24053977.5634
        40.7504         33.7504
 -23328020.77746 -17104642.40244  22876014.6484                   22876013.2974
        41.7504         26.7504
 -21777310.12147 -16925434.26646  22864725.1644                   22864726.1294
        42.5004         36.5004
   1444399.19546   1164463.45342  25060753.2974                   25060756.9654
        37.0004         13.7504
 25  7 16  0 19  0.0000000  0 10G01G02G03G10G28G31G32G04G26G16
 -21176424.39848 -16456349.85545  21206248.9454                   21206246.0434
        48.0004         35.0004
  -9413722.77747  -7314700.53945  22425464.4774                   22425460.6414
        45.0004         32.5004
 -29852365.14848 -23455225.54747  21166907.7584                   21166907.3134
        48.0004         46.0004
   -521448.88346   -398308.18744  24861110.8594                   24861113.5784
        37.2504         26.0004
 -10044934.39847  -7804745.74245  21836748.5704                   21836745.8244
        46.7504         34.0004
 -22768384.01248 -17711046.28948  20155833.1884                   20155829.2624
        49.2504         48.5004
  -1817678.00046  -1409960.10245  24050922.1414                   24050922.7894
        40.7504         33.5004
 -23476255.49247 -17220149.91844  22847806.2034                   22847805.4924
        42.7504         26.5004
 -21942463.83247 -17054125.43045  22833297.1644                   22833298.6764
        42.2504         35.7504
   1260024.98046   1020795.50042  25025667.5164                   25025672.2154
        36.2504         14.7504
 25  7 16  0 19 30.0000000  0 10G01G02G03G10G28G31G32G04G26G16
 -21241082.42248 -16506732.75445  21193944.4924                   21193942.3244
        48.7504         35.2504
  -9430462.65247  -7327744.66045  22422279.4384                   22422275.3484
        45.2504         31.2504
 -30007342.12148 -23575986.81247  21137416.3524                   21137416.0394
        48.7504         46.0004
   -512239.10946   -391131.87544  24862863.9694                   24862866.1764
        36.7504         24.0004
 -10059267.75847  -7815914.62545  21834021.1174                   21834018.1884
        46.5004         33.0004
 -22837862.71548 -17765185.53948  20142612.0084                   20142608.0594
        50.0004         48.5004
  -1833695.82446  -1422441.57445  24047874.1954                   24047874.5594
        40.0004         34.5004
 -23624340.37946 -17335540.69544  22819626.3914                   22819625.7544
        41.7504         25.5004
 -22107332.32847 -17182594.33645  22801923.2734                   22801924.7974
        42.0004         35.7504
   1075518.49246    877024.42242  24990557.6954                   24990561.5474
        38.0004         15.5004
 25  7 16  0 20  0.0000000  0 10G01G02G03G10G28G31G32G04G26G16
 -21305151.52747 -16556656.75445  21181752.8364                   21181749.9964
        47.7504         35.0004
  -9446875.37547  -7340533.85545  22419156.1954                   22419151.0744
        46.2504         32.0004
 -30162046.60947 -23696535.74647  21107977.3914                   21107976.6024
        47.0004         45.7504
   -502830.37946   -383800.48444  24864654.5704                   24864657.9614
        37.5004         25.5004
 -10073226.41047  -7826791.51245  21831364.9064                   21831362.2274
        46.0004         33.5004
 -22906730.04348 -17818848.38348  20129507.0554                   20129503.1094
        49.5004         48.5004
  -1849681.84446  -1434898.27745  24044832.2814                   24044832.9304
        40.0004         34.5004
 -23772281.19146 -17450819.20744  22791474.5234                   22791473.5084
        41.0004         25.5004
 -22271917.97746 -17310842.84445  22770604.7034                   22770605.6484
        41.5004         35.7504
    890876.430 6                  24955421.109
        36.750
 25  7 16  0 20 30.0000000  0 10G01G02G03G10G28G31G32G04G26G16
 -21368628.03547 -16606118.99245  21169673.6414                   21169671.4804
        47.2504         35.2504
  -9462958.59047  -7353066.29745  22416095.3134                   22416091.1374
        45.0004         32.0004
 -30316471.64847 -23816866.92647  21078591.1954                   21078590.6134
        47.0004         45.7504
   -493219.09445   -376311.35243  24866483.8284                   24866486.6914
        35.7504         23.0004
 -10086808.05547  -7837374.63745  21828780.2894                   21828777.4884
        46.5004         33.2504
 -22974982.34848 -17872032.00448  20116518.9454                   20116515.3954
        48.7504         48.5004
  -1865631.52747  -1447326.65645  24041797.0554                   24041797.2304
        42.2504         35.5004
 -23920073.37146 -17565981.91044  22763350.3594                   22763350.1484
        41.0004         26.0004
 -22436212.81247 -17438864.75845  22739339.4454                   22739340.5434
        42.0004         35.5004
    706106.328 6                  24920260.820
        36.000
 25  7 16  0 21  0.0000000  0 10G01G02G03G10G28G31G32G04G26G16
 -21431509.29747 -16655117.40245  21157707.7034                   21157705.1254
        46.5004         35.0004
  -9478711.64147  -7365341.45745  22413097.7504                   22413093.7664
        45.2504         33.0004
 -30470611.34047 -23936975.75447  21049259.1644                   21049258.9454
        46.5004         45.7504
   -483402.89146   -368662.47344  24868351.9774                   24868354.8834
        39.0004         26.0004
 -10100011.61347  -7847663.14845  21826268.1804                   21826265.0004
        46.0004         33.5004
 -23042617.28548 -17924734.55148  20103648.8914                   20103644.9414
        49.0004         48.5004
  -1881541.16446  -1459723.82445  24038769.4384                   24038769.9964
        40.5004         34.5004
 -24067713.41446 -17681026.05544  22735254.9924                   22735254.8634
        40.7504         26.2504
 -22600209.96947 -17566654.69145  22708132.8594                   22708133.1844
        42.0004         35.5004
    521214.570 5                  24885076.656
        35.000
 25  7 16  0 21 30.0000000  0 10G01G02G03G10G28G31G32G04G26G16
 -21493797.26647 -16703653.50445  21145854.4774                   21145852.5234
        46.0004         34.7504
  -9494137.67647  -7377361.80945  22410162.4844                   22410158.1644
        46.0004         31.7504
 -30624464.30547 -24056861.16447  21019981.9224                   21019981.2154
        46.5004         45.5004
   -473383.80546   -360855.46544  24870258.3834                   24870260.8634
        40.5004         26.5004
 -10112840.44547  -7857659.66845  21823826.7114                   21823823.9884
        46.0004         33.5004
 -23109637.00048 -17976957.70348  20090894.8594                   20090891.1214
        48.5004         48.5004
  -1897411.71147  -1472090.55145  24035750.0084                   24035750.6804
        42.5004         35.2504
 -24215202.35547 -17795952.45744  22707189.4224                   22707188.3674
        42.0004         26.5004
 -22763907.06646 -17694210.82845  22676981.9384                   22676982.7074
        41.7504         35.7504
    336202.77746    811800.93852  24849870.0234                   24849870.4304
        36.2504         16.2504
 25  7 16  0 22  0.0000000  0 10G01G02G03G10G28G31G32G04G26G16
 -21555488.89847 -16751724.94145  21134115.2974                   21134113.0634
        47.0004         34.7504
  -9509235.03147  -7389126.03945  22407289.2274                   22407285.2154
        45.0004         32.0004
 -30778024.07047 -24176518.10247  20990760.5784                   20990759.8794
        46.0004         45.5004
   -463158.79346   -352887.99244  24872204.6024                   24872206.5124
        41.0004         25.7504
 -10125292.87947  -7867362.88745  21821456.7734                   21821454.5164
        45.5004         34.0004
 -23176038.87548 -18028699.42648  20078259.2664                   20078255.4654
        48.7504         48.5004
  -1913239.08247  -1484423.64845  24032738.6804                   24032738.5514
        42.0004         35.0004
 -24362536.16047 -17910757.98044  22679152.5944                   22679151.6484
        42.2504         25.5004
 -22927296.76646 -17821527.43446  22645889.6804                   22645890.4924
        41.5004         36.7504
    151078.00045    667548.03942  24814641.1884                   24814643.9734
        35.5004         14.7504
 25  7 16  0 22 30.0000000  0 10G01G02G03G10G28G31G32G04G26G16
 -21616587.64847 -16799334.37545  21122488.6414                   21122486.0704
        46.7504         34.7504
  -9524008.49247  -7400637.88745  22404478.2734                   22404474.3634
        44.2504         32.0004
 -30931290.85247 -24295946.73447  20961594.6954                   20961594.0124
        46.2504         45.7504
   -452731.55546   -344762.92244  24874188.0634                   24874190.4774
        39.5004         26.7504
 -10137373.81247  -7876776.61345  21819158.2584                   21819156.1374
        44.7504         34.0004
 -23241826.46548 -18079962.48048  20065740.2894                   20065736.0044
        48.2504         48.5004
  -1929025.61746  -1496724.90245  24029733.9844                   24029734.3554
        41.7504         35.0004
 -24509717.43046 -18025444.64844  22651144.8444                   22651143.7774
        41.2504         25.2504
 -23090378.21546 -17948603.82446  22614856.1334                   22614857.4884
        41.2504         36.7504
    -34159.28945    523207.52042  24779392.7274                   24779394.8674
        35.0004         15.5004
 25  7 16  0 23  0.0000000  0 10G01G02G03G10G28G31G32G04G26G16
 -21677100.62147 -16846487.37945  21110973.2734                   21110971.0984
        45.7504         35.0004
  -9538466.74247  -7411904.12145  22401726.9304                   22401723.0824
        45.5004         32.2504
 -31084268.29747 -24415149.92247  20932484.3204                   20932483.6294
        46.2504         46.0004
   -442109.16046   -336485.81644  24876209.4614                   24876212.8594
        39.2504         26.5004
 -10149091.72347  -7885907.47745  21816928.1564                   21816926.2894
        46.2504         34.0004
 -23307006.91848 -18130752.45348  20053336.8674                   20053332.9614
        48.5004         48.5004
  -1944777.39546  -1508999.05945  24026736.6174                   24026736.7114
        41.7504         35.5004
 -24656752.21546 -18140017.16844  22623165.1804                   22623164.1844
        41.5004         26.0004
 -23253154.19546 -18075442.21545  22583880.5784                   22583881.7034
        41.5004         35.7504
   -219512.97745    378776.21142  24744119.9924                   24744123.0164
        33.2504         14.7504
 25  7 16  0 23 30.0000000  0 10G01G02G03G10G28G31G32G04G26G16
 -21737027.09447 -16893183.35545  21099569.5314                   21099567.1844
        47.0004         34.7504
  -9552610.38347  -7422925.19145  22399035.6484                   22399031.5594
        45.5004         31.5004
 -31236952.21547 -24534124.37547  20903429.2974                   20903428.5904
        46.0004         46.0004
   -431290.81646   -328056.08244  24878268.9384                   24878271.9264
        38.5004         25.2504
 -10160447.19147  -7894755.90245  21814767.2034                   21814765.0434
        46.2504         34.2504
 -23371579.86747 -18181069.03548  20041049.0164                   20041045.1414
        47.5004         48.5004
  -1960492.44947  -1521244.61745  24023746.4064                   24023746.6914
        42.2504         35.7504
 -24803638.76647 -18254474.19144  22595213.4774                   22595212.5044
        42.2504         26.5004
 -23415619.53147 -18202038.53946  22552964.8674                   22552965.6764
        42.0004         36.0004
   -404977.97745    234258.31342  24708828.1484                   24708830.0744
        35.2504         16.2504
 25  7 16  0 24  0.0000000  0 10G01G02G03G10G28G31G32G04G26G16
 -20220953.21547 -15711827.11745  21388068.7974                   21388066.7974
        46.0004         35.0004
  -7991028.39847  -6206108.12545  22696195.2114                   22696190.3204
        45.7504         32.0004
 -29813922.24647 -23425269.84447  21174222.9454                   21174222.4924
        46.7504         46.0004
   1155134.77746    908119.61344  25180155.5164                   25180158.0004
        39.2504         25.2504
  -8596029.30547  -6675729.00045  22112466.3134                   22112463.7814
        45.7504         33.7504
 -21860131.56248 -17003317.10548  20328668.2504                   20328664.6334
        49.0004         48.5004
   -400757.32446   -305866.63745  24320554.3984                   24320554.2814
        41.2504         35.0004
 -23374959.39847 -17141217.49244  22867082.4844                   22867081.2074
        42.0004         25.2504
 -22002352.62946 -17100791.55546  22821900.3914                   22821901.9614
        41.7504         36.0004
    984867.74645   1317255.19542  24973306.2894                   24973308.9494
        33.5004         16.7504
 25  7 16  0 24 30.0000000  0 10G01G02G03G10G28G31G32G04G26G16
 -20279727.53547 -15757625.31245  21376884.6724                   21376882.1254
        47.0004         34.7504
  -8004567.75447  -6216658.34845  22693618.3054                   22693614.5594
        45.7504         31.0004
 -29966029.63747 -23543795.06247  21145277.8364                   21145277.0744
        47.0004         46.0004
   1166323.78146    916838.24644  25182284.6094                   25182287.4534
        38.2504         25.0004
  -8606684.73847  -6684031.96945  22110438.8914                   22110435.8484
        47.5004         34.0004
 -21923510.98448 -17052703.67248  20316607.1954                   20316603.5204
        48.7504         48.5004
   -416416.41846   -318068.59845  24317573.6254                   24317574.7734
        40.7504         34.5004
 -23521567.43247 -17255457.49244  22839183.4924                   22839182.4144
        42.2504         27.0004
 -22164204.45746 -17226909.81246  22791100.2424                   22791101.7664
        41.2504         36.0004
    799171.234 5                  24937968.570
        32.500
 25  7 16  0 25  0.0000000  0 10G01G02G03G10G28G31G32G04G26G16
 -20337929.30547 -15802977.37145  21365809.1484                   21365807.0204
        47.2504         35.5004
  -8017810.64847  -6226977.55145  22691098.8054                   22691094.3634
        44.7504         31.2504
 -30117846.96947 -23662094.25447  21116388.3284                   21116387.6134
        47.5004         46.5004
   1177694.62145    925698.57043  25184447.7504                   25184451.3324
        35.7504         22.0004
  -8616995.59847  -6692066.43045  22108476.6334                   22108474.3524
        46.2504         34.0004
 -21986297.42648 -17101628.17648  20304659.6644                   20304655.6994
        49.0004         48.5004
   -432049.18046   -330250.03945  24314599.1564                   24314599.9414
        40.5004         35.0004
 -23668037.97747 -17369590.34844  22811310.8444                   22811310.1994
        42.2504         26.2504
 -22325746.33646 -17352786.56245  22760360.1334                   22760361.8404
        41.5004         35.5004
    613360.910 5                  24902610.461
        34.000
 25  7 16  0 25 30.0000000  0 10G01G02G03G10G28G31G32G04G26G16
 -20395560.91047 -15847885.14845  21354842.5784                   21354839.6414
        46.5004         35.0004
  -8030760.53547  -6237068.43745  22688634.3754                   22688630.2704
        45.0004         31.5004
 -30269373.17247 -23780166.60947  21087553.5164                   21087552.8054
        47.7504         46.0004
   1189244.94546    934698.77344  25186646.1954                   25186649.6644
        36.2504         24.2504
  -8626965.52347  -6699835.23445  22106579.6564                   22106576.7814
        46.0004         33.5004
 -22048493.48848 -17150092.63748  20292823.8524                   20292820.4924
        49.2504         48.5004
   -447656.77747   -342411.87145  24311628.9304                   24311630.8204
        42.0004         34.0004
 -23814372.39846 -17483617.12144  22783465.0394                   22783463.3674
        41.2504         26.7504
 -22486976.30147 -17478420.25046  22729679.3914                   22729680.2234
        42.2504         36.2504
    427438.922 5                  24867230.570
        31.250
 25  7 16  0 26  0.0000000  0 10G01G02G03G10G28G31G32G04G26G16
 -20452620.34447 -15892347.06245  21343983.9534                   21343982.0204
        46.0004         34.5004
  -8043416.80147  -6246930.53145  22686225.5314                   22686221.9614
        44.7504         31.2504
 -30420602.67248 -23898007.76647  21058775.5474                   21058774.5124
        48.0004         46.0004
   1200976.79346    943840.34444  25188880.3204                   25188882.6134
        36.0004         26.2504
  -8636593.77347  -6707337.79745  22104747.0234                   22104744.5274
        46.5004         33.5004
 -22110097.29748 -17198095.60948  20281101.1024                   20281097.2814
        48.7504         48.5004
   -463235.94946   -354551.53145  24308664.5784                   24308665.4144
        41.5004         33.7504
 -23960567.57047 -17597535.41044  22755644.4454                   22755643.5164
        42.7504         26.5004
 -22647887.80547 -17603805.79746  22699058.7034                   22699059.8914
        42.2504         36.5004
    241411.19545   1163810.28152  24831829.8134                   24831831.9734
        33.7504         16.2504
 25  7 16  0 26 30.0000000  0 10G01G02G03G10G28G31G32G04G26G16
 -20509110.31247 -15936365.25445  21333234.8054                   21333232.4924
        47.0004         34.7504
  -8055783.52047  -6256567.00845  22683872.8674                   22683869.0824
        45.5004         31.0004
 -30571534.52048 -24015616.97747  21030054.0004                   21030053.3054
        48.2504         46.0004
   1212887.57045    953121.32444  25191145.5554                   25191149.7154
        34.0004         28.0004
  -8645884.21947  -6714577.12945  22102979.4614                   22102977.3674
        46.0004         33.7504
 -22171111.83648 -17245639.40648  20269490.4614                   20269486.9964
        49.2504         48.5004
   -478788.01646   -366670.10545  24305705.3984                   24305706.5514
        41.0004         33.7504
 -24106625.02746 -17711346.38744  22727850.6024                   22727849.0164
        41.5004         24.5004
 -22808479.08247 -17728941.80546  22668499.3524                   22668500.1334
        42.0004         37.0004
     55279.03946   1018772.42642  24796410.5704                   24796411.9574
        36.0004         16.7504
 25  7 16  0 27  0.0000000  0  9G01G02G03G28G31G32G04G26G16
 -20565035.82447 -15979943.59845  21322592.3754                   21322589.6254
        47.0004         34.7504
  -8067866.84447  -6265982.65645  22681573.6724                   22681569.4494
        45.5004         31.5004
 -30722170.18747 -24132995.39847  21001388.9384                   21001388.3054
        47.0004         46.0004
  -8654843.13747  -6721558.13345  22101274.4384                   22101272.0594
        45.7504         33.2504
 -22231542.29348 -17292728.08248  20257990.9694                   20257986.9304
        49.2504         48.2504
   -494316.72346   -378770.48045  24302749.6174                   24302751.4264
        40.7504         33.0004
 -24252548.57847 -17825053.02344  22700082.5474                   22700081.5664
        42.2504         26.2504
 -22968750.68047 -17853828.73446  22638000.9844                   22638001.6454
        42.2504         36.5004
   -130958.57045    873652.41443  24760969.9614                   24760971.4774
        34.5004         18.2504
 25  7 16  0 27 30.0000000  0  9G01G02G03G28G31G32G04G26G16
 -20620393.16047 -16023079.21145  21312058.3524                   21312055.9614
        47.5004         35.2504
  -8079664.34847  -6275175.58645  22679328.9064                   22679324.3874
        45.0004         30.5004
 -30872502.23048 -24250137.23447  20972782.0554                   20972781.1094
        48.0004         46.2504
  -8663467.90247  -6728278.74245  22099633.0864                   22099631.2974
        45.7504         33.2504
 -22291385.14148 -17339358.87548  20246603.3984                   20246599.5634
        49.0004         48.2504
   -509816.90646   -390848.62145  24299800.4064                   24299801.8594
        40.7504         32.0004
 -24398333.40246 -17938651.54744  22672339.8914                   22672339.9924
        41.7504         26.5004
 -23128694.30947 -17978460.09446  22607564.4144                   22607565.2774
        42.5004         37.2504
   -317293.52745    728456.53543  24725511.9614                   24725513.1914
        34.0004         18.2504
 25  7 16  0 28  0.0000000  0  9G01G02G03G28G31G32G04G26G16
 -20675182.48447 -16065772.22345  21301632.3364                   21301630.3204
        47.5004         35.2504
  -8091177.28547  -6284146.77345  22677138.1024                   22677133.7304
        46.0004         31.2504
 -31022527.17647 -24367039.78147  20944232.7274                   20944232.4384
        47.7504         46.5004
  -8671759.82447  -6734740.00445  22098055.2274                   22098053.1644
        46.0004         33.7504
 -22350640.82048 -17385532.13348  20235327.2664                   20235323.7424
        48.0004         48.2504
   -525287.36346   -402903.58645  24296857.3204                   24296857.4574
        40.0004         31.2504
 -24543978.37146 -18052141.09444  22644625.0704                   22644624.1604
        40.7504         25.7504
 -23288305.61747 -18102832.50046  22577191.8054                   22577192.1484
        42.2504         37.2504
   -503721.99645    583187.79742  24690035.6414                   24690037.1454
        35.7504         16.7504
 25  7 16  0 28 30.0000000  0  9G01G02G03G28G31G32G04G26G16
 -20729403.28147 -16108022.22345  21291314.4694                   21291312.3714
        47.5004         34.7504
  -8102406.66447  -6292897.00445  22675001.0944                   22674996.8674
        43.7504         31.5004
 -31172240.85248 -24483699.76247  20915743.7034                   20915742.8524
        48.0004         46.7504
  -8679719.53947  -6740942.40245  22096540.9304                   22096538.6094
        45.2504         33.2504
 -22409309.11347 -17431247.68748  20224163.2034                   20224159.4844
        47.5004         48.0004
   -540726.24646   -414933.95745  24293919.2664                   24293919.8874
        40.2504         31.0004
 -24689481.73846 -18165520.30544  22616936.5394                   22616935.5004
        41.0004         26.0004
 -23447579.53947 -18226942.00446  22546882.5944                   22546883.2424
        42.5004         36.2504
   -690239.18446    437850.00842  24654541.3204                   24654543.6254
        36.5004         16.7504
 25  7 16  0 29  0.0000000  0  9G01G02G03G28G31G32G04G26G16
 -20783056.59047 -16149830.02345  21281104.3444                   21281101.9384
        46.2504         34.5004
  -8113354.64147  -6301427.95345  22672917.4384                   22672913.8094
        45.0004         31.0004
 -31321640.55148 -24600115.09847  20887313.7034                   20887312.8054
        48.0004         47.2504
  -8687349.21147  -6746887.63345  22095088.9694                   22095086.5124
        46.2504         32.7504
 -22467390.90648 -17476506.23048  20213110.5084                   20213106.7664
        48.0004         48.0004
   -556133.12546   -426939.41445  24290987.1334                   24290988.0084
        40.0004         31.2504
 -24834843.26646 -18278789.00444  22589275.3674                   22589274.5554
        40.7504         25.5004
 -23606512.49647 -18350785.82446  22516638.7034                   22516639.7664
        42.0004         37.0004
   -876841.76646    292445.60243  24619032.1174                   24619033.8754
        37.2504         19.0004
 25  7 16  0 29 30.0000000  0  9G01G02G03G28G31G32G04G26G16
 -20836147.64847 -16191199.71145  21271001.7504                   21270999.5784
        47.5004         35.5004
  -8124027.08647  -6309744.21545  22670886.5864                   22670882.8754
        45.0004         30.0004
 -31470727.73447 -24716286.91847  20858943.2194                   20858942.3404
        47.5004         47.5004
  -8694655.08247  -6752580.53945  22093698.7974                   22093695.5944
        45.7504         33.7504
 -22524891.53547 -17521311.92248  20202168.2664                   20202164.3834
        47.2504         48.0004
   -571511.62546   -438922.75045  24288060.2814                   24288061.2814
        39.7504         31.0004
 -24980066.84446 -18391950.19944  22561640.3674                   22561638.8444
        40.0004         26.0004
 -23765105.07447 -18474364.41046  22486459.5164                   22486460.4224
        42.5004         37.0004
  -1063530.48046    146974.07443  24583507.2114                   24583507.9384
        39.2504         19.2504
 25  7 16  0 30  0.0000000  0  9G01G02G03G28G31G32G04G26G16
 -20888682.57847 -16232136.04745  21261004.5784                   21261002.3754
        46.7504         34.7504
  -8134431.96547  -6317851.98445  22668906.4774                   22668902.9614
        45.2504         31.0004
 -31619504.72348 -24832217.02047  20830631.9844                   20830631.0664
        48.5004         47.2504
  -8701644.37547  -6758026.75845  22092368.4304                   22092366.0314
        45.0004         32.5004
 -22581817.59447 -17565669.89148  20191335.4304                   20191332.1334
        47.2504         48.0004
   -586866.48046   -450887.64145  24285138.7584                   24285139.7894
        40.0004         31.7504
 -25125157.30146 -18505007.66444  22534029.6644                   22534029.2344
        39.7504         26.2504
 -23923358.85247 -18597678.98846  22456344.6024                   22456345.4454
        42.2504         37.5004
  -1250307.27345      1433.90643  24547964.8054                   24547965.4694
        35.5004         18.2504
 25  7 16  0 30 30.0000000  0  9G01G02G03G28G31G32G04G26G16
 -20940665.35947 -16272642.14145  21251112.7034                   21251110.1294
        45.2504         34.5004
  -8144574.23047  -6325755.12145  22666976.6804                   22666973.1724
        45.0004         30.5004
 -31767971.83647 -24947905.65647  20802379.7114                   20802378.7194
        47.0004         47.2504
  -8708322.10547  -6763230.20745  22091097.5634                   22091095.0204
        46.0004         32.0004
 -22638173.30947 -17609583.43747  20180611.5944                   20180607.6844
        47.0004         47.7504
   -602200.03946   -462835.95345  24282221.5784                   24282222.3594
        39.7504         31.7504
 -25270117.33646 -18617963.52344  22506445.4384                   22506444.1884
        41.2504         26.2504
 -24081273.21547 -18720729.10246  22426294.6804                   22426295.4414
        42.2504         36.5004
  -1437172.16445   -144174.89842  24512404.4614                   24512406.8054
        34.7504         17.2504
 25  7 16  0 31  0.0000000  0  9G01G02G03G28G31G32G04G26G16
 -20992096.87147 -16312718.66845  21241325.2974                   21241323.3984
        47.5004         34.7504
  -8154456.02747  -6333455.29345  22665096.2194                   22665092.2274
        45.0004         31.0004
 -31916126.03947 -25063350.47747  20774186.7974                   20774186.3444
        47.2504         47.5004
  -8714690.15647  -6768192.34445  22089886.3754                   22089883.6604
        45.2504         32.5004
 -22693959.40247 -17653053.12547  20169995.5634                   20169992.1374
        47.5004         47.7504
   -617511.71146   -474767.22344  24279307.2664                   24279308.1604
        40.0004         29.5004
 -25414946.34846 -18730817.25444  22478885.2584                   22478884.6994
        41.0004         25.0004
 -24238844.37946 -18843511.77746  22396309.7814                   22396310.3324
        41.2504         37.0004
  -1624121.25445   -289849.25842  24476828.7664                   24476831.2344
        35.5004         16.2504
 25  7 16  0 31 30.0000000  0  9G01G02G03G28G31G32G04G26G16
 -21042982.05147 -16352369.47745  21231642.3134                   21231640.0634
        47.0004         34.7504
  -8164083.20747  -6340957.06245  22663264.3834                   22663260.8714
        45.2504         31.7504
 -32063968.43747 -25178552.32447  20746053.3984                   20746052.7274
        47.5004         47.2504
  -8720754.43047  -6772917.79345  22088732.3444                   22088729.1374
        45.5004         31.7504
 -22749181.21148 -17696083.10947  20159487.6724                   20159484.0004
        48.7504         47.7504
   -632804.81646   -486683.99244  24276397.7974                   24276397.5904
        39.5004         29.5004
 -25559648.01246 -18843571.75444  22451349.4614                   22451348.5784
        40.0004         26.5004
 -24396072.55147 -18966027.18746  22366390.2734                   22366391.3794
        43.0004         37.5004
  -1811154.95346   -435589.52742  24441237.8984                   24441239.3094
        36.5004         17.7504
 25  7 16  0 32  0.0000000  0  9G01G02G03G28G31G32G04G26G16
 -21093324.60547 -16391597.48045  21222062.7504                   21222060.2464
        46.5004         34.7504
  -8173460.64147  -6348264.22745  22661480.1414                   22661476.6804
        45.0004         31.5004
 -32211498.91447 -25293511.12147  20717979.1094                   20717978.0634
        47.5004         47.2504
  -8726519.61747  -6777410.15645  22087635.5394                   22087632.1414
        44.7504         32.0004
 -22803842.50047 -17738676.32848  20149085.7504                   20149082.2664
        47.7504         48.0004
   -648081.36746   -498587.88744  24273490.3674                   24273490.7154
        40.0004         29.0004
 -25704224.53946 -18956228.75044  22423837.0554                   22423836.2854
        39.5004         26.0004
 -24552956.88747 -19088274.68446  22336536.0554                   22336536.5314
        42.7504         37.5004
  -1998272.84046   -581395.57042  24405629.9454                   24405632.2584
        36.7504         16.7504
 25  7 16  0 32 30.0000000  0  9G01G02G03G28G31G32G04G26G16
 -21143121.28147 -16430400.11345  21212586.5864                   21212584.4964
        46.7504         34.5004
  -8182586.07847  -6355375.02045  22659744.1414                   22659739.8984
        44.2504         30.5004
 -32358710.26647 -25408221.24247  20689965.6094                   20689965.2234
        47.7504         47.2504
  -8731983.34047  -6781667.62945  22086595.6724                   22086592.8674
        44.7504         32.2504
 -22857939.94948 -17780830.18447  20138791.4774                   20138787.9534
        48.0004         47.7504
   -663336.57446   -510475.13744  24270586.9844                   24270588.2274
        39.5004         29.5004
 -25848671.19946 -19068784.56644  22396349.4064                   22396348.6884
        40.5004         25.5004
 -24709489.29747 -19210247.96546  22306749.2114                   22306749.6994
        43.5004         38.0004
  -2185467.08646   -727261.07842  24370008.9384                   24370009.8324
        37.7504         16.2504
 25  7 16  0 33  0.0000000  0  9G01G02G03G28G31G32G04G26G16
 -21192372.60248 -16468777.79745  21203214.7344                   21203212.2074
        48.0004         35.0004
  -8191461.00447  -6362290.61345  22658055.1174                   22658051.1564
        45.0004         30.2504
 -32505599.11747 -25522680.07847  20662013.5394                   20662013.0594
        47.5004         47.5004
  -8737147.08647  -6785691.35245  22085613.1564                   22085610.7234
        46.0004         33.0004
 -22911474.68447 -17822545.57047  20128604.1254                   20128600.5984
        47.5004         47.7504
   -678569.20746   -522344.79344  24267688.6954                   24267689.5434
        39.7504         29.0004
 -25992987.10946 -19181238.47744  22368886.8364                   22368886.4064
        39.7504         26.5004
 -24865665.71547 -19331943.83246  22277029.3984                   22277030.0434
        43.7504         37.2504
  -2372733.72746   -873182.93443  24334372.5864                   24334373.8524
        37.5004         18.5004
 25  7 16  0 33 30.0000000  0  9G01G02G03G28G31G32G04G26G16
 -19665666.28147 -15279136.53945  21493736.9384                   21493734.6914
        47.0004         34.5004
  -6624675.71147  -5141419.03545  22956203.9304                   22956200.3554
        44.0004         30.5004
 -31076746.06247 -24409288.06647  20933915.6174                   20933914.8594
        47.0004         47.2504
  -7166600.93047  -5561889.18445  22384478.0234                   22384475.2544
        44.7504         32.5004
 -21389034.30947 -16636228.40247  20418315.0004                   20418311.1524
        47.7504         47.7504
    881633.50446    693397.50844  24564585.8284                   24564585.9924
        38.7504         27.2504
 -24561755.29346 -18065992.85944  22641242.0234                   22641241.2274
        40.5004         26.5004
 -23446065.49647 -18225761.80946  22547170.3054                   22547170.5434
        43.0004         38.0004
   -984651.09846    208440.08242  24598515.8524                   24598516.9064
        36.5004         16.7504
 25  7 16  0 34  0.0000000  0  9G01G02G03G28G31G32G04G26G16
 -19713839.90247 -15316674.44945  21484569.9924                   21484567.5864
        46.7504         34.5004
  -6633066.15647  -5147957.12545  22954607.1484                   22954604.3554
        44.0004         30.0004
 -31222991.18047 -24523245.28947  20906085.8444                   20906085.2194
        47.2504         47.7504
  -7171180.38747  -5565457.61345  22383606.7194                   22383604.3284
        44.5004         32.2504
 -21441456.95747 -16677077.22347  20408339.2734                   20408335.3954
        47.5004         47.7504
    866438.04746    681556.83244  24561693.8444                   24561694.7704
        39.0004         28.5004
 -24705818.23046 -18178249.65244  22613827.5554                   22613826.1134
        39.5004         25.7504
 -23601528.60247 -18346901.85546  22517586.3754                   22517587.5634
        43.5004         37.7504
  -1172061.55146     62406.11342  24562852.2894                   24562854.1724
        36.7504         16.2504
 25  7 16  0 34 30.0000000  0  9G01G02G03G28G31G32G04G26G16
 -19761476.14547 -15353793.63745  21475504.9384                   21475502.8054
        47.7504         34.0004
  -6641217.35547  -5154308.80545  22953056.4454                   22953052.9774
        45.2504         30.2504
 -31368909.96548 -24636948.22747  20878318.6644                   20878317.8054
        48.0004         47.7504
  -7175470.51247  -5568800.59445  22382790.3674                   22382787.9384
        45.2504         32.0004
 -21493325.13348 -16717493.98847  20398468.9144                   20398465.2894
        48.7504         47.5004
    851262.27046    669731.50044  24558806.5084                   24558807.1684
        40.0004         29.7504
 -24849753.81646 -18290407.20744  22586437.3054                   22586436.9414
        41.2504         26.0004
 -23756629.51247 -18467759.67246  22488072.1954                   22488072.8834
        43.7504         38.5004
  -1359538.60246    -83679.76642  24527177.2424                   24527177.6764
        37.0004         16.2504
 25  7 16  0 35  0.0000000  0  9G01G02G03G28G31G32G04G26G16
 -19808578.80147 -15390497.02745  21466541.7504                   21466539.4844
        46.7504         34.2504
  -6649133.97347  -5160477.68745  22951550.3134                   22951546.4844
        45.0004         30.0004
 -31514502.14848 -24750396.66447  20850613.2504                   20850612.4844
        48.0004         47.5004
  -7179475.79347  -5571921.61745  22382027.4304                   22382025.0554
        45.0004         31.7504
 -21544642.60248 -16757481.62947  20388703.8204                   20388700.0904
        48.5004         47.5004
    836104.17246    657919.93845  24555921.7114                   24555922.8204
        40.2504         30.5004
 -24993564.34846 -18402467.32044  22559070.8754                   22559070.1684
        41.5004         26.2504
 -23911367.12947 -18588334.39846  22458626.3834                   22458627.0864
        44.0004         38.2504
  -1547081.14546   -229816.62142  24491488.8284                   24491488.8914
        38.0004         17.2504
 25  7 16  0 35 30.0000000  0  9G01G02G03G28G31G32G04G26G16
 -19855144.88347 -15426782.31645  21457680.8674                   21457678.0784
        47.5004         34.5004
  -6656814.05547  -5166462.23845  22950088.7894                   22950085.1764
        45.5004         31.2504
 -31659760.73848 -24863585.16847  20822970.9694                   20822970.8054
        48.5004         47.7504
  -7183194.09047  -5574819.02345  22381320.1094                   22381317.8874
        45.0004         31.0004
 -21595406.69948 -16797038.06247  20379043.3594                   20379039.4304
        48.7504         47.2504
    820968.62546    646125.97345  24553041.8594                   24553043.2074
        41.0004         30.2504
 -25137245.19546 -18514426.38344  22531729.1334                   22531728.4884
        40.2504         25.0004
 -24065733.69147 -18708619.99246  22429251.2894                   22429252.4804
        43.7504         38.0004
  -1734681.79746   -375998.80143  24455790.2584                   24455789.5904
        36.0004         18.2504
 25  7 16  0 36  0.0000000  0  9G01G02G03G28G31G32G04G26G16
 -19901179.35947 -15462653.37145  21448920.6484                   21448918.2664
        47.5004         34.5004
  -6664263.28947  -5172266.91045  22948670.8524                   22948667.5984
        45.0004         30.5004
 -31804686.66848 -24976514.43447  20795392.6414                   20795391.6174
        48.2504         47.7504
  -7186631.18447  -5577497.31245  22380666.1024                   22380663.7814
        46.2504         32.5004
 -21645622.51248 -16836167.28547  20369487.5704                   20369484.0474
        48.2504         47.5004
    805852.36346    634347.02745  24550165.2734                   24550166.0744
        40.0004         30.5004
 -25280799.76246 -18626287.03544  22504411.8674                   22504411.0744
        40.7504         28.0004
 -24219729.44547 -18828616.64546  22399947.0944                   22399947.7544
        43.7504         38.2504
  -1922340.71946   -522226.32042  24420078.3444                   24420079.4264
        36.0004         17.7504
 25  7 16  0 36 30.0000000  0  9G01G02G03G28G31G32G04G26G16
 -19946678.51647 -15498107.29345  21440262.5314                   21440260.1134
        46.2504         34.0004
  -6671479.16447  -5177889.73045  22947297.7504                   22947294.7464
        44.2504         30.2504
 -31949272.15648 -25089178.44147  20767879.0634                   20767878.5664
        48.0004         47.7504
  -7189784.07847  -5579954.16045  22380066.2034                   22380063.8714
        46.2504         32.5004
 -21695286.44148 -16874866.44947  20360037.0864                   20360033.0354
        48.2504         47.2504
    790761.04346    622587.47745  24547293.3914                   24547294.9844
        40.5004         31.5004
 -25424222.75447 -18738045.16844  22477119.7114                   22477118.6134
        42.0004         26.7504
 -24373345.85247 -18948317.69946  22370714.5634                   22370715.7274
        44.0004         38.0004
  -2110049.31246   -668492.62542  24384358.9534                   24384359.2154
        36.2504         17.2504
 25  7 16  0 37  0.0000000  0  9G01G02G03G28G31G32G04G26G16
 -19991651.09447 -15533150.90245  21431704.4924                   21431702.2504
        47.2504         34.2504
  -6678471.34447  -5183338.26245  22945967.2424                   22945963.9614
        44.2504         30.0004
 -32093521.88348 -25201580.81648  20740429.4694                   20740428.6954
        48.2504         48.0004
  -7192662.25047  -5582196.93045  22379518.7894                   22379516.1844
        46.0004         32.2504
 -21744407.42248 -16913142.54747  20350689.7734                   20350685.9184
        48.7504         47.5004
    775687.75046    610841.99245  24544425.1024                   24544426.5274
        40.2504         31.0004
 -25567521.16046 -18849706.21944  22449850.7734                   22449849.4264
        41.7504         26.7504
 -24526586.88347 -19067726.25046  22341553.5234                   22341554.6914
        44.0004         38.2504
  -2297811.71146   -814800.82842  24348628.3674                   24348628.7734
        37.5004         16.2504
 25  7 16  0 37 30.0000000  0  9G01G02G03G28G31G32G04G26G16
 -20036101.01247 -15567787.23445  21423245.7894                   21423243.7074
        47.7504         34.2504
  -6685244.64547  -5188616.24645  22944679.1024                   22944674.9144
        45.0004         30.0004
 -32237435.64148 -25313721.39148  20713043.2814                   20713042.6134
        48.2504         48.0004
  -7195270.34847  -5584229.23445  22379021.8204                   22379019.8874
        45.7504         32.2504
 -21792989.30948 -16950998.56647  20341444.8524                   20341441.5124
        48.5004         47.2504
    760630.50446    599109.04745  24541559.6024                   24541561.3204
        38.7504         30.0004
 -25710697.31247 -18961271.98844  22422604.8524                   22422604.1454
        42.2504         26.7504
 -24679451.55547 -19186841.53546  22312464.3444                   22312465.3714
        43.7504         38.5004
  -2485627.00446   -961150.25842  24312888.2974                   24312888.5634
        37.5004         14.7504
 25  7 16  0 38  0.0000000  0  9G01G02G03G28G31G32G04G26G16
 -20080028.80147 -15602016.71545  21414886.8984                   21414884.6294
        47.5004         33.5004
  -6691800.47347  -5193724.76245  22943431.7114                   22943427.8324
        44.5004         30.0004
 -32381009.84848 -25425597.39547  20685722.1884                   20685720.9804
        48.2504         47.7504
  -7197609.55147  -5586052.04745  22378577.4844                   22378575.3244
        45.7504         32.2504
 -21841033.01248 -16988435.22747  20332302.8594                   20332298.5554
        49.2504         47.5004
    745590.66846    587389.63745  24538698.5164                   24538699.1174
        39.5004         31.2504
 -25853750.02047 -19072741.59444  22395383.2194                   22395382.3484
        42.0004         27.7504
 -24831935.62547 -19305660.24646  22283448.1484                   22283448.4494
        44.2504         38.0004
  -2673490.68446  -1107537.38743  24277139.9454                   24277138.9614
        37.5004         19.0004
 25  7 16  0 38 30.0000000  0  9G01G02G03G28G31G32G04G26G16
 -20123437.46147 -15635841.66845  21406626.5634                   21406624.1024
        46.5004         34.0004
  -6698142.72747  -5198666.87544  22942224.8754                   22942221.1414
        44.7504         29.0004
 -32524243.31248 -25537207.87548  20658465.8674                   20658464.6214
        48.0004         48.0004
  -7199683.52747  -5587668.15645  22378182.9534                   22378180.5474
        45.0004         31.2504
 -21888541.30548 -17025454.68747  20323261.9924                   20323258.0314
        48.5004         47.5004
    730567.16846    575682.94945  24535839.4144                   24535840.9224
        40.0004         31.5004
 -25996680.58247 -19184116.00444  22368184.3054                   22368183.0274
        43.0004         27.7504
 -24984037.15247 -19424180.87946  22254503.7974                   22254504.3634
        44.2504         38.5004
  -2861400.97346  -1253960.84442  24241381.2894                   24241380.9924
        37.0004         17.2504
 25  7 16  0 39  0.0000000  0  9G01G02G03G28G31G32G04G26G16
 -20166326.43047 -15669261.69145  21398464.7034                   21398462.7384
        47.0004         33.2504
  -6704271.60947  -5203442.71145  22941057.9304                   22941054.6684
        45.0004         31.0004
 -32667131.38348 -25648549.21548  20631274.9924                   20631274.4384
        48.0004         48.0004
  -7201492.38747  -5589077.68745  22377838.2664                   22377836.2384
        44.5004         31.5004
 -21935513.99648 -17062056.78947  20314323.3284                   20314319.9844
        48.7504         47.2504
    715562.53546    563990.98845  24532983.8054                   24532984.8794
        40.7504         32.0004
 -26139486.72347 -19295393.46145  22341009.3444                   22341007.5744
        43.5004         30.0004
 -25135750.84847 -19542399.30546  22225633.1484                   22225634.2894
        44.5004         38.0004
  -3049352.67246  -1400416.56242  24205614.5634                   24205615.8164
        36.5004         16.2504
 25  7 16  0 39 30.0000000  0  9G01G02G03G28G31G32G04G26G16
 -20208695.86747 -15702276.87945  21390401.9694                   21390399.8164
        46.0004         33.5004
  -6710188.05947  -5208053.02045  22939932.4844                   22939929.5314
        44.2504         30.2504
 -32809670.00447 -25759618.25848  20604150.5944                   20604149.5234
        47.2504         48.0004
  -7203036.86347  -5590281.21545  22377544.3444                   22377542.5274
        45.5004         31.5004
 -21981950.98847 -17098241.46147  20305486.8914                   20305483.1024
        47.7504         47.5004
    700578.60546    552315.16045  24530132.7974                   24530133.1844
        41.5004         32.2504
 -26282166.72747 -19406572.64544  22313858.0314                   22313856.6684
        43.5004         29.0004
 -25287071.87547 -19660311.77046  22196838.3524                   22196838.8324
        43.5004         39.0004
  -3237340.96946  -1546900.78942  24169841.5554                   24169842.0084
        37.5004         17.7504
 25  7 16  0 40  0.0000000  0  9G01G02G03G28G31G32G04G26G16
 -20250553.23047 -15734893.04745  21382437.2814                   21382434.8284
        47.2504         33.5004
  -6715900.44547  -5212504.31245  22938844.8914                   22938842.3594
        44.7504         30.5004
 -32951862.50047 -25870417.59048  20577092.5784                   20577091.6804
        47.5004         48.0004
  -7204325.10947  -5591285.08245  22377299.6804                   22377297.3984
        45.0004         32.0004
 -22027860.35548 -17134015.00447  20296750.1644                   20296746.6374
        49.0004         47.5004
    685609.90646    540651.20345  24527284.7974                   24527285.4654
        41.2504         33.5004
 -26424726.46547 -19517658.10544  22286729.7344                   22286728.6254
        43.5004         28.5004
 -25438002.96947 -19777920.36346  22168116.2504                   22168117.2544
        44.7504         38.5004
  -3425368.18046  -1693415.38343  24134061.6334                   24134061.6804
        36.7504         19.0004
 25  7 16  0 40 30.0000000  0  9G01G02G03G28G31G32G04G26G16
 -20291897.15247 -15767109.11745  21374569.4774                   21374567.4614
        47.5004         34.0004
  -6721408.48047  -5216796.37144  22937797.4064                   22937794.0554
        44.5004         29.5004
 -33093703.16048 -25980942.76648  20550100.9534                   20550100.1804
        48.0004         48.0004
  -7205356.12547  -5592088.50845  22377103.1804                   22377101.1414
        44.2504         31.5004
 -22073240.89148 -17169376.46547  20288114.9614                   20288111.2344
        49.0004         47.0004
    670660.02047    529001.87145  24524439.9844                   24524440.9024
        42.5004         33.7504
 -26567162.57047 -19628647.23044  22259624.6954                   22259623.4224
        43.5004         28.0004
 -25588537.68047 -19895220.10546  22139470.7114                   22139471.6174
        44.0004         38.5004
  -3613427.85945  -1839955.27343  24098273.7814                   24098274.1294
        35.5004         18.5004
 25  7 16  0 41  0.0000000  0  9G01G02G03G28G31G32G04G26G16
 -20332743.16847 -15798937.22745  21366796.9224                   21366794.8914
        47.5004         34.0004
  -6726727.73447  -5220941.33645  22936785.0704                   22936781.9734
        44.5004         30.0004
 -33235203.27348 -26091202.58248  20523174.5474                   20523173.7034
        48.5004         48.2504
  -7206146.09047  -5592704.09845  22376953.3524                   22376950.6764
        45.0004         31.5004
 -22118107.90648 -17204337.78147  20279576.5784                   20279573.1684
        49.2504         47.0004
    655715.34046    517356.59445  24521595.2664                   24521596.4534
        41.5004         32.7504
 -26709488.78147 -19739550.73044  22232541.2584                   22232539.7504
        44.0004         28.2504
 -25738686.71947 -20012219.32046  22110898.5634                   22110899.1294
        44.2504         38.2504
  -3801530.59045  -1986528.65242  24062479.9384                   24062479.6024
        35.7504         17.7504
 25  7 16  0 41 30.0000000  0  9G01G02G03G28G31G32G04G26G16
 -20373078.04747 -15830367.03945  21359121.3754                   21359119.2704
        47.0004         34.0004
  -6731846.52047  -5224930.08644  22935811.8984                   22935807.5084
        44.2504         28.5004
 -33376345.47348 -26201183.50448  20496315.9384                   20496315.5004
        49.2504         48.5004
  -7206682.32847  -5593121.99245  22376850.8674                   22376849.3984
        44.5004         31.0004
 -22162448.29348 -17238888.74247  20271139.5554                   20271135.5944
        48.7504         47.0004
    640791.22346    505727.34845  24518756.3834                   24518756.6414
        41.2504         33.0004
 -26851690.09847 -19850356.90244  22205481.3134                   22205479.9414
        44.0004         29.0004
 -25888431.99247 -20128903.90646  22082403.2194                   22082403.7194
        43.5004         38.5004
  -3989658.28546  -2133121.50443  24026679.9384                   24026679.8364
        38.2504         19.5004
 25  7 16  0 42  0.0000000  0  9G01G02G03G28G31G32G04G26G16
 -20412905.43048 -15861401.40245  21351542.4144                   21351540.5514
        48.0004         33.5004
  -6736768.91447  -5228765.81244  22934875.0394                   22934870.9304
        44.5004         28.2504
 -33517129.05948 -26310884.98848  20469525.8204                   20469524.8364
        49.2504         48.5004
  -7206968.97347  -5593345.39145  22376796.5394                   22376793.8364
        44.2504         31.2504
 -22206265.55548 -17273032.06647  20262800.8444                   20262797.2974
        49.2504         47.0004
    625886.09446    494112.87945  24515919.6174                   24515920.5824
        40.2504         32.7504
 -26993768.27047 -19961067.12145  22178444.2974                   22178443.1994
        44.2504         30.0004
 -26037772.18847 -20245272.85346  22053983.9064                   22053985.3204
        43.5004         38.0004
  -4177809.37146  -2279732.61743  23990876.1804                   23990875.4614
        38.5004         18.5004
 25  7 16  0 42 30.0000000  0  9G01G02G03G28G31G32G04G26G16
 -18876807.91847 -14664442.34445  21643852.0634                   21643849.9224
        46.5004         33.7504
  -5166079.48447  -4004852.06644  23233766.9454                   23233763.4344
        44.2504         28.2504
 -32082129.00848 -25192703.11348  20742597.3134                   20742596.5744
        49.0004         48.5004
  -5631590.42647  -4365777.72345  22676581.3594                   22676578.7814
        44.5004         30.7504
 -20674142.47348 -16079169.93047  20554354.3834                   20554350.4844
        49.5004         47.0004
   2186418.76646   1710112.29745  24812878.6724                   24812879.8204
        39.5004         32.0004
 -25560300.55547 -18844079.23844  22451224.5784                   22451223.1254
        45.0004         29.5004
 -24611281.29347 -19133721.46946  22325436.8054                   22325437.3094
        43.7504         38.5004
  -2790556.49646  -1198756.22343  24254862.1414                   24254860.5664
        38.5004         19.2504
 25  7 16  0 43  0.0000000  0  9G01G02G03G28G31G32G04G26G16
 -18915631.12547 -14694694.23045  21636464.4454                   21636462.2974
        46.2504         33.7504
  -5170622.20347  -4008391.93744  23232902.3444                   23232899.5784
        43.5004         28.5004
 -32222193.28948 -25301844.10248  20715944.1174                   20715942.6524
        49.2504         48.7504
  -5631390.05947  -4365621.62545  22676619.6334                   22676616.7274
        43.5004         30.5004
 -20716924.68748 -16112506.71147  20546213.0394                   20546209.0044
        48.5004         46.7504
   2171547.36746   1698524.10245  24810049.6094                   24810050.3954
        40.2504         33.2504
 -25702137.52747 -18954601.51244  22424233.4924                   22424232.1764
        43.7504         28.7504
 -24759807.36747 -19249456.03546  22297173.0234                   22297173.8484
        44.0004         38.2504
  -2978749.98046  -1345400.35943  24219049.4144                   24219048.6884
        39.5004         20.7504
 25  7 16  0 43 30.0000000  0  9G01G02G03G28G31G32G04G26G16
 -18953951.30147 -14724554.14145  21629172.4304                   21629170.2074
        47.0004         34.0004
  -5174975.10247  -4011783.90244  23232074.0784                   23232071.5274
        43.5004         29.0004
 -32361890.53548 -25410699.09448  20689360.6564                   20689359.4454
        49.0004         48.5004
  -5630945.91447  -4365275.56245  22676703.6094                   22676701.7034
        43.7504         31.0004
 -20759188.93748 -16145439.91047  20538170.7344                   20538166.8284
        49.2504         47.0004
   2156697.08246   1686952.37145  24807223.0234                   24807224.2504
        38.7504         31.5004
 -25843850.07447 -19065026.84444  22397266.5314                   22397264.8364
        43.7504         29.0004
 -24907918.01647 -19364866.90246  22268988.2274                   22268989.2274
        43.2504         39.0004
  -3166955.81646  -1492054.13343  24183234.2974                   24183233.9804
        38.7504         20.0004
 25  7 16  0 44  0.0000000  0  9G01G02G03G28G31G32G04G26G16
 -18991772.20347 -14754025.01645  21621974.8834                   21621973.5084
        47.5004         34.0004
  -5179142.61747  -4015031.38745  23231281.1024                   23231278.2304
        43.7504         30.2504
 -32501220.15648 -25519267.61348  20662846.6564                   20662845.9064
        48.5004         48.7504
  -5630262.18047  -4364742.80145  22676833.5474                   22676831.5554
        44.0004         30.2504
 -20800938.73048 -16177972.21547  20530226.0004                   20530222.2544
        49.0004         46.7504
   2141866.21546   1675395.80945  24804401.0634                   24804402.1374
        40.0004         31.7504
 -25985440.02047 -19175356.63744  22370322.8674                   22370321.3714
        42.5004         29.2504
 -25055612.08647 -19479953.15246  22240883.4924                   22240883.7424
        43.5004         38.7504
  -3355172.75446  -1638716.55543  24147418.2344                   24147418.0904
        39.7504         21.2504
 25  7 16  0 44 30.0000000  0  9G01G02G03G28G31G32G04G26G16
 -19029096.70747 -14783109.07845  21614872.9224                   21614870.7894
        47.5004         34.0004
  -5183128.21147  -4018137.13344  23230523.4454                   23230520.1134
        44.0004         29.0004
 -32640180.60948 -25627548.48048  20636403.3364                   20636402.5204
        48.2504         48.5004
  -5629342.03947  -4364025.83245  22677008.6334                   22677006.9614
        43.7504         30.5004
 -20842176.86748 -16210105.84047  20522378.5164                   20522374.7274
        48.7504         46.5004
   2127054.26646   1663853.94945  24801583.2584                   24801583.5744
        39.7504         33.0004
 -26126908.16747 -19285591.51144  22343402.3984                   22343400.9104
        43.0004         29.5004
 -25202887.44147 -19594713.13346  22212857.7034                   22212858.4844
        43.7504         39.0004
  -3543398.39546  -1785385.75443  24111600.2344                   24111599.3594
        39.2504         22.0004
 25  7 16  0 45  0.0000000  0  9G01G02G03G28G31G32G04G26G16
 -19065925.71947 -14811807.04345  21607864.4224                   21607862.7584
        47.2504         33.5004
  -5186933.59847  -4021102.45344  23229798.9384                   23229795.3324
        43.0004         28.2504
 -32778768.52748 -25735539.05548  20610030.8754                   20610030.2304
        48.0004         48.7504
  -5628186.86347  -4363125.72745  22677228.4144                   22677226.7154
        43.7504         30.5004
 -20882904.76648 -16241841.87147  20514628.2584                   20514624.4414
        49.0004         46.5004
   2112262.39546   1652327.73445  24798768.0944                   24798769.6214
        38.0004         33.5004
 -26268253.47347 -19395730.67244  22316505.1484                   22316503.4534
        42.7504         29.5004
 -25349740.09047 -19709143.72746  22184912.3204                   22184912.7704
        43.5004         39.0004
  -3731628.44946  -1932058.39143  24075780.6644                   24075780.3874
        37.5004         20.7504
 25  7 16  0 45 30.0000000  0  9G01G02G03G28G31G32G04G26G16
 -19102265.65647 -14840123.90645  21600949.2424                   21600947.0234
        45.7504         34.0004
  -5190566.01247  -4023932.98044  23229107.8134                   23229104.3794
        43.0004         28.7504
 -32916985.86347 -25843240.86748  20583729.1954                   20583728.3634
        47.5004         48.7504
  -5626803.38747  -4362047.71945  22677491.9844                   22677490.1024
        43.7504         30.5004
 -20923128.47348 -16273185.03547  20506973.9844                   20506970.1374
        48.0004         46.5004
   2097486.57846   1640814.05145  24795956.7274                   24795957.5944
        38.7504         32.2504
 -26409480.42647 -19505777.60944  22289631.1564                   22289629.5234
        42.7504         29.0004
 -25496171.45347 -19823246.04346  22157047.5004                   22157047.9574
        43.5004         39.2504
  -3919863.82446  -2078735.17643  24039961.4774                   24039960.5594
        38.0004         20.5004
 25  7 16  0 46  0.0000000  0  9G01G02G03G28G31G32G04G26G16
 -19138114.48047 -14868058.09845  21594127.6414                   21594125.4964
        45.0004         33.7504
  -5194023.81247  -4026627.46544  23228449.7894                   23228446.0354
        43.0004         27.5004
 -33054826.24248 -25950648.94948  20557498.8674                   20557498.2774
        48.0004         49.0004
  -5625189.87547  -4360790.46145  22677798.8984                   22677797.3404
        43.0004         30.7504
 -20962846.13347 -16304133.86747  20499415.8364                   20499412.3164
        47.5004         46.5004
   2082731.15246   1629316.24245  24793148.4144                   24793150.0704
        38.0004         32.0004
 -26550584.78947 -19615729.01644  22262779.5704                   22262777.8794
        43.0004         28.7504
 -25642174.54747 -19937014.64546  22129264.1094                   22129264.4384
        44.2504         39.2504
  -4108097.58246  -2225410.70743  24004141.7734                   24004141.1724
        38.5004         21.5004
 25  7 16  0 46 30.0000000  0  9G01G02G03G28G31G32G04G26G16
 -19173472.62547 -14895609.93445  21587399.2584                   21587396.7934
        47.5004         34.5004
  -5197307.89547  -4029186.59044  23227825.1484                   23227821.4344
        43.7504         27.2504
 -33192285.59048 -26057760.12148  20531341.2894                   20531340.7504
        49.0004         49.0004
  -5623347.03147  -4359354.49644  22678149.9224                   22678148.2344
        43.7504         29.2504
 -21002058.08248 -16334688.64547  20491953.9144                   20491950.4574
        49.0004         46.5004
   2067997.96945   1617835.76244  24790343.8674                   24790346.1174
        35.5004         29.5004
 -26691565.00047 -19725583.68044  22235951.2974                   22235949.9224
        44.0004         28.7504
 -25787744.75047 -20050445.93446  22101562.8914                   22101563.5664
        43.5004         40.0004
  -4296324.85546  -2372081.19143  23968322.2974                   23968322.0204
        39.0004         19.5004
 25  7 16  0 47  0.0000000  0  9G01G02G03G28G31G32G04G26G16
 -19208338.48047 -14922778.16445  21580764.0864                   21580762.3674
        47.0004         33.7504
  -5200417.44947  -4031609.70344  23227233.2114                   23227229.5314
        43.0004         27.5004
 -33329357.91048 -26164569.71148  20505257.4774                   20505256.8324
        49.5004         49.2504
  -5621273.53147  -4357738.80544  22678544.2504                   22678541.7664
        43.5004         29.5004
 -21040762.86748 -16364848.23447  20484588.5234                   20484585.2464
        49.7504         46.5004
   2053290.94545   1606375.64544  24787545.7664                   24787547.4574
        35.2504         27.5004
 -26832417.38747 -19835338.74244  22209148.0864                   22209146.3714
        45.0004         29.5004
 -25932875.52747 -20163534.80946  22073945.1484                   22073946.1094
        44.5004         39.5004
  -4484538.36746  -2518740.95343  23932506.1484                   23932506.2234
        39.0004         19.5004
 25  7 16  0 47 30.0000000  0  9G01G02G03G28G31G32G04G26G16
 -19242730.33247 -14949577.04745  21574219.8054                   21574218.0474
        46.0004         34.0004
  -5203371.26247  -4033911.46144  23226671.1254                   23226668.3054
        43.2504         28.0004
 -33466057.06648 -26271088.53148  20479244.4924                   20479243.4884
        48.7504         49.0004
  -5618987.93047  -4355957.82844  22678979.3834                   22678976.5784
        44.0004         29.5004
 -21078978.93748 -16394626.99647  20477316.4384                   20477313.3324
        48.0004         46.5004
   2038594.30945   1594923.64544  24784748.9844                   24784751.0704
        34.5004         28.0004
 -26973158.10947 -19945006.78144  22182366.0554                   22182364.2624
        43.2504         29.0004
 -26077580.15647 -20276291.62946  22046408.5394                   22046409.5354
        44.2504         39.5004
  -4672750.89546  -2665399.96943  23896690.8674                   23896690.2344
        38.7504         19.2504
 25  7 16  0 48  0.0000000  0  9G01G02G03G28G31G32G04G26G16
 -19276642.59447 -14976002.23445  21567766.4694                   21567764.8794
        47.2504         34.0004
  -5206164.35247  -4036087.99244  23226139.8204                   23226136.7974
        43.5004         29.0004
 -33602372.97748 -26377308.71948  20453304.3834                   20453303.6994
        49.0004         49.0004
  -5616484.87147  -4354007.42245  22679455.8594                   22679453.0664
        43.2504         30.2504
 -21116700.71548 -16424020.60947  20470138.2734                   20470134.8324
        49.0004         46.5004
   2023915.80145   1583485.72744  24781955.6954                   24781957.5594
        35.0004         28.0004
 -27113779.48847 -20054581.84044  22155606.6334                   22155605.2234
        43.5004         28.5004
 -26221848.10947 -20388708.16846  22018955.3364                   22018956.0594
        44.5004         39.5004
  -4860951.80146  -2812049.92643  23860877.1024                   23860876.7934
        37.5004         19.0004
 25  7 16  0 48 30.0000000  0  9G01G02G03G28G31G32G04G26G16
 -19310076.19947 -15002054.43045  21561404.6334                   21561402.5864
        46.5004         34.5004
  -5208798.15247  -4038140.40344  23225638.8834                   23225635.6684
        42.5004         27.7504
 -33738302.12948 -26483227.53548  20427438.0004                   20427437.1134
        48.7504         49.2504
  -5613765.49647  -4351888.44945  22679973.2734                   22679970.5704
        44.0004         30.0004
 -21153928.91848 -16453029.60547  20463053.7114                   20463050.3714
        49.0004         46.5004
   2009257.06646   1572063.20744  24779167.0554                   24779168.5704
        36.0004         27.0004
 -27254280.25047 -20164062.91444  22128870.2274                   22128868.7734
        44.0004         28.5004
 -26365675.20747 -20500781.18746  21991586.0554                   21991586.7154
        44.2504         40.0004
  -5049136.52346  -2958687.25443  23825067.6174                   23825066.1294
        38.0004         19.0004
 25  7 16  0 49  0.0000000  0  9G01G02G03G28G31G32G04G26G16
 -19343033.58247 -15027735.54745  21555132.6484                   21555130.6994
        46.5004         33.0004
  -5211275.57447  -4040070.94944  23225167.0554                   23225164.1914
        43.5004         27.7504
 -33873842.44148 -26588843.34448  20401645.4304                   20401644.5204
        49.5004         49.0004
  -5610832.39547  -4349602.93744  22680531.4454                   22680528.6024
        43.0004         29.7504
 -21190666.11748 -16481656.00847  20456063.4614                   20456059.9064
        49.0004         46.5004
   1994617.91446   1560656.02344  24776381.6564                   24776383.1054
        36.2504         28.7504
 -27394660.68047 -20273450.20744  22102156.4774                   22102155.7154
        43.0004         28.5004
 -26509059.00447 -20612508.79746  21964301.1334                   21964301.3874
        43.7504         39.7504
  -5237301.93746  -3105309.54743  23789260.2894                   23789259.3164
        36.7504         19.7504
 25  7 16  0 49 30.0000000  0  9G01G02G03G28G31G32G04G26G16
 -19375519.11347 -15053048.98845  21548951.0864                   21548948.5164
        47.2504         33.5004
  -5213601.61747  -4041883.54744  23224724.7504                   23224721.7234
        42.7504         27.0004
 -34008993.85948 -26694156.13348  20375926.5554                   20375926.2114
        49.0004         48.7504
  -5607690.16047  -4347154.45744  22681129.5474                   22681127.0124
        44.5004         29.7504
 -21226916.91448 -16509903.39547  20449164.8594                   20449161.3204
        49.5004         46.2504
   1979996.47346   1549262.62144  24773598.8674                   24773600.4304
        38.0004         28.0004
 -27534923.02047 -20382745.49644  22075465.6644                   22075464.6174
        44.5004         28.5004
 -26651998.83647 -20723890.44546  21937100.5634                   21937101.3984
        45.0004         40.0004
  -5425447.07846  -3251916.02343  23753456.7814                   23753456.5824
        37.7504         19.5004
 25  7 16  0 50  0.0000000  0  9G01G02G03G28G31G32G04G26G16
 -19407537.49647 -15077998.41045  21542858.2194                   21542856.7074
        47.0004         33.7504
  -5215781.26247  -4043582.05144  23224310.1334                   23224306.4494
        42.2504         28.0004
 -34143756.46148 -26799165.94148  20350282.1804                   20350281.3834
        49.5004         49.0004
  -5604343.56647  -4344546.75445  22681766.4694                   22681764.3134
        44.5004         30.2504
 -21262685.50048 -16537775.03147  20442358.3914                   20442354.8674
        49.0004         46.2504
   1965390.55546   1537881.34044  24770819.8284                   24770821.0634
        38.0004         27.2504
 -27675069.66047 -20491950.62944  22048796.5474                   22048795.5864
        44.5004         28.7504
 -26794494.35247 -20834925.88346  21909984.2034                   21909985.1454
        44.0004         40.0004
  -5613570.87146  -3398505.91842  23717658.7814                   23717657.1524
        39.0004         17.7504
 25  7 16  0 50 30.0000000  0  9G01G02G03G28G31G32G04G26G16
 -19439088.54347 -15102583.68445  21536854.2734                   21536852.2464
        47.0004         33.5004
  -5217814.89147  -4045166.83644  23223923.2114                   23223920.0664
        42.0004         28.0004
 -34278125.63348 -26903869.18448  20324712.8444                   20324712.0984
        49.5004         49.0004
  -5600792.59847  -4341779.79744  22682441.8984                   22682440.2664
        44.5004         29.7504
 -21297972.00048 -16565271.01647  20435643.8834                   20435640.1604
        48.5004         46.5004
   1950802.75846   1526514.13744  24768043.6254                   24768045.4534
        38.0004         28.5004
 -27815098.31247 -20601063.83244  22022150.5164                   22022148.7624
        45.0004         29.0004
 -26936540.41447 -20945611.09446  21882954.0944                   21882954.5944
        45.0004         40.0004
  -5801668.24646  -3545075.20343  23681865.1564                   23681863.8674
        38.5004         19.2504
 25  7 16  0 51  0.0000000  0  9G01G02G03G28G31G32G04G26G16
 -19470174.75047 -15126806.75845  21530938.6174                   21530937.1564
        46.5004         34.0004
  -5219705.46547  -4046640.12544  23223563.5634                   23223559.9414
        42.0004         26.5004
 -34412099.32048 -27008264.25448  20299218.1804                   20299217.8094
        49.7504         49.0004
  -5597039.85947  -4338855.59445  22683155.9064                   22683154.4264
        44.0004         30.2504
 -21332778.78948 -16592393.19547  20429020.1644                   20429016.3164
        48.7504         46.5004
   1936233.07446   1515161.10544  24765271.1414                   24765272.8014
        39.0004         27.2504
 -27955009.18447 -20710085.26244  21995526.1804                   21995524.6884
        42.0004         28.5004
 -27078134.48847 -21055944.11346  21856009.5474                   21856010.0784
        44.0004         40.2504
  -5989735.55146  -3691621.11343  23646076.7114                   23646075.2344
        39.0004         19.2504
 25  7 16  0 51 30.0000000  0  9G01G02G03G28G31G32G04G26G16
 -19500801.14847 -15150671.51645  21525110.7814                   21525108.7584
        46.5004         34.0004
  -5221458.33247  -4048006.09044  23223230.1024                   23223227.2344
        43.0004         27.0004
 -34545677.97348 -27112351.49648  20273799.1174                   20273798.3204
        49.5004         49.0004
  -5593090.37947  -4335778.10944  22683907.8284                   22683905.7194
        43.2504         29.7504
 -21367111.04348 -16619145.61347  20422487.0314                   20422483.2384
        48.5004         46.2504
   1921679.01246   1503820.19544  24762501.3204                   24762503.1174
        40.0004         28.5004
 -28094805.02047 -20819017.03944  21968922.8524                   21968922.2894
        43.7504         28.7504
 -27219276.60547 -21165924.96546  21829151.0314                   21829151.5474
        45.2504         40.2504
  -6177772.03146  -3838142.91443  23610294.4144                   23610293.1454
        39.5004         19.5004
 25  7 16  0 52  0.0000000  0  9G01G02G03G28G31G32G04G26G16
 -17955544.87947 -13946575.76645  21819163.0554                   21819161.5084
        46.2504         33.5004
  -3647652.23847  -2821663.76644  23522715.1024                   23522712.4694
        42.0004         27.2504
 -33103430.75848 -25988522.48448  20548249.9144                   20548248.9574
        49.5004         49.2504
  -4013522.55947  -3104946.07445  22984489.6564                   22984487.6374
        43.7504         30.5004
 -19825545.76648 -15417925.93047  20715836.8914                   20715833.5984
        49.0004         46.5004
   3482565.46946   2720095.34844  25059529.0944                   25059528.7974
        41.0004         28.5004
 -26659057.00847 -19700252.30944  22242137.0944                   22242136.0824
        43.5004         29.0004
 -25784535.15247 -20047944.58246  22102173.1254                   22102174.1024
        45.5004         40.7504
  -4790344.47746  -2757030.42243  23874313.5004                   23874311.6454
        38.5004         19.5004
 25  7 16  0 52 30.0000000  0  9G01G02G03G28G31G32G04G26G16
 -17985252.92647 -13969724.93745  21813510.1024                   21813508.0164
        45.7504         33.0004
  -3649132.50046  -2822817.30144  23522433.4844                   23522431.3524
        41.5004         26.5004
 -33236206.97748 -26091984.45348  20522983.4304                   20522982.6024
        50.0004         49.2504
  -4009181.12947  -3101563.16844  22985315.9384                   22985313.1134
        43.2504         29.5004
 -19858930.10248 -15443939.70747  20709484.4064                   20709480.9224
        48.7504         46.5004
   3468049.02346   2708783.74244  25056765.9924                   25056768.0004
        40.5004         27.2504
 -26798617.14847 -19809000.42244  22215579.8444                   22215578.6134
        44.2504         28.2504
 -25924759.52347 -20157210.29746  22075489.4534                   22075489.8714
        45.0004         40.5004
  -4978304.73846  -2903492.88743  23838545.4924                   23838543.5594
        39.0004         19.0004
 25  7 16  0 53  0.0000000  0  9G01G02G03G28G31G32G04G26G16
 -18014504.71947 -13992518.58645  21807943.5164                   21807942.0084
        46.0004         32.7504
  -3650480.31246  -2823867.63744  23522177.1484                   23522174.9614
        41.5004         27.5004
 -33368578.03148 -26195130.71948  20497793.9534                   20497793.1994
        50.5004         49.2504
  -4004646.62147  -3098029.80945  22986178.3284                   22986176.2704
        43.5004         30.0004
 -19891843.07448 -15469586.18047  20703221.1334                   20703217.5864
        49.0004         46.5004
   3453552.28146   2697487.53944  25054007.6724                   25054009.4734
        40.0004         28.0004
 -26938058.88347 -19917656.28544  22189044.9774                   22189043.3484
        45.0004         28.7504
 -26064520.39547 -20266114.84046  22048894.0864                   22048894.1844
        46.0004         40.7504
  -5166221.14546  -3049921.17243  23802785.6254                   23802784.7424
        39.0004         19.2504
 25  7 16  0 53 30.0000000  0  9G01G02G03G28G31G32G04G26G16
 -18043304.07447 -14014959.68045  21802463.5314                   21802461.4734
        45.5004         32.5004
  -3651699.08647  -2824817.41044  23521946.0394                   23521942.8594
        42.5004         27.0004
 -33500543.19148 -26297960.69548  20472681.9224                   20472681.0004
        49.7504         49.5004
  -3999922.91847  -3094349.03944  22987077.6724                   22987075.6994
        43.7504         29.2504
 -19924288.88748 -15494868.64547  20697047.0314                   20697043.2234
        49.0004         46.5004
   3439074.01646   2686205.77044  25051252.0394                   25051253.8054
        40.5004         27.7504
 -27077383.75847 -20026221.08244  22162531.4924                   22162530.2304
        45.2504         29.2504
 -26203816.68447 -20374657.36746  22022386.5394                   22022386.9804
        46.2504         41.0004
  -5354091.93746  -3196313.87943  23767035.1954                   23767033.9304
        38.0004         19.7504
 25  7 16  0 54  0.0000000  0  9G01G02G03G28G31G32G04G26G16
 -18071654.34047 -14037050.84445  21797068.8204                   21797066.6764
        45.5004         32.7504
  -3652793.01247  -2825669.92644  23521737.5234                   23521734.5084
        42.2504         27.5004
 -33632101.15248 -26400473.38348  20447647.0004                   20447645.8834
        50.0004         49.2504
  -3995013.26647  -3090523.39544  22988011.2734                   22988009.7344
        42.0004         29.5004
 -19956270.29748 -15519789.21947  20690961.1954                   20690957.1524
        48.5004         46.2504
   3424613.52046   2674937.75444  25048500.2734                   25048502.6294
        40.7504         28.2504
 -27216592.66047 -20134695.50444  22136041.4304                   22136040.3914
        45.0004         29.5004
 -26342646.56647 -20482836.46546  21995967.8054                   21995968.5824
        45.2504         41.0004
  -5541914.73846  -3342669.19943  23731293.3754                   23731292.5514
        39.0004         19.7504
 25  7 16  0 54 30.0000000  0  9G01G02G03G28G31G32G04G26G16
 -18099561.75447 -14058796.92645  21791758.2194                   21791756.2704
        46.0004         32.5004
  -3653768.57847  -2826430.21944  23521551.8674                   23521548.7114
        42.0004         25.7504
 -33763253.60948 -26502670.08248  20422689.5784                   20422689.0204
        49.5004         49.2504
  -3989923.93747  -3086557.71944  22988980.3834                   22988977.9024
        42.5004         29.2504
 -19987794.20348 -15544353.32447  20684962.2734                   20684958.8404
        49.0004         46.5004
   3410167.09046   2663680.77744  25045751.4454                   25045752.4344
        40.5004         27.2504
 -27355689.52747 -20243082.64145  22109571.9534                   22109570.8834
        44.2504         30.2504
 -26481011.34047 -20590653.13346  21969637.7424                   21969638.6954
        45.2504         41.0004
  -5729689.93446  -3488987.44543  23695561.0474                   23695559.8444
        38.7504         20.2504
 25  7 16  0 55  0.0000000  0  9G01G02G03G28G31G32G04G26G16
 -18127028.10947 -14080199.32045  21786531.5164                   21786529.5354
        45.5004         32.2504
  -3654627.98047  -2827099.99244  23521388.2194                   23521385.6764
        43.0004         27.5004
 -33893997.67648 -26604548.55148  20397809.8674                   20397808.5164
        49.5004         49.2504
  -3984656.53947  -3082453.28145  22989982.5704                   22989981.2384
        42.2504         30.0004
 -20018861.91848 -15568561.93447  20679050.3754                   20679046.8094
        49.2504         46.2504
   3395735.66847   2652435.48045  25043005.9144                   25043007.6994
        42.0004         30.0004
 -27494673.65647 -20351381.92645  22083124.6804                   22083123.2504
        44.5004         30.5004
 -26618907.83247 -20698104.90646  21943397.3054                   21943397.9654
        45.2504         41.0004
  -5917413.67646  -3635265.57043  23659837.9774                   23659837.3484
        39.2504         21.5004
 25  7 16  0 55 30.0000000  0  9G01G02G03G28G31G32G04G26G16
 -18154052.73447 -14101257.52745  21781388.9144                   21781386.6334
        44.7504         32.2504
  -3655370.67647  -2827678.81644  23521247.3204                   23521244.4774
        42.0004         27.7504
 -34024328.16048 -26706104.76248  20373008.5474                   20373008.0944
        49.5004         49.5004
  -3979210.37947  -3078209.55144  22991019.2114                   22991017.0594
        42.5004         29.5004
 -20049472.76648 -15592414.55147  20673225.4844                   20673222.0044
        49.0004         46.5004
   3381322.51646   2641204.39144  25040262.9144                   25040264.1564
        40.5004         28.5004
 -27633542.09847 -20459591.06645  22056698.4144                   22056697.1564
        43.0004         31.0004
 -26756330.29747 -20805187.30946  21917246.4774                   21917247.0824
        44.2504         41.0004
  -6105079.58646  -3781498.63743  23624127.0474                   23624125.3794
        39.2504         21.7504
 25  7 16  0 56  0.0000000  0  9G01G02G03G28G31G32G04G26G16
 -18180648.33647 -14121981.41445  21776327.7114                   21776326.1174
        44.7504         32.2504
  -3656009.93747  -2828177.03944  23521125.3594                   23521122.9654
        43.0004         27.7504
 -34154253.07448 -26807344.94948  20348284.8524                   20348284.0824
        50.2504         49.5004
  -3973598.04747  -3073836.34044  22992087.3284                   22992085.1994
        42.5004         28.7504
 -20079639.53148 -15615921.12547  20667484.5554                   20667481.1214
        48.5004         46.5004
   3366917.59846   2629979.73044  25037521.3204                   25037523.4694
        39.7504         28.5004
 -27772305.06247 -20567718.02045  22030293.0164                   22030291.1994
        45.0004         30.5004
 -26893286.45747 -20911906.35546  21891184.7734                   21891185.4064
        45.5004         41.0004
  -6292694.67646  -3927692.10943  23588424.7344                   23588423.5004
        39.5004         22.0004
 25  7 16  0 56 30.0000000  0  9G01G02G03G28G31G32G04G26G16
 -18206815.27747 -14142371.29745  21771348.6334                   21771346.3524
        45.2504         32.5004
  -3656546.12146  -2828594.96544  23521024.1564                   23521021.1764
        41.2504         27.5004
 -34283768.18748 -26908265.80948  20323638.7034                   20323638.1454
        50.0004         49.7504
  -3967819.77047  -3069333.82044  22993186.7344                   22993184.5394
        42.0004         29.2504
 -20109362.20348 -15639081.64847  20661828.9534                   20661825.2034
        48.2504         46.2504
   3352523.25446   2618763.31344  25034782.2734                   25034784.1414
        39.7504         29.5004
 -27910960.38347 -20675761.08645  22003907.6024                   22003906.5514
        45.0004         31.5004
 -27029771.66447 -21018258.44146  21865212.5314                   21865212.6884
        45.0004         40.7504
  -6480253.07046  -4073841.43043  23552733.4844                   23552731.8244
        39.2504         22.0004
 25  7 16  0 57  0.0000000  0 10G01G02G03G09G28G31G32G04G26G16
 -18232556.00047 -14162429.04345  21766449.9694                   21766448.5704
        45.5004         32.5004
  -3656982.30546  -2828934.94544  23520940.4774                   23520938.3554
        41.5004         27.5004
 -34412871.25848 -27008865.59848  20299071.3054                   20299070.7974
        50.0004         49.7504
   8709434.21555   7081796.15653  24929109.9384                   24929111.7274
        32.0004         19.2504
  -3961877.80547  -3064703.78144  22994317.7034                   22994315.7704
        43.0004         28.7504
 -20138643.17647 -15661898.00847  20656256.8444                   20656253.2934
        47.7504         46.2504
   3338139.73046   2607555.28544  25032045.0704                   25032046.7194
        39.5004         28.0004
 -28049508.15647 -20783720.34845  21977543.0634                   21977541.6454
        45.0004         31.0004
 -27165783.39847 -21124241.55546  21839329.9144                   21839330.6844
        45.0004         41.0004
  -6667751.84846  -4219944.30543  23517053.8134                   23517051.7584
        40.0004         21.5004
 25  7 16  0 57 30.0000000  0 10G01G02G03G09G28G31G32G04G26G16
 -18257871.84047 -14182155.72745  21761632.6414                   21761630.8984
        45.5004         32.7504
  -3657319.75846  -2829198.00044  23520876.8364                   23520874.1054
        40.7504         26.5004
 -34541558.93748 -27109141.71148  20274582.9144                   20274582.0234
        50.5004         49.7504
   8546473.33245   6954813.77742  24898098.8834                   24898100.7974
        30.7504         17.7504
  -3955773.31647  -3059947.08644  22995479.4384                   22995476.5944
        42.5004         27.0004
 -20167483.98048 -15684371.36347  20650768.2034                   20650764.6914
        48.2504         46.2504
   3323768.42646   2596356.79744  25029311.0704                   25029312.4844
        39.0004         29.2504
 -28187947.12947 -20891594.84045  21951198.9774                   21951197.4144
        43.7504         30.7504
 -27301317.86347 -21229852.79746  21813538.9924                   21813539.4774
        43.7504         41.0004
  -6855186.61746  -4365997.28943  23481386.0234                   23481384.4414
        41.0004         22.5004
 25  7 16  0 58  0.0000000  0 10G01G02G03G09G28G31G32G04G26G16
 -18282761.41447 -14201550.24245  21756896.3984                   21756894.7934
        45.0004         32.5004
  -3657557.21146  -2829383.14544  23520831.8284                   23520828.9924
        41.5004         26.0004
 -34669825.24648 -27209089.48448  20250174.6724                   20250173.7544
        50.5004         49.5004
                                  24867089.1254                   24867090.5004
        32.2504         19.7504
  -3949504.69147  -3055062.49244  22996672.7344                   22996670.0354
        42.0004         29.2504
 -20195882.96147 -15706500.45347  20645364.5394                   20645360.8984
        47.5004         46.5004
   3309413.55146   2585171.07444  25026579.1414                   25026581.5124
        39.0004         28.5004
 -28326273.40647 -20999381.50845  21924875.8284                   21924874.5474
        45.2504         31.2504
 -27436368.82447 -21335087.27346  21787839.4064                   21787839.7304
        45.7504         41.0004
  -7042549.85546  -4511994.53143  23445731.8204                   23445730.2664
        40.5004         22.5004
 25  7 16  0 58 30.0000000  0 10G01G02G03G09G28G31G32G04G26G16
 -18307224.17647 -14220612.16845  21752241.2034                   21752239.6414
        43.7504         32.5004
  -3657694.67646  -2829490.34844  23520805.4454                   23520802.3954
        41.0004         25.7504
 -34797664.94548 -27308704.84048  20225847.5634                   20225846.3204
        50.2504         49.5004
                                  24836078.5084                   24836080.4264
        33.5004         20.2504
  -3943071.23846  -3050049.42644  22997896.2894                   22997894.3554
        41.7504         28.7504
 -20223839.48447 -15728284.75447  20640044.2664                   20640041.0554
        46.5004         46.0004
   3295078.25846   2574000.67644  25023850.7974                   25023852.8014
        38.2504         26.7504
 -28464483.97347 -21107078.02045  21898575.6334                   21898574.1094
        45.0004         31.2504
 -27570930.67247 -21439940.61346  21762233.1174                   21762233.7624
        45.7504         41.0004
  -7229834.92246  -4657930.85243  23410092.3594                   23410091.1724
        41.2504         22.2504
 25  7 16  0 59  0.0000000  0 10G01G02G03G09G28G31G32G04G26G16
 -18331264.82047 -14239345.18745  21747666.5234                   21747664.9454
        44.2504         32.5004
  -3657737.02046  -2829523.46944  23520797.8134                   23520794.3054
        41.5004         25.7504
 -34925078.13348 -27407987.82448  20201601.8914                   20201601.1604
        50.2504         49.7504
   8057605.92645   6573878.41843  24805068.9844                   24805071.4924
        34.5004         20.2504
  -3936477.36746  -3044911.37544  22999150.9064                   22999149.6214
        41.7504         29.0004
 -20251358.26247 -15749727.97347  20634807.9224                   20634804.1684
        47.2504         46.2504
   3280760.67646   2562844.03544  25021126.5864                   25021128.9184
        38.0004         27.2504
 -28602581.01247 -21214686.05145  21872296.6024                   21872295.1914
        45.5004         30.5004
 -27705003.16847 -21544412.64846  21736719.8594                   21736720.5824
        45.7504         41.0004
  -7417040.82446  -4803805.49243  23374467.6334                   23374467.1134
        41.0004         23.0004
 25  7 16  0 59 30.0000000  0 10G01G02G03G09G28G31G32G04G26G16
 -18354885.04347 -14257750.60545  21743171.9454                   21743170.1334
        44.7504         32.5004
  -3657685.85947  -2829483.70344  23520807.6174                   23520804.9454
        42.2504         26.5004
 -35052061.71548 -27506936.07048  20177437.2814                   20177436.8404
        50.0004         49.5004
   7894656.16846   6446904.71943  24774060.7194                   24774062.3324
        37.0004         20.0004
  -3929724.51247  -3039649.44544  23000436.2584                   23000434.0124
        43.2504         29.5004
 -20278440.74247 -15770831.21147  20629654.5474                   20629650.6604
        47.5004         46.2504
   3266461.90245   2551702.08644  25018405.3524                   25018407.9384
        35.5004         26.2504
 -28740563.52347 -21322204.85245  21846039.4534                   21846037.6914
        45.0004         31.0004
 -27838582.93447 -21648500.75446  21711300.5554                   21711300.8634
        46.0004         41.2504
  -7604163.40646  -4949615.20343  23338859.9454                   23338858.6604
        41.0004         22.5004
 25  7 16  1  0  0.0000000  0 10G01G02G03G09G28G31G32G04G26G16
 -18378086.50847 -14275829.71545  21738757.2814                   21738755.2704
        45.5004         33.0004
  -3657543.34447  -2829372.75444  23520834.4774                   23520832.2304
        42.7504         28.5004
 -35178612.73048 -27605547.25048  20153355.6334                   20153354.6954
        50.2504         49.7504
   7731710.32846   6319934.03943  24743054.5474                   24743054.8594
        37.7504         21.0004
  -3922814.07847  -3034264.71544  23001751.1334                   23001749.1174
        42.7504         27.5004
 -20305088.64548 -15791595.81247  20624582.8754                   20624579.5984
        48.2504         46.0004
   3252183.09045   2540575.64544  25015688.4924                   25015691.0904
        35.2504         25.5004
 -28878430.72347 -21429633.79345  21819803.8674                   21819802.4924
        45.0004         31.2504
 -27971666.71547 -21752202.37546  21685975.5084                   21685975.9774
        46.5004         41.0004
  -7791198.05946  -5095356.41443  23303268.0784                   23303266.8674
        40.0004         22.2504
 25  7 16  1  0 30.0000000  0 10G01G02G03G09G28G31G32G04G26G16
 -18400874.98847 -14293587.02045  21734420.6254                   21734418.8634
        45.5004         32.2504
  -3657315.33247  -2829195.17644  23520877.6644                   23520875.2274
        42.2504         26.2504
 -35304732.25048 -27703822.18748  20129355.9534                   20129355.0394
        50.0004         49.5004
   7568765.18846   6192963.89543  24712046.3284                   24712047.4694
        37.5004         22.0004
  -3915751.46947  -3028761.43044  23003095.7194                   23003092.9884
        43.0004         28.0004
 -20331307.46547 -15812026.07847  20619594.3134                   20619590.4654
        47.2504         45.7504
   3237921.31345   2529462.46544  25012974.9144                   25012977.3444
        34.5004         25.2504
 -29016185.72347 -21536975.30545  21793589.6334                   21793589.1844
        45.0004         31.2504
 -28104255.21947 -21855518.04746  21660744.7734                   21660745.3954
        46.5004         41.0004
  -7978145.03946  -5241029.28143  23267693.2194                   23267692.2544
        41.0004         22.7504
 25  7 16  1  1  0.0000000  0 10G01G02G03G09G28G31G32G04G26G16
 -16847831.37547 -13083423.21545  22029954.8674                   22029953.1914
        45.0004         32.7504
  -2081583.43446  -1601352.25444  23820730.1254                   23820727.9924
        41.5004         28.0004
 -33854993.11748 -26574155.32448  20405231.9614                   20405231.0514
        50.0004         49.5004
   8981247.11346   7293599.23043  24980833.0634                   24980833.8914
        36.5004         22.7504
  -2333118.33647  -1795540.83244  23304260.7504                   23304257.8014
        42.2504         27.5004
 -18781677.91448 -14604522.53147  20914478.6334                   20914475.0234
        48.0004         46.0004
   4799098.11746   3745963.83244  25310057.7894                   25310058.8914
        38.0004         28.0004
 -27578402.94947 -20416625.04345  22067190.8524                   22067189.7384
        45.5004         31.7504
 -26660920.80547 -20730841.84846  21935402.0704                   21935402.3754
        45.2504         41.0004
  -6589573.59046  -4159025.48843  23531929.5164                   23531928.1024
        39.7504         22.7504
 25  7 16  1  1 30.0000000  0 10G01G02G03G09G28G31G32G04G26G16
 -16869797.67247 -13100539.85945  22025774.7504                   22025773.4224
        44.5004         32.2504
  -2081188.47746  -1601044.59844  23820805.4064                   23820802.5394
        41.2504         25.5004
 -33980239.43048 -26671749.84048  20381398.3364                   20381397.6724
        50.0004         49.7504
   8818307.23446   7166633.20343  24949825.8364                   24949826.6524
        36.7504         22.5004
  -2325754.30147  -1789802.65644  23305662.0864                   23305659.4534
        42.7504         26.7504
 -18807042.05948 -14624286.80947  20909652.1884                   20909648.2344
        48.0004         46.0004
   4784875.09446   3734880.91444  25307350.6724                   25307352.8914
        38.5004         29.2504
 -27715929.48447 -20523788.54345  22041020.1954                   22041018.9924
        45.5004         31.7504
 -26792507.80547 -20833377.13746  21910361.6484                   21910363.1214
        46.0004         41.0004
  -6776330.52046  -4304550.27343  23496390.7814                   23496389.1954
        39.0004         22.5004
 25  7 16  1  2  0.0000000  0 10G01G02G03G09G28G31G32G04G26G16
 -16891357.50847 -13117339.77745  22021671.8204                   22021670.2704
        45.7504         32.0004
  -2080715.04747  -1600675.82444  23820895.3834                   23820893.2974
        42.2504         27.2504
 -34105046.73448 -26769002.28148  20357648.4694                   20357647.4184
        50.0004         49.7504
   8655369.19545   7039668.62543  24918819.3984                   24918821.2854
        34.5004         22.5004
  -2318243.66447  -1783950.25044  23307091.3914                   23307087.8014
        42.0004         26.0004
 -18831983.28148 -14643721.53547  20904905.9224                   20904902.1334
        48.5004         46.0004
   4770671.06646   3723812.76244  25304647.7584                   25304650.2464
        37.0004         29.0004
 -27853342.50847 -20630863.57845  22014871.5394                   22014870.0274
        45.2504         31.5004
 -26923591.23047 -20935520.03946  21885417.5394                   21885417.9454
        46.5004         41.2504
  -6962988.19546  -4449997.73443  23460871.1484                   23460869.6254
        38.5004         22.7504
 25  7 16  1  2 30.0000000  0 10G01G02G03G09G28G31G32G04G26G16
 -16912513.25447 -13133824.82845  22017646.1954                   22017644.7114
        46.0004         32.2504
  -2080165.35546  -1600247.62544  23820999.3674                   23820997.4184
        41.2504         26.0004
 -34229412.65248 -26865910.77748  20333982.6414                   20333981.7114
        49.7504         50.0004
   8492433.38345   6912705.77044  24887813.0164                   24887815.8204
        34.2504         24.5004
  -2310588.38746  -1777985.12944  23308547.6484                   23308545.0354
        41.5004         25.7504
 -18856503.90647 -14662828.52747  20900240.1334                   20900236.4414
        47.7504         46.0004
   4756486.49246   3712759.76644  25301948.7894                   25301950.7624
        36.7504         29.2504
 -27990641.64847 -20737849.89545  21988744.7664                   21988742.7934
        45.5004         31.2504
 -27054168.49247 -21037268.52346  21860569.8674                   21860570.0274
        46.0004         41.2504
  -7149542.68446  -4595364.79743  23425371.2584                   23425369.3244
        39.2504         22.7504
 25  7 16  1  3  0.0000000  0 10G01G02G03G09G28G31G32G04G26G16
 -16933269.98847 -13149998.94545  22013696.1724                   22013694.8554
        45.7504         32.2504
  -2079544.71146  -1599764.13344  23821118.0864                   23821115.7194
        41.0004         25.5004
 -34353337.59448 -26962475.66048  20310400.3674                   20310399.7504
        49.7504         50.0004
   8329497.39845   6785742.80144  24856808.6644                   24856810.5314
        35.5004         25.0004
  -2302793.16446  -1771910.96144  23310031.3364                   23310028.8164
        41.5004         27.0004
 -18880608.82848 -14681611.59047  20895652.8524                   20895649.0164
        48.0004         46.0004
   4742319.11745   3701720.21944  25299251.9224                   25299254.8484
        35.2504         28.5004
 -28127829.32847 -20844749.35545  21962638.2424                   21962636.7034
        45.2504         31.7504
 -27184239.72347 -21138622.70746  21835817.4224                   21835817.9104
        46.0004         41.0004
  -7335993.27046  -4740650.85243  23389890.3984                   23389889.1564
        38.7504         22.7504
 25  7 16  1  3 30.0000000  0 10G01G02G03G09G28G31G32G04G26G16
 -16953634.48047 -13165867.42645  22009821.5234                   22009819.8484
        46.0004         32.0004
  -2078859.73046  -1599230.50844  23821248.9224                   23821246.5204
        41.0004         26.5004
 -34476823.64148 -27058698.54348  20286901.5474                   20286900.8324
        50.0004         50.0004
   8166556.80145   6658776.22744  24825801.1954                   24825802.7894
        35.5004         25.5004
  -2294864.36746  -1765732.71144  23311539.6174                   23311537.8404
        40.7504         26.5004
 -18904304.64548 -14700075.87147  20891143.9614                   20891140.1564
        48.0004         45.7504
   4728165.25445   3690691.15244  25296558.7664                   25296561.8284
        34.2504         27.0004
 -28264909.62947 -20951565.12945  21936552.8134                   21936551.5004
        45.5004         32.5004
 -27313806.75847 -21239583.98846  21811162.1724                   21811162.4144
        46.5004         41.2504
  -7522340.35546  -4885856.28543  23354429.6414                   23354428.3484
        38.7504         22.7504
 25  7 16  1  4  0.0000000  0 10G01G02G03G09G28G31G32G04G26G16
 -16973596.78147 -13181422.50845  22006022.6884                   22006021.2194
        45.5004         32.5004
  -2078100.78946  -1598639.26644  23821393.3054                   23821391.0314
        41.0004         24.5004
 -34599856.11748 -27154568.00448  20263489.5164                   20263488.3874
        50.0004         50.0004
   8003624.32046   6531815.96544  24794796.1024                   24794798.8914
        36.0004         27.5004
  -2286791.59447  -1759442.28544  23313076.7114                   23313074.3794
        42.2504         28.0004
 -18927581.04748 -14718213.34047  20886714.3524                   20886710.5704
        48.0004         46.0004
   4714037.64845   3679682.53944  25293871.7034                   25293873.3164
        35.2504         27.2504
 -28401869.89147 -21058287.37545  21910490.3524                   21910488.6254
        45.0004         32.0004
 -27442854.71547 -21340140.80546  21786604.5164                   21786605.0164
        46.2504         41.0004
  -7708568.06246  -5030968.68043  23318991.5004                   23318990.1374
        39.7504         21.7504
 25  7 16  1  4 30.0000000  0 10G01G02G03G09G28G31G32G04G26G16
 -16993168.57047 -13196673.29345  22002298.3444                   22002296.6564
        45.5004         32.2504
  -2077279.55546  -1597999.43743  23821549.1174                   23821547.2074
        40.5004         23.0004
 -34722442.00448 -27250089.45748  20240162.2344                   20240161.5984
        49.7504         50.0004
   7840691.01646   6404855.03944  24763791.3594                   24763792.2344
        37.5004         27.5004
  -2278586.01646  -1753048.37544  23314637.4144                   23314635.9614
        40.7504         28.0004
 -18950449.72347 -14736033.09847  20882362.0084                   20882359.1254
        47.5004         46.0004
   4699927.60545   3668687.62544  25291184.9304                   25291188.1914
        33.0004         25.5004
 -28538719.05947 -21164923.06245  21884449.0704                   21884447.2344
        46.2504         31.7504
 -27571390.34847 -21440298.40246  21762144.9694                   21762145.9774
        45.7504         41.2504
  -7894681.98846  -5175992.45743  23283575.0864                   23283574.1334
        40.2504         22.7504
 25  7 16  1  5  0.0000000  0 10G01G02G03G09G28G31G32G04G26G16
 -17012351.49247 -13211621.07445  21998647.8754                   21998646.5634
        45.0004         32.0004
  -2076397.66046  -1597312.34444  23821717.6254                   23821714.8754
        40.2504         24.0004
 -34844578.22348 -27345260.52748  20216920.2814                   20216919.8364
        49.5004         49.7504
   7677757.90246   6277894.26244  24732785.6484                   24732787.1024
        37.0004         28.2504
  -2270248.82046  -1746551.91444  23316224.1414                   23316222.4774
        41.0004         26.5004
 -18972912.19147 -14753536.32847  20878088.2734                   20878084.4574
        47.5004         45.5004
   4685836.46545   3657707.47344  25288505.1804                   25288506.4884
        34.2504         26.2504
 -28675456.03547 -21271471.32845  21858428.7274                   21858426.9654
        45.7504         31.7504
 -27699410.36347 -21540054.21946  21737784.1334                   21737784.5084
        46.5004         41.5004
  -8080677.42646  -5320923.86343  23248181.4384                   23248180.1954
        39.0004         22.0004
 25  7 16  1  5 30.0000000  0 10G01G02G03G09G28G31G32G04G26G16
 -17031147.26247 -13226267.18045  21995071.1564                   21995069.3164
        46.0004         32.0004
  -2075456.87546  -1596579.36344  23821896.9304                   23821894.6644
        40.5004         24.2504
 -34966261.80148 -27440078.88348  20193764.6024                   20193763.6844
        49.0004         50.2504
   7514825.87946   6150934.31344  24701780.7584                   24701782.5434
        37.2504         29.5004
  -2261781.30946  -1739953.88344  23317835.6334                   23317833.3554
        40.7504         27.0004
 -18994969.70348 -14770724.01247  20873890.7814                   20873887.3014
        48.0004         45.7504
                                  25285825.4924                   25285829.0474
        28.2504         22.0004
 -28812079.78947 -21377931.37145  21832429.8914                   21832427.8714
        45.5004         32.0004
 -27826911.59047 -21639405.78946  21713520.8984                   21713521.0744
        46.2504         41.2504
  -8266550.22346  -5465759.71543  23212810.4614                   23212809.6334
        39.5004         21.0004
 25  7 16  1  6  0.0000000  0 10G01G02G03G09G28G31G32G04G26G16
 -17049559.98847 -13240614.80145  21991567.5234                   21991565.9574
        45.0004         32.0004
  -2074461.37546  -1595803.76643  23822086.3754                   23822083.2504
        39.5004         22.5004
 -35087492.10948 -27534544.04748  20170695.1724                   20170694.0864
        49.5004         49.7504
   7351893.63745   6023974.23044  24670775.1334                   24670776.7734
        35.5004         25.5004
  -2253186.98446  -1733257.06644  23319471.0234                   23319468.7854
        41.7504         26.7504
 -19016626.62148 -14787599.54747  20869769.5004                   20869765.3914
        48.2504         45.5004
   4657713.24245   3635793.05944  25283152.6024                   25283155.1134
        34.7504         26.7504
 -28948591.61347 -21484304.19545  21806452.4144                   21806450.7734
        45.2504         31.0004
 -27953893.31247 -21738352.55546  21689357.1564                   21689357.7034
        46.0004         41.7504
  -8452298.48846  -5610498.53543  23177464.2114                   23177462.9884
        39.7504         22.5004
 25  7 16  1  6 30.0000000  0 10G01G02G03G09G28G31G32G04G26G16
 -17067594.37147 -13254667.62145  21988135.8054                   21988133.8874
        45.7504         31.7504
  -2073415.82846  -1594989.15243  23822284.6254                   23822282.6804
        38.7504         22.7504
 -35208269.19148 -27628656.04748  20147712.2424                   20147711.7424
        48.7504         50.0004
   7188959.07445   5897012.28544  24639769.6484                   24639771.6054
        34.7504         27.0004
  -2244470.05546  -1726464.72344  23321129.7814                   23321127.4344
        41.5004         27.0004
 -19037887.46547 -14804166.44547  20865723.6094                   20865720.2624
        47.7504         45.5004
   4643678.12946   3624856.56344  25280481.6954                   25280484.2544
        36.0004         28.0004
 -29084993.45747 -21590591.32045  21780496.1884                   21780494.6414
        45.7504         32.5004
 -28080355.27747 -21836894.32046  21665292.6334                   21665292.9734
        46.2504         41.7504
  -8637920.57846  -5755139.03543  23142141.6884                   23142139.9804
        41.0004         22.5004
 25  7 16  1  7  0.0000000  0 10G01G02G03G09G28G31G32G04G26G16
 -17085255.15247 -13268429.32045  21984774.9844                   21984773.3094
        45.5004         31.2504
  -2072324.73646  -1594139.06843  23822492.5864                   23822490.4224
        39.7504         22.2504
 -35328593.03148 -27722414.87148  20124815.4614                   20124814.4144
        49.5004         50.0004
   7026020.34045   5770047.15244  24608763.9454                   24608766.0274
        34.5004         25.0004
  -2235634.71546  -1719580.09444  23322810.8524                   23322809.3834
        41.0004         28.0004
 -19058756.44948 -14820428.00047  20861752.2584                   20861748.8014
        48.5004         45.2504
   4629658.44946   3613932.08644  25277814.4774                   25277816.5514
        37.5004         27.7504
 -29221287.25447 -21696794.25845  21754560.2814                   21754558.5824
        45.0004         31.7504
 -28206297.37547 -21935030.97746  21641326.4614                   21641326.8594
        45.7504         41.7504
  -8823414.52046  -5899679.69143  23106843.4454                   23106841.6174
        41.0004         22.5004
 25  7 16  1  7 30.0000000  0  9G01G02G03G09G28G31G04G26G16
 -17102545.46147 -13281902.32445  21981484.9384                   21981482.9454
        44.0004         31.2504
  -2071191.44546  -1593256.09043  23822707.9224                   23822706.2274
        39.0004         22.7504
 -35448461.96948 -27815819.23048  20102004.8984                   20102003.9344
        49.5004         50.2504
   6863077.00045   5643078.45744  24577757.0234                   24577758.9964
        34.5004         26.2504
  -2226683.40646  -1712605.10244  23324514.6564                   23324512.9804
        41.5004         28.2504
 -19079236.39547 -14836386.41447  20857855.5634                   20857851.3674
        47.0004         45.2504
 -29357473.23447 -21802913.18045  21728644.7814                   21728643.5354
        46.0004         31.0004
 -28331717.79747 -22032761.14846  21617459.4924                   21617460.0044
        46.5004         41.5004
  -9008777.68746  -6044118.43043  23071569.3984                   23071568.1054
        41.0004         22.5004
 25  7 16  1  8  0.0000000  0  9G01G02G03G09G28G31G04G26G16
 -17119464.59847 -13295086.10545  21978265.1484                   21978263.7114
        45.7504         31.7504
  -2070015.35246  -1592339.80543  23822932.2424                   23822930.0984
        38.5004         22.5004
 -35567870.78548 -27908865.05948  20079282.1094                   20079281.0634
        49.7504         50.0004
   6700132.41446   5516108.76644  24546749.5704                   24546751.5664
        36.0004         28.0004
  -2217614.99647  -1705538.85544  23326240.5394                   23326239.0634
        42.5004         28.2504
 -19099326.61348 -14852041.14547  20854032.0234                   20854028.7464
        48.2504         45.2504
 -29493547.91047 -21908945.36745  21702750.5634                   21702749.0434
        45.5004         31.5004
 -28456611.10247 -22130080.57046  21593693.3984                   21593693.8594
        46.5004         41.5004
  -9194003.47346  -6188450.13343  23036322.9064                   23036320.8874
        41.0004         22.7504
 25  7 16  1  8 30.0000000  0  9G01G02G03G09G28G31G04G26G16
 -17136009.21147 -13307978.07445  21975116.7504                   21975115.2034
        45.2504         31.5004
  -2068792.78146  -1591387.31643  23823163.8754                   23823163.1764
        39.0004         22.5004
 -35686811.29348 -28001545.96548  20056648.6644                   20056647.6214
        49.5004         50.2504
   6537192.82045   5389142.95344  24515743.8054                   24515744.8324
        35.7504         28.5004
  -2208425.50847  -1698378.25844  23327989.0164                   23327987.6334
        42.5004         28.0004
 -19119023.64147 -14867389.49647  20850283.9454                   20850280.0314
        47.7504         45.0004
 -29629505.12147 -22014886.00845  21676878.8674                   21676876.7814
        45.5004         31.7504
 -28580969.05147 -22226982.83646  21570028.9384                   21570029.2464
        46.0004         41.5004
  -9379081.71546  -6332666.83644  23001102.8984                   23001101.1254
        40.5004         24.5004
 25  7 16  1  9  0.0000000  0  9G01G02G03G09G28G31G04G26G16
 -17152177.30147 -13320576.62945  21972040.2584                   21972038.6454
        46.2504         32.2504
  -2067521.74246  -1590396.99643  23823407.8134                   23823405.0204
        38.5004         22.5004
 -35805276.82048 -28093856.75448  20034105.4774                   20034104.5634
        48.5004         50.0004
   6374263.04745   5262184.79744  24484737.8984                   24484740.2774
        33.0004         25.5004
  -2199112.30147  -1691121.25444  23329761.4454                   23329759.6414
        43.5004         28.7504
 -19138325.25048 -14882429.72347  20846610.9454                   20846607.3674
        48.2504         45.0004
 -29765339.93747 -22120731.30145  21651030.3364                   21651028.8054
        45.0004         32.5004
 -28704784.78547 -22323462.60246  21546467.3674                   21546467.7974
        45.5004         41.5004
  -9564004.26246  -6476762.27343  22965913.0164                   22965911.6994
        40.7504         23.5004
 25  7 16  1  9 30.0000000  0  9G01G02G03G09G28G31G04G26G16
 -17167979.87547 -13332890.36745  21969032.7034                   21969031.9884
        44.0004         32.0004
  -2066213.05546  -1589377.38344  23823656.1254                   23823654.1884
        39.7504         25.2504
 -35923273.54748 -28185802.25048  20011651.0164                   20011650.5164
        49.0004         50.2504
   6211334.81645   5135227.84044  24453734.0784                   24453735.8284
        32.5004         25.7504
  -2189685.66447  -1683775.87544  23331555.2894                   23331553.1454
        42.7504         28.2504
 -19157241.81247 -14897169.92647  20843011.5474                   20843007.5234
        47.0004         44.7504
 -29901060.49647 -22226487.54745  21625204.2274                   21625201.9264
        46.0004         32.7504
 -28828064.52047 -22419524.70746  21523007.8284                   21523008.0554
        45.7504         41.5004
  -9748775.81646  -6620740.00843  22930752.2504                   22930751.0984
        41.2504         23.5004
 25  7 16  1 10  0.0000000  0  9G01G02G03G09G28G31G04G26G16
 -17183425.54347 -13344926.00845  21966093.8914                   21966092.3134
        44.5004         31.2504
  -2064875.41046  -1588335.20744  23823911.3754                   23823908.7934
        38.7504         24.0004
 -36040805.60248 -28277385.66848  19989285.5554                   19989284.7344
        48.0004         50.0004
   6048402.14145   5008267.46943  24422727.6254                   24422731.0044
        30.5004         23.5004
  -2180153.65247  -1676348.37944  23333369.4924                   23333366.7584
        43.5004         27.5004
 -19175782.02347 -14911616.85247  20839483.2274                   20839479.7074
        47.0004         44.7504
 -30036672.51247 -22332159.22345  21599397.7664                   21599395.9024
        45.2504         32.5004
 -28950812.07047 -22515172.13346  21499649.9774                   21499650.3554
        46.0004         41.7504
  -9933399.02046  -6764602.16443  22895619.6094                   22895617.8204
        40.7504         22.2504
 25  7 16  1 10 30.0000000  0  9G01G02G03G09G28G31G04G26G16
 -15623097.46547 -12129085.98045  22263014.3054                   22263012.9264
        44.5004         31.0004
   -488091.93746   -359672.88344  24123962.6804                   24123960.9494
        39.2504         24.7504
 -34582447.95348 -27141003.08648  20266801.6174                   20266801.1374
        49.0004         50.2504
   7460889.97345   6108907.45344  24691515.9774                   24691517.5514
        32.2504         24.0004
   -595099.51646   -441241.29344  23634994.8914                   23634992.4304
        41.5004         26.0004
 -17618528.66847 -13698172.70347  21135818.6804                   21135815.3014
        46.5004         45.0004
 -28596752.20747 -21210143.36745  21873405.0084                   21873403.7154
        45.5004         32.5004
 -27497602.21947 -21382800.78947  21776186.3054                   21776187.0044
        46.5004         42.0004
  -8542445.01246  -5680741.81243  23160309.7194                   23160307.4064
        40.7504         22.5004
 25  7 16  1 11  0.0000000  0  9G01G02G03G09G28G31G04G26G16
 -15637843.60947 -12140576.54345  22260208.7034                   22260207.1024
        45.5004         32.0004
   -486710.01246   -358596.17644  24124226.1174                   24124223.8634
        40.0004         24.2504
 -34699050.64148 -27231862.31248  20244613.3834                   20244612.0864
        49.5004         50.2504
   7297943.10545   5981935.96943  24660508.3594                   24660510.2234
        31.5004         22.5004
   -585368.84047   -433658.97344  23636846.7194                   23636844.9384
        42.5004         26.7504
 -17636329.49247 -13712043.49247  21132431.4694                   21132427.9104
        47.5004         44.7504
 -28732152.69147 -21315650.21945  21847639.1644                   21847637.8794
        44.2504         32.2504
 -27619285.26647 -21477618.73047  21753030.6174                   21753030.9144
        46.0004         42.0004
  -8726766.83646  -5824369.11744  23125234.4224                   23125231.8444
        41.0004         24.0004
 25  7 16  1 11 30.0000000  0  9G01G02G03G09G28G31G04G26G16
 -15652247.16047 -12151800.14145  22257467.3674                   22257466.2194
        43.5004         31.7504
   -485312.97746   -357507.71144  24124492.1254                   24124489.8874
        40.7504         26.0004
 -34815188.76648 -27322359.55148  20222512.5394                   20222511.6844
        49.0004         50.2504
   7134986.16845   5854956.63344  24629498.9384                   24629500.3484
        33.5004         24.7504
   -575544.95347   -426004.03944  23638716.4614                   23638714.3554
        42.5004         26.5004
 -17653767.59047 -13725631.63747  21129113.3054                   21129109.6254
        47.7504         45.2504
 -28867450.10547 -21421076.75445  21821892.9534                   21821891.0704
        45.5004         31.5004
 -27740436.06647 -21572021.92247  21729976.5554                   21729976.9654
        46.0004         42.0004
  -8910935.56646  -5967877.11343  23090187.6954                   23090185.4694
        40.7504         22.2504
 25  7 16  1 12  0.0000000  0  9G01G02G03G09G28G31G04G26G16
 -15666309.33247 -12162757.73045  22254791.6094                   22254790.1214
        46.0004         31.0004
   -483901.84046   -356408.24244  24124761.4224                   24124758.3364
        40.7504         25.5004
 -34930858.86348 -27412492.09448  20200501.6644                   20200500.7504
        48.5004         50.0004
   6972020.78145   5727970.71543  24598486.7194                   24598489.5704
        32.0004         23.0004
   -565628.39147   -418276.87944  23640602.9694                   23640601.4024
        42.5004         25.2504
 -17670843.90647 -13738937.87947  21125863.1414                   21125859.6524
        47.5004         44.5004
 -29002642.77747 -21526421.67645  21796166.6174                   21796165.2934
        44.2504         32.2504
 -27861051.11747 -21666007.63747  21707024.4224                   21707024.9224
        46.5004         42.2504
  -9094945.98846  -6111261.78143  23055170.8284                   23055169.4304
        41.2504         22.2504
 25  7 16  1 12 30.0000000  0  9G01G02G03G09G28G31G04G26G16
 -15680037.89147 -12173455.36345  22252179.3054                   22252177.8714
        46.0004         31.2504
   -482484.26646   -355303.75044  24125030.9454                   24125028.7114
        41.0004         25.5004
 -35046064.02348 -27502262.34048  20178578.5944                   20178577.6844
        48.5004         50.2504
   6809042.18845   5600974.49644  24567474.1174                   24567475.1334
        32.2504         24.7504
   -555626.13346   -410482.93443  23642506.1724                   23642504.9494
        39.7504         23.0004
 -17687565.83648 -13751967.96947  21122681.5394                   21122677.9184
        48.0004         44.7504
 -29137735.49247 -21631688.69145  21770459.0864                   21770457.5864
        44.0004         31.7504
 -27981133.41047 -21759578.22747  21684173.6884                   21684174.0664
        46.2504         42.0004
  -9278799.64546  -6254524.27743  23020184.8054                   23020184.0864
        40.5004         23.5004
 25  7 16  1 13  0.0000000  0  9G01G02G03G09G28G31G04G26G16
 -15693433.63347 -12183893.66445  22249629.8054                   22249628.6884
        45.2504         31.0004
   -481060.82446   -354194.70344  24125302.2974                   24125300.3164
        41.0004         24.5004
 -35160800.37548 -27591667.28148  20156744.9774                   20156744.0634
        49.7504         50.2504
   6646052.29745   5473969.48444  24536457.8204                   24536458.7894
        32.0004         24.7504
   -545538.19146   -402622.25443  23644426.0474                   23644424.3484
        39.0004         22.5004
 -17703933.94147 -13764722.34847  21119566.6334                   21119563.1724
        47.2504         44.5004
 -29272726.09047 -21736876.14145  21744771.6024                   21744770.1914
        46.0004         32.2504
 -28100679.03547 -21852730.64147  21661424.7194                   21661424.8834
        46.0004         42.2504
  -9462490.88746  -6397660.21943  22985230.1954                   22985228.2504
        41.5004         22.0004
 25  7 16  1 13 30.0000000  0  9G01G02G03G09G28G31G04G26G16
 -15706500.30147 -12194075.53945  22247144.6254                   22247142.3874
        46.0004         31.5004
   -479635.12946   -353083.87543  24125572.5394                   24125571.0084
        40.0004         23.0004
 -35275066.91048 -27680706.12948  20135000.8284                   20135000.1454
        49.5004         50.2504
   6483050.39155   5346955.11754  24505438.9454                   24505440.5824
        31.5004         25.2504
   -535367.49646   -394697.08643  23646362.1804                   23646359.8634
        39.5004         22.0004
 -17719951.69948 -13777203.73847  21116519.0944                   21116515.3204
        48.2504         44.5004
 -29407615.23447 -21841984.53945  21719102.7194                   21719101.4064
        45.2504         32.2504
 -28219686.94147 -21945464.03947  21638777.7814                   21638778.9924
        46.2504         42.2504
  -9646017.21946  -6540667.66844  22950306.2344                   22950304.0394
        40.5004         24.2504
 25  7 16  1 14  0.0000000  0  9G01G02G03G09G28G31G04G26G16
 -15719235.34447 -12203999.00045  22244720.7274                   22244719.1994
        43.2504         31.0004
   -478204.19146   -351968.99243  24125845.4144                   24125843.6024
        39.5004         22.5004
 -35388856.46948 -27769373.32048  20113347.2734                   20113346.4924
        49.5004         50.2504
   6320041.79745   5219935.55944  24474421.5704                   24474420.7704
        32.5004         25.2504
   -525110.81246   -386704.87543  23648314.0554                   23648311.0664
        39.2504         22.7504
 -17735616.15647 -13789409.81247  21113537.7114                   21113534.2234
        46.2504         44.5004
 -29542397.46547 -21947009.62945  21693455.0474                   21693453.4804
        44.7504         32.0004
 -28338150.00847 -22037772.90247  21616235.4454                   21616235.4734
        45.0004         42.2504
  -9829369.63746  -6683539.60244  22915414.9774                   22915413.7074
        41.5004         24.5004
 25  7 16  1 14 30.0000000  0  9G01G02G03G09G28G31G04G26G16
 -15731647.72747 -12213671.04745  22242358.4534                   22242357.1564
        45.5004         31.5004
   -476777.13746   -350857.12143  24126116.5314                   24126115.1604
        38.7504         22.2504
 -35502173.30948 -27857672.15248  20091783.7734                   20091783.2814
        49.5004         50.5004
   6157020.64145   5092906.20744  24443399.0234                   24443399.4774
        31.2504         25.2504
   -514776.15246   -378651.97743  23650279.6024                   23650278.6294
        38.0004         22.0004
 -17750936.00848 -13801347.38347  21110622.9064                   21110618.7274
        49.0004         45.0004
 -29677078.64547 -22051955.98045  21667825.7424                   21667823.9264
        45.2504         31.7504
 -28456072.39847 -22129660.45347  21593795.4384                   21593795.9654
        46.5004         42.2504
 -10012550.91846  -6826278.18744  22880557.4224                   22880555.3984
        41.5004         24.2504
 25  7 16  1 15  0.0000000  0  9G01G02G03G09G28G31G04G26G16
 -15743737.30547 -12223091.54345  22240057.7344                   22240056.0354
        43.0004         30.5004
   -475353.53546   -349747.97343  24126387.2504                   24126386.6294
        38.2504         22.5004
 -35615012.69548 -27945598.93448  20070311.3524                   20070310.6294
        49.0004         50.5004
   5993989.81345   4965869.32844  24412373.8754                   24412374.9964
        32.0004         25.7504
   -504362.60546   -370537.54743  23652261.1954                   23652259.8244
        38.7504         22.7504
 -17765910.75048 -13813016.02747  21107773.0004                   21107769.3634
        48.2504         44.5004
 -29811655.66847 -22156821.17645  21642216.2814                   21642214.7934
        45.0004         32.0004
 -28573449.36747 -22221122.98447  21571459.6804                   21571459.6524
        45.7504         42.2504
 -10195554.30146  -6968878.15644  22845732.6094                   22845730.6374
        41.0004         24.7504
 25  7 16  1 15 30.0000000  0  9G01G02G03G09G28G31G04G26G16
 -15755508.39847 -12232263.87945  22237818.0474                   22237816.4884
        44.5004         30.7504
   -473937.34446   -348644.59543  24126657.0234                   24126655.9384
        38.7504         23.2504
 -35727374.23848 -28033153.37948  20048929.4924                   20048928.7584
        49.2504         50.2504
   5830948.12545   4838823.94544  24381347.7114                   24381349.6134
        34.5004         28.2504
   -493873.66846   -362364.40643  23654258.2034                   23654256.2774
        39.7504         22.7504
 -17780544.58647 -13824419.03547  21104988.2584                   21104984.9964
        47.5004         45.0004
 -29946129.72747 -22261606.12545  21616627.4064                   21616625.4384
        44.7504         32.5004
 -28690280.59047 -22312160.27747  21549227.0704                   21549227.3324
        46.0004         42.5004
 -10378377.70746  -7111337.83643  22810942.1804                   22810940.4534
        41.5004         22.7504
 25  7 16  1 16  0.0000000  0  9G01G02G03G09G28G31G04G26G16
 -15766962.44147 -12241189.16445  22235638.2344                   22235636.9844
        45.5004         31.0004
   -472529.69146   -347547.85943  24126925.0864                   24126923.4534
        39.0004         21.5004
 -35839254.72348 -28120332.97748  20027639.4614                   20027638.3794
        49.2504         50.5004
   5667897.07045   4711771.24244  24350320.7424                   24350321.7934
        35.0004         27.5004
   -483309.86346   -354132.91843  23656268.0474                   23656266.4844
        38.5004         22.7504
 -17794838.42647 -13835557.09847  21102268.2584                   21102264.6174
        47.7504         44.5004
 -30080499.21147 -22366309.59845  21591057.1094                   21591055.9844
        45.5004         32.5004
 -28806562.84847 -22402769.80947  21527099.6954                   21527099.8554
        46.5004         42.5004
 -10561016.02347  -7253653.35244  22776187.0554                   22776185.9454
        42.0004         25.2504
 25  7 16  1 16 30.0000000  0  9G01G02G03G09G28G31G04G26G16
 -15778103.32447 -12249870.44545  22233518.3674                   22233516.4384
        44.7504         31.0004
   -471134.32446   -346460.69543  24127191.1254                   24127189.1094
        38.7504         21.5004
 -35950653.43048 -28207137.15648  20006440.9304                   20006440.1024
        49.5004         50.5004
   5504835.59446   4584710.45744  24319290.4844                   24319291.7544
        36.7504         28.0004
   -472674.23446   -345845.45744  23658291.9224                   23658290.2034
        39.5004         24.0004
 -17808796.13748 -13846433.25047  21099612.5944                   21099609.0124
        48.2504         44.7504
 -30214764.94947 -22470932.22345  21565507.8984                   21565505.7894
        46.0004         32.5004
 -28922295.40247 -22492950.99247  21505076.3204                   21505076.4104
        45.2504         42.5004
 -10743466.79346  -7395822.69144  22741467.3914                   22741466.2974
        41.5004         24.5004
 25  7 16  1 17  0.0000000  0  9G01G02G03G09G28G31G04G26G16
 -15788936.36347 -12258311.84844  22231457.1484                   22231455.8954
        45.5004         29.5004
   -469756.21546   -345386.98843  24127453.1644                   24127451.7774
        38.7504         22.0004
 -36061571.03548 -28293566.46548  19985333.9694                   19985333.0394
        49.7504         50.5004
   5341761.44946   4457639.77044  24288259.1094                   24288260.1294
        37.5004         28.5004
   -461971.23046   -337505.50044  23660328.7424                   23660327.0944
        41.0004         26.7504
 -17822422.28148 -13857051.03947  21097019.3984                   21097015.9734
        48.2504         44.5004
 -30348929.17647 -22575475.76245  21539976.7274                   21539975.1334
        45.5004         33.0004
 -29037478.95747 -22582704.38347  21483157.5784                   21483157.8054
        46.5004         42.7504
 -10925728.91047  -7537845.03944  22706784.7814                   22706782.8244
        42.0004         24.7504
 25  7 16  1 17 30.0000000  0  9G01G02G03G09G28G31G04G26G16
 -15799464.66047 -12266515.77345  22229453.4534                   22229452.4694
        45.2504         30.5004
   -468398.30946   -344329.03143  24127712.4844                   24127710.9924
        38.2504         22.7504
 -36172006.01648 -28379619.69548  19964318.8204                   19964318.1254
        49.5004         50.5004
   5178674.52046   4330559.15644  24257224.8674                   24257225.5634
        37.7504         27.5004
   -451202.96146   -329114.68744  23662377.8444                   23662376.3834
        41.5004         25.0004
 -17835719.73047 -13867412.69947  21094488.8914                   21094485.0784
        47.5004         44.5004
 -30482991.87947 -22679940.19545  21514465.4774                   21514464.0474
        45.7504         32.7504
 -29152112.08647 -22672028.86347  21461343.6724                   21461343.6724
        46.7504         42.7504
 -11107799.27347  -7679717.96544  22672137.5314                   22672135.8914
        42.0004         25.7504
 25  7 16  1 18  0.0000000  0  9G01G02G03G09G28G31G04G26G16
 -15809688.71547 -12274482.62944  22227508.2894                   22227507.0704
        42.5004         29.5004
   -467060.66046   -343286.84043  24127966.0864                   24127965.4264
        38.7504         22.0004
 -36281954.27748 -28465293.66048  19943396.5004                   19943395.6174
        50.0004         50.7504
   5015577.23446   4203470.42644  24226187.3134                   24226189.0474
        37.0004         28.5004
   -440369.03146   -320672.72744  23664439.4844                   23664437.6724
        41.5004         26.5004
 -17848688.93447 -13877518.59047  21092020.8984                   21092017.1524
        47.0004         44.2504
 -30616950.48447 -22784323.50045  21488974.4064                   21488972.2114
        45.5004         33.5004
 -29266190.69947 -22760921.27047  21439634.5944                   21439635.4184
        45.5004         43.0004
 -11289671.71547  -7821436.67643  22637528.4454                   22637525.9304
        43.2504         23.5004
 25  7 16  1 18 30.0000000  0  9G01G02G03G09G28G31G04G26G16
 -15819605.96147 -12282210.40645  22225621.3834                   22225619.6764
        43.5004         30.2504
   -465740.38346   -342258.19943  24128217.3204                   24128216.3554
        39.2504         22.0004
 -36391408.57848 -28550582.72348  19922567.9384                   19922567.4144
        50.2504         50.5004
   4852475.28546   4076378.07844  24195150.3134                   24195151.3714
        37.7504         28.2504
   -429465.93747   -312176.85244  23666514.6724                   23666512.5274
        42.0004         27.0004
 -17861326.73447 -13887366.25047  21089616.2034                   21089612.8444
        46.5004         44.2504
 -30750799.19547 -22888621.18045  21463503.2194                   21463501.8554
        45.7504         33.5004
 -29379707.66447 -22849376.03147  21418033.4064                   21418033.8364
        45.5004         43.0004
 -11471337.10547  -7962994.05144  22602958.2034                   22602956.2894
        42.2504         27.5004
 25  7 16  1 19  0.0000000  0  9G01G02G03G09G28G31G04G26G16
 -15829227.80147 -12289707.98845  22223790.1024                   22223788.4884
        45.5004         30.0004
   -464448.66846   -341251.80943  24128463.5634                   24128461.9844
        38.7504         21.5004
 -36500375.74648 -28635492.19948  19901832.1024                   19901831.3094
        50.2504         50.5004
   4689360.23846   3949275.51644  24164110.7814                   24164112.3164
        38.5004         29.2504
   -418504.04747   -303635.16044  23668600.8754                   23668598.4574
        42.5004         26.5004
 -17873644.34847 -13896964.40647  21087272.2194                   21087268.6094
        47.2504         44.2504
 -30884546.38747 -22992839.73045  21438052.3834                   21438050.8404
        45.2504         33.2504
 -29492669.84047 -22937398.48447  21396537.3524                   21396537.6174
        46.0004         43.0004
 -11652800.43747  -8104393.96944  22568427.2424                   22568425.3324
        42.7504         25.5004
 25  7 16  1 19 30.0000000  0  9G01G02G03G09G28G31G04G26G16
 -14263135.12947 -11069376.10245  22521807.6644                   22521805.9184
        45.0004         30.5004
   1112233.49246    887331.53543  24428496.8754                   24428494.7664
        38.2504         22.5004
 -35033428.82448 -27492416.67248  20180983.0704                   20180982.2274
        50.2504         50.5004
   6101659.36346   5049768.41444  24432861.9534                   24432862.7274
        38.2504         29.0004
   1167935.91447    932551.77044  23970489.7584                   23970488.6054
        42.0004         27.5004
 -16310222.23047 -12678713.41847  21384781.4144                   21384778.1564
        47.5004         44.5004
 -29442765.61347 -21869374.18445  21712413.8364                   21712412.4184
        46.0004         33.0004
 -28029650.39147 -21797383.29747  21674940.7344                   21674940.9384
        47.2504         42.7504
 -10258630.61347  -7018027.81244  22833729.0784                   22833726.6724
        42.2504         27.7504
 25  7 16  1 20  0.0000000  0  9G01G02G03G09G28G31G04G26G16
 -14272172.82847 -11076418.52045  22520087.7894                   22520086.1644
        45.7504         30.0004
   1113462.33646    888288.92643  24428730.8834                   24428729.1254
        37.2504         20.5004
 -35141414.67648 -27576561.49248  20160434.0234                   20160432.9104
        50.2504         50.5004
   5938520.60246   4922647.39844  24401817.3594                   24401818.9964
        39.5004         29.2504
   1179011.53946    941182.07444  23972597.5864                   23972596.3244
        41.5004         27.0004
 -16321904.97347 -12687816.86747  21382558.1724                   21382554.9844
        47.2504         44.5004
 -29576306.81247 -21973432.24645  21687001.8054                   21687000.3524
        45.5004         33.2504
 -28141496.15247 -21884535.81647  21653656.8984                   21653657.3014
        46.2504         42.7504
 -10439677.28947  -7159103.06644  22799276.9304                   22799274.6564
        42.2504         25.2504
 25  7 16  1 20 30.0000000  0  9G01G02G03G09G28G31G04G26G16
 -14280922.98447 -11083236.89845  22518422.7894                   22518421.7194
        45.2504         30.2504
   1114655.82846    889218.82443  24428957.7424                   24428956.4804
        37.7504         20.0004
 -35248907.53148 -27660322.16048  20139978.5234                   20139977.8404
        49.5004         50.5004
   5775369.96146   4795517.09444  24370770.6334                   24370772.6884
        38.5004         29.7504
   1190140.98846    949854.31644  23974715.6724                   23974714.2274
        41.2504         26.7504
 -16333274.14547 -12696675.96947  21380394.8054                   21380391.7154
        47.2504         44.2504
 -29709744.84047 -22077409.90645  21661608.9384                   21661607.9384
        46.0004         33.0004
 -28252781.57847 -21971251.71147  21632480.4924                   21632480.3714
        47.0004         42.5004
 -10620510.45747  -7300011.95344  22764865.2664                   22764863.4384
        43.0004         26.7504
 25  7 16  1 21  0.0000000  0  9G01G02G03G09G28G31G04G26G16
 -14289387.79347 -11089832.91444  22516812.1414                   22516810.6454
        44.7504         29.2504
   1115812.15246    890119.67642  24429178.7504                   24429176.1214
        37.7504         17.7504
 -35355905.01648 -27743696.82448  20119617.7194                   20119616.9184
        49.5004         50.7504
   5612208.35946   4668378.27345  24339721.9614                   24339723.3014
        39.5004         30.0004
   1201323.12946    958567.64144  23976843.6094                   23976842.0944
        40.7504         26.5004
 -16344331.59448 -12705292.18447  21378290.3204                   21378287.4024
        48.0004         44.2504
 -29843078.71947 -22181306.41445  21636236.8524                   21636234.8444
        44.7504         33.7504
 -28363504.32447 -22057529.15247  21611410.3364                   21611410.7074
        46.5004         43.0004
 -10801125.57447  -7440750.94944  22730494.8364                   22730492.9924
        42.5004         25.5004
 25  7 16  1 21 30.0000000  0  9G01G02G03G09G28G31G04G26G16
 -14297567.83647 -11096207.03944  22515255.6484                   22515253.7704
        45.0004         29.5004
   1116930.90646    890991.29743  24429390.6564                   24429389.1134
        37.0004         19.0004
 -35462403.16848 -27826682.39548  20099351.6564                   20099350.8794
        49.5004         50.5004
   5449038.29346   4541232.87145  24308671.8134                   24308672.8014
        39.2504         30.0004
   1212558.35546    967322.30944  23978981.0554                   23978980.0824
        38.7504         26.5004
 -16355077.64148 -12713665.75447  21376246.2344                   21376242.2154
        48.2504         44.2504
 -29976305.80947 -22285119.71145  21610884.7194                   21610882.9574
        44.5004         33.2504
 -28473660.59847 -22143365.19547  21590448.2734                   21590448.3284
        47.0004         43.0004
 -10981516.93047  -7581315.57844  22696167.6094                   22696166.0554
        42.5004         26.7504
 25  7 16  1 22  0.0000000  0  9G01G02G03G09G28G31G04G26G16
 -14305473.86347 -11102367.64144  22513751.1954                   22513749.4964
        42.5004         29.5004
   1118002.13346    891825.86342  24429594.0164                   24429593.6684
        37.5004         17.7504
 -35568408.19548 -27909283.70748  20079179.7504                   20079178.7734
        49.2504         50.5004
   5285852.08646   4414074.87145  24277618.8054                   24277620.1334
        39.7504         31.7504
   1223837.05146    976110.82444  23981127.8754                   23981126.3244
        39.7504         25.7504
 -16365522.41447 -12721804.55547  21374258.2894                   21374254.8834
        46.5004         44.0004
 -30109433.66447 -22388855.68745  21585551.0554                   21585549.6644
        45.2504         33.5004
 -28583256.67647 -22228764.71947  21569593.2194                   21569593.1054
        46.7504         43.0004
 -11161688.69547  -7721709.09044  22661882.0944                   22661880.2934
        42.2504         25.2504
 25  7 16  1 22 30.0000000  0 10G01G02G03G09G06G28G31G04G26G16
 -14313107.48047 -11108315.96944  22512298.5314                   22512297.2114
        44.5004         29.5004
   1119023.95746    892621.96942  24429789.6174                   24429787.7734
        38.2504         16.2504
 -35673917.15248 -27991498.48448  20059102.0864                   20059101.4734
        49.0004         50.5004
   5122651.18046   4286905.42645  24246562.6024                   24246563.4534
        40.0004         30.5004
  13905352.57856  10866628.40255  25466569.0474                   25466570.6174
        38.7504         33.2504
   1235158.62146    984932.76244  23983282.8364                   23983280.5354
        40.7504         24.0004
 -16375667.39547 -12729709.75847  21372328.0314                   21372324.0124
        47.7504         44.0004
 -30242460.65647 -22492513.06245  21560236.7274                   21560235.0904
        45.0004         33.5004
 -28692289.77347 -22313725.55947  21548844.7664                   21548844.8244
        46.5004         43.0004
 -11341635.88747  -7861927.62144  22627639.5004                   22627637.1414
        42.5004         25.0004
 25  7 16  1 23  0.0000000  0 10G01G02G03G09G06G28G31G04G26G16
 -14320472.53947 -11114055.03144  22510897.0164                   22510895.4734
        45.0004         29.2504
   1119993.42246    893377.26243  24429973.7344                   24429972.6604
        40.0004         19.5004
 -35778929.40248 -28073326.21548  20039119.0164                   20039118.0314
        48.7504         50.5004
   4959434.80546   4159723.94545  24215503.1414                   24215503.7114
        40.0004         31.2504
  13755632.19546  10749963.16045  25438077.7344                   25438080.0824
        37.7504         34.0004
   1246520.32046    993786.02044  23985444.7974                   23985442.6134
        40.7504         24.7504
 -16385515.56647 -12737383.67247  21370453.5164                   21370450.0784
        47.7504         43.7504
 -30375387.34847 -22596092.29345  21534941.5164                   21534940.1914
        45.0004         33.2504
 -28800759.41847 -22398247.34047  21528203.5234                   21528203.5664
        46.5004         43.0004
 -11521356.03947  -8001969.23444  22593439.8674                   22593437.8204
        42.5004         26.5004
 25  7 16  1 23 30.0000000  0 10G01G02G03G09G06G28G31G04G26G16
 -14327580.12947 -11119593.47345  22509544.7114                   22509543.2304
        45.0004         30.7504
   1120899.94546    894083.56643  24430146.3674                   24430145.2664
        39.2504         19.0004
 -35883451.49648 -28154772.01648  20019228.9384                   20019228.1334
        49.2504         50.5004
   4796195.05546   4032524.23045  24184440.3054                   24184440.5704
        40.0004         30.0004
  13606300.28546  10633600.64145  25409661.8524                   25409663.1134
        37.0004         32.7504
   1257912.20746   1002662.73443  23987612.3674                   23987610.7384
        40.0004         23.5004
 -16395078.01648 -12744834.94947  21368633.7974                   21368630.5634
        48.2504         44.0004
 -30508221.69147 -22699599.54345  21509664.0944                   21509662.6134
        44.5004         34.2504
 -28908672.28947 -22482335.28147  21507668.5784                   21507668.5704
        47.2504         43.0004
 -11700853.71947  -8141837.48844  22559282.8984                   22559280.7504
        43.0004         27.5004
 25  7 16  1 24  0.0000000  0 10G01G02G03G09G06G28G31G04G26G16
 -14334424.87147 -11124927.11344  22508241.8284                   22508241.0474
        44.5004         29.5004
   1121748.90246    894744.93043  24430308.8754                   24430307.0044
        39.7504         20.0004
 -35987473.59448 -28235828.20748  19999434.4144                   19999433.5394
        49.5004         50.5004
   4632940.42246   3905312.91045  24153372.8524                   24153374.3754
        40.2504         30.5004
  13457367.09445  10517548.88745  25381320.6484                   25381321.7114
        35.2504         32.0004
   1269340.68446   1011567.97743  23989787.5394                   23989785.8984
        39.0004         22.2504
 -16404349.19547 -12752059.27047  21366869.9614                   21366866.4654
        47.7504         44.0004
 -30640954.96947 -22803028.05545  21484405.8284                   21484403.8484
        45.2504         33.5004
 -29016018.69547 -22565981.81247  21487240.9454                   21487241.0744
        47.0004         43.0004
 -11880116.68747  -8281522.85244  22525170.1884                   22525167.9844
        42.7504         27.5004
 25  7 16  1 24 30.0000000  0 10G01G02G03G09G06G28G31G04G26G16
 -14341014.96947 -11130062.31644  22506988.3134                   22506986.9264
        44.5004         29.0004
   1122532.68846    895355.54343  24430457.6414                   24430456.7034
        40.7504         21.5004
 -36090999.39548 -28316497.67248  19979733.9384                   19979733.0434
        49.5004         50.5004
   4469665.73046   3778085.97745  24122303.1484                   24122303.8324
        40.7504         31.2504
  13308829.48445  10401805.34845  25353054.0164                   25353055.7384
        35.0004         31.2504
   1280798.67246   1020496.21943  23991967.8984                   23991965.5904
        39.7504         22.2504
 -16413336.51248 -12759062.38747  21365159.6334                   21365156.0904
        48.0004         43.5004
 -30773592.17647 -22906381.69545  21459165.9144                   21459164.5314
        45.5004         34.0004
 -29122802.53947 -22649189.98847  21466920.4224                   21466920.8134
        47.0004         43.2504
 -12059146.78547  -8421026.75044  22491101.5634                   22491099.5084
        42.2504         27.7504
 25  7 16  1 25  0.0000000  0 10G01G02G03G09G06G28G31G04G26G16
 -14347344.98847 -11134994.85944  22505783.4064                   22505782.4574
        44.5004         28.5004
   1123257.10946    895919.88743  24430596.3984                   24430593.9414
        41.5004         20.5004
 -36194019.03948 -28396772.71948  19960129.9454                   19960129.2384
        50.0004         50.5004
   4306379.66846   3650850.19545  24091231.2344                   24091231.6334
        39.2504         31.5004
  13160697.78546  10286378.09045  25324866.3054                   25324867.3524
        36.0004         30.0004
   1292292.75446   1029452.61343  23994154.5164                   23994152.8014
        38.7504         21.7504
 -16422034.02348 -12765839.69147  21363504.5234                   21363501.1644
        48.2504         44.0004
 -30906124.62547 -23009653.71545  21433945.4454                   21433944.2154
        45.5004         34.0004
 -29229014.09847 -22731952.21947  21446709.3284                   21446709.5984
        47.0004         43.2504
 -12237932.11747  -8560339.93044  22457080.0554                   22457077.6684
        42.5004         27.2504
 25  7 16  1 25 30.0000000  0 10G01G02G03G09G06G28G31G04G26G16
 -14353416.77047 -11139726.17244  22504628.3444                   22504627.0084
        44.0004         29.0004
   1123921.05946    896437.09043  24430721.3054                   24430720.1844
        40.2504         21.0004
 -36296529.84048 -28476651.25848  19940622.9064                   19940622.0904
        48.7504         50.5004
   4143083.47346   3523606.47345  24060156.3594                   24060157.7664
        39.5004         32.5004
  13012975.08245  10171269.55144  25296755.3914                   25296756.4414
        33.5004         27.5004
   1303822.32846   1038436.64143  23996348.6334                   23996346.9614
        39.5004         20.7504
 -16430443.21948 -12772392.32847  21361904.6414                   21361900.9574
        48.2504         43.0004
 -31038550.78947 -23112842.91045  21408745.7504                   21408744.2664
        45.5004         33.7504
 -29334650.93747 -22814266.62547  21426607.0864                   21426607.2504
        45.0004         43.0004
 -12416467.86347  -8699458.62944  22423105.4844                   22423103.4694
        42.5004         26.7504
 25  7 16  1 26  0.0000000  0 10G01G02G03G09G06G28G31G04G26G16
 -14359234.79347 -11144259.76244  22503520.8754                   22503519.8204
        43.7504         27.7504
   1124520.41446    896904.00443  24430835.8444                   24430834.8204
        40.5004         22.0004
 -36398531.85548 -28556133.34048  19921212.4614                   19921211.7074
        49.2504         50.7504
   3979775.81346   3396353.83245  24029080.0864                   24029080.2074
        38.5004         31.5004
                                  25268721.6724                   25268723.1334
        31.0004         27.5004
   1315383.90646   1047445.63343  23998548.5314                   23998546.8364
        39.7504         21.0004
 -16438568.02747 -12778723.36347  21360357.6724                   21360354.1454
        47.5004         42.7504
 -31170871.93747 -23215950.27745  21383565.9844                   21383564.1644
        46.0004         33.5004
 -29439713.22747 -22896133.32847  21406614.5164                   21406614.8554
        46.0004         43.2504
 -12594752.07447  -8838381.32444  22389179.1804                   22389176.6174
        42.7504         28.0004
 25  7 16  1 26 30.0000000  0 10G01G02G03G09G06G28G31G04G26G16
 -14364798.99247 -11148595.57444  22502462.6804                   22502461.1174
        44.2504         29.2504
   1125055.63346    897320.91443  24430938.5084                   24430936.8444
        39.0004         21.2504
 -36500020.59848 -28635215.46548  19901899.6644                   19901898.9414
        48.5004         50.5004
   3816459.87146   3269094.76645  23998001.9384                   23998002.5554
        38.5004         31.2504
  12718762.78555   9942013.35554  25240768.9454                   25240769.8554
        31.7504         26.2504
   1326978.91446   1056480.61343  24000755.2034                   24000753.3874
        40.7504         21.5004
 -16446408.20347 -12784832.61747  21358865.9924                   21358862.8874
        46.7504         42.7504
 -31303084.68047 -23318973.16445  21358407.0554                   21358405.3364
        44.7504         34.0004
 -29544196.80947 -22977549.09447  21386731.6414                   21386732.0594
        46.5004         43.2504
 -12772778.05947  -8977102.80144  22355301.6024                   22355299.8834
        42.5004         27.5004
 25  7 16  1 27  0.0000000  0 10G01G02G03G09G06G28G31G04G26G16
 -14370110.27747 -11152734.30144  22501451.6884                   22501450.3834
        43.7504         29.2504
   1125526.37146    897687.58244  24431028.1954                   24431026.5904
        41.0004         24.2504
 -36600992.57048 -28713894.92648  19882685.5314                   19882684.4614
        49.0004         50.5004
   3653138.04346   3141831.07445  23966922.6174                   23966923.4804
        37.7504         32.0004
  12572282.22745   9827872.74644  25212894.3984                   25212895.7034
        31.0004         25.0004
   1338607.54346   1065541.85543  24002967.6094                   24002967.0864
        40.2504         21.5004
 -16453963.94947 -12790720.23047  21357428.5084                   21357425.0824
        47.0004         43.0004
 -31435186.54347 -23421909.65645  21333268.2734                   21333266.8364
        44.7504         34.5004
 -29648098.24247 -23058511.23447  21366960.0944                   21366960.7034
        47.0004         43.2504
 -12950540.11347  -9115618.62544  22321475.2584                   22321473.0864
        43.2504         26.7504
 25  7 16  1 27 30.0000000  0 10G01G02G03G09G06G28G31G04G26G16
 -14375175.69947 -11156681.44544  22500488.1414                   22500486.6844
        44.2504         29.7504
   1125925.87946    897998.70743  24431103.1334                   24431103.3404
        40.2504         22.7504
 -36701450.43448 -28792173.78148  19863569.1884                   19863567.8714
        50.0004         50.7504
   3489806.32846   3014559.68445  23935841.9304                   23935841.9614
        37.7504         31.7504
                                  25185098.0784                   25185100.4534
        32.5004         23.5004
   1350263.98446   1074624.73043  24005186.1484                   24005185.1024
        39.5004         19.7504
 -16461242.00447 -12796391.45747  21356043.5554                   21356040.5704
        47.7504         43.5004
 -31567181.37947 -23524762.74245  21308150.6644                   21308148.7664
        45.5004         34.5004
 -29751420.50047 -23139022.07047  21347298.2974                   21347298.7154
        47.0004         43.2504
 -13128039.07847  -9253929.43444  22287697.6724                   22287695.7154
        42.7504         27.7504
 25  7 16  1 28  0.0000000  0 10G01G02G03G09G06G28G31G04G26G16
 -14379998.23847 -11160439.32045  22499570.0634                   22499569.3714
        44.0004         30.2504
   1126251.87946    898252.62544  24431166.2424                   24431165.0234
        40.5004         24.2504
 -36801392.74248 -28870050.91448  19844550.4304                   19844549.6214
        48.2504         50.5004
   3326465.02346   2887280.81345  23904758.8204                   23904759.1254
        37.5004         31.0004
  12280571.73445   9600566.02744  25157383.5634                   25157384.9454
        35.0004         25.2504
   1361946.44146   1083727.91843  24007409.5864                   24007408.5474
        38.5004         21.0004
 -16468244.59047 -12801848.04347  21354710.9144                   21354708.1414
        46.5004         43.7504
 -31699068.70347 -23627532.06245  21283053.4144                   21283051.5474
        44.5004         34.0004
 -29854162.34447 -23219080.61747  21327747.6024                   21327747.6884
        45.0004         43.2504
 -13305270.91047  -9392032.09044  22253971.3284                   22253969.3054
        42.5004         27.2504
 25  7 16  1 28 30.0000000  0 10G01G02G03G09G06G28G31G04G26G16
 -14384579.59047 -11164009.27044  22498698.2974                   22498697.4694
        43.7504         29.5004
   1126503.14146    898448.23443  24431214.0944                   24431213.5004
        37.7504         22.5004
 -36900816.78148 -28947524.19548  19825630.7814                   19825630.0664
        49.2504         50.7504
   3163115.62946   2759995.64845  23873674.1804                   23873675.1954
        37.5004         32.7504
  12135346.97746   9487403.89844  25129748.1884                   25129748.3444
        36.7504         27.0004
   1373654.46946   1092851.01243  24009637.8984                   24009636.8914
        39.5004         22.2504
 -16474973.49247 -12807091.37547  21353430.7664                   21353427.0944
        47.0004         43.5004
 -31830846.87147 -23730216.32845  21257976.4454                   21257975.0744
        45.5004         34.7504
 -29956321.33647 -23298685.00847  21308307.2974                   21308307.4964
        47.0004         43.5004
 -13482231.04347  -9529923.04744  22220296.8834                   22220295.0004
        43.5004         28.7504
 25  7 16  1 29  0.0000000  0 10G01G02G03G09G06G28G31G04G26G16
 -12813504.05147  -9939794.62544  22797664.1174                   22797663.1024
        43.2504         28.7504
   2702095.51246   2126182.40643  24731039.1484                   24731038.1724
        39.0004         22.0004
 -35424299.44548 -27796991.21548  20106602.8444                   20106601.9304
        48.5004         50.5004
   4575182.32446   3860307.42245  24142381.7814                   24142382.2704
        36.0004         31.7504
  13565968.62945  10602174.06643  25401985.9064                   25401988.0984
        33.5004         22.7504
   2960804.48446   2329591.20744  24311662.1884                   24311661.4884
        40.0004         24.0004
 -14906012.15647 -11584524.11347  21651993.9534                   21651990.7814
        46.0004         43.0004
 -30387092.70747 -22605213.05545  21532714.1484                   21532712.5944
        46.2504         34.2504
 -28482474.45747 -22150232.88347  21588770.9224                   21588770.7894
        45.2504         43.2504
 -12083491.37547  -8439995.97344  22486468.8444                   22486466.4454
        43.5004         27.0004
 25  7 16  1 29 30.0000000  0 10G01G02G03G09G06G28G31G04G26G16
 -12817616.67647  -9942999.34844  22796881.8284                   22796880.7624
        43.5004         29.2504
   2702185.24646   2126252.18843  24731056.3444                   24731055.5434
        39.0004         21.7504
 -35522687.69148 -27873657.37948  20087879.9384                   20087879.4614
        48.0004         50.5004
   4411812.62145   3733006.43845  24111293.2344                   24111294.1724
        35.7504         31.0004
  13421587.25446  10489669.14543  25374511.9384                   25374511.9414
        37.0004         22.0004
   2972553.74246   2338746.43443  24313898.4694                   24313896.3404
        39.7504         21.7504
 -14912205.31247 -11589349.98447  21650815.2504                   21650811.8524
        46.7504         43.0004
 -30518656.32847 -22707730.14845  21507678.3524                   21507676.7584
        46.2504         34.2504
 -28583469.20747 -22228930.06247  21569552.0944                   21569552.1844
        45.0004         43.5004
 -12259901.91447  -8577458.66044  22452898.7974                   22452896.5084
        44.0004         28.5004
 25  7 16  1 30  0.0000000  0 10G01G02G03G09G06G28G31G04G26G16
 -12821501.52747  -9946026.58644  22796142.5634                   22796141.0634
        44.0004         29.7504
   2702188.25046   2126254.38343  24731057.2734                   24731055.9264
        38.5004         21.5004
 -35620558.10548 -27949920.03548  20069256.2194                   20069255.2154
        49.5004         50.5004
   4248431.00845   3605696.19945  24080202.1414                   24080203.7544
        35.2504         30.5004
  13277628.27346  10377493.27743  25347117.3914                   25347117.9344
        37.5004         23.0004
   2984318.96146   2347914.03943  24316137.3054                   24316135.6764
        40.5004         22.7504
 -14918136.41447 -11593971.64847  21649686.4384                   21649683.7504
        46.7504         43.2504
 -30650114.14547 -22810164.79345  21482662.7034                   21482660.9804
        46.0004         34.5004
 -28683882.26647 -22307173.99647  21550444.5234                   21550444.3954
        46.2504         43.2504
 -12436034.29747  -8714704.60944  22419381.8364                   22419379.8324
        44.5004         28.7504
 25  7 16  1 30 30.0000000  0 10G01G02G03G09G06G28G31G04G26G16
 -12825159.72747  -9948877.21944  22795446.5704                   22795445.2234
        42.2504         28.7504
   2702103.90646   2126188.51643  24731040.9144                   24731040.8714
        38.0004         21.5004
 -35717907.51248 -28025776.71148  20050730.9694                   20050730.2894
        49.2504         50.5004
   4085039.62946   3478378.33245  24049111.0784                   24049111.3164
        37.2504         32.5004
  13134095.40646  10265649.47343  25319802.8284                   25319804.5554
        37.0004         23.7504
   2996100.23046   2357094.17643  24318379.3914                   24318377.3954
        41.0004         23.7504
 -14923806.02047 -11598389.56247  21648607.8754                   21648604.5944
        45.2504         43.0004
 -30781463.97747 -22912515.28945  21457667.6414                   21457666.0084
        46.0004         34.0004
 -28783710.77047 -22384962.42647  21531447.4534                   21531447.4454
        46.2504         43.5004
 -12611883.37147  -8851729.80544  22385919.1564                   22385916.6134
        44.5004         28.5004
 25  7 16  1 31  0.0000000  0 10G01G02G03G09G06G28G31G04G26G16
 -12828593.76247  -9951553.18444  22794792.5084                   22794791.7114
        43.0004         29.0004
   2701930.74646   2126053.38343  24731009.1564                   24731007.9454
        37.0004         19.0004
 -35814734.07448 -28101225.98048  20032305.8444                   20032304.6884
        48.2504         50.7504
   3921639.25846   3351053.45345  24018015.8054                   24018017.0314
        36.0004         31.7504
  12990990.96145  10154139.54744  25292571.6174                   25292572.6024
        34.7504         24.5004
   3007896.43846   2366285.95744  24320623.9924                   24320623.0044
        40.5004         24.5004
 -14929216.28947 -11602605.38347  21647578.7274                   21647575.4064
        47.2504         43.2504
 -30912704.82847 -23014780.85945  21432693.4064                   21432691.4924
        46.0004         34.5004
 -28882953.15247 -22462294.13747  21512562.3204                   21512562.4224
        45.2504         43.5004
 -12787444.71947  -8988530.79744  22352510.5164                   22352507.6024
        43.7504         28.0004
 25  7 16  1 31 30.0000000  0 10G01G02G03G09G06G28G31G04G26G16
 -12831809.48046  -9954059.01244  22794180.8914                   22794179.9304
        41.2504         28.5004
   2701662.93446   2125844.59043  24730957.8754                   24730957.1454
        37.2504         19.0004
 -35911039.40648 -28176269.09848  20013979.2274                   20013978.2774
        48.7504         50.5004
   3758227.21546   3223719.49645  23986920.3834                   23986920.6644
        37.0004         31.5004
  12848313.86345  10042962.63343  25265421.1024                   25265422.3554
        35.0004         22.7504
   3019702.95746   2375485.78143  24322871.1094                   24322869.7774
        39.7504         22.0004
 -14934372.46547 -11606623.19547  21646597.4304                   21646594.0514
        45.2504         43.2504
 -31043839.22347 -23116963.48845  21407739.1884                   21407737.7034
        45.7504         33.5004
 -28981611.25847 -22539170.55947  21493788.0864                   21493788.3794
        45.0004         43.5004
 -12962717.87947  -9125107.20744  22319156.9064                   22319154.7774
        43.7504         28.7504
 25  7 16  1 32  0.0000000  0 10G01G02G03G09G06G28G31G04G26G16
 -12834809.32047  -9956396.61744  22793610.3134                   22793609.8094
        42.2504         29.2504
   2701298.91845   2125560.71142  24730887.3594                   24730887.8134
        33.2504         17.7504
 -36006821.62148 -28250904.59848  19995752.3834                   19995751.6724
        49.7504         50.5004
   3594804.37546   3096377.09045  23955821.5864                   23955822.3134
        37.0004         32.2504
  12706066.55945   9932120.56343  25238351.1724                   25238352.9804
        33.5004         22.2504
   3031518.82446   2384692.86343  24325119.2344                   24325118.1724
        41.0004         22.0004
 -14939276.18047 -11610444.30947  21645664.1954                   21645661.1024
        46.2504         43.2504
 -31174866.10947 -23219062.34045  21382805.5554                   21382803.9534
        46.5004         34.2504
 -29079683.57847 -22615590.51647  21475125.6334                   21475125.4184
        46.2504         43.5004
 -13137698.61747  -9261455.76644  22285859.0784                   22285857.2504
        44.0004         29.2504
 25  7 16  1 32 30.0000000  0 10G01G02G03G09G06G28G31G04G26G16
 -12837599.00047  -9958570.44944  22793079.5004                   22793078.4884
        42.2504         29.0004
   2700833.57845   2125197.90643  24730799.8364                   24730799.1844
        35.0004         18.5004
 -36102082.28948 -28325133.69148  19977624.8914                   19977624.1954
        49.5004         50.5004
   3431368.18846   2969024.30145  23924720.4924                   23924721.7814
        36.7504         31.0004
  12564247.78145   9821612.50843  25211364.0084                   25211366.3444
        31.5004         22.7504
   3043339.39546   2393903.60943  24327369.0944                   24327366.8714
        39.7504         21.7504
 -14943932.92247 -11614072.96147  21644778.0164                   21644775.0634
        46.0004         43.2504
 -31305787.93447 -23321079.33245  21357891.9064                   21357890.0354
        46.2504         34.2504
 -29177171.96547 -22691555.48447  21456574.4064                   21456574.2424
        47.2504         43.5004
 -13312385.92247  -9397575.69144  22252617.5864                   22252614.9534
        43.5004         28.7504
 25  7 16  1 33  0.0000000  0 10G01G02G03G09G06G28G31G04G26G16
 -12840179.18046  -9960581.05544  22792588.3524                   22792587.4414
        41.7504         28.2504
   2700266.72345   2124756.04742  24730691.0554                   24730691.9224
        33.0004         17.7504
 -36196817.72348 -28398953.50848  19959597.0784                   19959596.6334
        48.5004         50.5004
   3267921.30145   2841663.19945  23893617.6414                   23893618.1214
        35.5004         31.5004
  12422862.04355   9711441.80153  25184458.9144                   25184461.3554
        31.0004         22.0004
   3055165.49646   2403118.66043  24329619.3364                   24329616.5394
        40.0004         22.0004
 -14948342.93447 -11617509.34447  21643938.6884                   21643935.4104
        45.7504         42.5004
 -31436601.77047 -23423012.17645  21332998.8364                   21332997.0634
        47.0004         34.2504
 -29274073.06247 -22767062.81247  21438134.5784                   21438134.8834
        45.0004         43.5004
 -13486774.14147  -9533462.54344  22219432.1724                   22219430.3014
        43.5004         29.5004
 25  7 16  1 33 30.0000000  0 10G01G02G03G09G06G28G31G04G26G16
 -12842554.93447  -9962432.38744  22792136.9064                   22792136.1054
        42.2504         28.0004
   2699593.95745   2124231.60943  24730564.4774                   24730564.0784
        33.7504         18.2504
 -36291028.93448 -28472364.83248  19941669.8284                   19941668.9224
        49.0004         50.5004
   3104461.95346   2714292.37145  23862512.4064                   23862513.3094
        36.7504         32.0004
                                  25157636.4384                   25157638.6454
        29.0004         22.5004
   3066993.51246   2412335.26243  24331869.1174                   24331867.7664
        39.2504         21.5004
 -14952510.47747 -11620756.81247  21643146.0314                   21643142.6804
        47.5004         43.0004
 -31567309.41047 -23524862.27345  21308125.8054                   21308123.9064
        46.5004         34.2504
 -29370388.16047 -22842113.51247  21419806.6174                   21419806.3324
        45.7504         43.5004
 -13660861.90247  -9669115.28944  22186304.7194                   22186302.4144
        43.5004         28.7504
 25  7 16  1 34  0.0000000  0 10G01G02G03G09G06G28G31G04G26G16
 -12844726.76247  -9964124.79744  22791723.0004                   22791722.2114
        42.5004         28.7504
   2698815.42645   2123624.82843  24730416.3364                   24730416.6134
        35.2504         18.2504
 -36384712.14148 -28545364.73048  19923842.5394                   19923841.2704
        48.2504         50.5004
   2940992.80146   2586913.90645  23831405.2974                   23831405.8634
        36.2504         30.5004
  12141391.95755   9492114.56354  25130896.6484                   25130899.1024
        32.5004         27.2504
   3078824.27746   2421553.95743  24334121.4384                   24334119.3914
        40.0004         22.5004
 -14956435.78947 -11623815.52747  21642399.0164                   21642395.2974
        46.5004         42.5004
 -31697907.83647 -23626627.27045  21283273.9534                   21283272.5554
        46.5004         33.5004
 -29466113.86347 -22916704.96147  21401590.0554                   21401590.9224
        45.2504         43.7504
 -13834643.24247  -9804529.25845  22153235.5704                   22153232.7154
        43.7504         30.0004
 25  7 16  1 34 30.0000000  0 10G01G02G03G09G06G28G31G04G26G16
 -12846696.80946  -9965659.98044  22791348.5084                   22791347.4924
        41.5004         27.2504
   2697929.34846   2122934.19543  24730248.4384                   24730247.7304
        37.7504         19.7504
 -36477865.33648 -28617951.63348  19906115.6174                   19906115.2384
        49.0004         51.0004
   2777515.14846   2459528.82445  23800296.8204                   23800297.3094
        37.2504         32.0004
  12001314.57446   9382963.40644  25104243.1254                   25104243.7854
        37.0004         29.0004
   3090656.96946   2430774.18843  24336373.0084                   24336370.6294
        38.5004         21.2504
 -14960120.32847 -11626686.63747  21641697.7344                   21641694.6764
        46.5004         42.5004
 -31828395.76647 -23728306.16045  21258442.7424                   21258441.0944
        47.0004         34.0004
 -29561248.44947 -22990835.78947  21383487.0394                   21383486.9614
        46.2504         43.7504
 -14008113.39847  -9939700.75444  22120224.6884                   22120222.3634
        43.7504         28.7504
 25  7 16  1 35  0.0000000  0 10G01G02G03G09G06G28G31G04G26G16
 -12848468.42646  -9967040.53144  22791011.0164                   22791010.0124
        41.5004         27.2504
   2696933.09845   2122157.79342  24730058.4614                   24730057.8794
        35.7504         17.7504
 -36570487.73448 -28690124.93048  19888490.4614                   19888489.7154
        48.5004         51.0004
   2614028.82846   2332136.98845  23769185.9924                   23769186.5744
        37.7504         32.2504
  11861677.76246   9274155.53944  25077670.4454                   25077671.5664
        37.5004         28.0004
   3102489.55946   2439994.36343  24338624.8364                   24338623.1134
        40.0004         21.7504
 -14963566.94147 -11629372.31247  21641041.7424                   21641038.9884
        45.0004         42.5004
 -31958773.06647 -23829898.85245  21233632.9924                   21233631.2774
        47.5004         34.0004
 -29655791.46547 -23064505.65647  21365496.0084                   21365495.8594
        45.0004         43.7504
 -14181269.27047 -10074627.34445  22087273.8204                   22087271.6414
        43.7504         30.0004
 25  7 16  1 35 30.0000000  0 10G01G02G03G09G06G28G31G04G26G16
 -12850044.86747  -9968269.00044  22790710.4924                   22790710.0784
        42.5004         27.7504
   2695824.15246   2121293.44143  24729848.9774                   24729847.4414
        38.2504         19.2504
 -36662578.38348 -28761883.88748  19870966.0784                   19870965.8524
        49.2504         51.0004
   2450533.95646   2204738.46645  23738073.4384                   23738074.2274
        38.5004         33.0004
  11722483.05146   9165692.16044  25051182.0864                   25051183.0664
        38.0004         29.5004
   3114320.32846   2449213.06643  24340876.2034                   24340875.4924
        39.0004         22.0004
 -14966778.22747 -11631874.63347  21640431.1024                   21640427.7234
        46.2504         42.0004
 -32089039.48847 -23931405.14145  21208843.9384                   21208842.2854
        46.7504         34.0004
 -29749742.37947 -23137714.15647  21347617.5944                   21347617.7774
        46.0004         44.0004
 -14354107.62147 -10209306.50845  22054384.3444                   22054381.8554
        44.5004         30.0004
 25  7 16  1 36  0.0000000  0 10G01G02G03G09G06G28G31G04G26G16
 -12851432.65646  -9969350.46144  22790447.3524                   22790446.4144
        41.5004         27.5004
   2694596.75446   2120336.82843  24729613.3204                   24729613.7034
        36.5004         19.0004
 -36754139.75848 -28833230.42648  19853542.5234                   19853542.2774
        49.2504         51.0004
   2287027.30946   2077330.77045  23706959.6644                   23706960.2194
        39.2504         32.5004
  11583728.46946   9057571.70744  25024777.4304                   25024779.1884
        37.7504         28.7504
   3126144.11346   2458426.33243  24343126.1954                   24343125.8204
        38.0004         21.2504
 -14969760.11747 -11634198.20347  21639863.3204                   21639861.0204
        45.5004         43.0004
 -32219198.18047 -24032827.48445  21184075.5554                   21184073.8984
        46.2504         33.5004
 -29843103.96947 -23210463.43447  21329851.5394                   21329851.4964
        45.2504         43.5004
 -14526628.21947 -10343738.08645  22021554.1804                   22021552.0944
        44.2504         30.0004
 25  7 16  1 36 30.0000000  0 10G01G02G03G09G06G28G31G04G26G16
 -12852631.18046  -9970284.45744  22790219.5634                   22790218.7384
        41.7504         28.0004
   2693251.90246   2119288.64842  24729357.5084                   24729358.9454
        36.5004         16.7504
 -36845167.17248 -28904160.89548  19836220.8364                   19836220.0204
        48.5004         51.0004
   2123512.74646   1949916.89845  23675843.9534                   23675844.5744
        39.5004         32.2504
  11445419.32046   8949798.35244  24998458.4694                   24998459.6994
        38.2504         28.5004
   3137962.91046   2467635.76643  24345374.9304                   24345374.6414
        37.7504         22.0004
 -14972511.43447 -11636342.10547  21639340.1174                   21639336.5004
        45.0004         42.0004
 -32349244.97347 -24134162.64145  21159328.7424                   21159326.9734
        46.2504         34.5004
 -29935871.90247 -23282750.13347  21312198.7974                   21312198.5784
        45.2504         43.7504
 -14698824.10947 -10477916.63344  21988786.5004                   21988783.9884
        43.7504         29.2504
 25  7 16  1 37  0.0000000  0 10G01G02G03G09G06G28G31G04G26G16
 -12853648.88346  -9971077.54344  22790025.7584                   22790024.9694
        41.7504         28.2504
   2691781.91446   2118143.09443  24729079.3754                   24729078.8954
        37.2504         18.5004
 -36935664.99648 -28974678.69548  19818999.8524                   19818999.1454
        49.0004         50.7504
   1959985.19146   1822492.90645  23644725.4694                   23644725.6214
        40.5004         33.5004
  11307551.77046   8842369.08644  24972223.6484                   24972224.2384
        38.5004         27.0004
   3149769.66846   2476835.73843  24347622.3134                   24347621.1524
        39.2504         22.5004
 -14975040.12547 -11638312.54346  21638859.0784                   21638855.4884
        46.2504         41.5004
 -32479184.89847 -24235414.51645  21134602.0554                   21134600.5944
        46.5004         34.2504
 -30028050.95347 -23354577.94147  21294657.1484                   21294657.3754
        46.7504         43.7504
 -14870697.38747 -10611843.82044  21956080.0084                   21956077.8134
        44.5004         29.7504
 25  7 16  1 37 30.0000000  0 10G01G02G03G09G06G28G31G04G26G16
 -12854486.34046  -9971730.19944  22789866.6414                   22789866.0234
        41.7504         27.5004
   2690186.82046   2116899.97743  24728775.4144                   24728775.3984
        37.7504         19.0004
 -37025629.68448 -29044781.07048  19801879.6484                   19801879.1604
        48.5004         51.0004
   1796447.28546   1695060.84445  23613604.8984                   23613605.3594
        41.0004         33.7504
  11170129.81346   8735287.00044  24946072.2894                   24946073.4264
        38.2504         26.0004
   3161565.34446   2486027.12143  24349866.4064                   24349864.8954
        40.5004         21.5004
 -14977346.09047 -11640109.42646  21638420.2814                   21638416.1564
        45.2504         41.2504
 -32609014.98447 -24336580.79745  21109896.1254                   21109894.1994
        46.5004         33.7504
 -30119637.98047 -23425944.44547  21277228.8914                   21277228.5514
        46.7504         43.5004
 -15042242.07047 -10745514.92244  21923436.2344                   21923433.4734
        44.2504         29.2504
 25  7 16  1 38  0.0000000  0 10G01G02G03G09G06G28G31G04G26G16
 -11279729.37547  -8744646.93744  23089533.0704                   23089531.9024
        42.0004         27.0004
   4263881.47346   3343155.29343  25028239.5394                   25028239.8674
        38.0004         19.0004
 -35539640.14548 -27886867.16048  20084654.4224                   20084653.5784
        50.0004         51.0004
   3208322.09846   2795223.10245  23882275.7504                   23882276.4384
        41.2504         34.0004
  12608576.73846   9856154.72744  25219800.3054                   25219800.7074
        37.0004         25.0004
   4748765.13746   3722806.13743  24651899.7504                   24651899.1524
        38.7504         20.7504
 -13404014.78547 -10414137.00046  21937815.1024                   21937811.5124
        45.2504         41.0004
 -31163313.28547 -23210059.98445  21385003.5004                   21385001.9494
        47.2504         34.0004
 -28635212.19147 -22269249.01247  21559705.8134                   21559705.9184
        46.5004         43.5004
 -13638031.44547  -9651324.77744  22190649.0704                   22190646.3714
        44.2504         29.2504
 25  7 16  1 38 30.0000000  0 10G01G02G03G09G06G28G31G04G26G16
 -11280217.65246  -8745027.49644  23089439.3364                   23089439.1294
        41.0004         24.2504
   4262027.164 6                  25027887.758
        38.750
 -35628537.77748 -27956138.04748  20067737.7424                   20067736.7154
        50.2504         51.0004
   3044762.53546   2667774.16845  23851151.5474                   23851151.8834
        41.5004         34.7504
  12472048.47346   9749769.07444  25193819.6094                   25193820.1994
        37.0004         24.2504
   4760531.81646   3731974.90243  24654139.6724                   24654138.1684
        38.2504         20.0004
 -13405884.82447 -10415594.19146  21937458.6804                   21937455.8014
        45.7504         41.0004
 -31292924.45347 -23311055.68045  21360339.5944                   21360337.5394
        46.7504         34.0004
 -28725615.50847 -22339693.13347  21542502.3914                   21542502.7154
        45.0004         43.7504
 -13808910.36347  -9784477.12544  22158131.1804                   22158128.8754
        44.5004         29.7504
 25  7 16  1 39  0.0000000  0 10G01G02G03G09G06G28G31G04G26G16
 -11280533.93446  -8745274.04344  23089379.9534                   23089378.9694
        40.7504         26.5004
   4260041.453 6                  25027509.555
        37.250
 -35716898.50048 -28024990.56248  20050923.2974                   20050922.3954
        48.2504         50.7504
   2881194.44547   2540318.58645  23820025.3444                   23820025.9264
        42.2504         35.2504
  12335971.32045   9643734.91444  25167924.7034                   25167926.1764
        34.5004         25.0004
   4772283.50846   3741132.02343  24656375.9924                   24656374.7624
        38.5004         21.5004
 -13407538.63347 -10416882.89146  21937144.2974                   21937141.5824
        45.5004         41.5004
 -31422423.54747 -23411964.04745  21335697.0084                   21335695.0514
        46.5004         34.7504
 -28815424.27047 -22409673.96947  21525412.5704                   21525412.6374
        45.0004         43.5004
 -13979449.10547  -9917364.39844  22125678.7274                   22125676.2814
        45.0004         29.0004
 25  7 16  1 39 30.0000000  0 10G01G02G03G09G06G28G31G04G26G16
 -11280684.20346  -8745391.22744  23089351.6724                   23089350.9224
        41.0004         26.0004
   4257919.18846   3341661.70753  25027105.8984                   25027105.0554
        37.0004         19.0004
 -35804724.35548 -28093426.29748  20034210.7274                   20034209.6994
        49.7504         51.0004
   2717615.14147   2412854.24645  23788897.4304                   23788897.7974
        43.0004         33.7504
  12200343.73845   9538051.11744  25142115.0554                   25142117.5124
        34.2504         26.0004
   4784015.70746   3750273.98043  24658609.5634                   24658608.5314
        39.0004         21.5004
 -13408981.89547 -10418007.54346  21936870.0164                   21936867.1994
        45.5004         41.7504
 -31551813.00447 -23512786.99245  21311074.4924                   21311073.1214
        47.0004         34.7504
 -28904640.81247 -22479193.34047  21508435.1024                   21508435.2664
        45.0004         43.5004
 -14149647.39547 -10049986.38744  22093291.2034                   22093288.7034
        45.0004         29.5004
 25  7 16  1 40  0.0000000  0 10G01G02G03G09G06G28G31G04G26G16
 -11280672.03946  -8745381.81644  23089354.2114                   23089353.1564
        41.5004         26.0004
   4255657.56646   3339899.21542  25026676.5084                   25026676.1414
        37.2504         16.7504
 -35892014.97748 -28161444.96948  20017599.5704                   20017598.7504
        49.0004         51.0004
   2554024.50447   2285381.09045  23757766.6484                   23757766.9924
        42.5004         33.2504
  12065166.77345   9432718.47344  25116393.1024                   25116393.8484
        35.5004         25.5004
   4795726.33646   3759399.05943  24660837.3134                   24660836.4304
        38.7504         21.7504
 -13410217.25447 -10418970.17646  21936634.4924                   21936631.8014
        45.5004         41.0004
 -31681092.91447 -23613524.56645  21286473.7194                   21286472.1024
        47.0004         34.2504
 -28993265.24247 -22548251.33247  21491570.0394                   21491570.4064
        45.0004         43.7504
 -14319502.32047 -10182340.82445  22060968.7194                   22060966.4844
        44.5004         30.2504
 25  7 16  1 40 30.0000000  0 10G01G02G03G09G06G28G31G04G26G16
 -11280498.91446  -8745246.98444  23089386.6094                   23089386.3404
        40.7504         27.5004
   4253255.57046   3338027.30943  25026218.5944                   25026219.1294
        38.0004         18.5004
 -35978767.87548 -28229044.62548  20001090.9694                   20001090.2384
        48.2504         51.0004
   2390424.36747   2157900.52345  23726634.7034                   23726635.1764
        43.0004         34.0004
  11930443.36746   9327739.21143  25090755.5864                   25090756.3984
        36.0004         22.7504
   4807415.37946   3768507.27043  24663061.5784                   24663061.5824
        39.0004         21.0004
 -13411245.50447 -10419771.43446  21936439.2504                   21936435.5904
        45.0004         41.0004
 -31810261.17247 -23714175.14845  21261893.9694                   21261892.1174
        47.0004         34.5004
 -29081295.51647 -22616846.33247  21474818.7344                   21474818.5594
        45.2504         43.5004
 -14489008.84447 -10314423.77744  22028712.5864                   22028709.9804
        45.0004         29.7504
 25  7 16  1 41  0.0000000  0 10G01G02G03G09G06G28G31G04G26G16
 -11280168.56246  -8744989.63744  23089449.0634                   23089449.4844
        41.0004         26.0004
   4250710.53946   3336044.01643  25025733.7974                   25025735.0394
        38.5004         18.2504
 -36064982.84048 -28296225.10548  19984684.8524                   19984684.3874
        49.5004         51.0004
   2226814.46147   2030412.33645  23695500.7734                   23695500.9224
        43.0004         33.5004
  11796174.43446   9223114.07444  25065205.1414                   25065206.1094
        38.0004         24.5004
   4819080.88346   3777597.25843  24665281.4924                   24665280.5124
        39.5004         20.7504
 -13412069.87947 -10420413.82846  21936282.3914                   21936278.8834
        46.0004         40.7504
 -31939317.93047 -23814738.83645  21237335.5004                   21237333.7114
        47.0004         34.5004
 -29168731.77347 -22684978.47747  21458180.0084                   21458180.3404
        45.5004         43.7504
 -14658163.92247 -10446232.86744  21996523.7734                   21996521.2114
        45.5004         29.2504
 25  7 16  1 41 30.0000000  0 10G01G02G03G09G06G28G31G04G26G16
 -11279685.61746  -8744613.39544  23089541.6954                   23089541.0784
        40.7504         27.0004
   4248018.28146   3333945.85243  25025222.8834                   25025222.9414
        39.0004         19.2504
 -36150660.64848 -28362987.03148  19968380.9224                   19968380.4964
        49.2504         50.7504
   2063193.41847   1902915.46945  23664364.7344                   23664365.3324
        42.5004         33.5004
  11662359.69946   9118842.86744  25039741.0084                   25039742.2624
        37.5004         24.5004
   4830719.57046   3786666.34443  24667496.0704                   24667495.8134
        36.5004         19.5004
 -13412694.23847 -10420900.37146  21936163.2194                   21936159.9844
        45.5004         40.5004
 -32068264.36347 -23915216.55945  21212797.2734                   21212795.4964
        47.7504         34.7504
 -29255575.32047 -22752648.77047  21441654.0634                   21441654.4694
        45.2504         43.5004
 -14826965.96947 -10577766.89544  21964401.6024                   21964399.0394
        45.0004         29.5004
 25  7 16  1 42  0.0000000  0 10G01G02G03G09G06G28G31G04G26G16
 -11279049.10946  -8744117.48044  23089662.3284                   23089662.0904
        40.2504         26.7504
   4245180.88746   3331734.65642  25024682.3594                   25024682.7154
        36.0004         17.2504
 -36235796.48048 -28429326.64548  19952180.0554                   19952179.3714
        48.7504         51.0004
   1899565.62947   1775413.32845  23633227.9144                   23633227.3874
        42.2504         32.2504
  11529004.59846   9014929.81344  25014363.8984                   25014364.8794
        36.5004         24.7504
   4842333.91446   3795716.42243  24669707.2194                   24669705.4534
        38.7504         18.5004
 -13413117.27747 -10421230.04746  21936083.2974                   21936079.3014
        45.7504         41.0004
 -32197095.88347 -24015604.74245  21188281.5004                   21188280.0044
        46.7504         34.0004
 -29341821.70747 -22819853.73847  21425242.7114                   21425242.8444
        45.2504         43.5004
 -14995407.60247 -10709020.06644  21932348.2034                   21932345.7854
        45.0004         29.7504
 25  7 16  1 42 30.0000000  0 10G01G02G03G09G06G28G31G04G26G16
 -11278264.11746  -8743505.89544  23089811.7194                   23089811.6174
        41.0004         24.7504
   4242193.39846   3329406.53943  25024114.2974                   25024115.2974
        37.2504         19.2504
 -36320391.52748 -28495244.85948  19936082.2114                   19936081.5124
        50.5004         51.0004
   1735929.44547   1647904.67245  23602088.5234                   23602088.1604
        42.2504         31.2504
  11396108.46146   8911374.43444  24989074.9534                   24989076.4654
        37.2504         26.5004
   4853920.43446   3804744.81343  24671911.8284                   24671909.8954
        38.7504         19.5004
 -13413343.14147 -10421406.07046  21936040.0554                   21936036.9024
        46.5004         41.5004
 -32325814.03147 -24115904.56645  21163787.6724                   21163785.2584
        47.2504         34.2504
 -29427472.60947 -22886594.69147  21408943.6644                   21408943.2344
        45.2504         43.5004
 -15163487.22747 -10839991.15645  21900363.1484                   21900360.6764
        45.2504         30.5004
 25  7 16  1 43  0.0000000  0 10G01G02G03G09G06G28G31G04G26G16
 -11277333.77346  -8742781.04744  23089989.8444                   23089988.6334
        41.0004         24.7504
   4239053.77346   3326959.78143  25023519.2194                   25023517.4964
        38.7504         19.5004
 -36404445.14148 -28560741.18748  19920087.5784                   19920086.8954
        49.2504         50.7504
   1572285.05546   1520389.61745  23570947.5234                   23570947.3054
        40.7504         30.5004
  11263672.55946   8808177.67244  24963872.5784                   24963874.1954
        37.0004         25.2504
   4865477.52046   3813750.28543  24674110.3284                   24674109.8794
        38.0004         20.0004
 -13413374.35547 -10421430.41446  21936034.7734                   21936031.0394
        47.0004         41.7504
 -32454418.33647 -24216115.71545  21139314.8204                   21139312.8244
        47.7504         34.0004
 -29512527.78947 -22952871.44147  21392757.6174                   21392757.8594
        45.0004         43.5004
 -15331201.59447 -10970677.61745  21868448.3914                   21868446.0394
        44.7504         30.0004
 25  7 16  1 43 30.0000000  0 11G01G02G03G09G06G28G31G07G04G26G16
 -11276260.00846  -8741944.46544  23090193.9064                   23090193.1054
        41.5004         26.7504
   4235760.74246   3324393.47742  25022891.0864                   25022891.7974
        36.5004         17.2504
 -36487955.44548 -28625814.15248  19904195.8674                   19904195.0554
        48.0004         51.0004
   1408633.95346   1392869.33644  23539806.4454                   23539805.3524
        40.7504         29.2504
  11131699.32445   8705341.42244  24938759.4384                   24938760.5944
        35.2504         25.5004
   4877004.82046   3822732.57043  24676303.5394                   24676303.2154
        38.2504         20.2504
 -13413212.26247 -10421304.13746  21936064.9454                   21936061.6414
        46.5004         41.0004
  17016827.38756  13296480.83253  25205425.4614                   25205426.4024
        37.7504         19.7504
 -32582907.22747 -24316236.91845  21114863.8284                   21114861.9924
        47.5004         35.2504
 -29596985.93447 -23018682.97747  21376685.7344                   21376686.1484
        45.2504         43.5004
 -15498546.27747 -11101076.01245  21836603.4694                   21836601.2934
        45.5004         30.5004
 25  7 16  1 44  0.0000000  0 11G01G02G03G09G06G28G31G07G04G26G16
 -11275055.75846  -8741006.19144  23090422.8364                   23090422.4614
        41.5004         26.2504
   4232302.33645   3321698.31342  25022232.3204                   25022233.8674
        35.2504         16.7504
 -36570931.62948 -28690470.91448  19888406.2274                   19888405.3594
        49.5004         51.0004
   1244966.60246   1265336.38344  23508661.0944                   23508660.6804
        40.2504         29.7504
  11000180.16445   8602859.03144  24913732.1094                   24913733.2114
        35.0004         25.2504
   4888490.99646   3831682.71943  24678490.3984                   24678489.2814
        37.7504         21.5004
 -13412869.35247 -10421036.94546  21936129.9224                   21936126.6024
        46.0004         41.2504
  16845174.42646  13162725.44543  25172761.1644                   25172762.0634
        39.5004         20.7504
 -32711290.03547 -24416275.45745  21090433.4694                   21090432.0944
        47.0004         34.5004
 -29680856.59447 -23084036.74247  21360726.0314                   21360726.0004
        46.0004         43.5004
 -15665527.92247 -11231191.53545  21804828.2894                   21804825.6294
        45.7504         30.5004
 25  7 16  1 44 30.0000000  0 11G01G02G03G09G06G28G31G07G04G26G16
 -11273725.36746  -8739969.60244  23090675.7424                   23090675.7854
        41.2504         25.0004
   4228674.75445   3318871.38342  25021542.0864                   25021544.1684
        34.0004         15.5004
 -36653374.24648 -28754711.92248  19872717.5004                   19872717.2384
        50.0004         50.7504
   1081282.03546   1137790.02745  23477512.8984                   23477512.4964
        39.5004         30.5004
  10869115.08245   8500730.48443  24888791.2114                   24888792.7664
        35.2504         23.5004
   4899933.21146   3840598.73443  24680667.6024                   24680666.5314
        38.0004         22.5004
 -13412348.64547 -10420631.23046  21936229.0084                   21936225.4494
        46.0004         41.0004
  16673630.48846  13029054.93843  25140117.3524                   25140117.3714
        40.0004         20.5004
 -32839567.46947 -24516231.89845  21066023.6414                   21066021.5594
        47.2504         34.5004
 -29764140.84447 -23148933.54747  21344877.3594                   21344877.6684
        46.0004         43.7504
 -15832144.01647 -11361022.19145  21773122.0394                   21773120.0744
        45.0004         31.0004
 25  7 16  1 45  0.0000000  0 11G01G02G03G09G06G28G31G07G04G26G16
 -11272271.74646  -8738836.99244  23090952.9144                   23090952.4844
        41.0004         24.5004
   4224876.10255   3315911.14152  25020818.4144                   25020822.3714
        32.7504         17.2504
 -36735282.52048 -28818536.55948  19857131.1094                   19857130.2034
        49.2504         50.7504
    917580.75846   1010230.64145  23446361.2974                   23446361.3834
        38.5004         30.2504
  10738505.60946   8398956.88744  24863937.9534                   24863938.2704
        38.0004         28.2504
   4911330.20746   3849479.42243  24682836.8984                   24682835.6914
        37.0004         22.0004
 -13411652.99647 -10420089.18746  21936361.4534                   21936358.2234
        46.2504         41.5004
  16502197.15046  12895470.61743  25107494.9924                   25107494.9064
        41.5004         21.2504
 -32967738.94947 -24616105.77345  21041633.1094                   21041631.6764
        47.2504         34.5004
 -29846838.39847 -23213373.19547  21329141.0944                   21329141.0204
        45.2504         43.7504
 -15998391.72747 -11490565.79745  21741486.5164                   21741483.6484
        46.0004         31.0004
 25  7 16  1 45 30.0000000  0 11G01G02G03G09G06G28G31G07G04G26G16
 -11270694.94946  -8737608.38744  23091252.6804                   23091252.7544
        41.2504         25.5004
   4220904.03956   3313380.21554  25020090.1094                   25020080.8914
        36.5004         25.2504
 -36816652.75848 -28881941.96148  19841646.7734                   19841645.6524
        49.2504         51.0004
    753866.14846    882660.88345  23415207.4384                   23415207.7894
        37.0004         30.2504
  10608355.92245   8297541.59444  24839169.5944                   24839172.2154
        35.2504         28.5004
   4922683.58246   3858326.14543  24684997.7734                   24684996.9774
        37.7504         19.7504
 -13410781.53147 -10419410.16846  21936527.5554                   21936524.6054
        46.5004         41.0004
  16330877.50446  12761974.91044  25074893.6954                   25074894.3054
        41.5004         25.5004
 -33095800.86747 -24715894.28145  21017263.4454                   21017261.7034
        47.2504         34.5004
 -29928946.03947 -23277353.16847  21313516.0864                   21313516.1844
        45.7504         43.5004
 -16164264.09447 -11619816.94145  21709921.8524                   21709919.4884
        45.2504         30.7504
 25  7 16  1 46  0.0000000  0 11G01G02G03G09G06G28G31G07G04G26G16
 -11268991.78146  -8736281.32044  23091576.9144                   23091576.6214
        41.0004         25.5004
                                  25019288.7114                   25019290.0394
        43.5004         21.2504
 -36897478.11348 -28944922.76648  19826266.2664                   19826265.5944
        50.7504         50.7504
    590144.79346    755085.87145  23384052.7194                   23384052.8404
        38.5004         30.7504
  10478673.48846   8196490.41444  24814492.2344                   24814494.3284
        37.2504         29.2504
   4933997.82446   3867142.39543  24687150.7114                   24687149.5204
        37.5004         21.5004
 -13409730.22347 -10418590.98846  21936727.9774                   21936724.7344
        45.7504         41.0004
  16159679.12546  12628573.66844  25042315.0554                   25042316.5164
        41.5004         26.5004
 -33223746.48447 -24815592.15645  20992916.5634                   20992914.5864
        47.5004         35.0004
 -30010457.41447 -23340868.52747  21298005.0554                   21298005.2194
        46.7504         43.5004
 -16329751.48847 -11748768.09445  21678430.4304                   21678428.0394
        45.7504         31.0004
 25  7 16  1 46 30.0000000  0 11G01G02G03G09G06G28G31G07G04G26G16
 -11267168.50446  -8734860.68044  23091924.7814                   23091923.6954
        40.7504         26.0004
   4212451.98455   3309054.60253  25018457.5084                   25018459.3404
        35.0004         18.5004
 -36977761.20348 -29007481.02348  19810988.7894                   19810988.1054
        50.5004         50.7504
    426413.81346    627503.36745  23352895.5394                   23352895.8594
        37.2504         31.2504
  10349456.21945   8095801.67645  24789903.2274                   24789905.3794
        34.7504         30.7504
   4945268.77346   3875924.89143  24689295.2974                   24689294.6954
        37.0004         20.5004
 -13408505.07447 -10417636.35546  21936960.5394                   21936958.1094
        45.5004         40.7504
  15988599.71146  12495265.15243  25009759.4304                   25009760.5984
        39.2504         22.5004
 -33351578.41047 -24915201.45345  20968590.6094                   20968588.8754
        47.5004         35.0004
 -30091375.61747 -23403921.66847  21282606.4694                   21282607.2234
        46.0004         43.5004
 -16494854.21147 -11877419.51245  21647012.7344                   21647009.6724
        46.5004         32.0004
 25  7 16  1 47  0.0000000  0 11G01G02G03G09G06G28G31G07G04G26G16
  -9689805.04747  -7505746.38344  23392086.3594                   23392085.8634
        42.0004         28.0004
   5783393.25045   4533164.27342  25317398.0084                   25317401.6524
        35.0004         15.5004
 -35482075.50848 -27842011.65648  20095608.3134                   20095608.0274
        50.2504         50.7504
   1838102.40246   1727520.54345  23621530.5634                   23621531.0044
        38.2504         30.5004
  11796132.98446   9223082.33644  25065196.2584                   25065197.5904
        36.0004         29.0004
   6531917.64146   5112274.60243  24991223.8364                   24991224.1254
        37.0004         21.0004
 -11831684.98447  -9188945.40246  22237020.0234                   22237016.7704
        45.0004         41.0004
  17393069.28546  13589657.14844  25277020.6954                   25277022.5554
        37.5004         25.2504
 -31903868.61747 -23787115.89545  21244080.7114                   21244079.0904
        47.2504         35.5004
 -28596274.69147 -22238907.95347  21567115.0314                   21567115.2154
        47.0004         43.5004
 -15084140.02747 -10778161.62945  21915462.7894                   21915459.8834
        46.0004         31.0004
 25  7 16  1 47 30.0000000  0 11G01G02G03G09G06G28G31G07G04G26G16
  -9687744.94946  -7504141.22344  23392478.7894                   23392477.8094
        41.2504         26.0004
   5778740.55156   4529538.53152  25316514.5004                   25316515.9384
        36.0004         15.5004
 -35561266.46148 -27903718.90248  20080538.5474                   20080538.2544
        50.5004         50.5004
   1674359.31646   1599928.61345  23590371.4454                   23590371.4184
        38.7504         31.5004
  11667855.54745   9123125.95344  25040786.3914                   25040787.7234
        35.0004         27.5004
   6543103.02746   5120990.47343  24993353.0784                   24993352.3094
        37.7504         20.0004
 -11830112.72347  -9187720.28946  22237318.5554                   22237315.8444
        45.2504         41.2504
  17222236.57846  13456540.89144  25244512.5864                   25244514.1054
        37.2504         27.0004
 -32031465.68047 -23886542.17645  21219800.0164                   21219798.2274
        47.5004         35.2504
 -28676000.53147 -22301031.98447  21551943.9224                   21551943.9224
        47.2504         43.7504
 -15248457.31247 -10906201.01245  21884194.0084                   21884191.0704
        46.2504         31.2504
 25  7 16  1 48  0.0000000  0 10G01G03G09G06G28G31G07G04G26G16
  -9685570.37546  -7502446.86344  23392892.7584                   23392892.1024
        41.0004         26.5004
 -35639909.97748 -27964999.57848  20065573.6414                   20065573.0474
        50.5004         50.7504
   1510611.33246   1472332.85945  23559211.5784                   23559211.6604
        37.7504         33.0004
  11540050.39146   9023537.59444  25016464.9454                   25016466.3634
        37.0004         27.7504
   6554244.22346   5129671.90243  24995471.6334                   24995472.0864
        37.7504         20.0004
 -11828370.12547  -9186362.45746  22237650.2584                   22237647.3594
        44.7504         40.2504
  17051529.04346  13323522.13744  25212029.0004                   25212029.4574
        39.0004         29.5004
 -32158943.83247 -23985875.79745  21195541.8134                   21195540.3204
        47.5004         35.2504
 -28755129.55947 -22362690.95347  21536886.0314                   21536886.3134
        47.7504         43.5004
 -15412376.28547 -11033930.01245  21853001.4304                   21852998.0824
        46.2504         31.5004
 25  7 16  1 48 30.0000000  0 10G01G03G09G06G28G31G07G04G26G16
  -9683278.96946  -7500661.41844  23393329.1804                   23393328.6294
        41.2504         26.2504
 -35718000.08648 -28025849.03148  20050713.4924                   20050712.9064
        49.7504         50.7504
   1346864.20746   1344737.77345  23528050.2894                   23528050.8204
        37.2504         32.2504
  11412724.02346   8924322.32044  24992236.1174                   24992237.3594
        37.5004         28.0004
   6565345.20346   5138321.90643  24997586.1804                   24997584.3754
        37.5004         19.0004
 -11826453.96547  -9184869.37146  22238014.8834                   22238012.0784
        46.0004         40.5004
  16880953.05546  13190605.91444  25179568.3134                   25179570.6054
        36.5004         28.0004
 -32286297.14547 -24085112.14145  21171307.0234                   21171305.2934
        46.5004         35.2504
 -28833656.30547 -22423880.62147  21521942.7584                   21521942.8754
        47.0004         43.5004
 -15575888.37147 -11161341.98045  21821885.7894                   21821883.1334
        46.0004         31.2504
 25  7 16  1 49  0.0000000  0 10G01G03G09G06G28G31G07G04G26G16
  -9680875.73446  -7498788.86744  23393785.7734                   23393785.8324
        41.2504         26.7504
 -35795538.32448 -28086268.45348  20035958.6094                   20035957.6484
        49.5004         50.7504
   1183116.41846   1217142.19145  23496890.1644                   23496890.9774
        37.7504         34.5004
  11285875.56646   8825479.43044  24968098.0084                   24968098.3444
        38.0004         28.5004
   6576402.53945   5146937.97342  24999689.4224                   24999688.9614
        33.5004         17.7504
 -11824368.59847  -9183244.44546  22238411.9614                   22238408.7544
        44.7504         39.5004
  16710507.64846  13057791.44144  25147133.4304                   25147135.5164
        37.2504         28.0004
 -32413526.97747 -24184252.26245  21147096.3054                   21147094.2154
        47.5004         35.5004
 -28911582.89847 -22484602.64147  21507113.7114                   21507113.8524
        47.5004         43.7504
 -15738992.23447 -11288435.84045  21790847.8914                   21790845.4184
        45.7504         31.0004
 25  7 16  1 49 30.0000000  0 10G01G03G09G06G28G31G07G04G26G16
  -9678358.67646  -7496827.60244  23394265.5004                   23394265.1454
        41.2504         26.0004
 -35872519.03148 -28146253.42648  20021309.8054                   20021309.3014
        50.2504         50.7504
   1019373.46946   1089550.36745  23465731.3754                   23465731.8164
        39.0004         35.7504
  11159511.10246   8727013.63344  24944051.5554                   24944053.1764
        36.7504         28.2504
   6587420.09845   5155523.03142  25001785.7344                   25001785.4924
        35.2504         16.2504
 -11822110.95747  -9181485.28146  22238841.6254                   22238838.9414
        45.2504         40.0004
  16540198.89146  12925083.44944  25114725.6174                   25114726.2664
        36.7504         27.5004
 -32540627.65647 -24283291.74645  21122909.2034                   21122907.6174
        47.2504         35.2504
 -28988904.18747 -22544852.99647  21492400.4064                   21492400.3484
        47.2504         43.7504
 -15901679.61347 -11415205.17245  21759889.7584                   21759887.1094
        45.5004         31.5004
 25  7 16  1 50  0.0000000  0 10G01G03G09G06G28G31G07G04G26G16
  -9675735.94147  -7494784.00444  23394764.0784                   23394763.7234
        42.5004         27.5004
 -35948947.02348 -28205807.71948  20006765.5784                   20006764.8524
        50.2504         50.5004
    855630.64546    961958.64846  23434572.2734                   23434572.4804
        39.5004         36.0004
  11033626.81646   8628921.98844  24920096.8364                   24920097.2304
        36.5004         29.2504
   6598391.18045   5164071.89142  25003873.9844                   25003873.1054
        35.0004         17.7504
 -11819688.73047  -9179597.86746  22239302.6644                   22239299.2274
        45.0004         40.0004
  16370022.32446  12792478.48844  25082341.1954                   25082342.8484
        37.0004         27.7504
 -32667603.70747 -24382234.11345  21098746.8594                   21098745.3364
        46.5004         35.2504
 -29065625.51647 -22604635.84047  21477800.2894                   21477800.7774
        47.0004         43.7504
 -16063952.56247 -11541651.56645  21729010.1804                   21729007.4494
        46.0004         32.0004
 25  7 16  1 50 30.0000000  0 10G01G03G09G06G28G31G07G04G26G16
  -9673012.79347  -7492662.18444  23395282.5084                   23395282.2814
        42.0004         26.5004
 -36024824.03948 -28264932.66848  19992326.9064                   19992326.2584
        50.7504         50.5004
    691886.10546    834365.57446  23403412.8364                   23403412.9064
        39.0004         36.7504
  10908221.29746   8531203.47345  24896231.9384                   24896234.2234
        37.5004         31.0004
   6609312.24646   5172581.78943  25005952.5234                   25005951.9224
        36.2504         21.0004
 -11817106.54347  -9177585.81246  22239793.8204                   22239790.9144
        45.7504         40.0004
  16199976.44146  12659975.31644  25049983.4454                   25049984.0664
        36.5004         26.0004
 -32794456.73047 -24481080.60545  21074607.1724                   21074605.8364
        46.5004         35.2504
 -29141749.16447 -22663952.96147  21463315.0314                   21463314.8754
        47.2504         43.5004
 -16225809.45747 -11667773.77345  21698209.4924                   21698207.4224
        44.7504         32.0004
 25  7 16  1 51  0.0000000  0 10G01G03G09G06G28G31G07G04G26G16
  -9670191.71546  -7490464.05944  23395819.3984                   23395819.4384
        41.5004         25.5004
 -36100149.12148 -28323627.54348  19977993.1724                   19977992.3204
        50.5004         50.7504
    528140.87146    706771.96146  23372252.6644                   23372252.8484
        40.5004         37.2504
  10783296.20345   8433859.30144  24872460.2584                   24872461.5514
        35.5004         29.5004
   6620182.59446   5181052.12543  25008020.3984                   25008020.2154
        36.7504         19.2504
 -11814366.05547  -9175450.40646  22240315.7274                   22240312.6804
        45.7504         39.2504
  16030062.99645  12527575.37544  25017649.6094                   25017650.0354
        34.7504         26.0004
 -32921185.57847 -24579830.34445  21050491.7424                   21050489.9884
        46.2504         35.7504
 -29217274.70347 -22722804.02347  21448942.6334                   21448943.0664
        47.2504         43.7504
 -16387246.79347 -11793569.06245  21667489.0634                   21667486.4344
        45.2504         31.0004
 25  7 16  1 51 30.0000000  0 10G01G03G09G06G28G31G07G04G26G16
  -9667280.05146  -7488195.31644  23396372.9534                   23396373.5594
        41.5004         24.7504
 -36174926.25448 -28381895.43048  19963763.3444                   19963762.9414
        50.0004         50.5004
    364391.00446    579174.73046  23341091.9384                   23341092.3014
        41.7504         38.2504
  10658848.20346   8336886.85545  24848778.4304                   24848778.9574
        37.2504         30.5004
   6630996.55546   5189478.56342  25010079.2584                   25010078.3404
        37.5004         17.7504
 -11811473.66447  -9173196.62546  22240866.0944                   22240863.3954
        45.0004         39.2504
  15860278.26645  12395275.83244  24985339.6024                   24985340.7424
        35.5004         24.7504
 -33047793.98447 -24678486.23446  21026399.2034                   21026397.1914
        47.2504         36.0004
 -29292206.69547 -22781192.58647  21434683.5164                   21434684.0274
        47.2504         43.7504
 -16548265.60547 -11919038.22345  21636848.3444                   21636845.7274
        45.0004         31.5004
 25  7 16  1 52  0.0000000  0 10G01G03G09G06G28G31G07G04G26G16
  -9664286.13346  -7485862.52744  23396943.6484                   23396943.1914
        41.2504         25.0004
 -36249160.35248 -28439740.18448  19949636.9534                   19949636.1374
        50.7504         50.5004
    200631.66047    451570.10946  23309930.1804                   23309930.2894
        43.2504         37.7504
  10534872.93046   8240282.71944  24825186.7584                   24825187.8364
        39.0004         29.7504
   6641747.45346   5197855.82842  25012124.2584                   25012123.9104
        37.2504         17.2504
 -11808437.21947  -9170830.59846  22241444.0004                   22241440.6914
        44.5004         39.7504
  15690618.25446  12263073.34844  24953054.7734                   24953055.2774
        36.5004         24.0004
 -33174286.62547 -24777051.91845  21002327.8364                   21002326.2894
        47.0004         35.0004
 -29366550.64847 -22839122.93447  21420536.2194                   21420536.4224
        47.7504         43.7504
 -16708867.91447 -12044182.83645  21606286.7584                   21606284.1334
        45.0004         31.2504
 25  7 16  1 52 30.0000000  0 10G01G03G09G06G28G31G07G04G26G16
  -9661213.53947  -7483468.38344  23397527.5474                   23397528.2624
        42.0004         26.0004
 -36322851.65648 -28497161.97748  19935614.4844                   19935613.5124
        50.5004         50.5004
     36862.81347    323958.08646  23278765.9924                   23278765.5084
        43.2504         37.5004
  10411371.00046   8144047.44545  24801684.7424                   24801685.8014
        39.2504         30.2504
   6652433.40646   5206182.53142  25014158.0234                   25014157.5084
        36.7504         16.2504
 -11805259.52047  -9168354.50046  22242048.0864                   22242045.2114
        43.7504         39.5004
  15521082.55145  12130967.76243  24920792.4774                   24920793.3594
        35.5004         23.5004
 -33300663.34847 -24875527.27345  20978279.2734                   20978277.7894
        46.5004         35.7504
 -29440307.25847 -22896595.61747  21406501.3674                   21406501.1914
        47.5004         44.0004
 -16869051.28947 -12169001.00845  21575804.9144                   21575802.0864
        44.2504         32.0004
 25  7 16  1 53  0.0000000  0 10G01G03G09G06G28G31G07G04G26G16
  -9658066.26646  -7481016.05944  23398127.3984                   23398126.9454
        41.7504         25.0004
 -36396000.86748 -28554161.36348  19921694.4454                   19921693.6334
        50.7504         50.5004
   -126916.17247    196338.15646  23247599.8204                   23247599.4224
        43.0004         38.0004
  10288342.10946   8048180.77344  24778273.6724                   24778274.1724
        38.2504         29.0004
   6663052.19545   5214456.89542  25016179.0634                   25016177.7704
        35.5004         15.5004
 -11801943.68047  -9165770.75046  22242679.9924                   22242676.0554
        45.7504         39.5004
  15351671.46546  11998959.28144  24888554.8834                   24888555.4304
        37.5004         24.5004
 -33426924.57447 -24973912.62545  20954252.9844                   20954250.9534
        46.7504         35.5004
 -29513477.81247 -22953611.60947  21392577.0554                   21392577.5744
        47.0004         43.7504
 -17028813.62547 -12293491.07845  21545402.7584                   21545400.2114
        45.2504         31.7504
 25  7 16  1 53 30.0000000  0 10G01G03G09G06G28G31G07G04G26G16
  -9654846.34846  -7478507.14543  23398740.5864                   23398740.0474
        41.0004         23.2504
 -36468606.68448 -28610737.31648  19907878.3754                   19907877.2074
        50.0004         50.5004
   -290703.77346     68711.51646  23216431.7584                   23216431.9414
        41.5004         38.0004
  10165788.28546   7952684.30144  24754951.8834                   24754953.8714
        37.7504         29.2504
   6673603.47346   5222678.63342  25018186.7504                   25018185.5984
        36.5004         17.2504
 -11798491.10247  -9163080.47346  22243336.4064                   22243333.3914
        44.5004         38.7504
  15182386.64546  11867049.21944  24856341.8914                   24856341.6914
        37.5004         25.7504
 -33553068.62147 -25072206.68745  20930248.6094                   20930246.8014
        46.5004         35.0004
 -29586061.59447 -23010170.41047  21378764.8134                   21378765.4494
        47.0004         44.0004
 -17188150.57847 -12417649.69945  21515082.2034                   21515079.0944
        44.5004         32.0004
 25  7 16  1 54  0.0000000  0 10G01G03G09G06G28G31G07G04G26G16
  -9651557.24246  -7475944.32843  23399365.8204                   23399365.8754
        39.7504         22.7504
 -36540669.25848 -28666889.96948  19894164.7584                   19894164.3284
        49.7504         50.5004
   -454499.94147    -58921.82446  23185262.7814                   23185262.0204
        42.0004         38.0004
  10043710.13346   7857558.51244  24731721.0394                   24731722.8984
        37.5004         28.7504
   6684085.60545   5230846.46142  25020181.1484                   25020181.5314
        35.0004         16.2504
 -11794904.23047  -9160285.54346  22244019.2734                   22244015.6644
        45.7504         38.7504
  15013228.52746  11735237.87144  24824151.1094                   24824152.2344
        39.0004         27.5004
 -33679095.28547 -25170409.25845  20906266.2974                   20906264.3834
        46.7504         35.5004
 -29658059.32847 -23066272.53547  21365064.2424                   21365064.3954
        46.5004         43.5004
 -17347059.89847 -12541475.09045  21484842.5234                   21484839.7274
        44.5004         33.0004
 25  7 16  1 54 30.0000000  0 10G01G03G09G06G28G31G07G04G26G16
  -9648202.04746  -7473330.00443  23400003.8204                   23400004.5314
        40.5004         23.0004
 -36612188.52048 -28722619.28148  19880555.2584                   19880554.7544
        49.7504         50.5004
   -618304.38746   -186561.59446  23154091.8204                   23154090.9384
        41.5004         38.5004
   9922108.18446   7762803.85244  24708581.2664                   24708582.0044
        37.0004         26.5004
   6694497.18845   5238959.32842  25022162.9924                   25022163.4384
        33.5004         14.7504
 -11791185.51247  -9157387.87546  22244726.7034                   22244723.3634
        44.5004         39.0004
  14844197.84846  11603525.77744  24791985.7274                   24791986.5044
        39.5004         27.7504
 -33805003.97347 -25268519.90645  20882306.6414                   20882305.0204
        46.2504         35.2504
 -29729471.54347 -23121918.42247  21351475.0394                   21351474.9304
        47.0004         44.0004
 -17505537.89547 -12664964.39845  21454685.3054                   21454681.9064
        44.2504         32.0004
 25  7 16  1 55  0.0000000  0 10G01G03G09G06G28G31G07G04G26G16
  -9644782.12546  -7470665.23043  23400655.4144                   23400655.2034
        40.7504         22.5004
 -36683162.66848 -28777923.81648  19867049.2894                   19867048.5314
        50.0004         50.2504
   -782115.00447   -314206.17246  23122919.3284                   23122919.4924
        43.0004         38.0004
   9800984.91046   7668422.10544  24685532.1644                   24685533.1884
        37.5004         28.0004
   6704838.35245   5247017.34042  25024130.4144                   25024131.4804
        34.2504         16.2504
 -11787335.92647  -9154388.21546  22245459.6564                   22245456.7304
        45.0004         39.5004
  14675297.01246  11471914.89544  24759845.1334                   24759845.9804
        39.0004         26.5004
 -33930792.55947 -25366536.97745  20858369.8134                   20858368.0434
        46.5004         35.5004
 -29800296.99247 -23177107.07447  21337997.1644                   21337997.8284
        47.0004         43.2504
 -17663579.92647 -12788113.96945  21424610.7114                   21424607.5784
        44.2504         32.2504
 25  7 16  1 55 30.0000000  0 10G01G03G09G06G28G31G07G04G26G16
  -9641301.09046  -7467952.82843  23401317.9144                   23401317.4734
        41.0004         23.5004
 -36753591.96548 -28832803.78948  19853647.2504                   19853646.2344
        50.0004         50.5004
   -945931.75047   -441855.54746  23091746.1174                   23091745.2704
        42.7504         36.7504
   9680340.83646   7574413.75044  24662574.3204                   24662575.1374
        38.0004         27.7504
   6715107.59845   5255019.31342  25026084.5554                   25026085.6484
        33.0004         15.5004
 -11783357.75847  -9151288.38346  22246216.4304                   22246213.0124
        44.2504         38.2504
  14506526.10946  11340405.24644  24727729.0314                   24727729.1994
        39.5004         26.7504
 -34056460.70347 -25464460.19545  20834455.9924                   20834454.3284
        46.0004         35.5004
 -29870536.49647 -23231839.14847  21324631.0164                   21324631.5824
        47.0004         43.2504
 -17821183.32847 -12910921.77745  21394619.8204                   21394617.1214
        44.7504         32.0004
 25  7 16  1 56  0.0000000  0 10G01G03G09G06G28G31G07G04G26G16
  -8062345.92246  -6237598.27343  23701783.3284                   23701782.9844
        40.7504         22.5004
 -35248057.86748 -27659660.33648  20140140.5864                   20140140.0944
        49.7504         50.5004
    465667.38347    658091.89146  23360363.6484                   23360364.1094
        42.5004         36.7504
  11135596.72746   8708379.36745  24939500.1094                   24939502.2304
        36.2504         30.0004
   8300719.33245   6490560.87542  25327816.3364                   25327818.3054
        32.5004         13.7504
 -10203837.47747  -7920493.37946  22546789.2194                   22546786.2774
        44.2504         38.7504
  15913307.87946  12436598.98044  24995430.6414                   24995430.8554
        38.7504         26.2504
 -32606587.59047 -24334688.92646  21110357.9064                   21110355.6334
        45.5004         36.0004
 -28364772.15647 -22058516.27747  21611168.3284                   21611168.6954
        46.2504         43.2504
 -16402924.05547 -11805784.64145  21664505.3444                   21664502.8984
        44.7504         32.0004
 25  7 16  1 56 30.0000000  0 10G01G03G09G06G28G31G07G04G26G16
  -8058754.80946  -6234800.13343  23702466.4694                   23702466.6334
        40.5004         22.0004
 -35317400.31248 -27713693.42248  20126945.2504                   20126944.6484
        50.0004         50.5004
    301836.59447    530431.58246  23329187.9924                   23329188.2504
        42.7504         36.5004
  11015910.03146   8615117.01644  24916725.0474                   24916726.6374
        37.5004         29.0004
   8310837.656 5                  25329741.875
        31.500
 -10199612.25047  -7917201.02346  22547593.1724                   22547590.0744
        44.2504         38.7504
  15744796.56346  12305291.61344  24963363.1884                   24963364.3914
        38.5004         27.5004
 -32732016.21547 -24432425.49646  21086488.9534                   21086487.2074
        45.7504         36.0004
 -28433844.46947 -22112338.85947  21598024.2114                   21598024.7304
        46.5004         43.2504
 -16559644.60247 -11927904.50045  21634681.9924                   21634679.6604
        44.2504         32.5004
 25  7 16  1 57  0.0000000  0 10G01G03G09G06G28G31G07G04G26G16
  -8055112.15246  -6231961.80543  23703160.1564                   23703159.9494
        40.5004         22.5004
 -35386198.12148 -27767302.10948  20113853.5314                   20113852.9454
        49.2504         50.5004
    138000.56647    402767.19545  23298010.6174                   23298011.1484
        42.5004         35.7504
  10896704.15246   8522229.28944  24894040.7114                   24894041.8244
        36.5004         28.0004
   8320879.625 5                  25331653.750
        33.250
 -10195265.52047  -7913813.98046  22548420.3674                   22548417.3714
        44.7504         39.0004
  15576417.17246  12174087.03944  24931321.9534                   24931322.1954
        39.5004         27.5004
 -32857323.02047 -24530067.14845  21062644.4844                   21062642.6414
        46.0004         35.7504
 -28502332.81647 -22165706.39847  21584991.4534                   21584991.6994
        46.0004         43.2504
 -16715918.10547 -12049676.01245  21604944.9694                   21604942.1334
        44.2504         32.7504
 25  7 16  1 57 30.0000000  0 10G01G03G09G06G28G31G07G04G26G16
  -8051422.77346  -6229087.10943  23703862.0704                   23703862.3594
        40.0004         22.7504
 -35454453.03548 -27820487.76248  20100864.5634                   20100864.0394
        50.0004         50.5004
    -25842.07446    275097.66045  23266832.4384                   23266832.6644
        41.2504         35.0004
  10777977.94946   8429715.37945  24871448.0084                   24871448.8484
        36.5004         30.0004
   8330842.180 5                  25333549.531
        33.750
 -10190802.00047  -7910335.95746  22549269.8594                   22549267.0394
        44.7504         39.2504
  15408168.34046  12042984.20344  24899304.7504                   24899305.4494
        38.0004         27.0004
 -32982509.20347 -24627614.81645  21038821.9064                   21038820.7384
        46.0004         35.5004
 -28570239.63347 -22218620.79747  21572069.4924                   21572069.7774
        47.0004         43.2504
 -16871743.44547 -12171098.31645  21575291.8834                   21575289.3524
        45.0004         32.0004
 25  7 16  1 58  0.0000000  0 10G01G03G09G06G28G31G07G04G26G16
  -8047688.43046  -6226177.32443  23704572.3284                   23704573.2504
        40.2504         22.5004
 -35522163.82048 -27873249.41448  20087979.6724                   20087979.6134
        49.7504         50.5004
   -189689.58246    147424.33245  23235653.3754                   23235653.2974
        40.5004         33.0004
  10659733.50046   8337576.85945  24848946.1484                   24848947.5474
        37.5004         30.7504
   8340725.426 5                  25335430.016
        33.500
 -10186222.36747  -7906767.44546  22550141.4144                   22550138.2704
        45.2504         38.7504
  15240052.07846  11911984.62544  24867312.8364                   24867313.8204
        37.5004         25.0004
 -33107572.79347 -24725066.95345  21015023.5784                   21015021.5204
        46.2504         35.5004
 -28637564.16847 -22271081.47347  21559257.8204                   21559257.8674
        46.2504         43.2504
 -17027116.20747 -12292167.96945  21545725.4144                   21545722.5984
        44.2504         33.0004
 25  7 16  1 58 30.0000000  0 10G01G03G09G06G28G31G07G04G26G16
  -8043910.68446  -6223233.68043  23705291.2734                   23705291.8134
        39.7504         22.0004
 -35589328.91048 -27925585.84848  20075199.1484                   20075198.4064
        49.7504         50.5004
   -353539.87146     19748.82645  23204473.3284                   23204473.6054
        39.7504         33.2504
  10541972.89546   8245815.35945  24826537.4774                   24826538.8014
        37.7504         30.2504
   8350529.44915                  25337295.195
        31.000
 -10181527.25447  -7903108.93746  22551034.7194                   22551032.0514
        45.7504         39.0004
  15072070.75046  11781090.21144  24835346.7114                   24835347.6454
        37.5004         24.0004
 -33232511.59847 -24822421.86346  20991248.5634                   20991246.7114
        46.2504         36.0004
 -28704305.58247 -22323087.76247  21546557.4774                   21546557.7034
        46.2504         43.2504
 -17182031.82447 -12412881.38745  21516246.0004                   21516243.3244
        44.2504         32.2504
 25  7 16  1 59  0.0000000  0 10G01G03G09G06G28G31G07G04G26G16
  -8040092.98046  -6220258.96943  23706017.8444                   23706018.5394
        40.0004         21.5004
 -35655948.81648 -27977497.45348  20062521.7504                   20062520.8284
        49.7504         50.5004
   -517393.05546   -107928.91045  23173293.3284                   23173293.8984
        40.0004         33.5004
  10424696.41446   8154431.10244  24804221.0704                   24804221.3794
        37.5004         29.5004
   8360252.85215                  25339146.469
        31.750
 -10176719.28547  -7899362.49646  22551950.0394                   22551947.1804
        45.0004         39.7504
  14904224.44946  11650301.04344  24803407.2814                   24803407.6414
        38.0004         25.0004
 -33357325.43747 -24919679.37545  20967497.1484                   20967495.2464
        46.0004         35.5004
 -28770464.87147 -22374640.44947  21533967.9064                   21533968.1914
        46.7504         43.0004
 -17336487.78147 -12533236.63745  21486853.9224                   21486850.8984
        45.0004         32.0004
 25  7 16  1 59 30.0000000  0 10G01G03G09G06G28G31G07G04G26G16
  -8036240.61746  -6217257.23843  23706751.0864                   23706751.6094
        39.0004         22.2504
 -35722025.82448 -28028986.03548  20049947.3524                   20049947.0354
        49.2504         50.5004
   -681250.77046   -235610.19545  23142112.3204                   23142112.3204
        40.0004         33.5004
  10307902.25045   8063422.71544  24781994.8834                   24781996.2384
        35.5004         27.7504
   8369892.000 4                  25340980.930
        28.500
 -10171802.81247  -7895531.51646  22552884.9454                   22552882.4964
        43.7504         38.5004
  14736511.84046  11519616.04344  24771492.2034                   24771492.3324
        39.5004         25.7504
 -33482015.81647 -25016840.69546  20943769.1644                   20943767.5634
        45.0004         36.2504
 -28836045.00847 -22425741.85547  21521487.9304                   21521488.8754
        46.7504         43.0004
 -17490483.59847 -12653233.32845  21457549.7424                   21457546.5314
        45.0004         33.0004
 25  7 16  2  0  0.0000000  0 10G01G03G09G06G28G31G07G04G26G16
  -8032352.22746  -6214227.45743  23707491.3284                   23707491.4454
        38.7504         22.0004
 -35787555.67248 -28080048.25048  20037477.7584                   20037476.7234
        48.7504         50.2504
   -845108.11346   -363291.20745  23110931.6954                   23110931.2774
        40.2504         33.5004
  10191595.47745   7972794.05544  24759862.9064                   24759863.2774
        35.0004         25.0004
   8379450.15614                  25342799.086
        29.500
 -10166775.94547  -7891614.52346  22553842.4384                   22553839.3094
        44.5004         38.7504
  14568938.05546  11389039.18444  24739604.2894                   24739604.0204
        40.0004         26.5004
 -33606577.76647 -25113901.93046  20920065.6644                   20920063.9104
        46.2504         36.0004
 -28901042.30147 -22476389.09047  21509119.7034                   21509119.6954
        46.2504         43.0004
 -17644011.96547 -12772865.78145  21428334.1024                   21428330.8364
        44.5004         32.5004
 25  7 16  2  0 30.0000000  0 10G01G03G09G06G28G31G07G04G26G16
  -8028436.54346  -6211176.41443  23708236.3284                   23708236.6094
        39.2504         22.5004
 -35852544.22348 -28130688.69948  20025110.7034                   20025110.2344
        49.5004         50.2504
  -1008970.43446   -490976.09445  23079748.8364                   23079749.2234
        39.0004         33.0004
  10075770.78946   7882541.04344  24737821.6024                   24737822.3634
        36.0004         25.0004
   8388920.125 5                  25344601.047
        31.500
 -10161646.37147  -7887617.49246  22554818.3984                   22554814.8954
        44.0004         38.5004
  14401497.91446  11258566.50144  24707741.6094                   24707741.6804
        40.2504         26.5004
 -33731016.33247 -25210867.02045  20896385.7584                   20896384.2814
        47.2504         35.7504
 -28965463.23447 -22526587.21947  21496861.0234                   21496860.7464
        46.7504         43.0004
 -17797075.27347 -12892135.84045  21399206.7894                   21399203.8834
        44.7504         32.5004
 25  7 16  2  1  0.0000000  0 10G01G03G09G06G28G31G07G04G26G16
  -8024490.79346  -6208101.91043  23708987.6954                   23708987.8874
        39.0004         22.5004
 -35916985.71948 -28180902.86348  20012847.8674                   20012847.3014
        50.0004         50.0004
  -1172831.30946   -618659.84045  23048567.4224                   23048567.5434
        40.2504         33.7504
   9960434.69545   7792668.75444  24715873.6024                   24715874.6454
        35.7504         26.7504
   8398306.81315                  25346387.156
        30.000
 -10156410.66047  -7883537.76646  22555814.3914                   22555811.6844
        43.7504         39.0004
  14234197.64146  11128202.78944  24675905.2344                   24675905.0784
        41.2504         28.5004
 -33855324.98047 -25307730.87946  20872730.6334                   20872728.9384
        46.5004         36.5004
 -29029302.67647 -22576332.23447  21484712.6094                   21484712.8714
        46.0004         43.0004
 -17949665.10947 -13011036.95345  21370170.1804                   21370167.6294
        45.5004         33.5004
 25  7 16  2  1 30.0000000  0 10G01G03G09G06G28G31G07G04G26G16
  -8020520.98446  -6205008.66043  23709743.1724                   23709743.7234
        39.2504         22.5004
 -35980883.38748 -28230693.26648  20000688.5004                   20000687.6054
        48.0004         50.0004
  -1336693.23046   -746344.42245  23017385.1954                   23017385.6134
        40.0004         34.0004
   9845584.64145   7703175.21544  24694019.5704                   24694020.2034
        33.5004         26.0004
   8407605.652 5                  25348156.469
        31.500
 -10151073.78147  -7879379.21146  22556829.9384                   22556827.5204
        44.0004         39.0004
  14067035.07846  10997946.37544  24644094.7894                   24644095.0044
        39.5004         28.5004
 -33979506.00447 -25404495.28946  20849100.1024                   20849098.1564
        47.2504         36.5004
 -29092564.47747 -22625627.13747  21472674.1804                   21472674.3444
        44.7504         42.5004
 -18101781.71947 -13129569.33245  21341223.2114                   21341220.1134
        45.5004         32.5004
 25  7 16  2  2  0.0000000  0 10G01G03G09G06G28G31G07G04G26G16
  -8016531.35246  -6201900.00044  23710502.1254                   23710503.1884
        39.5004         25.0004
 -36044238.60948 -28280060.98848  19988632.5634                   19988631.8324
        48.2504         50.0004
  -1500556.97346   -874030.40645  22986203.5784                   22986203.1174
        40.5004         34.7504
   9731220.04345   7614060.01244  24672256.6724                   24672257.3284
        34.5004         29.0004
   8416814.754 5                  25349909.688
        31.000
 -10145639.18047  -7875144.48046  22557864.0084                   22557861.7544
        42.7504         38.7504
  13900009.65246  10867796.83644  24612311.0314                   24612312.0984
        39.5004         29.0004
 -34103559.96947 -25501160.70346  20825493.0944                   20825491.4804
        46.0004         36.0004
 -29155250.62147 -22674473.47347  21460745.5234                   21460745.5554
        45.5004         42.7504
 -18253423.53547 -13247731.74645  21312367.1564                   21312363.5274
        45.0004         33.0004
 25  7 16  2  2 30.0000000  0 10G01G03G09G06G28G31G07G04G26G16
  -8012523.57046  -6198777.16044  23711265.5554                   23711265.8244
        40.7504         25.2504
 -36107050.20748 -28329005.09448  19976679.6334                   19976679.2154
        48.2504         50.0004
  -1664420.56646  -1001716.28545  22955021.3984                   22955021.3954
        40.7504         35.2504
   9617342.44545   7525324.28544  24650585.7114                   24650587.6994
        35.7504         29.7504
   8425933.902 4                  25351646.023
        28.250
 -10140107.61747  -7870834.22746  22558916.9924                   22558914.2734
        43.5004         38.5004
  13733123.24646  10737755.64144  24580552.6564                   24580554.2304
        39.2504         27.2504
 -34227484.81647 -25597725.48446  20801911.0704                   20801909.2074
        45.5004         36.0004
 -29217360.59847 -22722870.85547  21448926.3594                   21448926.4494
        45.7504         42.7504
 -18404586.19147 -13365520.79745  21283601.4304                   21283598.4224
        45.7504         32.7504
 25  7 16  2  3  0.0000000  0 10G01G03G09G06G28G31G07G04G26G16
  -8008500.53546  -6195642.47344  23712030.7894                   23712031.6024
        40.5004         25.7504
 -36169318.30948 -28377525.69948  19964830.7274                   19964830.0234
        48.5004         50.0004
  -1828283.33646  -1129401.52045  22923838.9844                   22923839.0744
        40.7504         35.0004
   9503952.60946   7436968.58245  24629008.6024                   24629010.0084
        38.2504         30.0004
   8434962.410 4                  25353364.102
        29.250
 -10134481.33247  -7866450.14146  22559987.7424                   22559985.0664
        43.0004         38.5004
  13566376.57046  10607823.30544  24548822.4384                   24548822.6564
        39.0004         27.2504
 -34351279.65247 -25694188.97745  20778353.6884                   20778351.6374
        45.7504         35.5004
 -29278895.13747 -22770819.83647  21437216.6024                   21437216.8444
        45.5004         42.7504
 -18555266.51247 -13482933.98845  21254928.1174                   21254924.6884
        45.2504         33.5004
 25  7 16  2  3 30.0000000  0  9G01G03G09G06G31G07G04G26G16
  -8004463.88746  -6192497.15644  23712799.0234                   23712799.4344
        39.7504         25.7504
 -36231041.91048 -28425622.03148  19953085.1954                   19953084.2544
        48.0004         50.0004
  -1992143.52046  -1257084.75045  22892657.0314                   22892657.1564
        41.2504         34.5004
   9391052.14146   7348994.19145  24607525.0394                   24607525.6884
        37.5004         31.2504
 -10128760.83647  -7861992.67246  22561076.5944                   22561073.3244
        44.0004         38.5004
  13399771.79746  10478001.51644  24517118.5394                   24517118.8284
        38.7504         27.7504
 -34474942.52047 -25790549.64845  20754821.3674                   20754819.2384
        45.5004         35.7504
 -29339853.82847 -22818320.10947  21425616.7194                   21425616.8554
        45.0004         42.7504
 -18705460.65247 -13599968.34445  21226347.1094                   21226343.6804
        45.0004         33.0004
 25  7 16  2  4  0.0000000  0  9G01G03G09G06G31G07G04G26G16
  -8000417.16846  -6189343.99644  23713569.8054                   23713570.0664
        41.2504         25.0004
 -36292221.79348 -28473294.67648  19941442.7974                   19941442.2304
        48.0004         49.7504
  -2156001.04747  -1384765.90646  22861476.3284                   22861476.2894
        42.0004         36.0004
   9278640.97746   7261401.07845  24586133.0474                   24586134.4574
        37.2504         30.5004
 -10122949.22747  -7857464.20746  22562182.4774                   22562179.4264
        42.7504         38.0004
  13233308.68446  10348290.14144  24485441.5234                   24485442.0824
        37.7504         27.2504
 -34598473.23847 -25886807.33646  20731314.2034                   20731312.1294
        45.7504         36.0004
 -29400238.15647 -22865372.82847  21414125.7344                   21414126.3954
        45.0004         43.0004
 -18855166.33247 -13716622.08645  21197858.7344                   21197855.9574
        45.5004         33.0004
 25  7 16  2  4 30.0000000  0  9G01G03G09G06G31G07G04G26G16
  -7996359.84846  -6186182.60244  23714341.6954                   23714342.0004
        40.7504         25.7504
 -36352854.73048 -28520541.12548  19929904.9844                   19929904.2854
        48.5004         50.0004
  -2319851.85247  -1512441.82446  22830296.9454                   22830296.2624
        42.5004         36.2504
   9166722.88746   7174192.20345  24564835.4224                   24564837.1884
        37.2504         31.2504
 -10117044.75447  -7852863.35246  22563305.5004                   22563302.7814
        44.2504         37.7504
  13066991.40646  10218692.37544  24453792.4224                   24453792.3874
        37.7504         27.0004
 -34721867.54347 -25982958.72346  20707832.8444                   20707831.2854
        45.5004         36.2504
 -29460045.47747 -22911975.93447  21402744.5634                   21402745.2074
        45.0004         42.5004
 -19004377.29747 -13832890.34045  21169465.0944                   21169462.0904
        45.2504         33.0004
 25  7 16  2  5  0.0000000  0  9G01G03G09G06G31G07G04G26G16
  -6416869.51646  -4955411.02344  24014909.2344                   24014909.4304
        40.5004         25.0004
 -34837513.50448 -27339755.75848  20218264.9224                   20218264.3204
        48.2504         50.0004
   -908264.29747   -412503.44945  23098912.7504                   23098912.3094
        42.7504         35.7504
  10630727.59446   8314975.12144  24843426.0944                   24843427.9964
        37.0004         29.2504
  -8535624.23847  -6620587.64546  22864239.9614                   22864237.5124
        44.5004         38.0004
  14476251.87546  11316817.59444  24721965.1024                   24721965.7274
        37.7504         26.7504
 -33269694.99647 -24851395.68446  20984172.1334                   20984170.1294
        47.0004         36.0004
 -27943849.27047 -21730524.33247  21691267.1644                   21691267.8554
        44.5004         42.5004
 -17577660.12547 -12721162.63345  21440960.2664                   21440957.0744
        45.2504         33.5004
 25  7 16  2  5 30.0000000  0  9G01G03G09G06G31G07G04G26G16
  -6412794.08246  -4952235.45744  24015683.3984                   24015684.8954
        39.7504         25.0004
 -34897047.72348 -27386146.04748  20206935.8524                   20206934.9064
        48.0004         50.0004
  -1072094.03147   -540162.93746  23067737.0084                   23067737.1524
        42.7504         36.7504
  10519802.75446   8228540.20745  24822318.3284                   24822319.8554
        38.0004         30.0004
  -8529534.69947  -6615842.59046  22865399.2664                   22865396.7664
        44.5004         39.5004
  14310234.17646  11187453.32044  24690373.0004                   24690373.3134
        39.0004         28.2504
 -33392808.36747 -24947328.18745  20960744.8134                   20960742.8524
        46.2504         35.7504
 -28002499.70347 -21776225.96547  21680106.5164                   21680106.8794
        44.5004         42.5004
 -17725867.35547 -12836648.74645  21412757.4614                   21412754.3054
        45.0004         33.5004
 25  7 16  2  6  0.0000000  0  9G01G03G09G06G31G07G04G26G16
  -6408718.55546  -4949059.84844  24016459.6334                   24016461.0744
        39.5004         24.5004
 -34956037.68048 -27432112.25048  20195710.2894                   20195709.4414
        48.7504         50.0004
  -1235916.97747   -667817.13346  23036562.0394                   23036562.4264
        42.2504         37.0004
  10409370.47346   8142489.06344  24801303.6024                   24801304.7384
        38.0004         27.7504
  -8523360.26647  -6611031.37146  22866573.9924                   22866571.4144
        43.0004         37.5004
  14144362.28546  11058202.67644  24658808.4774                   24658808.7304
        37.2504         28.2504
 -33515784.72747 -25043153.92246  20937342.8754                   20937341.1454
        46.7504         36.2504
 -28060577.79347 -21821481.61347  21669054.5004                   21669054.6524
        45.5004         42.5004
 -17873573.47347 -12951744.38345  21384649.8444                   21384646.2624
        45.5004         33.7504
 25  7 16  2  6 30.0000000  0  9G01G03G09G06G31G07G04G26G16
  -6404650.70346  -4945890.22743  24017234.1254                   24017235.3364
        39.2504         22.7504
 -35014488.55148 -27477658.39848  20184587.7194                   20184586.8834
        49.0004         50.0004
  -1399737.21147   -795469.22746  23005388.9144                   23005388.5354
        43.0004         37.0004
  10299426.22746   8056818.21944  24780382.1334                   24780382.8164
        37.0004         26.7504
  -8517107.73447  -6606159.31646  22867763.9064                   22867761.0124
        44.0004         37.5004
  13978632.12346  10929062.47044  24627271.1334                   24627271.3014
        39.7504         27.2504
 -33638627.99647 -25138875.93746  20913966.6724                   20913964.8754
        46.5004         36.5004
 -28118089.23847 -21866295.72347  21658110.3524                   21658110.6844
        46.5004         42.5004
 -18020779.98847 -13066450.71945  21356637.2344                   21356633.9804
        45.0004         34.0004
 25  7 16  2  7  0.0000000  0  9G01G03G09G06G31G07G04G26G16
  -6400594.14546  -4942729.41043  24018005.1954                   24018006.9224
        37.7504         22.7504
 -35072401.38748 -27522785.29748  20173566.8914                   20173566.2114
        48.2504         50.0004
  -1563554.78547   -923119.23846  22974215.0004                   22974215.1764
        43.2504         36.7504
  10189969.59846   7971527.31644  24759553.4064                   24759554.1334
        37.5004         28.0004
  -8510780.08647  -6601228.70746  22868967.5944                   22868964.7774
        43.0004         37.0004
  13813043.82046  10800032.79344  24595760.3444                   24595760.7234
        37.7504         28.5004
 -33761338.15647 -25234494.23846  20890615.7974                   20890613.9574
        47.7504         36.7504
 -28175035.79347 -21910669.66447  21647273.7584                   21647274.6024
        44.5004         42.5004
 -18167485.14847 -13180766.38745  21328719.6954                   21328716.7934
        45.2504         33.7504
 25  7 16  2  7 30.0000000  0  9G01G03G09G06G31G07G04G26G16
  -6396554.86746  -4939582.03143  24018774.0554                   24018775.4804
        38.5004         21.5004
 -35129779.72348 -27567495.69548  20162648.3204                   20162647.6844
        48.7504         49.7504
  -1727372.20347  -1050769.13346  22943041.9454                   22943041.4104
        43.7504         36.7504
  10080997.84046   7886614.30945  24738816.5704                   24738818.1724
        37.7504         30.0004
  -8504382.47747  -6596243.58646  22870185.5234                   22870181.8594
        42.5004         37.0004
  13647594.67246  10671111.55144  24564276.4614                   24564276.5514
        38.2504         27.7504
 -33883917.47347 -25330010.59446  20867289.8134                   20867287.7704
        47.5004         37.0004
 -28231421.60247 -21954606.64147  21636544.1334                   21636544.3714
        44.7504         42.5004
 -18313689.52347 -13294691.82845  21300898.6564                   21300894.7194
        45.2504         33.5004
 25  7 16  2  8  0.0000000  0  9G01G03G09G06G31G07G04G26G16
  -6392534.67246  -4936449.53543  24019540.0634                   24019540.2854
        37.7504         21.0004
 -35186622.82847 -27611789.02048  20151831.6024                   20151830.6604
        47.7504         49.5004
  -1891187.75047  -1178417.55145  22911868.4064                   22911868.5084
        42.2504         35.5004
   9972512.22746   7802080.07845  24718172.1094                   24718173.4104
        39.0004         30.7504
  -8497915.45347  -6591204.38346  22871416.7034                   22871413.2234
        43.5004         37.5004
  13482286.38746  10542300.05944  24532819.0084                   24532819.6094
        37.0004         29.2504
 -34006364.00847 -25425423.47745  20843988.9304                   20843986.8404
        47.2504         35.7504
 -28287246.67647 -21998106.70347  21625921.0634                   21625921.5434
        44.5004         42.5004
 -18459389.46147 -13408224.21545  21273172.3284                   21273168.9964
        46.0004         33.2504
 25  7 16  2  8 30.0000000  0  9G01G03G09G06G31G07G04G26G16
  -6388531.52046  -4933330.35943  24020302.2274                   24020302.4534
        37.0004         22.0004
 -35242926.18448 -27655661.78548  20141117.3444                   20141116.9614
        48.5004         49.7504
  -2054995.59047  -1306059.97746  22880697.4534                   22880696.4534
        42.5004         36.0004
   9864518.13346   7717928.82445  24697622.6884                   24697622.6334
        39.0004         31.2504
  -8491376.16447  -6586108.85946  22872660.9304                   22872658.4734
        42.5004         37.0004
  13317124.47746  10413602.62544  24501389.5084                   24501389.7114
        37.0004         29.0004
 -34128671.88747 -25520728.31246  20820713.8914                   20820712.6254
        46.7504         36.0004
 -28342507.03547 -22041166.71547  21615405.3054                   21615405.6564
        45.5004         42.5004
 -18604576.99647 -13521357.32445  21245544.1334                   21245540.7034
        45.2504         33.5004
 25  7 16  2  9  0.0000000  0  9G01G03G09G06G31G07G04G26G16
  -6384555.58246  -4930232.38343  24021057.9534                   24021058.9774
        36.5004         18.5004
 -35298697.67648 -27699120.10248  20130504.4774                   20130503.7854
        48.0004         49.7504
  -2218802.57447  -1433701.72345  22849525.9454                   22849525.4344
        42.2504         34.7504
   9757008.26646   7634154.91845  24677163.7194                   24677164.5044
        38.0004         30.2504
  -8484774.09447  -6580964.41846  22873916.5784                   22873914.6884
        42.0004         37.0004
  13152102.32446  10285014.06345  24469986.6024                   24469987.5004
        37.2504         30.2504
 -34250847.73847 -25615930.26646  20797465.0314                   20797463.0474
        47.7504         36.0004
 -28397211.20747 -22083793.34847  21604995.6954                   21604995.6484
        45.0004         42.7504
 -18749256.90247 -13634094.89145  21218012.4924                   21218008.9414
        46.5004         34.5004
 25  7 16  2  9 30.0000000  0  9G01G03G09G06G31G07G04G26G16
  -6380608.88746  -4927157.20743  24021809.1564                   24021810.8404
        36.7504         20.5004
 -35353936.91048 -27742163.68748  20119992.7274                   20119992.2814
        48.7504         49.7504
  -2382607.10947  -1561341.57445  22818354.8594                   22818353.8094
        42.0004         35.2504
   9649983.68446   7550759.13345  24656797.1254                   24656798.4964
        38.7504         30.7504
  -8478110.23447  -6575771.80946  22875185.4144                   22875182.2974
        43.5004         36.7504
  12987221.21146  10156535.40245  24438610.8914                   24438611.6174
        39.0004         31.5004
 -34372889.83247 -25711027.98846  20774241.3284                   20774239.3324
        47.0004         36.0004
 -28451359.47747 -22125986.80547  21594690.9304                   21594691.2194
        46.2504         42.2504
 -18893426.15647 -13746434.53545  21190578.5234                   21190574.6994
        45.7504         33.5004
 25  7 16  2 10  0.0000000  0  9G01G03G09G06G31G07G04G26G16
  -6376689.10546  -4924102.97343  24022555.6804                   24022556.4774
        37.0004         21.2504
 -35408639.07448 -27784788.77748  20109583.3284                   20109582.5664
        49.2504         50.0004
  -2546403.19947  -1688974.83645  22787185.8754                   22787184.5004
        42.2504         35.2504
   9543449.99246   7467745.84445  24636525.1254                   24636525.8244
        38.5004         30.7504
  -8471381.37147  -6570528.54746  22876465.6804                   22876461.7894
        43.5004         36.0004
  12822487.00446  10028171.20745  24407263.3754                   24407263.8244
        40.0004         32.0004
 -34494791.98047 -25806016.67246  20751043.9384                   20751041.8914
        46.5004         36.2504
 -28504947.69947 -22167743.85947  21584493.5164                   21584494.0204
        46.0004         42.5004
 -19037075.87947 -13858369.35545  21163241.9384                   21163239.0434
        45.5004         33.5004
 25  7 16  2 10 30.0000000  0  9G01G03G09G06G31G07G04G26G16
  -6372804.00846  -4921075.77343  24023294.9224                   24023295.9654
        37.5004         21.7504
 -35462809.78148 -27826999.74648  20099274.8134                   20099274.2034
        49.7504         49.7504
  -2710195.18447  -1816604.91045  22756016.6094                   22756016.0394
        42.5004         35.7504
   9437402.20746   7385111.19945  24616344.7344                   24616345.3524
        36.5004         31.2504
  -8464594.31447  -6565239.96945  22877757.2114                   22877753.3594
        44.0004         35.7504
  12657895.34446   9899918.10545  24375942.5784                   24375942.4104
        40.2504         32.2504
 -34616558.37947 -25900899.57846  20727872.8524                   20727870.5824
        46.7504         36.5004
 -28557982.10947 -22209069.37547  21574401.7504                   21574401.6054
        46.2504         42.2504
 -19180208.88347 -13969901.52745  21136004.7734                   21136002.0394
        45.7504         33.5004
 25  7 16  2 11  0.0000000  0  9G01G03G09G06G31G07G04G26G16
  -6368954.10546  -4918076.00043  24024027.7344                   24024028.8914
        38.0004         22.7504
 -35516447.15648 -27868795.13748  20089067.9384                   20089067.0554
        49.7504         49.7504
  -2873979.93047  -1944229.32045  22724849.7034                   22724849.2624
        42.0004         35.7504
   9331842.91046   7302857.21144  24596256.9844                   24596258.3094
        37.7504         29.5004
  -8457748.50847  -6559905.60946  22879059.9224                   22879056.6604
        44.2504         36.7504
  12493448.87546   9771778.14145  24344649.8134                   24344649.1174
        41.5004         31.7504
 -34738185.77047 -25995674.16846  20704727.6954                   20704726.1684
        46.2504         36.2504
 -28610461.46947 -22249962.39847  21564415.2194                   21564415.3674
        45.7504         42.2504
 -19322820.35547 -14081027.30145  21108866.8284                   21108863.7854
        46.2504         33.5004
 25  7 16  2 11 30.0000000  0  9G01G03G09G06G31G07G04G26G16
  -6365141.11346  -4915104.98043  24024753.2734                   24024755.0234
        38.0004         20.7504
 -35569550.59048 -27910174.43448  20078962.6804                   20078962.1094
        49.2504         49.7504
  -3037755.55547  -2071846.62546  22693683.7974                   22693683.6134
        42.5004         36.7504
   9226773.24246   7220984.73844  24576263.5554                   24576263.9024
        39.0004         29.0004
  -8450845.16847  -6554526.42646  22880373.7274                   22880371.0434
        42.5004         36.7504
  12329149.32847   9643752.65245  24313384.9844                   24313384.1724
        42.0004         31.7504
 -34859672.14547 -26090338.85946  20681609.7504                   20681607.6454
        46.7504         36.0004
 -28662385.92647 -22290423.01247  21554534.2344                   21554534.2974
        46.2504         42.0004
 -19464906.69947 -14191743.87945  21081828.6724                   21081825.2974
        45.7504         33.7504
