     2.11           OBSERVATION DATA    G (GPS)             RINEX VERSION / TYPE
teqc  2019Feb25                         20250819 03:23:48UTCPGM / RUN BY / DATE
Linux 2.6.32-573.12.1.x86_64|x86_64|gcc -static|Linux 64|=+ COMMENT
BIT 2 OF LLI FLAGS DATA COLLECTED UNDER A/S CONDITION       COMMENT
38333560                                                    MARKER NAME
3833                                                        MARKER NUMBER
-Unknown-           -Unknown-                               OBSERVER / AGENCY
0440103833          TRIMBLE 5700        2.32                REC # / TYPE / VERS
-Unknown-           TRM39105.00     NONE                    ANT # / TYPE
 -2403216.1483 -4605389.6506  3689993.4990                  APPROX POSITION XYZ
        0.0000        0.0000        0.0000                  ANTENNA: DELTA H/E/N
     1     1                                                WAVELENGTH FACT L1/2
     7    L1    L2    C1    P1    P2    S1    S2            # / TYPES OF OBSERV
    18                                                      LEAP SECONDS
 SNR is mapped to RINEX snr flag value [0-9]                COMMENT
  L1 & L2: min(max(int(snr_dBHz/6), 0), 9)                  COMMENT
  2005    12    22    17    35    0.0000000     GPS         TIME OF FIRST OBS
                                                            END OF HEADER
 05 12 22 17 35  0.0000000  0  4G18G27G23G10
    -28676.35957    -14768.91456  20958916.4064                   20958917.4734
        47.5004         39.2504
   -198632.25857   -120528.70756  21926028.4774                   21926030.8954
        45.0004         41.5004
    -25487.16457    -13049.83656  20523722.2734                   20523722.1294
        46.0004         36.2504
   -115344.31658    -56986.75057  21435899.8284                   21435902.6564
        48.5004         47.5004
 05 12 22 17 35 30.0000000  0  9G18G15G27G32G23G24G29G16G10
    -49355.31647    -30882.40646  20954981.8204                   20954981.8834
        46.2504         37.2504
     77826.72757     44214.39556  22476215.9454                   22476217.9264
        42.2504         37.5004
   -301005.16047   -200299.74647  21906547.0314                   21906550.2704
        45.2504         42.0004
   -252214.79757   -174006.61756  22985984.2894                   22985988.5704
        46.0004         38.0004
    -43817.79747    -27333.47746  20520233.7114                   20520234.2584
        45.7504         38.0004
   -145487.41855    -91666.36353  23808019.5164                   23808024.7854
        34.5004         21.5004
     93603.73455     59033.00454  24462530.3594                   24462535.4414
        35.7504         26.5004
     14518.44156      8147.83253  24245210.6804                   24245214.0824
        37.2504         18.5004
   -195952.53548   -119798.32847  21420560.6174                   21420563.1954
        48.5004         47.7504
 05 12 22 17 36  0.0000000  0  9G18G15G27G32G23G24G29G16G10
    -69791.78547    -46806.94946  20951092.7034                   20951093.1334
        47.5004         37.5004
    121113.50046     77944.04746  22484453.1644                   22484455.6214
        41.2504         37.5004
   -402941.43747   -279730.54747  21887149.0944                   21887152.2154
        45.7504         42.0004
   -400265.00447   -289370.34446  22957810.9694                   22957815.8284
        46.0004         39.0004
    -61991.29347    -41494.67646  20516775.1414                   20516775.8284
        46.2504         37.2504
   -252156.30946   -174784.96144  23787720.0634                   23787726.5124
        38.5004         29.5004
    160440.46544    111113.24644  24475247.6804                   24475254.3834
        28.7504         24.5004
     28335.17646     18914.02742  24247839.2344                   24247843.5594
        36.2504         17.7504
   -276377.19548   -182466.87147  21405256.6094                   21405259.3134
        48.2504         47.5004
 05 12 22 17 36 30.0000000  0  9G18G15G27G32G23G24G29G16G10
    -89959.78547    -62522.30146  20947254.7894                   20947255.7624
        45.5004         37.0004
    164705.50046    111911.74246  22492748.6334                   22492751.0044
        41.0004         36.5004
   -504413.87547   -358799.93447  21867839.5394                   21867842.7584
        45.5004         42.0004
   -548152.44157   -404607.23056  22929669.0314                   22929673.6644
        44.5004         38.0004
    -79983.47747    -55514.59446  20513351.5234                   20513351.9924
        45.5004         37.7504
   -358527.97356   -257671.95355  23767479.7814                   23767484.4304
        38.0004         30.0004
    227289.39556    154173.57054  24487971.0234                   24487975.5514
        37.5004         28.5004
     42371.69556     25200.43453  24250511.6484                   24250515.7584
        37.7504         19.5004
   -356593.50848   -244973.07847  21389992.0164                   21389994.2114
        48.7504         47.7504
 05 12 22 17 37  0.0000000  0 10G18G15G27G08G32G23G24G29G16G10
   -109853.65247    -78024.04346  20943469.8594                   20943469.9614
        47.0004         37.2504
    208604.06347    146118.32846  22501102.9454                   22501104.1134
        42.0004         36.7504
   -605415.46547   -437502.41847  21848619.6564                   21848622.8754
        45.5004         42.5004
   -573471.69156   -396584.81254  24348184.2274                   24348191.9694
        36.0004         28.2504
   -695869.48847   -519711.35946  22901559.3524                   22901563.8244
        45.5004         38.2504
    -97790.57047    -69390.27746  20509963.4304                   20509963.5164
        46.0004         37.7504
   -464594.13346   -340320.87544  23747294.7344                   23747301.0554
        38.0004         29.7504
    294157.33645    206278.14844  24500693.3594                   24500700.5984
        33.5004         26.7504
     56629.95746     36310.64843  24253224.8444                   24253229.0594
        38.2504         18.2504
   -436597.03548   -307313.47747  21374767.6334                   21374770.3204
        48.7504         47.7504
 05 12 22 17 37 30.0000000  0 10G18G15G27G08G32G23G24G29G16G10
   -129467.17248    -93307.34446  20939736.9774                   20939737.4104
        48.0004         37.5004
    252811.57046    180565.64144  22509514.3914                   22509516.3554
        38.0004         29.7504
   -705938.77747   -515832.19947  21829490.5314                   21829493.6764
        46.0004         43.0004
   -713027.66846   -505329.65244  24321627.6884                   24321634.2664
        38.0004         26.7504
   -843408.19947   -634676.53146  22873483.5634                   22873487.8094
        45.5004         38.0004
   -115408.19547    -83118.31646  20506610.7584                   20506610.8874
        46.5004         37.7504
   -570346.21146   -422725.06644  23727171.0164                   23727176.5984
        37.5004         28.5004
    361045.54745    258398.41444  24513423.6644                   24513429.5904
        35.7504         27.5004
     71112.57046     47595.78542  24255979.8984                   24255984.3014
        38.0004         17.7504
   -516382.75848   -369484.14547  21359584.3914                   21359587.4344
        48.7504         47.7504
 05 12 22 17 38  0.0000000  0 10G18G15G27G08G32G23G24G29G16G10
   1426638.27347   1119242.32446  21235854.0704                   21235854.5394
        47.5004         37.0004
   1872761.12146   1442863.89145  22817781.6024                   22817783.0234
        41.0004         33.2504
    769458.63747    633828.16447  22110249.0944                   22110252.1054
        46.0004         42.2504
    723086.47746    613720.38744  24594911.3524                   24594918.1174
        37.7504         24.0004
    584676.12547    478116.52346  23145238.8834                   23145243.5434
        45.0004         38.5004
   1442600.29347   1130914.23446  20803089.7664                   20803090.2154
        45.7504         38.0004
    899659.60546    722734.06344  24006903.1334                   24006908.7034
        38.2504         28.0004
   2003386.30146   1538144.14544  24825951.1804                   24825956.5784
        36.5004         26.0004
   1661253.41446   1286666.50843  24558575.1094                   24558577.9694
        40.0004         21.0004
    979488.62148    796129.91847  21644239.4774                   21644242.4734
        48.7504         47.7504
 05 12 22 17 38 30.0000000  0  9G18G27G08G32G23G24G29G16G10
   1407631.96547   1104432.17246  21232237.3834                   21232237.9534
        47.7504         37.7504
    669942.07047    556282.84847  22091311.8284                   22091314.8484
        46.0004         42.5004
    584034.12146    505367.97343  24568450.1174                   24568456.5944
        38.5004         22.7504
    437546.07447    363469.78946  23117241.2814                   23117245.7664
        45.7504         39.7504
   1425402.57847   1117513.38746  20799817.2424                   20799817.4804
        45.7504         38.5004
    794589.43046    640861.26245  23986910.0784                   23986914.8014
        38.0004         30.0004
   2070351.81645   1590324.62144  24838693.7194                   24838700.2894
        34.0004         24.0004
   1676220.56346   1298329.15643  24561421.8364                   24561426.5124
        38.5004         20.7504
    900181.27748    734331.99648  21629147.8984                   21629150.3014
        48.2504         48.0004
 05 12 22 17 39  0.0000000  0 10G18G15G27G08G32G23G24G29G16G10
   1388943.81347   1089869.95346  21228681.1724                   21228681.8244
        47.0004         37.0004
   1962820.90656   1513040.14556  22834919.2424                   22834921.2504
        41.2504         36.0004
    570945.18447    479142.47347  22072473.4924                   22072476.6174
        46.5004         42.7504
    445250.89846    397225.24243  24542040.8204                   24542047.4104
        37.0004         22.0004
    290637.65647    248995.76246  23089285.2584                   23089290.0474
        45.5004         38.7504
   1408426.59847   1104285.32446  20796586.9064                   20796587.8164
        46.5004         38.0004
    689878.34046    559268.24645  23966983.2974                   23966989.1524
        39.7504         30.7504
   2137366.17646   1642543.25844  24851448.3284                   24851453.4184
        38.5004         28.5004
   1691439.28946   1310187.72343  24564317.2114                   24564323.0084
        36.0004         19.0004
    821125.87548    672730.40248  21614104.1724                   21614106.3634
        49.0004         48.0004
 05 12 22 17 39 30.0000000  0 10G18G15G27G08G32G23G24G29G16G10
   1370578.62147   1075559.38346  21225186.3524                   21225186.7504
        47.2504         36.7504
   2008356.59446   1548522.40645  22843584.3134                   22843586.4454
        40.7504         35.2504
    472474.09447    402411.79347  22053734.8444                   22053737.8674
        46.7504         43.0004
    306743.62145    289297.48843  24515682.6414                   24515690.1334
        35.0004         22.0004
    143957.47347    134699.58246  23061372.7504                   23061377.6174
        45.0004         38.7504
   1391675.40647   1091232.42646  20793399.3914                   20793399.6844
        46.5004         38.0004
    585533.59046    477960.69545  23947127.1644                   23947132.2274
        38.5004         30.7504
   2204430.78546   1694801.09044  24864208.8444                   24864215.9614
        38.0004         29.7504
   1706910.81645   1322243.37943  24567262.3914                   24567267.3674
        34.7504         19.2504
    742326.02348    611327.93048  21599109.0944                   21599111.1884
        49.5004         48.0004
 05 12 22 17 40  0.0000000  0 10G18G15G27G08G32G23G24G29G16G10
   1352536.73447   1061500.74246  21221753.1094                   21221753.8874
        47.2504         36.5004
   2054226.76247   1584265.30945  22852313.6094                   22852315.7624
        42.0004         35.5004
    374530.35247    326092.03547  22035096.8984                   22035099.8444
        47.0004         42.7504
    168514.67245    181586.68043  24489378.9454                   24489386.1374
        35.2504         22.2504
     -2492.30547     20582.93446  23033504.2274                   23033508.9614
        45.0004         38.5004
   1375147.50447   1078353.51646  20790254.1024                   20790254.3524
        45.7504         37.5004
    481557.90246    396940.73045  23927340.8054                   23927346.8134
        38.5004         30.0004
   2271543.38745   1747096.28144  24876979.7734                   24876987.0744
        34.7504         25.0004
   1722631.87145   1334493.41842  24570253.7584                   24570259.3794
        35.2504         16.2504
    663780.88748    550123.93848  21584162.4534                   21584164.7584
        48.7504         48.0004
 05 12 22 17 40 30.0000000  0 10G18G15G27G08G32G23G24G29G16G10
   1334817.93847   1047693.84046  21218381.3754                   21218381.7774
        46.2504         37.0004
   2100427.71547   1620265.93846  22861104.7734                   22861107.2734
        42.5004         36.0004
    277114.85247    250183.90247  22016559.3054                   22016561.8404
        46.5004         42.5004
     30565.54345     74093.98043  24463127.0004                   24463135.2424
        34.0004         23.2504
   -148710.12147    -93352.96146  23005679.6884                   23005684.1724
        45.0004         38.7504
   1358840.89147   1065647.03146  20787150.9384                   20787151.3094
        46.2504         38.5004
    377953.46546    316210.06645  23907625.7114                   23907631.5314
        39.0004         30.0004
   2338700.72746   1799426.23844  24889760.2504                   24889766.7344
        37.0004         24.7504
   1738598.55146   1346934.92242  24573293.0944                   24573297.3054
        38.2504         17.2504
    585488.98848    489117.26648  21569263.9064                   21569266.5434
        49.2504         48.0004
 05 12 22 17 41  0.0000000  0 10G18G15G27G08G32G23G24G29G16G10
   1317420.92247   1034137.68846  21215071.0864                   21215071.4614
        46.7504         37.0004
   2146954.52046   1656520.49646  22869958.7974                   22869961.3954
        40.7504         36.0004
    180227.47747    174687.28947  21998122.1564                   21998125.0314
        46.0004         42.2504
   -107103.19145    -33180.30144  24436930.0634                   24436938.2934
        35.5004         27.0004
   -294695.41047   -207107.67246  22977899.7894                   22977904.1174
        45.2504         39.5004
   1342752.44547   1053110.55946  20784089.6414                   20784089.7814
        46.0004         37.2504
    274721.35246    235769.51245  23887981.2034                   23887986.8444
        38.7504         30.2504
   2405898.10946   1851787.53144  24902548.1724                   24902554.0434
        38.7504         29.5004
   1754805.94946   1359563.93843  24576377.6414                   24576381.3834
        38.2504         20.7504
    507447.83648    428305.98848  21554413.3364                   21554415.6844
        48.2504         48.2504
 05 12 22 17 41 30.0000000  0 10G18G15G27G08G32G23G24G29G16G10
   1300344.12547   1020831.06346  21211821.1484                   21211821.5554
        45.5004         37.2504
   2193801.89846   1693024.84446  22878873.8204                   22878876.1604
        41.5004         36.0004
     83867.89847     99601.94547  21979785.5634                   21979788.2074
        46.2504         42.2504
   -244490.71946   -140235.38344  24410785.9064                   24410794.0204
        37.0004         28.7504
   -440447.91847   -320680.98046  22950164.0704                   22950168.4144
        45.2504         39.2504
   1326878.89147   1040741.52046  20781069.1954                   20781068.8484
        45.7504         38.5004
    171862.33646    155619.71945  23868407.6564                   23868412.8954
        39.0004         30.0004
   2473131.23446   1904176.64144  24915341.8754                   24915348.5204
        36.0004         27.7504
   1771249.12946   1372376.71143  24579506.6564                   24579510.6604
        38.2504         20.5004
    429654.68048    367687.95748  21539609.6024                   21539611.9774
        48.5004         48.0004
 05 12 22 17 42  0.0000000  0 10G18G15G27G08G32G23G24G29G16G10
   1283587.25847   1007773.71946  21208632.8674                   21208632.7194
        46.0004         36.5004
   2240966.62546   1729776.49246  22887848.7194                   22887851.0044
        41.5004         36.0004
    -11963.09447     24928.48047  21961549.6724                   21961552.3324
        47.0004         43.0004
   -381595.62946   -247070.28144  24384696.3284                   24384703.4264
        39.2504         29.7504
   -585966.10947   -434071.71546  22922472.7424                   22922476.8524
        45.5004         39.0004
   1311218.15647   1028538.31646  20778088.6564                   20778089.0824
        45.7504         37.5004
     69378.59056     75762.32055  23848905.7584                   23848910.7034
        38.5004         30.7504
   2540396.78545   1956590.91844  24928141.9694                   24928149.4654
        33.5004         25.7504
   1787924.14546   1385370.09443  24582679.0394                   24582684.5164
        36.7504         18.5004
    352108.07448    307262.03948  21524853.0554                   21524855.5944
        48.5004         48.0004
 05 12 22 17 42 30.0000000  0 10G18G15G27G08G32G23G24G29G16G10
   1267146.09447    994962.39546  21205503.8834                   21205504.3404
        46.2504         36.7504
   2288440.66447   1766769.15246  22896883.0944                   22896885.5164
        42.0004         36.5004
   -107268.56647    -49335.48847  21943413.4454                   21943416.3204
        46.7504         43.0004
   -518420.22746   -353686.76244  24358659.2894                   24358666.3444
        39.2504         27.7504
   -731252.41447   -547281.76246  22894825.4534                   22894829.7464
        45.7504         39.5004
   1295764.23047   1016496.27346  20775148.0164                   20775148.0164
        46.0004         37.7504
    -32731.72346     -3804.09445  23829474.4384                   23829480.0824
        39.0004         30.2504
   2607687.53546   2009024.93044  24940947.3054                   24940954.7464
        37.7504         27.5004
   1804823.43046   1398538.23443  24585894.9924                   24585899.8204
        37.2504         18.2504
    274802.58648    247024.01248  21510142.3524                   21510144.8204
        48.7504         48.2504
 05 12 22 17 43  0.0000000  0 10G18G15G27G08G32G23G24G29G16G10
   1251020.92647    982397.28946  21202435.4304                   21202436.0554
        46.0004         36.7504
   2336221.21147   1804000.65246  22905975.0234                   22905977.6884
        42.0004         36.0004
   -202047.10547   -123188.84847  21925377.7424                   21925380.6844
        46.7504         42.7504
   -654962.37946   -460083.20344  24332675.5704                   24332683.7234
        38.2504         26.0004
   -876304.68747   -660309.43746  22867223.1484                   22867227.4224
        45.0004         40.2504
   1280515.71147   1004614.28946  20772246.6094                   20772246.4224
        46.5004         37.7504
   -134466.06246    -83077.53544  23810115.5164                   23810120.7234
        39.7504         29.0004
   2675000.96546   2061476.65244  24953757.5084                   24953764.6254
        38.0004         29.0004
   1821943.47346   1411878.43043  24589153.2584                   24589157.6054
        38.0004         19.2504
    197737.27748    186973.13348  21495477.1334                   21495479.5434
        48.5004         48.2504
 05 12 22 17 43 30.0000000  0 10G18G15G27G08G32G23G24G29G16G10
   1235213.21947    970079.56646  21199427.4614                   21199427.9414
        46.2504         37.0004
   2384305.75846   1841469.03945  22915125.3834                   22915128.3954
        40.5004         35.5004
   -296296.09447   -196629.57847  21907442.6174                   21907445.4224
        46.7504         42.5004
   -791218.47746   -566256.73043  24306747.7504                   24306754.4104
        36.0004         22.5004
  -1021119.59847   -773152.16046  22839665.3674                   22839669.8134
        45.5004         39.7504
   1265472.32447    992892.14846  20769384.1644                   20769384.1454
        46.7504         37.7504
   -235820.46146   -162054.93445  23790828.5314                   23790833.3874
        40.2504         30.5004
   2742335.49646   2113944.76244  24966571.9064                   24966577.9804
        36.2504         27.0004
   1839282.41846   1425389.25043  24592452.4304                   24592456.6214
        38.0004         18.2504
    120912.50448    127109.69148  21480857.8204                   21480859.9964
        49.0004         48.2504
 05 12 22 17 44  0.0000000  0 10G18G15G27G08G32G23G24G29G16G10
   1219723.82847    958009.86346  21196480.1724                   21196480.3984
        47.5004         37.0004
   2432691.84046   1879172.39145  22924333.1484                   22924335.3244
        40.5004         35.2504
   -390013.67647   -269656.21947  21889608.7274                   21889611.6564
        46.5004         42.7504
   -927185.77045   -672205.21543  24280875.1094                   24280880.7154
        35.2504         19.0004
  -1165694.54347   -885807.88746  22812153.8674                   22812158.1954
        45.2504         39.7504
   1250633.18847    981329.16446  20766559.8524                   20766559.9264
        46.7504         37.2504
   -336791.80146   -240733.82045  23771614.1884                   23771619.5984
        40.2504         31.0004
   2809689.07046   2166427.65244  24979389.3524                   24979395.2734
        37.5004         29.5004
   1856837.43846   1439068.39843  24595792.8754                   24595798.0984
        36.7504         18.2504
     44327.84848     67433.35548  21466284.4614                   21466286.2464
        49.5004         48.0004
 05 12 22 17 44 30.0000000  0 10G18G15G27G08G32G23G24G29G16G10
   1204552.16847    946187.76246  21193592.9144                   21193593.5354
        46.5004         36.5004
   2481375.28946   1917107.46945  22933597.1644                   22933599.7624
        41.7504         35.2504
   -483199.18047   -342268.26647  21871876.1334                   21871878.9224
        47.5004         43.5004
  -1062862.85245   -777927.56243  24255054.4774                   24255062.3754
        35.0004         20.2504
  -1310028.16447   -998275.57446  22784687.5234                   22784692.0314
        46.0004         40.0004
   1235996.07047    969923.59846  20763774.5394                   20763774.4264
        46.2504         37.5004
   -437378.13346   -319112.71545  23752473.1954                   23752478.4574
        40.2504         31.0004
   2877058.12546   2218922.61745  24992208.9694                   24992216.0944
        39.5004         30.7504
   1874604.52746   1452912.75042  24599175.4614                   24599179.2664
        36.2504         17.7504
    -32018.33248      7942.83648  21451756.0474                   21451758.2114
        48.5004         48.2504
 05 12 22 17 45  0.0000000  0 10G18G15G27G08G32G23G24G29G16G10
   1189700.87947    934615.28946  21190767.0084                   21190767.2464
        45.7504         36.7504
   2530355.36346   1955273.67245  22942917.9924                   22942920.3594
        41.5004         35.2504
   -575849.05547   -414462.93747  21854245.8444                   21854248.3524
        47.0004         43.0004
  -1198245.03546   -883420.08244  24229292.3134                   24229299.8914
        37.5004         26.0004
  -1454116.08247  -1110551.80146  22757268.9384                   22757272.9024
        45.7504         40.0004
   1221561.85547    958676.14146  20761028.1564                   20761028.4924
        46.5004         37.0004
   -537574.60946   -397187.84445  23733406.0084                   23733411.5474
        39.5004         31.2504
   2944442.18446   2271429.38744  25005031.8054                   25005038.0514
        38.7504         27.7504
   1892582.43045   1466921.35242  24602595.1484                   24602600.8914
        34.0004         17.2504
   -108124.64148    -51360.75848  21437273.5634                   21437275.9884
        49.0004         48.2504
 05 12 22 17 45 30.0000000  0 10G18G15G27G08G32G23G24G29G16G10
   1175171.21547    923293.44946  21188001.9774                   21188002.6294
        47.0004         36.2504
   2579630.06646   1993669.44145  22952294.5634                   22952297.2274
        41.2504         35.2504
   -667960.92247   -486238.38747  21836717.0394                   21836719.5164
        46.7504         42.7504
  -1333329.31246   -988680.45344  24203587.6954                   24203594.1254
        39.2504         29.5004
  -1597955.21147  -1222634.16446  22729897.1954                   22729901.2584
        45.5004         40.2504
   1207330.10947    947586.44946  20758319.8674                   20758319.9654
        47.7504         36.7504
   -637377.59446   -474956.33645  23714414.1174                   23714419.5744
        40.0004         31.5004
   3011840.00046   2323946.84844  25017857.4064                   25017864.1804
        37.0004         27.2504
   1910769.09046   1481092.75842  24606056.4064                   24606061.2544
        38.2504         16.7504
   -183990.98848   -110477.37948  21422836.4614                   21422839.4144
        49.7504         48.5004
 05 12 22 17 46  0.0000000  0 10G18G15G27G08G32G23G24G29G16G10
   1160964.21947    912223.03146  21185298.5704                   21185298.7734
        46.2504         36.2504
   2629197.10546   2032293.02745  22961727.2894                   22961729.5474
        41.2504         35.0004
   -759532.68747   -557592.96947  21819291.5234                   21819294.1334
        47.0004         43.0004
  -1468112.41446  -1093706.14545  24177938.9384                   24177945.8444
        40.5004         31.2504
  -1741542.63347  -1334520.39546  22702573.4384                   22702577.7584
        46.0004         40.2504
   1193300.24647    936654.07846  20755649.7344                   20755650.4924
        47.0004         37.2504
   -736783.73446   -552415.60245  23695497.4534                   23695503.3834
        39.5004         30.7504
   3079249.57046   2376473.35944  25030684.9454                   25030692.6954
        37.5004         28.2504
   1929162.12146   1495424.91042  24609556.5474                   24609561.1914
        37.2504         16.2504
   -259617.47348   -169407.08248  21408445.2894                   21408447.9454
        48.2504         48.2504
 05 12 22 17 46 30.0000000  0 10G18G15G27G08G32G23G24G29G16G10
   1147081.15647    901405.02746  21182656.5004                   21182657.1094
        46.2504         37.0004
   2679054.22746   2071142.64145  22971214.7584                   22971217.1914
        40.7504         34.5004
   -850562.01647   -628524.88347  21801969.3594                   21801971.8444
        47.0004         43.2504
  -1602591.27346  -1198494.76245  24152348.5004                   24152355.2774
        40.5004         31.0004
  -1884875.26247  -1446208.07846  22675297.8754                   22675301.9734
        45.7504         40.2504
   1179471.81647    925878.66846  20753018.3834                   20753018.3834
        47.5004         37.5004
   -835789.34846   -629562.77045  23676657.2274                   23676662.7234
        39.7504         31.5004
   3146668.86346   2429007.55545  25043514.9534                   25043522.3954
        39.2504         30.2504
   1947759.31645   1509916.18842  24613095.8284                   24613100.6954
        35.2504         17.7504
   -335003.96948   -228149.78948  21394099.5084                   21394102.0234
        48.7504         48.2504
 05 12 22 17 47  0.0000000  0 10G18G15G27G08G32G23G24G29G16G10
   1133526.26247    890842.74246  21180077.1644                   21180077.3754
        46.7504         36.5004
   2729201.96946   2110218.70745  22980757.4844                   22980759.9494
        40.5004         34.7504
   -941043.69947   -699030.06247  21784750.9224                   21784753.9694
        46.7504         43.2504
  -1736759.54746  -1303041.35945  24126817.2344                   24126823.4924
        39.5004         30.0004
  -2027947.04347  -1557692.51246  22648071.9614                   22648076.5704
        46.0004         40.0004
   1165847.50447    915262.29746  20750425.5784                   20750425.8364
        45.7504         37.0004
   -934387.88746   -706392.73445  23657895.0554                   23657900.1684
        40.0004         31.5004
   3214099.53146   2481550.56644  25056347.1414                   25056354.1334
        38.2504         28.5004
   1966561.40245   1524566.96942  24616672.3364                   24616679.2114
        33.5004         17.7504
   -410147.42648   -286703.10548  21379800.4144                   21379802.7424
        48.5004         48.2504
 05 12 22 17 47 30.0000000  0 10G18G15G27G08G32G23G24G29G16G10
   1120306.96547    880541.95746  21177561.9454                   21177562.3484
        47.2504         36.2504
   2779644.85946   2149524.76245  22990356.2344                   22990359.3204
        41.0004         34.5004
  -1030969.20747   -769101.85947  21767638.3594                   21767641.5704
        47.0004         43.5004
  -1870607.96546  -1407338.69544  24101345.6024                   24101352.4414
        37.5004         26.0004
  -2170748.64147  -1668966.40246  22620898.0944                   22620901.6724
        45.7504         41.0004
   1152433.02747    904809.44946  20747873.0634                   20747873.2934
        47.2504         37.7504
  -1032569.59846   -782897.91845  23639210.9304                   23639217.1884
        40.2504         32.5004
   3281546.04346   2534105.96944  25069181.0474                   25069189.1024
        36.7504         27.0004
   1985572.14545   1539380.45342  24620291.3754                   24620297.0864
        33.2504         16.7504
   -485041.51248   -345062.12148  21365548.6954                   21365551.1724
        48.0004         48.5004
 05 12 22 17 48  0.0000000  0 10G18G15G27G08G32G23G24G29G16G10
   1107433.43847    870510.60946  21175111.9224                   21175112.2504
        45.5004         36.2504
   2830389.12946   2189065.66445  23000012.9694                   23000015.3594
        41.0004         34.7504
  -1120327.45747   -838731.63347  21750634.7344                   21750636.9844
        46.5004         43.5004
  -2004124.22745  -1511377.18743  24075938.5944                   24075945.0634
        35.5004         22.5004
  -2313268.11747  -1780020.46146  22593777.3364                   22593781.0474
        46.0004         40.7504
   1139236.93847    894526.77046  20745362.1174                   20745362.3244
        47.0004         37.5004
  -1130321.98046   -859068.53145  23620609.4384                   23620615.1604
        40.2504         31.5004
   3349015.79746   2586679.44145  25082020.9614                   25082028.5554
        39.7504         30.5004
   2004798.02045   1554361.55142  24623950.2584                   24623955.7974
        35.5004         16.7504
   -559677.23848   -403219.81648  21351345.7344                   21351348.1884
        48.7504         48.5004
 05 12 22 17 48 30.0000000  0 10G18G15G27G08G32G23G24G29G16G10
   1094912.32847    860753.86346  21172729.1954                   21172729.9104
        46.0004         36.2504
   2881438.26246   2228844.12145  23009726.9614                   23009730.2034
        41.5004         35.0004
  -1209110.78147   -907913.40247  21733739.8284                   21733742.1844
        46.5004         43.5004
  -2137299.80545  -1615150.27043  24050595.9694                   24050601.9304
        35.7504         21.2504
  -2455496.96547  -1890848.06246  22566712.1174                   22566716.1764
        45.5004         41.0004
   1126264.31347    884418.21546  20742893.4304                   20742893.9224
        47.0004         37.2504
  -1227636.05946   -934897.64145  23602091.8914                   23602097.0474
        40.5004         32.5004
   3416512.59046   2639274.03145  25094865.2894                   25094873.2464
        39.5004         31.0004
   2024242.24646   1569512.80542  24627650.6414                   24627655.8984
        36.0004         17.2504
   -634049.05148   -461171.86348  21337193.4924                   21337195.9344
        49.0004         48.5004
 05 12 22 17 49  0.0000000  0 10G18G15G27G08G32G23G24G29G16G10
   1082742.47747    851270.82446  21170413.4064                   21170413.6724
        47.0004         36.0004
   2932787.79346   2268856.65645  23019499.3984                   23019501.3754
        41.5004         34.7504
  -1297319.33247   -976647.30547  21716953.9844                   21716956.3634
        46.0004         43.2504
  -2270133.78546  -1718657.23043  24025318.5314                   24025323.4104
        39.0004         22.7504
  -2597434.50047  -2001448.66046  22539702.4304                   22539706.4414
        45.0004         40.7504
   1113512.36347    874481.62146  20740466.7504                   20740466.8674
        47.0004         37.2504
  -1324510.71546  -1010384.30945  23583657.3674                   23583662.1334
        41.2504         31.7504
   3484032.32846   2691886.47745  25107714.5864                   25107722.2304
        40.7504         33.0004
   2043900.44946   1584830.73442  24631392.2034                   24631396.4924
        36.2504         15.5004
   -708159.25848   -518920.07448  21323090.7194                   21323093.2774
        48.7504         48.5004
 05 12 22 17 49 30.0000000  0 10G18G15G27G08G32G23G24G29G16G10
   1070918.28947    842057.14146  21168162.9454                   21168164.0514
        45.5004         36.5004
   2984428.64847   2309096.20345  23029326.3984                   23029328.5124
        42.0004         35.2504
  -1384957.74647  -1044936.93747  21700276.7814                   21700279.5474
        46.0004         43.5004
  -2402629.67646  -1821900.74644  24000105.0554                   24000111.3634
        40.5004         26.2504
  -2739084.43047  -2111825.15646  22512747.2114                   22512751.2114
        46.0004         41.0004
   1100973.90647    864711.38346  20738080.8754                   20738081.2814
        46.5004         37.0004
  -1420949.12546  -1085531.05945  23565305.0474                   23565310.0784
        40.7504         32.5004
   3551566.65646   2744510.26645  25120566.0394                   25120574.4494
        37.5004         30.5004
   2063763.53545   1600308.29742  24635170.4614                   24635176.9924
        32.7504         15.5004
   -782014.53948   -576469.63348  21309036.5944                   21309038.9064
        48.2504         48.5004
 05 12 22 17 50  0.0000000  0 10G18G15G27G08G32G23G24G29G16G10
   1059441.15647    833113.88746  21165979.5394                   21165980.1914
        46.0004         36.2504
   3036358.80547   2349561.17245  23039207.9614                   23039210.5474
        42.5004         35.5004
  -1472023.70747  -1112780.50847  21683708.7504                   21683711.3524
        47.0004         43.5004
  -2534784.21946  -1924878.21544  23974957.0944                   23974963.6524
        40.0004         27.7504
  -2880443.56247  -2221975.05146  22485847.3524                   22485851.1174
        45.2504         41.5004
   1088648.79747    855107.39146  20735735.4064                   20735735.6024
        47.2504         37.0004
  -1516947.69546  -1160335.08245  23547037.5554                   23547042.4884
        41.5004         32.7504
   3619113.93846   2797144.09444  25133420.0634                   25133427.8554
        36.7504         28.5004
   2083829.44145   1615943.95342  24638988.5394                   24638995.3984
        34.2504         14.7504
   -855614.66448   -633820.38348  21295030.7114                   21295032.8324
        49.0004         48.7504
 05 12 22 17 50 30.0000000  0 10G18G15G27G08G32G23G24G29G16G10
   1048315.66047    824444.64146  21163862.2114                   21163862.4924
        45.2504         36.2504
   3088579.77047   2390252.74645  23049144.7504                   23049148.0044
        42.0004         35.0004
  -1558511.71147  -1180173.71947  21667250.4924                   21667253.0864
        46.0004         43.5004
  -2666590.76646  -2027584.49244  23949875.3134                   23949881.8404
        40.5004         29.5004
  -3021505.49647  -2331893.35546  22459003.8914                   22459007.9534
        46.0004         41.5004
   1076539.98048    845671.93046  20733431.2894                   20733431.3484
        48.0004         37.0004
  -1612499.57446  -1234791.00845  23528853.7344                   23528859.2274
        41.0004         32.5004
   3686675.99646   2849789.47344  25146276.5474                   25146285.4024
        37.2504         28.2504
   2104099.17246   1631738.47342  24642846.3524                   24642851.8714
        36.2504         16.2504
   -928956.17648   -690969.60248  21281074.4224                   21281076.4654
        49.2504         48.5004
 05 12 22 17 51  0.0000000  0 10G18G15G27G08G32G23G24G29G16G10
   1037540.79747    816048.60946  21161812.0634                   21161812.5704
        45.7504         36.0004
   3141087.11747   2431167.47345  23059137.4774                   23059139.3284
        42.2504         34.2504
  -1644421.84047  -1247116.65247  21650902.3754                   21650904.9654
        47.0004         44.0004
  -2798048.41046  -2130018.86744  23924859.8524                   23924866.4774
        38.2504         29.0004
  -3162269.41847  -2441579.44946  22432217.6094                   22432221.5124
        46.2504         41.5004
   1064644.98047    836403.08646  20731167.6414                   20731168.1564
        46.2504         37.0004
  -1707603.40246  -1308897.84845  23510756.2504                   23510761.6564
        40.2504         32.0004
   3754249.18846   2902443.55944  25159136.0784                   25159144.2344
        39.2504         27.7504
   2124568.19146   1647688.32842  24646742.7504                   24646747.2704
        38.0004         16.2504
  -1002041.15248   -747918.93448  21267166.9144                   21267169.1214
        49.5004         48.7504
 05 12 22 17 51 30.0000000  0 10G18G15G27G08G32G23G24G29G16G10
   1027121.02747    807929.28146  21159829.1024                   21159829.8014
        45.5004         36.0004
   3193882.00047   2472306.25445  23069183.6024                   23069186.4414
        42.0004         34.5004
  -1729748.69947  -1313605.07847  21634665.4454                   21634668.2734
        46.5004         43.7504
  -2929150.64546  -2232176.27344  23899911.5474                   23899918.3554
        36.2504         27.2504
  -3302728.93047  -2551028.34046  22405488.3134                   22405492.8484
        46.0004         41.5004
   1052966.67647    827303.09446  20728945.2734                   20728945.5554
        46.5004         36.7504
  -1802252.48046  -1382650.31645  23492745.8674                   23492750.4024
        41.0004         31.7504
   3821834.95746   2955107.48445  25171997.0004                   25172005.8164
        40.0004         30.5004
   2145237.71945   1663794.31642  24650675.6884                   24650681.0234
        34.5004         14.7504
  -1074866.23848   -804665.74248  21253308.7814                   21253310.5744
        49.0004         48.5004
 05 12 22 17 52  0.0000000  0 10G18G15G27G08G32G23G24G29G16G10
   1017059.80547    800089.32446  21157914.9064                   21157915.0984
        47.0004         36.0004
   3246964.25447   2513668.96946  23079285.3524                   23079287.7584
        43.0004         36.2504
  -1814487.88747  -1379635.58647  21618539.8204                   21618542.3404
        46.0004         44.2504
  -3059891.90246  -2334052.40644  23875031.3444                   23875038.8164
        37.2504         26.0004
  -3442878.75847  -2660235.92246  22378818.7814                   22378822.8324
        46.5004         41.2504
   1041507.05548    818373.50846  20726764.7734                   20726764.9494
        48.2504         36.7504
  -1896440.99246  -1456043.91445  23474821.9534                   23474826.5944
        40.0004         32.5004
   3889434.35546   3007781.95744  25184860.9844                   25184869.8164
        37.7504         28.5004
   2166107.60545   1680056.48442  24654646.1094                   24654652.6174
        34.0004         14.7504
  -1147428.99648   -861208.14548  21239500.5474                   21239502.9574
        50.2504         48.7504
 05 12 22 17 52 30.0000000  0 10G18G15G27G08G32G23G24G29G16G10
   1007364.28147    792534.34046  21156069.8754                   21156070.3284
        46.5004         36.7504
   3300337.96147   2555258.77745  23089442.1094                   23089444.6414
        42.5004         35.0004
  -1898631.47747  -1445201.98847  21602527.4224                   21602530.5984
        46.7504         44.0004
  -3190263.09046  -2435640.21944  23850222.7734                   23850229.1914
        39.2504         27.5004
  -3582709.97347  -2769195.23846  22352209.6724                   22352213.7274
        46.5004         41.7504
   1030271.73847    809618.69946  20724626.3914                   20724627.1564
        47.2504         37.0004
  -1990159.61746  -1529071.35545  23456987.2344                   23456992.8284
        40.0004         32.2504
   3957051.13346   3060469.85244  25197729.0864                   25197737.6214
        36.7504         28.0004
   2187181.20746   1696477.27042  24658657.0314                   24658662.3594
        37.0004         16.2504
  -1219723.42648   -917541.46948  21225743.1804                   21225745.5434
        49.2504         49.0004
 05 12 22 17 53  0.0000000  0  9G18G15G27G08G32G23G24G16G10
    998040.14147    785268.73846  21154295.4454                   21154296.0474
        46.0004         36.5004
   3354005.48047   2597077.53545  23099654.1884                   23099657.3364
        42.0004         34.2504
  -1982172.82847  -1510299.11347  21586630.3594                   21586632.9454
        46.7504         44.0004
  -3320256.48446  -2536933.68444  23825486.1174                   23825491.9694
        40.5004         27.0004
  -3722215.02347  -2877900.39146  22325663.2034                   22325666.7664
        46.2504         41.7504
   1019264.93448    801041.94946  20722532.5314                   20722532.5164
        48.0004         36.7504
  -2083400.38746  -1601726.45345  23439244.4384                   23439249.9064
        39.2504         31.2504
   2208461.05546   1713058.92643  24662706.5474                   24662711.2854
        36.5004         18.2504
  -1291744.95348   -973662.12148  21212038.1724                   21212040.2304
        50.0004         49.0004
 05 12 22 17 53 30.0000000  0  9G18G15G27G08G32G23G24G16G10
    989093.35247    778297.18846  21152592.7034                   21152593.7664
        46.0004         36.2504
   3407969.43447   2639127.27045  23109923.3834                   23109925.8834
        42.0004         34.7504
  -2065105.18447  -1574921.69947  21570849.0164                   21570851.2074
        46.2504         44.0004
  -3449864.06646  -2637926.51644  23800823.2974                   23800828.6054
        39.7504         29.0004
  -3861386.04747  -2986345.27746  22299179.8674                   22299183.4224
        46.5004         41.7504
   1008491.07447    792646.71546  20720481.9224                   20720482.3404
        47.5004         37.2504
  -2176155.08646  -1674002.80545  23421593.3444                   23421598.9534
        39.7504         32.0004
   2229950.29745   1729803.69542  24666795.6174                   24666802.2894
        35.5004         14.7504
  -1363488.65248  -1029566.30148  21198385.4614                   21198387.7934
        48.7504         49.0004
 05 12 22 17 54  0.0000000  0  9G18G15G27G08G32G23G24G16G10
    980539.02047    771631.44145  21150964.9534                   21150965.6414
        46.2504         35.5004
   3462241.66847   2681417.23045  23120251.4144                   23120254.0354
        42.0004         34.5004
  -2147412.56247  -1639057.28947  21555186.6644                   21555189.2814
        45.7504         44.5004
  -3579068.77046  -2738605.37144  23776235.3054                   23776242.1214
        38.5004         29.5004
  -4000206.14547  -3094516.71546  22272763.1094                   22272767.1374
        46.2504         41.7504
    997963.81647    784443.64146  20718478.5864                   20718479.2814
        47.7504         36.0004
  -2268406.29346  -1745886.82445  23404038.9144                   23404043.8794
        40.0004         31.7504
   2251659.949 5                  24670927.172
        34.500
  -1434940.44548  -1085243.00448  21184788.5864                   21184790.9184
        50.0004         48.5004
 05 12 22 17 54 30.0000000  0  9G18G15G27G08G32G23G24G16G10
   2547804.87947   1992877.53946  21449205.8134                   21449206.5354
        47.0004         36.0004
   5092244.60547   3951549.31645  23430430.7274                   23430433.3874
        43.0004         34.0004
   -653663.93747   -475097.29347  21839436.9224                   21839439.7384
        46.0004         44.0004
  -2132436.85946  -1611359.57444  24051520.1884                   24051527.0204
        37.0004         28.5004
  -2563241.35247  -1974803.81646  22546208.0314                   22546211.7504
        47.0004         41.7504
   2563109.55148   2004037.69546  21016316.0234                   21016316.4224
        48.7504         37.2504
   -784721.31246   -589768.61745  23686374.9694                   23686380.2304
        39.7504         32.0004
   3849013.477 6                  24974893.789
        36.000
     69328.41048     86914.55548  21471041.8364                   21471043.6914
        49.7504         48.7504
 05 12 22 17 55  0.0000000  0  9G18G15G27G08G32G23G24G16G10
   2540054.11747   1986837.94546  21447730.8204                   21447731.4734
        46.0004         36.0004
   5147142.57447   3994326.88345  23440877.4694                   23440879.8954
        42.0004         34.0004
   -734700.27047   -538242.45747  21824016.2344                   21824019.1374
        45.7504         44.0004
  -2260811.13346  -1711391.29744  24027091.3284                   24027097.9304
        37.0004         29.2504
  -2701335.31247  -2082409.42247  22519930.0164                   22519933.5664
        46.7504         42.0004
   2553089.84847   1996230.11346  21014409.2504                   21014409.4534
        47.7504         36.0004
   -875940.15246   -660848.20745  23669016.6484                   23669021.7504
        41.0004         33.0004
   3871172.53546   2970278.86353  24979111.1564                   24979115.6214
        37.5004         18.2504
     -1524.09048     31704.83248  21457558.3984                   21457561.0204
        49.5004         49.2504
 05 12 22 17 55 30.0000000  0  9G18G15G27G08G32G23G24G16G10
   2532709.10247   1981114.53946  21446333.0084                   21446333.5394
        46.5004         36.0004
   5202352.52047   4037347.53145  23451383.6024                   23451386.2704
        42.0004         33.5004
   -815095.86347   -600888.35247  21808717.6564                   21808720.3244
        45.7504         44.0004
  -2388763.10246  -1811093.97345  24002742.7894                   24002749.0634
        38.2504         31.5004
  -2839059.48847  -2189726.89547  22493721.8914                   22493725.5204
        47.0004         42.0004
   2543325.74647   1988621.69946  21012551.4384                   21012551.2624
        47.5004         36.5004
   -966635.66446   -731520.00845  23651757.7194                   23651763.4184
        40.7504         33.0004
   3893555.29746   2987719.84442  24983369.3984                   24983375.2194
        36.7504         16.7504
    -72074.58248    -23269.55948  21444133.4614                   21444135.6764
        50.0004         49.0004
 05 12 22 17 56  0.0000000  0  9G18G15G27G08G32G23G24G16G10
   2525771.49647   1975708.57045  21445013.1954                   21445014.0744
        46.2504         35.7504
   5257872.57047   4080609.82845  23461948.5474                   23461951.7384
        42.0004         34.2504
   -894848.31647   -663033.10247  21793541.3204                   21793544.1134
        46.0004         44.2504
  -2516289.13346  -1910464.76645  23978475.2114                   23978481.6954
        39.5004         30.7504
  -2976410.39847  -2296753.51247  22467584.8054                   22467588.5824
        46.5004         42.0004
   2533817.50847   1981212.65646  21010741.9844                   21010742.1094
        47.7504         37.0004
  -1056803.82846   -801780.90245  23634598.9534                   23634604.7814
        40.5004         33.5004
   3916160.07845   3005333.83642  24987670.7664                   24987676.3444
        34.0004         16.7504
   -142322.44548    -78008.13748  21430765.6884                   21430768.4454
        50.0004         49.0004
 05 12 22 17 56 30.0000000  0  9G18G15G27G08G32G23G24G16G10
   2519247.98447   1970625.29345  21443771.4304                   21443772.0594
        46.0004         35.5004
   5313706.94546   4124117.06645  23472573.6484                   23472576.5354
        41.5004         33.5004
   -973950.13747   -724670.85547  21778488.6254                   21778491.2544
        46.5004         44.5004
  -2643380.43046  -2009496.82045  23954291.0864                   23954296.6134
        38.7504         30.0004
  -3113379.45347  -2403482.57847  22441520.0314                   22441524.0864
        45.5004         42.2504
   2524570.41047   1974007.10246  21008982.1094                   21008982.5434
        46.7504         36.2504
  -1146435.73846   -871623.92645  23617543.2344                   23617548.2464
        40.5004         32.5004
   3938990.10915                  24992015.625
        31.250
   -212261.94548   -132506.42648  21417456.5164                   21417458.6334
        50.0004         49.0004
 05 12 22 17 57  0.0000000  0  9G18G15G27G08G32G23G24G16G10
   2513141.82447   1965867.20746  21442610.1334                   21442610.4384
        47.0004         36.0004
   5369855.09046   4167868.79745  23483258.0864                   23483261.5554
        41.5004         32.5004
  -1052397.33647   -785798.52347  21763560.5234                   21763562.9454
        46.5004         44.5004
  -2770031.77346  -2108186.07445  23930189.4224                   23930195.6764
        39.2504         30.2504
  -3249961.58647  -2509910.14847  22415529.6414                   22415533.2544
        46.5004         42.2504
   2515586.30947   1967006.48446  21007272.9534                   21007272.9654
        47.5004         37.0004
  -1235526.00846   -941044.89145  23600589.1644                   23600594.6134
        39.7504         32.7504
   3962045.148 6                  24996404.000
        37.000
   -281890.92648   -186762.75848  21404206.5704                   21404208.7934
        49.5004         49.0004
 05 12 22 17 57 30.0000000  0  9G18G15G27G08G32G23G24G16G10
   2507453.69547   1961434.85945  21441527.0784                   21441528.0594
        46.0004         35.7504
   5426314.14547   4211862.78945  23494002.1724                   23494005.2074
        42.0004         33.2504
  -1130188.52047   -846415.00847  21748757.8134                   21748760.2894
        46.7504         44.5004
  -2896240.44546  -2206530.37944  23906172.1884                   23906178.2854
        39.0004         29.5004
  -3386154.26647  -2616034.25447  22389612.3834                   22389616.4494
        46.5004         42.2504
   2506864.50847   1960210.25446  21005613.1174                   21005613.1644
        47.5004         36.7504
  -1324071.66446  -1010041.46145  23583739.8754                   23583744.7584
        40.5004         33.5004
   3985322.45746   3021485.41053  25000832.9304                   25000838.8794
        37.2504         19.0004
   -351209.66848   -240777.34048  21391015.7584                   21391018.0664
        50.0004         49.0004
 05 12 22 17 58  0.0000000  0  9G18G15G27G08G32G23G24G16G10
   2502191.17647   1957334.16845  21440525.9694                   21440526.4064
        45.7504         35.5004
   5483089.09447   4256102.93845  23504806.1954                   23504809.1954
        42.0004         33.5004
  -1207315.32047   -906513.79347  21734080.8914                   21734083.1094
        46.7504         44.5004
  -3021996.81246  -2304522.23845  23882242.2814                   23882247.8954
        40.0004         30.2504
  -3521948.07047  -2721847.54347  22363772.0554                   22363775.7734
        47.0004         42.2504
   2498411.27047   1953623.28546  21004004.6414                   21004004.7854
        47.0004         36.7504
  -1412063.00446  -1078606.09845  23566995.5084                   23567000.5824
        40.5004         33.0004
   4008826.34446   3039800.07443  25005305.5164                   25005310.7774
        36.7504         19.0004
   -420211.62148   -294545.07848  21377885.2344                   21377887.3054
        49.7504         49.0004
 05 12 22 17 58 30.0000000  0  9G18G15G27G08G32G23G24G16G10
   2497352.03547   1953563.37945  21439604.9844                   21439605.7424
        47.2504         35.5004
   5540174.57847   4300585.05945  23515669.1254                   23515672.1644
        42.0004         32.2504
  -1283779.27347   -966096.07047  21719530.3834                   21719532.5514
        46.7504         44.5004
  -3147301.04346  -2402161.76645  23858397.1094                   23858402.6174
        39.0004         30.5004
  -3657343.36347  -2827350.30547  22338007.1804                   22338010.9064
        46.5004         42.2504
   2490222.99648   1947242.78546  21002446.4144                   21002446.7854
        48.5004         36.0004
  -1499500.06246  -1146738.83645  23550357.1254                   23550362.3284
        40.5004         33.2504
   4032551.54345   3058287.08243  25009820.6094                   25009826.1644
        32.5004         18.5004
   -488899.99648   -348068.47348  21364813.8284                   21364816.3714
        50.5004         49.0004
 05 12 22 17 59  0.0000000  0  9G18G15G27G08G32G23G24G16G10
   2492936.31347   1950122.53145  21438764.8284                   21438765.6644
        47.2504         34.7504
   5597567.17646   4345306.50045  23526590.8054                   23526593.8204
        41.5004         32.5004
  -1359579.64547  -1025161.27047  21705105.6804                   21705108.2464
        47.0004         44.5004
  -3272151.08646  -2499447.37945  23834638.5474                   23834644.9344
        39.2504         31.0004
  -3792338.28547  -2932541.09847  22312318.4534                   22312321.8484
        47.7504         42.5004
   2482298.44948   1941067.78946  21000938.7274                   21000938.8364
        48.5004         36.0004
  -1586380.63346  -1214437.94945  23533823.8914                   23533828.9064
        39.7504         32.7504
   4056494.66814                  25014376.695
        29.750
   -557275.76648   -401348.28548  21351802.3524                   21351805.0784
        50.2504         49.0004
 05 12 22 17 59 30.0000000  0  9G18G15G27G08G32G23G24G16G10
   2488945.92247   1947013.09445  21438005.5634                   21438006.1684
        47.2504         35.5004
   5655265.97746   4390266.53145  23537570.7424                   23537573.3444
        41.2504         30.5004
  -1434713.87147  -1083707.40247  21690808.2274                   21690810.9264
        47.0004         45.0004
  -3396542.99246  -2596376.00045  23810968.3204                   23810974.0704
        39.0004         32.0004
  -3926929.05548  -3037416.96947  22286706.6484                   22286710.0824
        48.0004         42.7504
   2474638.17648   1935098.71946  20999480.7974                   20999481.1454
        48.5004         36.7504
  -1672700.61746  -1281700.23845  23517397.3284                   23517402.5984
        39.5004         33.0004
   4080654.000 5                  25018974.242
        34.250
   -625337.97748   -454383.76648  21338850.8594                   21338853.2774
        50.5004         49.0004
 05 12 22 18  0  0.0000000  0  9G18G15G27G08G32G23G24G16G10
   2485380.20347   1944234.56645  21437327.6174                   21437327.7344
        46.0004         35.5004
   5713267.23047   4435462.25445  23548608.0864                   23548610.8914
        42.5004         31.5004
  -1509181.80947  -1141734.34847  21676637.4454                   21676639.8594
        47.0004         45.0004
  -3520475.22746  -2692946.43745  23787384.6564                   23787390.3094
        39.5004         30.2504
  -4061114.41447  -3141976.92247  22261171.6484                   22261175.6884
        47.5004         43.0004
   2467240.35247   1929334.15246  20998073.0394                   20998073.4414
        47.7504         36.7504
  -1758458.41846  -1348524.46945  23501078.9774                   23501083.7504
        40.0004         32.5004
   4105026.000 6                  25023612.617
        38.250
   -693088.18448   -507176.12948  21325958.3284                   21325960.4344
        51.0004         49.0004
 05 12 22 18  0 30.0000000  0  9G18G15G27G08G32G23G24G16G10
   2482237.25847   1941785.48045  21436729.0164                   21436729.9804
        46.5004         35.0004
   5771565.59447   4480889.47345  23559702.4534                   23559704.8244
        42.0004         31.0004
  -1582984.85947  -1199243.19947  21662593.2974                   21662595.6334
        47.7504         45.0004
  -3643947.85246  -2789158.72745  23763887.6174                   23763893.6054
        38.0004         30.0004
  -4194894.49647  -3246221.08647  22235714.5864                   22235718.1174
        47.5004         42.7504
   2460101.65648   1923771.50446  20996714.7034                   20996714.8324
        48.0004         37.0004
  -1843653.95346  -1414910.56645  23484866.5314                   23484871.6294
        40.0004         33.5004
   4129605.363 6                  25028288.688
        38.000
   -760529.31648   -559727.64848  21313124.7344                   21313126.8754
        50.7504         49.0004
 05 12 22 18  1  0.0000000  0  9G18G15G27G08G32G23G24G16G10
   2479514.19147   1939663.57045  21436210.9304                   21436211.6174
        47.0004         35.5004
   5830155.43447   4526543.83245  23570851.1094                   23570853.7814
        42.2504         30.7504
  -1656125.21947  -1256235.67647  21648674.5784                   21648677.6994
        47.7504         45.0004
  -3766961.64546  -2885013.50044  23740478.8054                   23740485.2304
        39.0004         29.7504
  -4328270.36747  -3350150.28547  22210333.9844                   22210337.6174
        47.5004         43.0004
   2453217.94948   1918407.55146  20995404.3754                   20995404.8134
        48.2504         36.7504
  -1928287.95746  -1480859.08645  23468761.4384                   23468766.0904
        40.2504         33.5004
   4154385.60946   3078996.43052  25033004.9844                   25033010.1994
        37.5004         17.2504
   -827665.28948   -612041.38748  21300348.9844                   21300351.2934
        50.5004         49.2504
 05 12 22 18  1 30.0000000  0  9G18G15G27G08G32G23G24G16G10
   2477207.68047   1937866.25045  21435771.6414                   21435772.5314
        47.0004         35.5004
   5889030.25847   4572420.26245  23582054.6414                   23582057.6134
        42.5004         31.0004
  -1728605.55147  -1312713.83647  21634882.3284                   21634884.7384
        47.5004         45.0004
  -3889517.88346  -2980511.71545  23717157.2974                   23717163.1804
        40.0004         31.2504
  -4461243.45348  -3453765.62147  22185029.6334                   22185033.0704
        48.0004         42.7504
   2446584.73448   1913238.77746  20994142.3834                   20994142.9654
        49.0004         36.5004
  -2012361.59446  -1546370.98445  23452762.1804                   23452767.1414
        39.7504         33.0004
   4179360.30545   3098457.07842  25037757.7344                   25037764.0904
        33.0004         15.5004
   -894500.21548   -664120.53548  21287630.8134                   21287632.9024
        50.5004         49.0004
 05 12 22 18  2  0.0000000  0  8G18G15G27G08G32G23G24G10
   2475313.93447   1936390.55945  21435411.7894                   21435412.5704
        47.5004         35.5004
   5948182.97747   4618513.20745  23593311.4844                   23593313.8284
        42.0004         30.5004
  -1800429.05547  -1368680.18447  21621214.5704                   21621217.1914
        47.7504         45.0004
  -4011618.30546  -3075654.75845  23693922.9384                   23693928.7934
        41.2504         34.0004
  -4593815.73048  -3557068.64547  22159802.1804                   22159805.6294
        48.0004         43.5004
   2440196.87948   1908261.19546  20992926.9304                   20992927.1254
        48.0004         36.2504
  -2095876.53946  -1611447.53545  23436869.7584                   23436875.1294
        39.2504         32.7504
   -961038.90648   -715968.86348  21274968.9924                   21274971.2774
        50.7504         49.2504
 05 12 22 18  2 30.0000000  0  8G18G15G27G08G32G23G24G10
   2473827.73447   1935232.43045  21435128.5164                   21435129.8484
        46.5004         35.5004
   6007605.50447   4664816.42244  23604618.8914                   23604621.8914
        42.0004         29.2504
  -1871600.32447  -1424138.30547  21607671.4774                   21607673.8444
        47.0004         45.0004
  -4133266.11346  -3170445.11745  23670773.2034                   23670779.7274
        40.5004         33.5004
  -4725990.52747  -3660061.93747  22134649.8594                   22134653.3244
        47.5004         43.0004
   2434048.07048   1903469.88746  20991757.2034                   20991756.8094
        48.2504         36.5004
  -2178835.90246  -1676091.15245  23421083.9614                   23421088.6414
        39.7504         33.2504
  -1027287.44548   -767591.09448  21262362.1094                   21262364.5984
        50.7504         49.2504
 05 12 22 18  3  0.0000000  0  9G18G15G27G08G32G23G24G16G10
   2472749.23447   1934391.99245  21434923.4844                   21434924.4694
        47.2504         35.2504
   6067295.05546   4711327.69944  23615977.5864                   23615980.5314
        41.5004         28.7504
  -1942118.67647  -1479087.65647  21594252.1884                   21594254.3244
        47.0004         45.0004
  -4254459.03546  -3264881.00045  23647710.9614                   23647716.9064
        40.0004         32.5004
  -4857765.89148  -3762743.98047  22109573.9144                   22109577.4494
        48.2504         43.2504
   2428137.19148   1898863.97346  20990631.9454                   20990632.6604
        49.5004         36.5004
  -2261237.42646  -1740300.09845  23405402.5704                   23405408.0354
        40.0004         33.2504
   3188492.33256   3120731.68853  25052224.4614                   25052229.0944
        36.7504         18.2504
  -1093246.68048   -818987.87948  21249810.6724                   21249812.6564
        51.5004         49.5004
 05 12 22 18  3 30.0000000  0  9G18G15G27G08G32G23G24G16G10
   2472072.40247   1933864.54345  21434794.7344                   21434795.8094
        47.7504         35.5004
   6127242.53947   4758039.95344  23627385.5394                   23627388.0474
        42.0004         28.7504
  -2011989.56647  -1533532.48847  21580956.3674                   21580958.6914
        47.5004         45.0004
  -4375201.14946  -3358965.60945  23624734.3134                   23624740.1334
        38.7504         31.0004
  -4989145.96548  -3865118.01647  22084573.1334                   22084576.6334
        48.0004         43.0004
   2422457.02748   1894437.84046  20989551.2114                   20989551.2544
        48.0004         36.7504
  -2343085.09046  -1804077.46545  23389827.6804                   23389832.8524
        41.2504         33.5004
   3214175.86346   3140744.82442  25057111.6644                   25057117.4494
        36.7504         14.7504
  -1158923.45748   -870164.57448  21237312.9844                   21237314.8204
        50.7504         49.5004
 05 12 22 18  4  0.0000000  0  9G18G15G27G08G32G23G24G16G10
   2471791.20747   1933645.37945  21434741.4064                   21434742.5234
        47.2504         35.2504
   6187438.94146   4804946.19144  23638840.0554                   23638843.4734
        41.0004         28.5004
  -2081218.38347  -1587477.00847  21567782.6024                   21567784.8444
        46.7504         45.2504
  -4495496.27746  -3452701.91845  23601842.5944                   23601848.3204
        39.0004         31.0004
  -5120134.96947  -3967187.31647  22059646.8674                   22059650.2854
        47.5004         43.5004
   2417000.41848   1890185.90646  20988513.2584                   20988513.5984
        48.0004         36.5004
  -2424382.75446  -1867426.25445  23374357.6024                   23374362.4264
        40.0004         33.2504
   3240016.863 6                  25062029.477
        37.500
  -1224324.74648   -921126.60248  21224867.2504                   21224869.6414
        51.0004         49.2504
 05 12 22 18  4 30.0000000  0  9G18G15G27G08G32G23G24G16G10
   2471900.57847   1933730.55145  21434762.3524                   21434762.4964
        47.2504         35.0004
   6247876.26646   4852040.13344  23650341.4224                   23650344.1454
        41.0004         27.7504
  -2149809.77347  -1640924.82847  21554729.6094                   21554731.9654
        46.2504         45.2504
  -4615347.55346  -3546092.38345  23579036.0004                   23579041.5984
        39.7504         32.7504
  -5250736.10948  -4068954.38747  22034794.1884                   22034797.6994
        48.0004         43.2504
   2411761.13347   1886103.30946  20987516.0234                   20987516.5274
        47.5004         37.0004
  -2505133.46946  -1930348.85945  23358991.2344                   23358995.9654
        40.5004         34.2504
   3266006.852 5                  25066975.383
        34.750
  -1289456.51648   -971878.62148  21212473.2034                   21212475.3834
        51.5004         49.5004
 05 12 22 18  5  0.0000000  0  8G18G15G27G08G32G23G24G10
   2472395.26247   1934115.96145  21434856.4384                   21434857.2854
        47.5004         35.2504
   6308546.12946   4899315.30544  23661885.9614                   23661889.0744
        40.5004         28.5004
  -2217768.39147  -1693879.58247  21541797.7194                   21541800.1414
        45.5004         45.5004
  -4734758.25046  -3639139.52345  23556313.0784                   23556318.5744
        39.5004         32.7504
  -5380952.81247  -4170421.89847  22010014.4844                   22010018.3054
        47.7504         43.5004
   2406732.72748   1882185.04346  20986559.0314                   20986559.4184
        48.0004         37.2504
  -2585340.46546  -1992847.78945  23343728.0234                   23343732.7894
        39.5004         33.5004
  -1354324.84048  -1022425.35548  21200129.2274                   21200131.5664
        48.5004         49.5004
 05 12 22 18  5 30.0000000  0  8G18G15G27G08G32G23G24G10
   2473273.09447   1934799.93045  21435023.4534                   21435024.0394
        47.5004         34.2504
   6369443.48046   4946767.71544  23673474.2344                   23673478.0864
        40.2504         27.2504
  -2285095.89847  -1746342.56247  21528985.3594                   21528988.0474
        47.0004         45.5004
  -4853728.36746  -3731843.35545  23533672.9924                   23533679.2774
        40.0004         34.0004
  -5510785.38348  -4271590.07847  21985308.3984                   21985311.7974
        48.0004         43.5004
   2401911.95747   1878428.56646  20985641.7504                   20985642.3054
        47.7504         37.0004
  -2665003.73846  -2054923.03145  23328567.9844                   23328573.5164
        39.5004         34.0004
  -1418932.82048  -1072769.22348  21187834.6024                   21187836.9804
        50.7504         49.5004
 05 12 22 18  6  0.0000000  0  8G18G15G27G08G32G23G24G10
   2474529.55147   1935778.91845  21435262.7274                   21435263.3874
        47.0004         34.7504
   6430561.01246   4994391.71944  23685105.0474                   23685108.3674
        40.2504         28.0004
  -2351796.41047  -1798316.97347  21516293.1884                   21516295.3324
        47.5004         45.5004
  -4972260.43446  -3824205.84845  23511117.7734                   23511122.7464
        40.0004         32.0004
  -5640236.56247  -4372461.07847  21960674.5704                   21960677.8164
        47.5004         44.0004
   2397293.16048   1874829.47746  20984762.6334                   20984763.4454
        48.0004         37.0004
  -2744125.91846  -2116576.60945  23313511.5944                   23313516.5554
        38.7504         33.7504
  -1483285.79748  -1122914.39148  21175588.7584                   21175590.8554
        50.7504         49.5004
 05 12 22 18  6 30.0000000  0  9G18G15G27G08G32G23G24G16G10
   2476161.03547   1937050.14845  21435573.3984                   21435574.3444
        47.2504         35.2504
   6491892.07046   5042182.08644  23696775.9064                   23696779.0594
        40.0004         25.7504
  -2417872.95747  -1849805.17247  21503719.0394                   21503721.4614
        45.5004         45.5004
  -5090356.04746  -3916228.25045  23488644.2894                   23488650.1524
        38.7504         32.5004
  -5769308.04747  -4473036.20747  21936112.7504                   21936116.3204
        47.7504         44.0004
   2392871.65647   1871384.12146  20983921.2424                   20983921.6764
        47.0004         37.0004
  -2822708.44546  -2177809.69945  23298558.0004                   23298562.6334
        39.5004         34.5004
   3177466.55955   3167819.34453  25087013.8134                   25087018.8594
        35.2504         18.2504
  -1547388.18448  -1172864.30148  21163390.4304                   21163392.4224
        49.2504         49.2504
 05 12 22 18  7  0.0000000  0  9G18G15G27G08G32G23G24G16G10
   2478164.58647   1938611.28945  21435954.5634                   21435955.0744
        47.0004         35.2504
   6553430.78946   5090134.28144  23708486.4454                   23708489.6604
        40.5004         26.0004
  -2483328.04747  -1900809.12547  21491263.1804                   21491265.8404
        46.5004         45.7504
  -5208016.06246  -4007911.22345  23466254.2034                   23466260.2854
        39.5004         32.5004
  -5898000.98848  -4573316.37147  21911623.4304                   21911627.0004
        48.5004         44.0004
   2388643.43048   1868089.36746  20983117.0234                   20983117.0784
        48.0004         36.7504
  -2900752.40646  -2238623.11745  23283707.0634                   23283711.8554
        39.7504         33.7504
   3204096.06346   3188569.59443  25092081.2424                   25092087.0864
        36.2504         19.2504
  -1611243.81648  -1222621.93448  21151238.9534                   21151241.3714
        50.5004         49.5004
 05 12 22 18  7 30.0000000  0  9G18G15G27G08G32G23G24G16G10
   2480539.90247   1940462.12545  21436406.1884                   21436407.1564
        47.5004         35.5004
   6615173.92246   5138245.73844  23720236.0554                   23720239.1374
        38.7504         26.7504
  -2548161.59048  -1951328.75447  21478925.7114                   21478928.3954
        48.0004         45.5004
  -5325238.71546  -4099253.43045  23443947.7974                   23443952.9414
        40.0004         32.2504
  -6026313.84447  -4673300.36347  21887206.3364                   21887209.8524
        47.5004         44.2504
   2384607.11748   1864944.16046  20982348.7894                   20982349.4144
        48.0004         36.5004
  -2978256.01246  -2299015.46945  23268958.5004                   23268963.3244
        40.5004         34.2504
   3230836.64545   3209406.36742  25097170.1954                   25097176.4614
        35.0004         16.7504
  -1674853.78948  -1272188.13748  21139134.2114                   21139136.7504
        51.0004         49.5004
 05 12 22 18  8  0.0000000  0  9G18G15G27G08G32G23G24G16G10
   2483283.82047   1942600.17645  21436928.6724                   21436929.8014
        47.2504         35.2504
   6677115.46946   5186511.82844  23732023.5394                   23732026.3524
        39.2504         27.5004
  -2612376.25448  -2001366.14147  21466706.0864                   21466708.5044
        48.2504         45.5004
  -5442025.13346  -4190255.70745  23421723.9454                   23421728.9144
        40.2504         32.7504
  -6154247.93447  -4772989.20747  21862861.0784                   21862864.2774
        47.7504         44.5004
   2380758.52348   1861945.22346  20981616.5004                   20981616.7274
        48.5004         36.2504
  -3055220.39146  -2358987.65645  23254312.3134                   23254317.6454
        40.2504         34.7504
   3257682.39555   3230324.98452  25102280.2664                   25102286.2974
        32.2504         16.2504
  -1738222.11748  -1321566.04748  21127075.9144                   21127078.3134
        51.0004         49.5004
 05 12 22 18  8 30.0000000  0  8G18G15G27G08G32G23G24G10
   2486390.94147   1945021.25045  21437520.1094                   21437520.4694
        47.0004         35.0004
   6739247.27346   5234926.14144  23743846.0234                   23743849.0044
        38.0004         26.0004
  -2675977.02048  -2050925.17247  21454603.5474                   21454605.8874
        48.0004         45.7504
  -5558378.71146  -4280920.71145  23399582.2664                   23399587.3324
        38.7504         31.5004
  -6281806.80948  -4872385.68447  21838587.3284                   21838590.8134
        48.0004         44.2504
   2377091.18047   1859087.52346  20980918.5554                   20980918.7974
        47.7504         36.5004
  -3131649.00446  -2418542.35945  23239768.8914                   23239773.5394
        40.7504         34.7504
  -1801354.96548  -1370760.46948  21115062.4304                   21115064.7194
        51.2504         49.5004
 05 12 22 18  9  0.0000000  0  8G18G15G27G08G32G23G24G10
   2489863.73047   1947727.25445  21438180.6954                   21438181.5084
        47.5004         34.7504
   6801568.88746   5283488.37944  23755706.2504                   23755708.5554
        38.7504         27.0004
  -2738961.07048  -2100003.64847  21442618.0554                   21442620.4024
        48.0004         45.5004
  -5674294.93446  -4371244.88745  23377524.1414                   23377529.7384
        39.0004         32.5004
  -6408986.19948  -4971486.44947  21814386.0554                   21814389.4494
        48.0004         44.0004
   2373606.57847   1856372.22346  20980255.5474                   20980255.9694
        47.7504         36.0004
  -3207537.42246  -2477676.12545  23225327.4774                   23225332.2704
        40.0004         33.5004
  -1864250.65648  -1419770.08248  21103093.1954                   21103095.5394
        50.7504         49.5004
 05 12 22 18  9 30.0000000  0  8G18G15G27G08G32G23G24G10
   2493698.78147   1950715.53945  21438910.5474                   21438911.8014
        47.0004         35.0004
   6864074.23446   5332193.80544  23767600.7424                   23767603.3834
        37.5004         26.0004
  -2801331.42647  -2148603.91447  21430749.3134                   21430751.6724
        47.7504         45.5004
  -5789775.11746  -4461229.30545  23355548.6564                   23355554.0824
        39.5004         33.0004
  -6535787.66447  -5070292.73447  21790256.6484                   21790259.9064
        47.5004         44.2504
   2370300.30947   1853795.88346  20979626.1724                   20979626.6764
        47.5004         36.5004
  -3282887.09046  -2536390.08645  23210988.7814                   23210992.8834
        40.5004         33.2504
  -1926913.41048  -1468598.19148  21091168.9224                   21091171.0904
        50.7504         49.5004
 05 12 22 18 10  0.0000000  0  9G18G15G27G08G32G23G24G16G10
   2497892.42247   1953983.25045  21439709.0474                   21439709.7814
        47.0004         35.0004
   6926756.78546   5381037.27044  23779528.0394                   23779531.4964
        38.2504         27.2504
  -2863091.33647  -2196728.51647  21418996.5084                   21418999.2304
        47.0004         45.5004
  -5904820.90246  -4550875.25045  23333656.2814                   23333661.4494
        38.7504         32.2504
  -6662213.03947  -5168805.95747  21766198.5234                   21766201.7074
        47.5004         44.5004
   2367167.76647   1851354.91846  20979030.0704                   20979030.7934
        47.0004         36.5004
  -3357699.71146  -2594685.54745  23196752.5394                   23196757.5164
        40.5004         34.2504
   3190909.37555   3234812.05953  25122892.4304                   25122895.0394
        34.5004         19.7504
  -1989347.59048  -1517248.19148  21079288.0944                   21079290.4344
        50.2504         49.5004
 05 12 22 18 10 30.0000000  0  9G18G15G27G08G32G23G24G16G10
   2502446.14847   1957531.54745  21440575.3204                   21440576.6564
        46.5004         35.2504
   6989615.26646   5430017.86344  23791490.0474                   23791492.9844
        37.7504         25.7504
  -2924238.90648  -2244375.96147  21407360.5864                   21407363.1604
        48.0004         46.0004
  -6019428.74246  -4640179.94145  23311846.7504                   23311852.1994
        38.7504         31.7504
  -6788258.95748  -5267023.50047  21742212.8134                   21742215.8874
        48.0004         44.5004
   2364209.44547   1849049.70345  20978466.9064                   20978467.6564
        47.0004         35.7504
  -3431971.82446  -2652559.85545  23182618.5004                   23182624.2854
        40.7504         34.2504
   3218201.05555   3256078.19552  25128084.6804                   25128090.0944
        33.0004         16.7504
  -2051552.52048  -1565719.55948  21067450.8834                   21067453.1414
        51.0004         49.7504
 05 12 22 18 11  0.0000000  0  9G18G15G27G08G32G23G24G16G10
   4082778.73047   3188959.47345  21741302.2504                   21741303.6994
        47.0004         34.5004
   8628063.52746   6706730.74644  24103276.9304                   24103279.8054
        36.5004         25.0004
  -1409352.85947  -1063945.27047  21695633.9384                   21695636.3484
        45.5004         45.5004
  -4558173.83646  -3501539.62945  23589914.6804                   23589919.9884
        39.0004         33.0004
  -5338500.53947  -4137341.56647  22018092.8444                   22018096.0744
        47.5004         44.5004
   3936843.43047   3074478.76246  21277729.2504                   21277730.0594
        46.0004         36.0004
  -1930280.12546  -1482410.42245  23468380.5164                   23468386.2934
        39.2504         33.5004
   4820988.64145   4505003.56642  25433086.3054                   25433091.8164
        34.0004         15.5004
   -538107.94548   -386412.08648  21355449.8914                   21355452.3054
        48.5004         50.0004
 05 12 22 18 11 30.0000000  0  9G18G15G27G08G32G23G24G16G10
   4088048.37147   3193065.62145  21742305.8054                   21742306.4064
        47.0004         34.5004
   8691261.24246   6755975.66844  24115302.5084                   24115305.9574
        38.5004         27.5004
  -1469279.16847  -1110641.09047  21684230.4454                   21684232.8594
        47.7504         45.5004
  -4671904.00446  -3590160.41845  23568272.1334                   23568277.7624
        39.5004         32.5004
  -5463786.44147  -4234966.89147  21994251.5234                   21994254.8914
        47.2504         44.7504
   3934226.50447   3072439.56346  21277231.3444                   21277231.9804
        46.2504         36.2504
  -2003469.78146  -1539441.27045  23454453.2974                   23454458.5944
        40.0004         34.2504
   4848429.21545   4526385.73042  25438307.2814                   25438314.4734
        30.7504         16.7504
   -599860.86348   -434531.24248  21343698.4384                   21343700.8714
        50.2504         50.0004
 05 12 22 18 12  0.0000000  0  9G18G15G27G08G32G23G24G16G10
   4093675.35247   3197450.21145  21743376.3674                   21743377.4414
        46.7504         34.5004
   8754623.56346   6805348.84844  24127360.6414                   24127362.9024
        36.5004         26.2504
  -1528594.99247  -1156861.20747  21672942.9064                   21672944.9964
        46.2504         45.5004
  -4785192.88346  -3678437.35945  23546714.1884                   23546719.0554
        39.2504         33.0004
  -5588690.22747  -4332294.46147  21970482.6414                   21970486.6174
        47.2504         44.7504
   3931778.23047   3070531.78946  21276765.9844                   21276766.0204
        45.7504         36.7504
  -2076115.95346  -1596048.60245  23440629.2894                   23440634.5234
        40.5004         33.0004
                                  25443544.000
        28.250
   -661389.49648   -482475.62948  21331990.5554                   21331992.6134
        50.5004         50.0004
 05 12 22 18 12 30.0000000  0  8G18G15G27G08G32G23G24G10
   4099656.89847   3202111.09045  21744514.6724                   21744515.6564
        47.0004         34.0004
   8818145.30946   6854846.27744  24139448.5704                   24139451.2074
        36.7504         27.0004
  -1587302.76648  -1202607.52747  21661771.3444                   21661773.5204
        48.5004         45.5004
  -4898041.16846  -3766370.98845  23525239.8524                   23525244.3364
        39.2504         33.0004
  -5713212.79747  -4429324.98047  21946786.9534                   21946790.3554
        47.5004         44.7504
   3929495.03947   3068752.65646  21276330.9064                   21276332.2704
        46.7504         36.7504
  -2148219.51246  -1652233.13745  23426908.9304                   23426913.1054
        40.5004         33.5004
   -722697.28148   -530247.93748  21320323.7034                   21320325.6644
        50.0004         50.0004
 05 12 22 18 13  0.0000000  0  8G18G15G27G08G32G23G24G10
   4105996.45747   3207050.94545  21745721.1414                   21745722.2344
        47.0004         35.0004
   8881827.28546   6904468.54744  24151566.3364                   24151569.3834
        39.0004         29.5004
  -1645398.79348  -1247877.15647  21650715.7274                   21650718.2934
        48.0004         45.5004
  -5010443.46946  -3853957.10245  23503849.9844                   23503854.9924
        38.7504         32.5004
  -5837348.93047  -4526054.37547  21923164.8054                   21923167.7154
        47.5004         45.0004
   3927379.44147   3067104.11746  21275928.6804                   21275929.2544
        45.7504         36.0004
  -2219775.16446  -1707990.71545  23413291.6804                   23413296.5474
        40.7504         33.2504
   -783781.53148   -577846.05148  21308699.8284                   21308702.0124
        49.5004         49.7504
 05 12 22 18 13 30.0000000  0  8G18G15G27G08G32G23G24G10
   4112691.14147   3212267.52745  21746995.1484                   21746996.2114
        46.2504         35.2504
   8945663.85246   6954211.26244  24163713.5704                   24163717.2304
        37.0004         26.5004
  -1702885.66447  -1292672.12147  21639776.5704                   21639778.8594
        47.5004         45.5004
  -5122400.62146  -3941196.32045  23482544.9694                   23482550.4694
        38.5004         32.5004
  -5961099.66048  -4622483.45747  21899615.3834                   21899619.0634
        48.2504         45.2504
   3925427.70747   3065583.26646  21275557.2894                   21275557.5204
        47.5004         36.5004
  -2290783.88746  -1763322.12945  23399779.4924                   23399783.7504
        40.2504         33.0004
   -844645.76648   -625272.72748  21297117.8364                   21297119.7274
        50.5004         49.7504
 05 12 22 18 14  0.0000000  0  9G18G15G27G08G32G23G24G16G10
   4119741.85947   3217761.53145  21748336.7344                   21748337.9344
        46.5004         34.7504
   9009653.17246   7004073.02044  24175890.8914                   24175893.7974
        38.0004         28.5004
  -1759762.28548  -1336991.56247  21628952.9144                   21628955.6954
        48.0004         45.5004
  -5233909.61746  -4028086.34445  23461325.1414                   23461331.0124
        40.0004         33.5004
  -6084462.30148  -4718610.13747  21876140.4844                   21876143.5784
        48.0004         45.2504
   3923639.89147   3064190.14546  21275217.2504                   21275217.5314
        47.2504         36.2504
  -2361242.98446  -1818225.27745  23386371.2504                   23386375.8404
        39.5004         33.0004
   4788894.21516                  25464600.469
        36.000
   -905289.77348   -672527.78948  21285577.5084                   21285579.6644
        49.7504         50.0004
 05 12 22 18 14 30.0000000  0  9G18G15G27G08G32G23G24G16G10
   4127149.46947   3223533.63745  21749746.7584                   21749747.6024
        46.2504         34.5004
   9073793.67246   7054052.61345  24188097.3284                   24188099.3984
        38.2504         30.0004
  -1816027.45747  -1380834.56247  21618246.7194                   21618248.7544
        47.7504         45.5004
  -5344967.60246  -4114624.94545  23440191.7114                   23440197.1374
        39.5004         33.2504
  -6207434.11748  -4814432.27347  21852739.6564                   21852743.3094
        48.2504         45.5004
   3922016.06347   3062924.80146  21274908.0084                   21274908.7384
        46.7504         36.5004
  -2431149.66846  -1872697.98445  23373067.9224                   23373073.2034
        39.5004         33.0004
   4816700.12945   4556321.44952  25469891.1254                   25469897.2384
        34.0004         14.7504
   -965713.34448   -719611.09048  21274079.3674                   21274081.6214
        50.0004         50.0004
 05 12 22 18 15  0.0000000  0  9G18G15G27G08G32G23G24G16G10
   4134912.86747   3229582.98045  21751223.7504                   21751224.8984
        45.7504         34.5004
   9138081.41846   7104146.91044  24200329.0864                   24200333.1954
        36.5004         28.0004
  -1871682.15248  -1424201.86347  21607655.8204                   21607658.1804
        48.0004         45.5004
  -5455573.67246  -4200811.39545  23419144.0314                   23419149.2384
        39.7504         33.0004
  -6330014.43047  -4909949.35247  21829413.3594                   21829417.0434
        47.7504         45.5004
   3920554.28947   3061785.73446  21274630.2114                   21274630.7154
        47.2504         36.0004
  -2500503.22746  -1926739.67645  23359870.9384                   23359875.7384
        40.2504         33.0004
   4844555.93445   4578027.29342  25475193.0084                   25475199.7234
        34.0004         16.2504
  -1025918.23048   -766523.98848  21262622.7344                   21262625.1374
        50.2504         50.0004
 05 12 22 18 15 30.0000000  0  9G18G15G27G08G32G23G24G16G10
   4143031.32047   3235908.98445  21752768.5234                   21752769.7344
        45.5004         34.0004
   9202513.13746   7154353.34444  24212590.8984                   24212593.8364
        37.5004         28.5004
  -1926726.86747  -1467093.85547  21597181.1804                   21597183.1334
        47.2504         45.5004
  -5565726.52346  -4286644.69145  23398183.3284                   23398187.8674
        40.0004         33.0004
  -6452202.16847  -5005160.52347  21806161.5634                   21806165.0554
        47.5004         45.7504
   3919253.07047   3060771.77045  21274382.2894                   21274383.0234
        46.5004         35.7504
  -2569302.62546  -1980349.56245  23346778.6724                   23346783.3404
        40.7504         32.7504
   4872458.39145   4599769.34442  25480502.0944                   25480509.6024
        32.7504         12.5004
  -1085905.79748   -813267.54748  21251207.5234                   21251209.6994
        49.2504         50.0004
 05 12 22 18 16  0.0000000  0  9G18G15G27G08G32G23G24G16G10
   4151501.80547   3242509.30145  21754381.1254                   21754381.7384
        46.0004         34.0004
   9267083.18446   7204667.66844  24224877.4384                   24224881.1804
        38.0004         29.0004
  -1981164.46947  -1509512.77047  21586821.8834                   21586824.0004
        47.5004         45.5004
  -5675427.18746  -4372125.63345  23377307.6254                   23377312.4454
        39.2504         33.5004
  -6573998.56647  -5100066.75447  21782984.5704                   21782988.1764
        47.7504         46.0004
   3918108.54747   3059879.91046  21274164.7274                   21274165.1524
        47.2504         36.5004
  -2637549.07446  -2033528.57445  23333791.6884                   23333796.3634
        40.7504         31.7504
   4900401.26645   4621542.99242  25485819.5554                   25485827.2274
        34.5004         16.7504
  -1145679.75048   -859844.65648  21239832.8284                   21239834.9844
        49.5004         50.0004
 05 12 22 18 16 30.0000000  0  9G18G15G27G08G32G23G24G16G10
   4160325.11347   3249384.55545  21756059.9304                   21756061.0664
        45.7504         34.7504
   9331790.06346   7255088.56344  24237191.7734                   24237194.5004
        36.7504         28.5004
  -2034993.95747  -1551457.82447  21576578.1644                   21576580.8634
        47.5004         46.0004
  -5784672.80546  -4457252.00845  23356518.4844                   23356523.3714
        40.2504         34.0004
  -6695400.99248  -5194665.99647  21759882.6254                   21759885.5434
        48.5004         46.0004
   3917120.81647   3059110.23046  21273976.2814                   21273977.3014
        47.5004         36.0004
  -2705239.94146  -2086274.67645  23320910.4454                   23320914.6914
        40.5004         31.5004
   4928382.36754   4643346.32852  25491143.8914                   25491151.4304
        29.7504         13.7504
  -1205239.85948   -906255.13748  21228499.2274                   21228501.0554
        50.5004         49.7504
 05 12 22 18 17  0.0000000  0  9G18G15G27G08G32G23G24G16G10
   4169501.18847   3256534.69545  21757805.9924                   21757807.2194
        45.0004         34.5004
   9396631.11746   7305614.01245  24249530.5084                   24249533.7074
        38.5004         31.7504
  -2088215.24647  -1592928.96947  21566450.4844                   21566453.2464
        47.5004         45.7504
  -5893461.39546  -4542022.25045  23335816.9144                   23335822.0824
        39.5004         32.2504
  -6816407.71548  -5288956.89147  21736855.5634                   21736858.6334
        48.7504         46.0004
   3916289.04747   3058462.06346  21273818.4844                   21273819.0084
        46.5004         36.0004
  -2772373.50446  -2138586.53145  23308136.0864                   23308140.1414
        40.7504         32.2504
                                  25496475.969
        29.750
  -1264586.78148   -952499.49248  21217205.5394                   21217207.5124
        49.5004         50.0004
 05 12 22 18 17 30.0000000  0  9G18G15G27G08G32G23G24G16G10
   4179031.34447   3263960.73445  21759619.5784                   21759620.8954
        45.2504         34.7504
   9461604.60246   7356242.65645  24261894.5784                   24261897.8054
        38.5004         30.5004
  -2140826.88747  -1633925.06647  21556439.0474                   21556441.2234
        46.5004         45.7504
  -6001789.71146  -4626433.81645  23315202.3914                   23315207.6174
        39.0004         33.5004
  -6937015.59448  -5382937.00447  21713904.7344                   21713908.1884
        49.2504         46.0004
   3915613.87947   3057935.93446  21273690.2344                   21273690.4924
        46.2504         36.5004
  -2838946.75446  -2190461.77745  23295467.2894                   23295471.9414
        40.0004         32.5004
   4984449.35914                  25501813.672
        26.250
  -1323719.84448   -998577.20748  21205953.0554                   21205954.8714
        49.0004         49.7504
 05 12 22 18 18  0.0000000  0  9G18G15G27G08G32G23G24G16G10
   4188916.38347   3271663.31645  21761500.6094                   21761501.8914
        45.7504         34.5004
   9526709.39846   7406973.62944  24274282.9614                   24274287.2544
        37.5004         29.2504
  -2192827.96947  -1674445.39147  21546543.7344                   21546545.9694
        47.0004         45.7504
  -6109654.89546  -4710484.50845  23294676.5164                   23294680.7464
        39.0004         33.0004
  -7057222.07048  -5476604.32847  21691029.8754                   21691033.2854
        49.2504         46.0004
   3915095.36347   3057531.86746  21273591.5554                   21273591.8094
        47.0004         36.5004
  -2904957.05546  -2241898.36745  23282906.4614                   23282910.9264
        41.2504         32.2504
   5012531.77355   4657759.80153  25507157.7344                   25507162.8324
        30.0004         19.0004
  -1382638.79348  -1044488.09048  21194741.1254                   21194743.0514
        50.5004         50.0004
 05 12 22 18 18 30.0000000  0  9G18G15G27G08G32G23G24G16G10
   4199151.63347   3279638.77745  21763448.5784                   21763449.6094
        45.5004         34.5004
   9591938.09046   7457801.14545  24286696.1484                   24286699.0664
        38.7504         30.7504
  -2244223.00448  -1714493.48447  21536763.7034                   21536766.1724
        48.0004         45.5004
  -6217059.65646  -4794176.44145  23274237.7274                   23274242.1564
        39.5004         33.5004
  -7177029.99248  -5569961.08247  21668231.3914                   21668234.4344
        48.5004         46.2504
   3914728.19547   3057245.74245  21273521.5234                   21273521.9534
        46.0004         35.7504
  -2970407.30946  -2292898.55545  23270450.4384                   23270455.7464
        40.5004         32.7504
   5040638.89154   4679661.52352  25512506.1174                   25512513.9494
        28.5004         13.7504
  -1441348.85248  -1090236.19948  21183568.9304                   21183571.1414
        49.0004         49.7504
 05 12 22 18 19  0.0000000  0  8G18G15G27G08G32G23G24G10
   4209741.95347   3287890.92645  21765463.8134                   21765464.5744
        44.7504         34.0004
   9657292.96146   7508726.96945  24299132.1484                   24299136.1094
        39.7504         33.0004
  -2295007.07047  -1754065.50047  21527099.2974                   21527101.7584
        47.2504         45.5004
  -6323997.06646  -4877504.20745  23253888.3594                   23253892.9884
        39.0004         33.2504
  -7296432.64148  -5663002.05547  21645509.8524                   21645512.8954
        49.2504         46.7504
   3914516.54347   3057080.78546  21273481.4694                   21273481.9734
        46.0004         36.5004
  -3035291.02746  -2343457.26645  23258104.6254                   23258108.9024
        41.0004         31.5004
  -1499845.67648  -1135818.16048  21172437.2274                   21172439.4024
        49.7504         49.7504
 05 12 22 18 19 30.0000000  0  8G18G15G27G08G32G23G24G10
   4220690.23447   3296421.99245  21767547.6174                   21767548.1884
        46.0004         34.5004
   9722774.56346   7559751.55545  24311593.1564                   24311596.3754
        40.0004         32.2504
  -2345177.14147  -1793159.07847  21517552.6024                   21517554.9304
        46.2504         45.5004
  -6430462.27746  -4960464.02345  23233629.1094                   23233633.2854
        40.2504         34.2504
  -7415425.44548  -5755723.65647  21622866.0864                   21622869.3874
        49.2504         46.5004
   3914462.65647   3057038.76646  21273471.2034                   21273471.5554
        46.5004         36.5004
  -3099603.50446  -2393570.86745  23245865.2814                   23245870.5744
        39.7504         31.2504
  -1558126.91048  -1181232.11748  21161346.9614                   21161348.8204
        50.0004         50.0004
 05 12 22 18 20  0.0000000  0  8G18G15G27G08G32G23G24G10
   4232002.12947   3305236.39845  21769700.1414                   21769700.9414
        46.0004         34.5004
   9788386.28946   7610877.52045  24324079.1564                   24324082.3714
        38.2504         30.0004
  -2394727.57047  -1831769.80947  21508123.2194                   21508125.4884
        47.5004         45.5004
  -6536447.64846  -5043049.94945  23213460.2034                   23213464.8954
        41.2504         34.5004
  -7534000.87948  -5848120.03947  21600301.8834                   21600305.1454
        49.5004         46.7504
   3914571.52047   3057123.56645  21273491.8204                   21273492.0944
        45.5004         35.5004
  -3163337.42246  -2443233.65245  23233737.5474                   23233741.9414
        39.5004         31.7504
  -1616187.48048  -1226474.12948  21150298.4534                   21150300.3444
        49.7504         50.0004
 05 12 22 18 20 30.0000000  0  8G18G15G27G08G32G23G24G10
   4243677.20347   3314333.80545  21771921.5704                   21771922.9774
        46.2504         33.7504
   9854125.05546   7662102.46545  24336589.5314                   24336591.9494
        38.7504         30.5004
  -2443658.67647  -1869897.96547  21498811.9694                   21498814.8364
        47.0004         45.2504
  -6641951.56646  -5125260.72345  23193383.4064                   23193388.3094
        39.5004         33.7504
  -7652157.63348  -5940190.17247  21577817.2974                   21577820.6254
        49.5004         46.7504
   3914842.18047   3057334.43846  21273542.8444                   21273543.9024
        46.2504         36.2504
  -3226491.53546  -2492444.62545  23221720.0634                   23221724.3444
        40.5004         32.2504
  -1674028.30148  -1271544.91448  21139291.5004                   21139293.5234
        50.5004         50.0004
 05 12 22 18 21  0.0000000  0  8G18G15G27G08G32G23G24G10
   4255716.57447   3323715.07445  21774212.6094                   21774213.6454
        46.0004         34.0004
   9919989.70346   7713425.56645  24349121.9774                   24349125.7424
        41.0004         34.0004
  -2491969.39848  -1907542.69547  21489619.0944                   21489621.2154
        48.0004         45.5004
  -6746971.02346  -5207093.99245  23173398.9844                   23173403.9224
        39.0004         33.7504
  -7769892.78948  -6031931.78947  21555413.0234                   21555416.4844
        49.0004         46.7504
   3915275.03147   3057671.69546  21273625.9384                   21273626.4064
        46.5004         36.2504
  -3289063.10246  -2541201.66045  23209813.1254                   23209817.7934
        39.5004         32.7504
  -1731648.74248  -1316443.96148  21128326.6804                   21128328.6024
        50.5004         49.7504
 05 12 22 18 21 30.0000000  0  8G18G15G27G08G32G23G24G10
   4268116.87947   3333377.60545  21776571.9064                   21776573.6644
        46.0004         34.5004
   9985974.43846   7764842.24245  24361678.7034                   24361682.2384
        40.5004         34.5004
  -2539663.03547  -1944706.58647  21480543.2194                   21480545.4884
        47.7504         45.2504
  -6851507.34846  -5288550.78945  23153506.1884                   23153510.5434
        39.2504         33.7504
  -7887207.99648  -6123346.17647  21533088.6564                   21533091.8094
        48.7504         46.7504
   3915866.20747   3058132.32446  21273738.3524                   21273738.7934
        46.0004         36.0004
  -3351053.77746  -2589506.07045  23198016.5164                   23198021.3594
        38.5004         32.2504
  -1789052.66448  -1361174.28948  21117403.3754                   21117405.5084
        51.0004         50.0004
 05 12 22 18 22  0.0000000  0  8G18G15G27G08G32G23G24G10
   4280871.94547   3343316.55145  21778999.6094                   21779000.7274
        46.2504         34.0004
  10052070.70346   7816345.78545  24374256.0864                   24374259.8834
        38.2504         32.5004
  -2586745.77048  -1981394.44947  21471583.2504                   21471586.0124
        48.0004         45.5004
  -6955564.73046  -5369634.39845  23133704.4614                   23133709.4494
        40.5004         34.0004
  -8004107.59048  -6214436.69947  21510843.2504                   21510846.5124
        49.0004         46.7504
   3916608.94547   3058711.05946  21273879.5164                   21273880.1914
        45.2504         36.5004
  -3412468.05546  -2637361.34845  23186329.2114                   23186334.4064
        39.0004         31.0004
  -1846246.71948  -1405741.10248  21106519.2424                   21106521.7664
        50.0004         50.0004
 05 12 22 18 22 30.0000000  0  8G18G15G27G08G32G23G24G10
   4293983.91847   3353533.60945  21781494.9454                   21781495.9694
        46.0004         34.0004
  10118278.43446   7867936.17245  24386855.5704                   24386858.7154
        37.7504         31.5004
  -2633215.43047  -2017604.59447  21462740.6174                   21462743.0004
        47.7504         45.5004
  -7059139.07846  -5450341.61345  23113995.3754                   23113999.8874
        40.5004         34.5004
  -8120587.66448  -6305200.32847  21488677.8364                   21488680.8134
        49.0004         47.0004
   3917504.86747   3059409.14845  21274049.7814                   21274050.8444
        45.7504         35.7504
  -3473302.20746  -2684764.56645  23174753.0084                   23174757.3524
        37.5004         31.2504
  -1903229.24648  -1450143.08248  21095676.1024                   21095678.1094
        50.2504         50.0004
 05 12 22 18 23  0.0000000  0  8G18G15G27G08G32G23G24G10
   4307447.71947   3364024.82445  21784057.0234                   21784058.1214
        46.7504         34.0004
  10184590.37146   7919607.80945  24399474.3674                   24399477.6844
        40.2504         34.0004
  -2679077.13747  -2053341.01247  21454013.5704                   21454016.1524
        47.7504         45.5004
  -7162233.46546  -5530674.82445  23094376.5084                   23094381.2974
        39.5004         34.5004
  -8236651.50048  -6395639.61347  21466591.6884                   21466594.6954
        49.0004         47.0004
   3918548.40647   3060222.28146  21274248.7584                   21274249.1884
        46.0004         36.0004
  -3533559.70746  -2731718.41845  23163286.6954                   23163290.5204
        40.0004         31.2504
  -1960005.73848  -1494384.50848  21084871.5784                   21084874.1174
        50.5004         50.0004
 05 12 22 18 23 30.0000000  0  8G18G15G27G08G32G23G24G10
   4321263.89147   3374790.60245  21786685.7814                   21786687.4534
        45.5004         33.2504
  10251004.59846   7971359.16445  24412112.4304                   24412115.5864
        39.7504         33.7504
  -2724330.37148  -2088603.29347  21445402.0554                   21445404.8674
        48.0004         46.0004
  -7264845.33646  -5610632.05145  23074850.5944                   23074855.1174
        40.7504         33.5004
  -8352296.78148  -6485752.76247  21444585.0784                   21444588.0474
        49.2504         47.0004
   3919739.55547   3061150.42246  21274475.5634                   21274475.9774
        45.5004         36.5004
  -3593238.33246  -2778221.20745  23151930.0554                   23151934.2424
        39.7504         32.7504
  -2016576.02048  -1538465.26648  21074107.0944                   21074109.1294
        50.5004         50.0004
 05 12 22 18 24  0.0000000  0  8G18G15G27G08G32G23G24G10
   4335433.26647   3385831.61345  21789382.3524                   21789384.0634
        45.2504         33.5004
  10317519.73846   8023189.14845  24424769.1024                   24424773.0204
        38.5004         31.7504
  -2768974.39848  -2123390.85947  21436906.5554                   21436908.8324
        48.0004         45.5004
  -7366971.91846  -5690211.14845  23055416.3204                   23055420.7854
        41.0004         34.0004
  -8467520.97748  -6575537.78947  21422658.7274                   21422661.7624
        49.0004         47.2504
   3921078.64847   3062193.84046  21274730.2664                   21274731.0474
        45.5004         36.5004
  -3652335.76646  -2824271.12945  23140683.7814                   23140688.6724
        39.0004         32.5004
  -2072939.73848  -1582385.05948  21063381.3754                   21063383.3204
        49.7504         50.0004
 05 12 22 18 24 30.0000000  0  8G18G15G27G08G32G23G24G10
   4349956.86347   3397148.64845  21792146.2974                   21792148.1844
        46.0004         34.2504
  10384134.67246   8075096.86345  24437445.9304                   24437449.7854
        39.0004         33.0004
  -2813008.19547  -2157702.94147  21428527.7034                   21428529.7544
        47.0004         45.5004
  -7468610.28146  -5769409.80945  23036075.1484                   23036079.8364
        40.7504         34.0004
  -8582321.23048  -6664992.46947  21400812.7974                   21400815.6724
        49.0004         47.2504
   3922566.27747   3063353.00845  21275013.3984                   21275014.2034
        46.2504         35.7504
  -3710849.32446  -2869866.09845  23129549.1804                   23129554.2934
        37.5004         32.5004
  -2129096.21948  -1626143.36748  21052694.8134                   21052697.0274
        49.0004         49.7504
 05 12 22 18 25  0.0000000  0  8G18G15G27G08G32G23G24G10
   4364830.92247   3408738.75445  21794976.5784                   21794978.0824
        45.0004         33.7504
  10450843.30546   8127077.57045  24450140.0784                   24450143.8954
        38.0004         31.5004
  -2856435.74247  -2191542.61347  21420263.5004                   21420265.5904
        47.5004         45.5004
  -7569762.28146  -5848229.47745  23016826.1644                   23016831.1764
        40.7504         34.2504
  -8696699.64148  -6754118.44147  21379047.0944                   21379050.3204
        48.2504         47.5004
   3924198.15247   3064624.57045  21275323.7584                   21275324.5124
        45.7504         35.7504
  -3768781.27046  -2915007.86745  23118525.1724                   23118529.3834
        38.7504         33.2504
  -2185049.70748  -1669743.50448  21042047.5164                   21042049.5044
        49.7504         50.0004
 05 12 22 18 25 30.0000000  0  8G18G15G27G08G32G23G24G10
   4380057.42647   3420603.49645  21797874.4844                   21797875.7114
        45.0004         33.5004
  10517645.32046   8179131.05945  24462852.6954                   24462856.1644
        39.7504         32.2504
  -2899255.09047  -2224908.36347  21412115.1484                   21412117.3634
        47.2504         45.5004
  -7670423.86746  -5926667.02045  22997670.9304                   22997675.4534
        41.7504         34.7504
  -8810652.41048  -6842912.75047  21357362.6564                   21357365.3874
        50.0004         47.2504
   3925975.90247   3066009.80546  21275662.3284                   21275663.0204
        46.0004         36.0004
  -3826128.07846  -2959693.67245  23107612.6334                   23107617.0084
        37.5004         33.0004
  -2240798.50048  -1713184.13348  21031439.0474                   21031440.6454
        50.0004         50.0004
 05 12 22 18 26  0.0000000  0  8G18G15G27G08G32G23G24G10
   4395636.47347   3432742.93445  21800838.7734                   21800840.3524
        45.2504         33.0004
  10584538.52046   8231255.62945  24475581.9534                   24475585.2774
        39.7504         33.0004
  -2941466.23447  -2257800.19547  21404082.5634                   21404085.2504
        47.0004         45.5004
  -7770593.03946  -6004720.88345  22978609.6254                   22978613.7274
        40.7504         34.0004
  -8924177.71148  -6931373.96947  21335759.5474                   21335762.7774
        49.5004         47.5004
   3927899.12547   3067508.39145  21276027.9614                   21276028.5824
        45.7504         35.2504
  -3882888.16046  -3003922.28945  23096811.1334                   23096815.7344
        37.5004         31.7504
  -2296342.91048  -1756465.50048  21020868.9614                   21020870.9774
        49.2504         50.0004
 05 12 22 18 26 30.0000000  0  8G18G15G27G08G32G23G24G10
   4411569.41847   3445158.14545  21803870.6094                   21803872.2234
        45.0004         32.7504
  10651522.28546   8283450.78545  24488328.0234                   24488331.4414
        39.5004         30.0004
  -2983067.98047  -2290217.16847  21396166.1334                   21396168.5004
        47.5004         45.7504
  -7870266.53146  -6082388.47345  22959641.6884                   22959647.0554
        41.0004         34.0004
  -9037272.39548  -7019499.63347  21314238.0784                   21314241.2814
        49.0004         47.5004
   3929968.87547   3069121.14845  21276421.9064                   21276422.6454
        46.0004         35.7504
  -3939058.49246  -3047691.34045  23086122.4534                   23086126.9924
        38.0004         32.2504
  -2351681.90248  -1799586.81248  21010338.4064                   21010340.5004
        49.0004         50.0004
 05 12 22 18 27  0.0000000  0  8G18G15G27G08G32G23G24G10
   4427852.60247   3457846.26245  21806969.3914                   21806970.7624
        45.5004         33.5004
  10718590.67646   8335711.91844  24501091.1174                   24501094.4144
        39.0004         28.7504
  -3024064.14847  -2322162.26247  21388364.8134                   21388367.6254
        47.0004         45.7504
  -7969446.03546  -6159671.15245  22940769.1954                   22940773.3284
        41.0004         34.2504
  -9149938.46148  -7107291.31647  21292798.4614                   21292801.3954
        49.5004         47.5004
   3932181.02047   3070844.87146  21276842.8204                   21276844.0274
        47.0004         36.0004
  -3994641.39846  -3091002.68045  23075545.3914                   23075550.0354
        38.7504         32.5004
  -2406819.48048  -1842551.17648  20999846.1414                   20999848.3914
        50.0004         50.0004
 05 12 22 18 27 30.0000000  0  8G18G15G27G08G32G23G24G10
   4444488.22347   3470809.02045  21810135.2344                   21810137.1214
        45.2504         33.5004
  10785743.97746   8388039.19945  24513869.7814                   24513872.7854
        38.7504         30.0004
  -3064452.67647  -2353633.87947  21380679.0704                   21380681.7234
        47.7504         45.5004
  -8068127.53946  -6236565.76645  22921990.2034                   22921995.1134
        41.2504         34.2504
  -9262171.91448  -7194745.90247  21271441.0554                   21271443.9414
        48.0004         47.5004
   3934537.44547   3072681.02345  21277291.4144                   21277292.1684
        45.7504         35.2504
  -4049633.10946  -3133853.34045  23065080.4774                   23065085.5784
        39.0004         33.2504
  -2461753.78148  -1885357.13348  20989392.4224                   20989394.5634
        48.5004         50.0004
 05 12 22 18 28  0.0000000  0  8G18G15G27G08G32G23G24G10
   6036894.63747   4711645.12145  22113160.3054                   22113161.6054
        44.5004         33.0004
  12428396.58046   9668028.25044  24826456.3284                   24826459.4734
        38.2504         29.2504
  -1528813.53947  -1157031.98447  21672901.3914                   21672904.1684
        46.5004         46.0004
  -6590886.79346  -5085469.03145  23203100.2424                   23203104.5514
        41.0004         35.2504
  -7798548.41048  -6054260.00447  21549959.4304                   21549962.1604
        49.0004         47.7504
   5512456.64847   4302228.42646  21577559.2974                   21577560.1254
        46.0004         36.0004
  -2528611.48446  -1948641.67245  23354521.3754                   23354526.4614
        39.2504         32.0004
   -941064.30148   -700404.30548  21278769.9454                   21278772.1414
        48.7504         50.0004
 05 12 22 18 28 30.0000000  0  8G18G15G27G08G32G23G24G10
   6054234.32447   4725156.48845  22116460.0164                   22116461.2504
        45.7504         32.7504
  12495712.35546   9720482.10244  24839266.4384                   24839269.1914
        37.0004         28.0004
  -1567988.14847  -1187557.68447  21665446.9144                   21665449.8324
        47.0004         45.7504
  -6688567.14847  -5161583.54745  23184511.9224                   23184516.4264
        42.0004         35.5004
  -7909912.28148  -6141036.99247  21528767.3984                   21528770.5904
        48.7504         47.7504
   5515099.82047   4304288.00845  21578061.9534                   21578063.1524
        46.5004         35.5004
  -2582417.25846  -1990568.23445  23344282.5784                   23344287.4304
        37.7504         32.0004
   -995593.65248   -742894.72348  21268393.4844                   21268395.5634
        50.0004         50.0004
 05 12 22 18 29  0.0000000  0  8G18G15G27G08G32G23G24G10
   6071925.38747   4738941.66845  22119827.0394                   22119827.8164
        45.2504         32.5004
  12563105.49646   9772996.23845  24852090.6954                   24852094.0204
        37.7504         30.2504
  -1606556.77748  -1217611.19947  21658107.5944                   21658110.2734
        48.5004         45.5004
  -6785744.72346  -5237306.28945  23166019.4774                   23166024.0044
        41.5004         34.7504
  -8020839.43448  -6227473.68447  21507658.8914                   21507661.5904
        49.7504         47.7504
   5517885.18447   4306458.39145  21578592.2664                   21578592.9264
        46.7504         34.7504
  -2635628.60546  -2032031.59045  23334157.0314                   23334161.2544
        37.7504         32.0004
  -1049921.59448   -785228.19148  21258055.3754                   21258057.4264
        50.0004         50.0004
 05 12 22 18 29 30.0000000  0  8G18G15G27G08G32G23G24G10
   6089967.19547   4753000.14545  22123259.6884                   22123260.7624
        45.7504         31.7504
  12630573.71946   9825568.87145  24864928.8054                   24864933.2234
        37.5004         30.5004
  -1644520.28948  -1247193.18447  21650883.6024                   21650885.7734
        48.2504         45.5004
  -6882418.22347  -5312636.25045  23147622.8524                   23147627.2424
        42.5004         34.7504
  -8131328.79348  -6313569.23047  21486633.3134                   21486636.1954
        48.7504         47.7504
   5520811.86747   4308738.88345  21579149.5704                   21579150.0434
        45.0004         35.2504
  -2688244.72346  -2073031.14145  23324145.1094                   23324148.7544
        38.5004         32.5004
  -1104049.05148   -827405.44148  21247755.0704                   21247757.4264
        49.0004         50.0004
 05 12 22 18 30  0.0000000  0  7G18G27G08G32G23G24G10
   6108357.98447   4767330.55545  22126759.6414                   22126760.9494
        45.7504         33.0004
  -1681880.66048  -1276305.20347  21643774.0784                   21643776.3874
        48.0004         45.5004
  -6978587.60946  -5387573.39545  23129322.8524                   23129327.1564
        41.5004         35.0004
  -8241380.38348  -6399323.66847  21465691.1564                   21465693.8834
        49.5004         47.7504
   5523877.81347   4311127.89845  21579732.6564                   21579733.2034
        46.5004         35.0004
  -2740265.96546  -2113567.12945  23314245.3204                   23314248.9614
        37.7504         32.0004
  -1157978.07848   -869428.07448  21237492.8444                   21237494.9844
        50.0004         50.2504
 05 12 22 18 30 30.0000000  0  7G18G27G08G32G23G24G10
   6127099.43847   4781934.21545  22130326.0234                   22130327.1524
        46.2504         33.2504
  -1718636.49248  -1304946.14847  21636779.7894                   21636782.3134
        48.0004         45.5004
  -7074249.24647  -5462114.89145  23111118.7974                   23111122.9694
        42.0004         35.5004
  -8350990.83648  -6484734.35948  21444833.0554                   21444835.5944
        49.5004         48.0004
   5527084.43047   4313626.52345  21580343.1724                   21580344.0594
        46.5004         35.0004
  -2791689.20746  -2153637.15645  23304459.4614                   23304464.0164
        38.2504         32.2504
  -1211707.14148   -911294.88748  21227268.5784                   21227270.5864
        50.0004         50.0004
 05 12 22 18 31  0.0000000  0  7G18G27G08G32G23G24G10
   6146203.37947   4796820.32445  22133961.1174                   22133962.9384
        46.0004         33.0004
  -1754776.20348  -1333106.99247  21629902.6024                   21629905.0124
        48.0004         45.5004
  -7169389.46147  -5536250.08245  23093013.9774                   23093018.1374
        42.5004         35.0004
  -8460146.57048  -6569790.71548  21424061.1024                   21424064.1334
        48.2504         48.0004
   5530443.32847   4316243.80945  21580982.1884                   21580982.9734
        45.7504         34.7504
  -2842501.24246  -2193230.93045  23294790.9144                   23294794.9964
        39.0004         33.0004
  -1265224.66848   -952996.86748  21217084.6024                   21217086.8754
        50.5004         50.2504
 05 12 22 18 31 30.0000000  0  7G18G27G08G32G23G24G10
   6165669.40647   4811988.58245  22137665.7424                   22137667.4024
        46.2504         33.2504
  -1790300.41448  -1360788.23047  21623142.5164                   21623145.3364
        48.2504         45.5004
  -7264006.65647  -5609977.73045  23075009.0234                   23075013.6054
        42.5004         35.5004
  -8568846.25048  -6654491.71148  21403376.2814                   21403378.8914
        50.2504         48.0004
   5533953.96947   4318979.34045  21581650.7344                   21581651.4844
        47.0004         35.5004
  -2892701.12546  -2232347.69145  23285238.1174                   23285242.1094
        38.5004         33.0004
  -1318531.16048   -994534.40248  21206940.7424                   21206942.5634
        51.0004         50.0004
 05 12 22 18 32  0.0000000  0  7G18G27G08G32G23G24G10
   6185492.45347   4827435.04345  22141437.9774                   22141439.2934
        46.2504         32.5004
  -1825214.58647  -1387994.12147  21616498.3834                   21616500.6024
        47.7504         45.5004
  -7358104.18447  -5683300.44545  23057102.9534                   23057107.4964
        43.0004         35.5004
  -8677093.35248  -6738840.04348  21382777.8134                   21382780.5084
        49.7504         48.0004
   5537610.92647   4321828.87145  21582346.1884                   21582347.3054
        46.5004         35.0004
  -2942292.65646  -2270990.42245  23275800.6954                   23275805.5824
        38.7504         31.7504
  -1371631.99648  -1035911.68748  21196836.1094                   21196838.0824
        51.5004         50.0004
 05 12 22 18 32 30.0000000  0  7G18G27G08G32G23G24G10
   6205667.88347   4843156.09045  22145277.0084                   22145278.3754
        46.0004         32.5004
  -1859523.64147  -1414728.49647  21609969.5784                   21609972.3204
        47.5004         45.2504
  -7451684.73047  -5756220.30945  23039295.1414                   23039299.5234
        42.5004         35.5004
  -8784890.76248  -6822837.97348  21362264.1564                   21362266.8794
        49.5004         48.0004
   5541409.50847   4324788.77045  21583068.9064                   21583069.8094
        46.0004         35.2504
  -2991279.12146  -2309161.67245  23266478.6174                   23266483.6804
        40.0004         33.0004
  -1424531.93448  -1077132.42648  21186769.1414                   21186771.2934
        50.5004         50.2504
 05 12 22 18 33  0.0000000  0  7G18G27G08G32G23G24G10
   6226192.05547   4859148.87145  22149182.7114                   22149184.3364
        45.7504         32.2504
  -1893231.52047  -1440994.42247  21603555.2424                   21603557.9654
        47.5004         45.5004
  -7544750.11347  -5828738.75445  23021585.6094                   23021589.9734
        42.5004         34.7504
  -8892240.38748  -6906486.97348  21341836.4144                   21341839.0044
        50.0004         48.2504
   5545345.87947   4327856.03945  21583818.6414                   21583819.1484
        46.0004         34.5004
  -3039662.73846  -2346863.15645  23257271.7114                   23257275.6564
        38.5004         32.2504
  -1477234.71148  -1118199.52748  21176740.1884                   21176742.6644
        50.7504         50.0004
 05 12 22 18 33 30.0000000  0  7G18G27G08G32G23G24G10
   6247070.28947   4875417.55145  22153156.0164                   22153157.4384
        46.2504         33.0004
  -1926333.26648  -1466788.03547  21597256.3524                   21597259.4384
        48.2504         45.5004
  -7637293.18047  -5900850.20345  23003974.9694                   23003979.6254
        42.5004         35.5004
  -8999135.32448  -6989781.67248  21321494.9844                   21321497.2074
        50.5004         48.2504
   5549425.15247   4331034.65645  21584594.4694                   21584595.4224
        46.5004         34.7504
  -3087437.02746  -2384089.85545  23248180.5234                   23248184.8954
        38.7504         32.5004
  -1529735.27048  -1159109.05948  21166749.7584                   21166751.6564
        50.5004         50.0004
 05 12 22 18 34  0.0000000  0  7G18G27G08G32G23G24G10
   6268300.25047   4891960.28145  22157196.1724                   22157197.2384
        46.0004         32.5004
  -1958831.50848  -1492111.38747  21591072.2894                   21591074.9224
        48.0004         45.5004
  -7729314.33647  -5972554.96145  22986464.0394                   22986468.4574
        43.0004         35.7504
  -9105576.11748  -7072722.49248  21301239.9774                   21301242.6804
        50.0004         48.2504
   5553644.98047   4334322.80145  21585397.7034                   21585398.2664
        46.0004         35.5004
  -3134602.99646  -2420842.54345  23239204.6484                   23239209.5744
        39.7504         32.0004
  -1582035.94948  -1199862.84048  21156797.5944                   21156799.3674
        50.0004         50.0004
 05 12 22 18 34 30.0000000  0  7G18G27G08G32G23G24G10
   6289877.95347   4908774.00445  22161302.1334                   22161303.8714
        45.7504         32.5004
  -1990730.61348  -1516967.87947  21585002.2194                   21585004.6564
        48.0004         45.5004
  -7820815.76647  -6043854.75045  22969051.8914                   22969056.1954
        43.0004         35.5004
  -9211565.15248  -7155311.29348  21281070.8674                   21281073.3874
        50.5004         48.5004
   5558001.24647   4337717.26245  21586226.5554                   21586227.8524
        47.0004         35.5004
  -3181163.31646  -2457123.29745  23230345.2344                   23230349.5274
        40.2504         32.5004
  -1634140.85948  -1240464.06648  21146882.0234                   21146884.0824
        50.5004         49.7504
 05 12 22 18 35  0.0000000  0  7G18G27G08G32G23G24G10
   6311802.16047   4925857.72345  22165474.2114                   22165475.9104
        45.7504         32.0004
  -2022032.30548  -1541358.85547  21579045.3364                   21579047.7734
        48.7504         45.2504
  -7911796.94547  -6114749.15646  22951738.9384                   22951743.1994
        43.5004         36.2504
  -9317102.00848  -7237547.75448  21260987.7894                   21260990.3634
        50.5004         48.5004
   5562492.54747   4341216.94545  21587081.3284                   21587082.3094
        46.2504         35.0004
  -3227118.04346  -2492932.15645  23221600.1174                   23221604.2894
        41.0004         33.0004
  -1686051.36748  -1280913.82048  21137003.8134                   21137005.9734
        50.5004         49.7504
 05 12 22 18 35 30.0000000  0  7G18G27G08G32G23G24G10
   6334072.84447   4943211.42245  22169712.1564                   22169713.9024
        45.7504         32.0004
  -2052736.91048  -1565284.57047  21573202.6644                   21573205.1374
        48.2504         45.5004
  -8002256.06247  -6185236.75445  22934524.7664                   22934529.1524
        42.5004         35.0004
  -9422185.00448  -7319430.55148  21240990.8984                   21240993.9304
        50.0004         48.5004
   5567118.80547   4344821.79345  21587961.7734                   21587962.3914
        47.0004         34.7504
  -3272465.98446  -2528268.19945  23212970.6954                   23212975.1454
        40.5004         33.2504
  -1737767.58648  -1321212.16848  21127162.4844                   21127164.4454
        51.0004         49.7504
 05 12 22 18 36  0.0000000  0  7G18G27G08G32G23G24G10
   6356687.78147   4960833.37145  22174015.6334                   22174017.0944
        46.0004         32.2504
  -2082847.12147  -1588747.12147  21567473.1414                   21567475.6054
        47.2504         45.5004
  -8092193.53947  -6255317.87545  22917410.1094                   22917415.0004
        43.0004         35.2504
  -9526814.75848  -7400960.17648  21221080.3524                   21221083.2234
        50.0004         48.5004
   5571877.71547   4348530.00445  21588867.4144                   21588868.7304
        46.2504         35.0004
  -3317208.10546  -2563132.17245  23204456.6884                   23204460.7424
        39.7504         32.2504
  -1789291.82848  -1361360.94148  21117357.7034                   21117360.2464
        51.0004         50.0004
 05 12 22 18 36 30.0000000  0  7G18G27G08G32G23G24G10
   6379649.23447   4978725.32845  22178385.1174                   22178386.7934
        45.5004         32.2504
  -2112361.03948  -1611745.03147  21561856.7584                   21561859.3874
        48.0004         45.5004
  -8181605.27747  -6324989.33645  22900395.5234                   22900400.3164
        43.2504         35.5004
  -9630987.30148  -7482133.52748  21201257.3834                   21201260.1454
        50.2504         48.7504
   5576771.55547   4352343.35245  21589798.8834                   21589799.4454
        45.7504         34.2504
  -3361340.99246  -2597521.41045  23196058.2274                   23196061.9844
        38.2504         32.2504
  -1840621.79348  -1401358.31648  21107590.1024                   21107592.2344
        51.0004         50.0004
 05 12 22 18 37  0.0000000  0  8G18G02G27G08G32G23G24G10
   6402953.42647   4996884.34445  22182819.9304                   22182821.4774
        45.5004         31.7504
   6107991.73415                  25402255.977
        33.500
  -2141282.88748  -1634281.59047  21556352.9924                   21556355.6174
        48.0004         45.0004
  -8270493.24247  -6394252.66446  22883481.7424                   22883485.0864
        43.2504         36.0004
  -9734704.73448  -7562952.26648  21181520.5234                   21181522.9024
        50.5004         48.5004
   5581796.52347   4356258.88345  21590755.1884                   21590756.3094
        46.2504         34.7504
  -3404867.19146  -2631437.91045  23187774.7894                   23187779.5944
        40.0004         31.7504
  -1891761.35248  -1441207.32848  21097858.5704                   21097860.5234
        50.5004         50.0004
 05 12 22 18 37 30.0000000  0  8G18G02G27G08G32G23G24G10
   6426592.89847   5015304.62545  22187318.5394                   22187320.3754
        45.0004         31.5004
   5972182.059 5                  25376412.219
        34.750
  -2169620.58647  -1656362.96547  21550960.9534                   21550963.3914
        47.7504         45.0004
  -8358863.12147  -6463112.28146  22866664.8914                   22866668.9184
        42.5004         36.0004
  -9837972.91448  -7643420.92648  21161868.9144                   21161871.2114
        51.0004         48.7504
   5586945.14547   4360270.76245  21591734.6174                   21591735.8014
        45.2504         34.5004
  -3447792.96146  -2664886.53945  23179606.6884                   23179611.1994
        39.5004         32.7504
  -1942717.91448  -1480913.74648  21088161.5234                   21088164.0084
        50.2504         50.0004
 05 12 22 18 38  0.0000000  0  8G18G02G27G08G32G23G24G10
   6450561.87547   5033981.66445  22191879.2034                   22191881.8284
        45.7504         32.0004
   5836333.25045   4816543.34852  25350560.7664                   25350565.5434
        34.5004         14.7504
  -2197380.41447  -1677994.05547  21545678.5394                   21545681.1914
        47.0004         45.2504
  -8446718.95747  -6531571.35946  22849946.5704                   22849950.3444
        42.5004         36.0004
  -9940796.02048  -7723542.77348  21142302.3914                   21142304.8364
        50.5004         48.5004
   5592211.65247   4364374.50445  21592736.5084                   21592737.4694
        45.2504         34.5004
  -3490123.03546  -2697870.99245  23171551.8914                   23171556.1334
        40.2504         33.7504
  -1993497.30548  -1520482.10248  21078498.6804                   21078501.0554
        51.2504         50.0004
 05 12 22 18 38 30.0000000  0  8G18G02G27G08G32G23G24G10
   6474863.30147   5052917.76245  22196504.1254                   22196506.2734
        45.2504         31.7504
   5700450.23445   4710660.68042  25324703.6724                   25324708.8484
        34.5004         14.7504
  -2224559.84848  -1699172.88747  21540506.3524                   21540509.1884
        48.0004         45.2504
  -8534055.94147  -6599626.12545  22833326.6804                   22833331.4924
        42.5004         34.5004
 -10043169.37548  -7803314.17648  21122821.4694                   21122823.6724
        50.5004         48.5004
   5597599.09047   4368572.47345  21593762.0084                   21593762.9414
        46.2504         34.5004
  -3531853.21546  -2730388.00045  23163610.9064                   23163615.5434
        38.7504         33.0004
  -2044096.53948  -1559910.08248  21068869.8754                   21068872.1254
        50.7504         50.0004
 05 12 22 18 39  0.0000000  0  8G18G02G27G08G32G23G24G10
   6499502.66047   5072117.17645  22201193.1024                   22201194.7734
        46.5004         31.7504
   5564540.07845   4604756.87542  25298840.0084                   25298845.6254
        34.5004         16.7504
  -2251153.90647  -1719895.58247  21535445.7034                   21535448.1524
        47.5004         45.0004
  -8620866.91047  -6667271.00045  22816806.9614                   22816811.1954
        42.0004         35.5004
 -10145085.90648  -7882729.60548  21103427.1254                   21103429.8914
        49.5004         48.5004
   5603112.92247   4372868.93445  21594811.3054                   21594812.1724
        46.0004         34.5004
  -3572976.96546  -2762432.46945  23155784.8204                   23155789.7854
        39.0004         32.7504
  -2094510.12148  -1599193.38348  21059276.8134                   21059278.5204
        50.7504         50.0004
 05 12 22 18 39 30.0000000  0  8G18G02G27G08G32G23G24G10
   6524484.02047   5091583.09045  22205946.7814                   22205948.2074
        45.5004         31.7504
   5428608.80146   4556737.56352  25272973.0394                   25272974.8324
        36.7504         16.7504
  -2277159.05547  -1740159.39147  21530496.8364                   21530499.7194
        47.0004         45.0004
  -8707146.00847  -6734501.44546  22800388.9224                   22800392.9344
        42.5004         36.2504
 -10246539.97748  -7961784.68448  21084121.3674                   21084124.0274
        51.5004         48.5004
   5608757.32447   4377267.14545  21595885.3284                   21595886.0634
        45.7504         34.5004
  -3613489.19946  -2794000.43045  23148075.7344                   23148080.1954
        39.0004         33.0004
  -2144733.91448  -1638328.80948  21049719.5634                   21049721.3794
        51.0004         50.0004
 05 12 22 18 40  0.0000000  0  8G18G02G27G08G32G23G24G10
   6549805.12947   5111313.73445  22210765.4224                   22210767.0354
        46.0004         31.7504
   5292655.94546   4450800.39542  25247102.1254                   25247105.3914
        36.2504         14.7504
  -2302578.03947  -1759966.43747  21525659.6954                   21525662.7584
        47.7504         45.5004
  -8792893.73047  -6801317.82446  22784071.5004                   22784075.3364
        43.0004         36.2504
 -10347532.18748  -8040479.87148  21064903.0554                   21064905.8324
        50.7504         48.7504
   5614530.14847   4381765.43045  21596983.8984                   21596984.9024
        46.5004         34.0004
  -3653390.97746  -2825092.69945  23140482.6804                   23140487.0124
        39.5004         32.0004
  -2194770.10548  -1677318.05548  21040197.9224                   21040200.1024
        51.5004         50.2504
 05 12 22 18 40 30.0000000  0  8G18G02G27G08G32G23G24G10
   6575467.64847   5131310.41445  22215649.1174                   22215650.4104
        45.7504         31.5004
   5156685.02346   4344849.23842  25221228.3444                   25221230.4844
        36.7504         17.2504
  -2327409.75047  -1779315.87947  21520934.6254                   21520937.2424
        47.5004         45.0004
  -8878106.71947  -6867717.55146  22767855.7504                   22767860.4774
        42.7504         36.0004
 -10448059.27748  -8118812.62148  21045773.4694                   21045775.7664
        50.7504         49.0004
   5620433.12547   4386365.11745  21598107.5394                   21598108.1414
        46.5004         33.5004
  -3692679.60946  -2855707.18745  23133006.1804                   23133010.9264
        39.5004         33.5004
  -2244616.97348  -1716159.77048  21030712.3674                   21030714.3284
        49.5004         50.0004
 05 12 22 18 41  0.0000000  0  8G18G02G27G08G32G23G24G10
   6601469.33247   5151571.37945  22220596.7034                   22220598.2624
        45.5004         31.7504
   5020695.83246   4238883.84042  25195349.4064                   25195353.3954
        37.2504         16.7504
  -2351656.93747  -1798209.84047  21516320.2664                   21516323.4964
        47.5004         45.0004
  -8962785.44147  -6933700.96546  22751742.0004                   22751746.1524
        42.7504         36.0004
 -10548121.84448  -8196783.42248  21026731.9774                   21026734.4534
        51.2504         49.0004
   5626464.16047   4391064.60545  21599254.9924                   21599256.1134
        46.5004         34.2504
  -3731356.25446  -2885844.79745  23125646.2194                   23125650.6134
        39.5004         33.5004
  -2294276.65648  -1754855.62548  21021262.5164                   21021264.7344
        50.0004         50.0004
 05 12 22 18 41 30.0000000  0  8G18G02G27G08G32G23G24G10
   6627810.20347   5172096.66045  22225608.9454                   22225610.8914
        45.5004         31.2504
   4884689.79746   4132905.34042  25169467.9454                   25169472.1954
        36.2504         16.7504
  -2375320.20747  -1816648.80147  21511817.3984                   21511820.4694
        47.0004         45.2504
  -9046928.23047  -6999266.75846  22735730.3834                   22735734.4264
        42.2504         36.0004
 -10647718.31248  -8274391.02348  21007779.3524                   21007781.9184
        51.0004         48.7504
   5632623.38347   4395863.96945  21600426.8054                   21600427.7774
        45.7504         33.5004
  -3769419.94546  -2915504.78945  23118403.3444                   23118407.6724
        40.0004         33.7504
  -2343749.06648  -1793405.55948  21011848.1564                   21011850.3634
        49.5004         50.0004
 05 12 22 18 42  0.0000000  0  8G18G02G27G08G32G23G24G10
   6654490.86347   5192886.69145  22230686.7274                   22230688.6174
        45.5004         31.5004
   4748669.47345   4026915.68442  25143584.0394                   25143588.1604
        35.2504         17.2504
  -2398399.44147  -1834632.67647  21507426.0864                   21507428.9264
        46.5004         45.2504
  -9130532.66047  -7064413.05145  22719820.9224                   22719825.0744
        43.0004         35.7504
 -10746846.44948  -8351633.68748  20988915.7814                   20988918.2464
        51.0004         49.0004
   5638911.63747   4400763.87545  21601623.8134                   21601624.8404
        45.5004         34.2504
  -3806868.99246  -2944685.84045  23111276.9534                   23111281.3794
        38.5004         33.2504
  -2393033.39148  -1831808.92648  21002469.4454                   21002471.5554
        50.0004         50.0004
 05 12 22 18 42 30.0000000  0  8G18G02G27G08G32G23G24G10
   6681511.25847   5213941.46545  22235828.2734                   22235830.5474
        45.7504         32.2504
   4612637.01645   3920916.60943  25117697.6414                   25117701.2734
        35.2504         18.2504
  -2420895.36747  -1852162.02347  21503144.9144                   21503147.8874
        46.0004         45.0004
  -9213597.18747  -7129138.64146  22704013.9534                   22704018.2154
        42.5004         36.5004
 -10845504.73048  -8428510.23448  20970141.9224                   20970144.2304
        51.0004         49.0004
   5645328.89847   4405764.30945  21602844.7424                   21602845.4304
        45.5004         33.5004
  -3843702.45746  -2973387.23045  23104267.0164                   23104272.2894
        37.7504         33.0004
  -2442129.57448  -1870065.69548  20993126.9534                   20993129.1884
        48.7504         50.0004
 05 12 22 18 43  0.0000000  0  8G18G02G27G08G32G23G24G10
   6708869.70747   5235259.63745  22241035.0234                   22241036.3324
        45.5004         31.5004
   4476592.54745   3814908.09442  25091809.2584                   25091812.9924
        35.0004         16.7504
  -2442810.21147  -1869238.57447  21498974.4614                   21498977.7234
        46.2504         45.2504
  -9296121.79346  -7193443.51646  22688310.7194                   22688314.9454
        41.7504         36.7504
 -10943693.29748  -8505020.76648  20951456.9384                   20951459.7154
        51.2504         49.0004
   5651873.80947   4410864.21545  21604090.3524                   21604091.0474
        45.0004         33.2504
  -3879921.06646  -3001609.50045  23097375.5554                   23097379.8204
        37.5004         32.5004
  -2491039.14148  -1908177.04748  20983819.8054                   20983821.7424
        51.2504         50.0004
 05 12 22 18 43 30.0000000  0  8G18G02G27G08G32G23G24G10
   6736569.14147   5256843.51645  22246305.8444                   22246307.4534
        44.7504         31.2504
   4340540.98445   3708894.08242  25065919.6094                   25065922.7344
        34.5004         17.7504
  -2464141.66447  -1885860.53947  21494915.4694                   21494918.4574
        46.2504         45.2504
  -9378101.83246  -7257324.04746  22672709.9924                   22672714.3244
        41.7504         36.5004
 -11041407.60948  -8581161.75448  20932862.7034                   20932865.0944
        51.7504         49.2504
   5658549.49247   4416066.01245  21605360.6174                   21605361.6094
        44.2504         33.5004
  -3915520.92646  -3029349.62945  23090600.9694                   23090605.1994
        39.0004         33.2504
  -2539759.00848  -1946140.58248  20974548.9454                   20974550.6764
        50.2504         50.2504
 05 12 22 18 44  0.0000000  0  8G18G02G27G08G32G23G24G10
   6764604.73847   5278689.35245  22251640.6954                   22251642.8054
        45.7504         30.7504
   4204479.21945   3602872.15643  25040027.1024                   25040030.5864
        33.2504         18.2504
  -2484895.18447  -1902032.16847  21490966.9224                   21490969.3094
        47.0004         45.2504
  -9459540.48446  -7320782.73046  22657212.3364                   22657216.8634
        41.5004         36.7504
 -11138650.92648  -8656935.72748  20914357.8134                   20914360.1914
        50.5004         49.2504
   5665351.31347   4421366.10545  21606655.2274                   21606656.0784
        44.5004         33.7504
  -3950505.94146  -3056610.64545  23083943.3364                   23083947.8834
        37.7504         33.0004
  -2588293.73048  -1983959.83648  20965312.8054                   20965315.4774
        51.0004         50.0004
 05 12 22 18 44 30.0000000  0  8G18G02G27G08G32G23G24G10
   6792979.91847   5300799.79345  22257040.8754                   22257042.7704
        45.5004         30.7504
   4068412.60545   3496846.46542  25014134.8524                   25014138.6134
        34.0004         17.7504
  -2505067.99647  -1917751.29347  21487127.8754                   21487130.5704
        45.7504         45.2504
  -9540432.64546  -7383815.55946  22641819.4694                   22641823.1954
        41.0004         36.2504
 -11235418.25848  -8732338.80548  20895943.5394                   20895946.2814
        51.0004         49.2504
   5672283.02047   4426767.41045  21607974.4384                   21607975.1294
        45.0004         33.5004
  -3984871.72346  -3083389.16845  23077403.8834                   23077408.2304
        37.5004         32.7504
  -2636639.78148  -2021632.08648  20956112.8284                   20956115.1604
        50.0004         50.0004
 05 12 22 18 45  0.0000000  0  8G18G02G27G08G32G23G24G10
   8397110.99647   6550771.96545  22562296.5004                   22562298.6174
        45.5004         30.5004
   5507765.12945   4618420.05943  25288034.5164                   25288038.0164
        34.5004         18.2504
   -949242.76247   -705419.99647  21783191.3524                   21783194.1724
        47.0004         45.0004
  -8045356.70346  -6218821.30946  22926322.7734                   22926326.8164
        41.0004         37.0004
  -9756287.53548  -7579769.37948  21177412.9224                   21177415.0904
        51.5004         49.2504
   7254761.90247   5659867.80945  21909109.8134                   21909110.7814
        45.0004         33.2504
  -2443198.89546  -1882085.64545  23370774.0394                   23370779.1844
        38.2504         33.2504
  -1109378.00048   -831557.97348  21246741.0784                   21246743.1484
        50.0004         50.2504
 05 12 22 18 45 30.0000000  0  8G18G02G27G08G32G23G24G10
   8426157.80947   6573405.75845  22567824.1414                   22567826.0314
        45.0004         30.7504
   5371687.88346   4512386.01243  25262139.5394                   25262142.8794
        36.0004         18.5004
   -968263.59847   -720241.48847  21779572.1564                   21779575.0864
        47.0004         45.0004
  -8125158.49246  -6281004.51246  22911137.2274                   22911141.3984
        41.2504         36.2504
  -9852105.82048  -7654432.94148  21159179.0234                   21159181.5234
        51.2504         49.5004
   7261946.55547   5665466.20745  21910477.3284                   21910477.8554
        45.7504         33.0004
  -2476331.03146  -1907902.89145  23364469.7274                   23364473.8284
        37.2504         32.2504
  -1157353.48448   -868941.46948  21237611.5554                   21237613.9184
        50.0004         50.0004
 05 12 22 18 46  0.0000000  0  8G18G02G27G08G32G23G24G10
   8455542.25047   6596302.62945  22573415.6484                   22573417.8954
        45.5004         30.7504
   5235610.08246   4406351.56343  25236244.8754                   25236247.2704
        37.5004         19.2504
   -986707.59847   -734613.49247  21776062.2664                   21776065.5084
        47.2504         44.7504
  -8204410.80546  -6342759.53946  22896055.8204                   22896059.9454
        41.0004         37.2504
  -9947445.36748  -7728723.46948  21141036.7194                   21141039.2114
        51.5004         49.5004
   7269260.00447   5671164.95345  21911868.8054                   21911869.9734
        46.0004         33.5004
  -2508843.12546  -1933236.98845  23358283.4384                   23358287.2344
        38.5004         32.7504
  -1205141.40248   -906178.80148  21228517.9224                   21228520.2464
        49.7504         50.2504
 05 12 22 18 46 30.0000000  0  8G18G02G27G08G32G23G24G10
   8485261.31347   6619460.24245  22579071.2894                   22579073.6334
        45.5004         31.2504
   5099530.85946   4300315.97343  25210349.9454                   25210352.0274
        38.2504         19.5004
  -1004578.47747   -748538.91847  21772661.5084                   21772664.2664
        46.7504         45.0004
  -8283115.02346  -6404087.48446  22881078.5474                   22881083.5354
        41.7504         36.5004
 -10042307.69148  -7802642.12548  21122984.8284                   21122987.3714
        51.5004         49.5004
   7276699.52747   5676961.94945  21913284.9614                   21913285.6454
        45.5004         34.5004
  -2540737.41446  -1958089.66445  23352213.5234                   23352217.7154
        37.7504         33.2504
  -1252744.59848   -943272.21148  21219459.5704                   21219461.7934
        50.7504         50.0004
 05 12 22 18 47  0.0000000  0  8G18G02G27G08G32G23G24G10
   8515313.91047   6642877.75844  22584790.3754                   22584792.5984
        45.5004         29.7504
   4963451.18046   4194280.07843  25184454.2424                   25184456.5274
        39.0004         19.7504
  -1021878.10247   -762019.21147  21769369.8594                   21769372.2234
        47.0004         45.0004
  -8361270.71946  -6464988.02346  22866206.3594                   22866210.3134
        41.2504         37.0004
 -10136692.44548  -7876188.65248  21105024.1254                   21105026.2074
        51.5004         49.5004
   7284264.34047   5682856.57845  21914724.3984                   21914724.8634
        46.5004         33.0004
  -2572014.16446  -1982461.13345  23346262.0634                   23346265.9804
        39.0004         33.2504
  -1300163.85948   -980222.28548  21210435.7584                   21210437.9694
        49.0004         50.0004
 05 12 22 18 47 30.0000000  0  8G18G02G27G08G32G23G24G10
   8545699.87147   6666555.03945  22590572.7814                   22590574.7034
        45.5004         30.0004
   4827372.82846   4088245.12543  25158559.2734                   25158561.6294
        40.0004         19.2504
  -1038607.28547   -775055.00047  21766186.0314                   21766189.0474
        46.5004         45.0004
  -8438876.40247  -6525459.96946  22851438.7114                   22851442.5004
        42.2504         36.5004
 -10230598.16848  -7949361.91448  21087154.4144                   21087156.5314
        51.5004         49.5004
   7291954.66047   5688848.99245  21916187.4304                   21916187.9304
        46.0004         32.7504
  -2602672.68046  -2006350.87545  23340428.6094                   23340432.1684
        38.7504         33.0004
  -1347399.03948  -1017028.93048  21201447.1644                   21201449.3484
        50.5004         50.0004
 05 12 22 18 48  0.0000000  0  8G18G02G27G08G32G23G24G10
   8576417.64547   6690490.86345  22596418.0164                   22596419.8914
        44.5004         30.0004
   4691296.33246   3982211.57843  25132664.7194                   25132667.3714
        40.2504         19.2504
  -1054768.30947   -787648.07047  21763111.0634                   21763113.9304
        47.0004         44.7504
  -8515931.99646  -6585503.28946  22836774.8444                   22836779.2624
        41.2504         36.5004
 -10324024.91448  -8022161.93448  21069375.9614                   21069378.3364
        51.2504         49.5004
   7299769.31647   5694938.30145  21917674.6724                   21917675.4144
        45.5004         32.5004
  -2632713.68746  -2029759.45745  23334711.1484                   23334715.5084
        39.2504         32.2504
  -1394451.34048  -1053693.06648  21192493.4454                   21192495.9774
        50.0004         50.0004
 05 12 22 18 48 30.0000000  0  8G18G02G27G08G32G23G24G10
   8607468.63347   6714686.33645  22602327.0004                   22602329.1294
        45.0004         30.2504
   4555225.44946   3876182.44942  25106771.2894                   25106773.8524
        39.5004         17.2504
  -1070360.45747   -799797.85547  21760144.0164                   21760146.6914
        47.2504         44.7504
  -8592434.58646  -6645115.67646  22822217.3914                   22822221.8244
        41.5004         37.0004
 -10416969.80948  -8094586.50448  21051688.9224                   21051691.3754
        51.7504         49.5004
   7307710.08247   5701125.87145  21919185.8984                   21919186.7194
        45.5004         33.5004
  -2662135.03946  -2052685.18445  23329111.5784                   23329116.9264
        38.5004         33.0004
  -1441319.07048  -1090213.38348  21183574.7504                   21183576.9694
        49.7504         50.0004
 05 12 22 18 49  0.0000000  0  8G18G02G27G08G32G23G24G10
   8638851.77347   6739140.63345  22608298.6884                   22608300.7304
        45.2504         30.2504
   4419161.27346   3770158.56643  25080879.0314                   25080881.1524
        39.0004         19.2504
  -1085385.56247   -811505.79747  21757285.0474                   21757287.7894
        45.5004         44.5004
  -8668383.59446  -6704296.71146  22807764.5704                   22807769.3054
        41.0004         37.2504
 -10509432.34048  -8166635.19948  21034093.8674                   21034096.2234
        51.5004         49.7504
   7315776.33247   5707411.21945  21920720.8134                   21920721.5234
        46.7504         32.7504
  -2690936.91446  -2075128.21945  23323630.9454                   23323635.7424
        38.7504         33.5004
  -1488002.85248  -1126590.35948  21174691.2664                   21174693.5594
        50.5004         50.2504
 05 12 22 18 49 30.0000000  0  8G18G02G27G08G32G23G24G10
   8670564.50447   6763851.74245  22614333.7664                   22614335.5234
        44.5004         31.5004
   4283103.21146   3664139.41043  25054987.9384                   25054990.2304
        37.5004         18.2504
  -1099846.93047   -822774.46547  21754532.6644                   21754535.5744
        46.5004         44.7504
  -8743780.06646  -6763047.19146  22793417.3674                   22793421.2464
        40.7504         37.5004
 -10601413.60548  -8238308.88348  21016590.5474                   21016592.9184
        51.5004         50.0004
   7323965.95747   5713792.70345  21922279.1484                   21922280.2464
        45.7504         33.0004
  -2719121.20746  -2097090.00045  23318267.5004                   23318272.2584
        39.7504         33.2504
  -1534504.93048  -1162825.75448  21165842.1484                   21165844.2114
        51.0004         50.2504
 05 12 22 18 50  0.0000000  0  9G18G02G28G27G08G32G23G24G10
   8702604.37147   6788817.75845  22620430.7194                   22620432.8674
        44.7504         30.0004
   4147051.03546   3558124.89543  25029097.8984                   25029100.5434
        36.2504         19.0004
   7668288.83256   6011644.26253  25432064.3524                   25432075.7704
        37.5004         20.2504
  -1113747.87547   -833606.43447  21751887.2114                   21751890.4064
        45.0004         44.5004
  -8818625.00446  -6821367.91046  22779174.5634                   22779178.8284
        41.0004         37.0004
 -10692914.63748  -8309608.35948  20999178.3984                   20999180.6564
        51.5004         49.7504
   7332276.81347   5720268.65245  21923860.7194                   21923861.8834
        45.7504         32.5004
  -2746689.66846  -2118571.92245  23313022.0944                   23313026.6134
        39.5004         33.7504
  -1580827.46548  -1198921.23848  21157027.0864                   21157029.1914
        50.0004         50.0004
 05 12 22 18 50 30.0000000  0  9G18G02G28G27G08G32G23G24G10
   8734962.81647   6814032.02044  22626588.3914                   22626590.4024
        44.0004         29.2504
   4010998.42646   3452110.03143  25003207.2114                   25003210.3204
        36.5004         19.5004
   7525491.85246   5900374.23043  25404891.7114                   25404902.6524
        38.2504         21.5004
  -1127097.66047   -844008.92647  21749347.2504                   21749349.7854
        45.0004         44.7504
  -8892925.28946  -6879264.23446  22765036.1644                   22765039.9064
        41.5004         37.7504
 -10783942.44948  -8380539.09048  20981856.4694                   20981858.4924
        51.5004         50.0004
   7340700.93847   5726832.86345  21925464.2114                   21925465.0164
        46.5004         32.5004
  -2773650.01246  -2139579.98845  23307891.3834                   23307896.0354
        39.5004         32.2504
  -1626978.47348  -1234883.06648  21148245.2814                   21148247.4494
        49.2504         50.0004
 05 12 22 18 51  0.0000000  0  9G18G02G28G27G08G32G23G24G10
   8767635.89147   6839491.45345  22632806.2424                   22632807.9734
        43.7504         30.0004
   3874943.91046   3346093.70343  24977317.1884                   24977319.9534
        37.5004         20.2504
   7382543.84046   5788986.45343  25377688.8834                   25377700.3594
        38.7504         21.0004
  -1139900.98447   -853985.59847  21746910.9304                   21746913.7664
        46.2504         44.5004
  -8966683.39146  -6936738.07046  22750999.8054                   22751004.2274
        41.5004         37.0004
 -10874499.45348  -8451102.96148  20964623.7664                   20964625.9804
        51.2504         50.0004
   7349234.86747   5733482.64145  21927087.7194                   21927089.1254
        45.7504         33.0004
  -2800005.50046  -2160116.74245  23302876.4614                   23302880.4224
        38.5004         32.2504
  -1672961.50848  -1270714.01248  21139494.9384                   21139496.4224
        50.7504         50.0004
 05 12 22 18 51 30.0000000  0  9G18G02G28G27G08G32G23G24G10
   8800622.98047   6865195.56645  22639083.2424                   22639085.5594
        43.5004         30.7504
   3738889.03046   3240077.07343  24951427.0704                   24951428.8364
        38.7504         22.0004
   7239447.64846   5677483.30143  25350458.4224                   25350469.3594
        38.0004         20.2504
  -1152159.35547   -863537.64547  21744577.9614                   21744581.1134
        46.2504         44.5004
  -9039898.42246  -6993788.73446  22737067.6414                   22737071.6454
        40.7504         37.2504
 -10964584.93748  -8521299.41448  20947481.0634                   20947483.3364
        51.5004         50.0004
   7357878.40247   5740217.83245  21928732.3914                   21928734.0864
        46.0004         33.2504
  -2825756.14546  -2180182.18745  23297976.2424                   23297980.4224
        39.0004         32.2504
  -1718776.81248  -1306414.25848  21130776.3444                   21130778.5314
        51.0004         50.0004
 05 12 22 18 52  0.0000000  0  9G18G02G28G27G08G32G23G24G10
   8833930.65247   6891149.48444  22645421.5314                   22645423.5554
        44.5004         29.0004
   3602842.59046   3134067.02043  24925537.5004                   24925540.0554
        40.0004         22.0004
   7096212.97346   5565872.17643  25323201.3134                   25323211.7704
        39.2504         21.7504
  -1163866.97347   -872660.53547  21742350.4774                   21742353.4264
        46.0004         44.5004
  -9112562.35246  -7050409.96546  22723240.1174                   22723244.5864
        41.2504         37.7504
 -11054190.80148  -8591122.13348  20930429.7504                   20930431.8094
        51.5004         50.0004
   7366638.66047   5747043.94945  21930399.7974                   21930401.0164
        46.2504         32.0004
  -2850894.66446  -2199770.64845  23293193.0474                   23293196.6724
        39.5004         32.7504
  -1764417.32848  -1341978.29748  21122091.3834                   21122093.6564
        50.7504         50.0004
 05 12 22 18 52 30.0000000  0  9G18G02G28G27G08G32G23G24G10
   8867558.46147   6917352.85244  22651821.3284                   22651822.9654
        42.7504         29.7504
   3466806.31646   3028064.87443  24899650.9064                   24899653.6454
        38.2504         19.7504
   6952842.49245   5454155.19543  25295918.7664                   25295929.8554
        35.7504         19.5004
  -1175025.06647   -881355.22747  21740227.3134                   21740230.7894
        47.0004         44.7504
  -9184674.06647  -7106600.89546  22709517.9614                   22709522.2344
        42.5004         37.5004
 -11143316.03948  -8660570.34448  20913469.6644                   20913471.9884
        51.5004         50.2504
   7375515.74647   5753961.11745  21932088.9144                   21932090.3054
        45.5004         32.5004
  -2875420.84046  -2218881.95345  23288524.8984                   23288529.7344
        40.0004         32.7504
  -1809883.00848  -1377406.10548  21113439.3444                   21113441.7734
        51.2504         50.0004
 05 12 22 18 53  0.0000000  0  9G18G02G28G27G08G32G23G24G10
   8901509.60947   6943808.16444  22658281.6884                   22658283.9184
        42.5004         29.2504
   3330785.66446   2922074.90242  24873766.8834                   24873768.6564
        37.0004         17.2504
   6809342.85946   5342337.60943  25268610.9224                   25268622.1134
        37.7504         20.0004
  -1185631.32047   -889619.90247  21738209.1884                   21738212.5904
        46.7504         44.5004
  -9256228.91847  -7162357.91846  22695900.5944                   22695905.0274
        43.0004         37.2504
 -11231955.98848  -8729640.41048  20896602.0944                   20896604.2664
        51.2504         50.5004
   7384513.34047   5760972.18045  21933800.8284                   21933802.3054
        45.5004         32.0004
  -2899330.83246  -2237513.12145  23283975.2424                   23283979.9964
        40.0004         32.5004
  -1855170.21948  -1412694.84048  21104821.6954                   21104823.7624
        51.5004         50.2504
 05 12 22 18 53 30.0000000  0  9G18G02G28G27G08G32G23G24G10
   8935783.00447   6970514.59045  22664803.9774                   22664805.6884
        43.2504         30.0004
   3194782.02346   2816098.21142  24847886.4144                   24847888.5634
        36.2504         16.2504
   6665716.37546   5230421.18443  25241280.4384                   25241290.8244
        37.2504         21.0004
  -1195687.68047   -897456.09847  21736295.4614                   21736298.1604
        47.2504         44.5004
  -9327226.58247  -7217680.75846  22682390.4144                   22682395.2154
        42.7504         37.5004
 -11320110.34048  -8798332.08248  20879826.8284                   20879829.1884
        52.0004         50.5004
   7393630.95347   5768076.77045  21935536.4774                   21935537.3834
        45.0004         32.0004
  -2922625.10246  -2255664.51245  23279542.7114                   23279546.6884
        38.7504         33.0004
  -1900279.52348  -1447844.94948  21096237.4144                   21096239.7274
        51.0004         50.2504
 05 12 22 18 54  0.0000000  0  9G18G02G28G27G08G32G23G24G10
   8970378.61747   6997472.09045  22671387.3364                   22671389.0314
        43.2504         30.0004
   3058797.87945   2710136.64542  24822008.4694                   24822012.4694
        34.2504         16.2504
   6521966.45346   5118408.57443  25213925.9534                   25213935.5514
        37.0004         20.2504
  -1205195.00447   -904864.47347  21734486.0394                   21734489.2894
        47.2504         44.7504
  -9397665.60247  -7272568.29346  22668986.4844                   22668990.9844
        43.0004         37.0004
 -11407777.63748  -8866644.23448  20863144.2894                   20863146.5124
        51.7504         50.5004
   7402869.13347   5775275.30945  21937294.0004                   21937295.2344
        45.0004         32.2504
  -2945303.10946  -2273335.69945  23275227.5394                   23275231.8404
        38.7504         32.7504
  -1945210.43048  -1482856.04748  21087687.7894                   21087689.8444
        51.0004         50.2504
 05 12 22 18 54 30.0000000  0  9G18G02G28G27G08G32G23G24G10
   9005295.75847   7024680.14144  22678031.4384                   22678033.8164
        42.5004         29.2504
   2922834.63745   2604191.42242  24796135.5554                   24796139.6454
        35.0004         16.2504
   6378095.68046   5006301.79343  25186546.8674                   25186557.7854
        37.5004         20.5004
  -1214154.87147   -911846.25047  21732781.4224                   21732784.2504
        47.0004         44.5004
  -9467545.21147  -7327019.93746  22655689.2424                   22655693.3134
        43.5004         37.5004
 -11494957.21148  -8934576.34848  20846554.4614                   20846556.8014
        52.0004         50.5004
   7412227.81347   5782567.73845  21939075.6414                   21939076.4774
        46.2504         32.5004
  -2967364.93446  -2290526.73845  23271028.8594                   23271033.5124
        39.5004         33.0004
  -1989963.13348  -1517728.28148  21079171.5394                   21079173.6564
        51.0004         50.2504
 05 12 22 18 55  0.0000000  0  9G18G02G28G27G08G32G23G24G10
   9040537.24647   7052140.92644  22684738.2814                   22684740.3404
        43.0004         28.7504
   2786897.53946   2498266.55543  24770267.7894                   24770270.5984
        38.0004         18.2504
   6234110.25045   4894105.66843  25159147.7424                   25159158.1954
        35.5004         19.7504
  -1222565.32047   -918399.92247  21731180.9614                   21731184.1174
        47.2504         44.7504
  -9536861.23047  -7381032.42246  22642498.8364                   22642503.1804
        43.2504         37.7504
 -11581644.78548  -9002125.08648  20830058.4454                   20830060.6484
        51.7504         50.5004
   7421710.41847   5789956.73445  21940880.0164                   21940880.9224
        45.2504         32.0004
  -2988807.15646  -2307234.98045  23266948.7194                   23266952.7544
        39.5004         32.5004
  -2034534.23848  -1552459.01248  21070690.2114                   21070692.0554
        50.7504         50.5004
 05 12 22 18 55 30.0000000  0  9G18G02G28G27G08G32G23G24G10
   9076098.60547   7079850.96144  22691505.2344                   22691507.5314
        43.7504         28.5004
   2650984.38346   2392360.36743  24744404.7734                   24744407.2504
        38.5004         22.0004
   6090009.16046   4781819.43043  25131726.2424                   25131736.6684
        36.7504         18.5004
  -1230431.68047   -924529.61347  21729683.6094                   21729687.1134
        47.0004         44.5004
  -9605616.64547  -7434608.06646  22629415.0474                   22629419.5164
        43.0004         38.0004
 -11667843.43748  -9069292.83648  20813655.3054                   20813657.4884
        52.2504         50.7504
   7431313.06647   5797439.25845  21942707.3444                   21942708.1914
        45.5004         32.2504
  -3009633.71546  -2323463.48045  23262985.3984                   23262990.2344
        39.0004         32.7504
  -2078927.64548  -1587051.28148  21062242.1024                   21062243.9264
        50.2504         50.5004
 05 12 22 18 56  0.0000000  0  9G18G02G28G27G08G32G23G24G10
   9111979.52747   7107810.00444  22698333.1334                   22698335.4574
        43.0004         29.7504
   2515097.76246   2286474.83243  24718546.0784                   24718548.0984
        39.7504         22.5004
   5945795.49246   4669445.48043  25104283.1724                   25104292.5944
        36.5004         18.2504
  -1237755.25447   -930236.35947  21728290.4614                   21728293.3284
        47.2504         44.2504
  -9673810.43747  -7487746.09446  22616438.0474                   22616442.3134
        44.0004         38.0004
 -11753552.09448  -9136078.78148  20797345.7504                   20797348.0784
        51.7504         50.5004
   7441036.13747   5805015.62545  21944557.6174                   21944558.3554
        45.2504         32.7504
  -3029844.41446  -2339212.09445  23259139.8204                   23259144.2234
        40.0004         32.5004
  -2123143.13348  -1621504.91048  21053828.1644                   21053830.4184
        51.2504         50.2504
 05 12 22 18 56 30.0000000  0  9G18G02G28G27G08G32G23G24G10
   9148179.09447   7136017.34044  22705221.6564                   22705224.4614
        44.0004         28.7504
   2379238.83646   2180610.89843  24692692.8834                   24692694.5824
        38.5004         22.0004
   5801471.87146   4556985.80543  25076819.2894                   25076828.7274
        38.0004         20.0004
  -1244537.69547   -935521.44947  21726999.9844                   21727002.9264
        47.0004         44.5004
  -9741441.99647  -7540446.01246  22603567.9454                   22603572.5394
        43.5004         37.5004
 -11838770.21148  -9202482.48448  20781128.9224                   20781131.5164
        51.0004         50.7504
   7450879.43847   5812685.68845  21946430.3984                   21946431.8054
        45.2504         32.2504
  -3049439.55946  -2354481.05145  23255410.3914                   23255415.2274
        38.5004         32.5004
  -2167180.89848  -1655820.05548  21045447.8674                   21045450.1374
        49.7504         50.2504
 05 12 22 18 57  0.0000000  0  9G18G02G28G27G08G32G23G24G10
   9184700.18847   7164475.20744  22712171.9454                   22712174.2664
        43.7504         28.7504
   2243412.92246   2074772.67643  24666845.5234                   24666847.5944
        36.7504         20.2504
   5657044.62946   4444445.40243  25049335.1644                   25049345.2074
        36.7504         20.2504
  -1250777.20347   -940383.47347  21725812.7734                   21725815.4884
        47.7504         44.0004
  -9808507.18747  -7592704.60946  22590806.4144                   22590810.2424
        43.7504         38.0004
 -11923493.58648  -9268500.68448  20765006.4224                   20765008.7194
        52.0004         50.7504
   7460846.46547   5820452.16045  21948327.2974                   21948328.8134
        45.0004         32.7504
  -3068415.82046  -2369267.77045  23251799.7034                   23251804.4224
        39.0004         33.2504
  -2211037.54348  -1689994.06248  21037102.5084                   21037104.5864
        50.7504         50.2504
 05 12 22 18 57 30.0000000  0  9G18G02G28G27G08G32G23G24G10
   9221538.02747   7193179.90244  22719181.8284                   22719184.4924
        43.0004         28.7504
   2107617.79745   1968958.42642  24641004.5314                   24641007.4414
        35.2504         16.7504
   5512512.50446   4331823.26243  25021830.6804                   25021840.6214
        36.0004         19.2504
  -1256479.45747   -944826.85247  21724727.3054                   21724731.0164
        47.2504         44.2504
  -9875009.36747  -7644524.49646  22578151.6174                   22578155.8244
        43.7504         37.7504
 -12007725.60248  -9334135.99648  20748977.8834                   20748980.1454
        51.7504         51.0004
   7470933.10247   5828311.83245  21950246.6954                   21950248.0744
        44.5004         32.5004
  -3086777.56646  -2383575.64545  23248305.7424                   23248309.6804
        38.5004         32.7504
  -2254717.18448  -1724030.14548  21028790.3444                   21028792.7274
        51.5004         50.2504
 05 12 22 18 58  0.0000000  0  9G18G02G28G27G08G32G23G24G10
   9258690.77347   7222129.96144  22726252.0554                   22726254.7074
        43.5004         28.5004
   1971854.13346   1863168.71142  24615169.6564                   24615171.5314
        36.0004         15.5004
   5367877.29745   4219120.80143  24994307.2974                   24994317.3914
        35.0004         19.5004
  -1261647.16047   -948853.69147  21723743.9614                   21723747.7384
        46.7504         44.0004
  -9940949.00447  -7695906.03946  22565603.5004                   22565607.9494
        43.0004         38.2504
 -12091466.70348  -9399388.78548  20733042.4614                   20733044.5784
        51.0004         50.7504
   7481138.28147   5836263.87545  21952188.8364                   21952190.3594
        44.5004         32.0004
  -3104526.07846  -2397405.66445  23244928.3914                   23244932.6094
        37.7504         32.7504
  -2298220.99248  -1757929.21148  21020511.6484                   21020513.5554
        48.7504         50.2504
 05 12 22 18 58 30.0000000  0  9G18G02G28G27G08G32G23G24G10
   9296156.52347   7251323.93044  22733381.5634                   22733384.2814
        43.5004         28.0004
   1836122.54346   1757403.92242  24589340.5004                   24589343.1644
        37.7504         15.5004
   5223140.35945   4106339.03143  24966765.1414                   24966774.8204
        34.5004         18.2504
  -1266283.19947   -952466.26247  21722861.8204                   21722865.4964
        47.0004         44.0004
 -10006326.69147  -7746849.68746  22553162.2814                   22553167.2424
        43.7504         38.2504
 -12174717.45348  -9464259.48048  20717200.2504                   20717202.6564
        50.5004         51.0004
   7491460.80547   5844307.35945  21954153.0164                   21954154.5594
        43.5004         32.5004
  -3121662.75046  -2410758.93445  23241667.5004                   23241671.6684
        38.0004         31.7504
  -2341550.26248  -1791692.27348  21012266.7734                   21012268.6564
        50.5004         50.2504
 05 12 22 18 59  0.0000000  0  9G18G02G28G27G08G32G23G24G10
   9333943.28947   7280768.03144  22740572.0164                   22740574.6914
        43.5004         29.2504
   1700433.79746   1651672.48843  24563520.5474                   24563521.0664
        39.5004         19.2504
   5078313.43045   3993487.19542  24939204.5314                   24939215.2034
        35.0004         17.2504
  -1270380.50047   -955659.03147  21722082.3284                   21722085.7114
        47.0004         44.0004
 -10071133.04747  -7797348.14846  22540830.1644                   22540834.4534
        43.0004         37.0004
 -12257468.44548  -9528740.74648  20701453.3914                   20701455.7304
        51.2504         51.0004
   7501909.45347   5852449.11745  21956141.7584                   21956142.9144
        44.0004         31.7504
  -3138179.20746  -2423628.92645  23238523.6724                   23238528.0944
        38.5004         32.7504
  -2384696.26248  -1825312.53548  21004056.3984                   21004058.2074
        50.2504         50.2504
 05 12 22 18 59 30.0000000  0  9G18G02G28G27G08G32G23G24G10
   9372044.35547   7310457.05544  22747822.5164                   22747825.3554
        42.7504         28.5004
   1564783.25046   1545970.85543  24537706.9384                   24537708.1684
        39.0004         19.5004
   4933393.37546   3880562.71543  24911627.4924                   24911637.5394
        37.0004         19.5004
  -1273946.81247   -958438.03947  21721403.6484                   21721406.8524
        47.0004         44.0004
 -10135373.62547  -7847405.75446  22528605.5944                   22528609.8244
        43.2504         37.2504
 -12339725.11748  -9592836.83248  20685800.2734                   20685802.5044
        51.2504         51.0004
   7512478.22347   5860684.48445  21958152.8054                   21958153.6374
        43.5004         32.0004
  -3154081.79746  -2436020.59045  23235498.0704                   23235502.5594
        37.5004         33.0004
  -2427665.03148  -1858794.70348  20995879.4304                   20995881.9454
        51.0004         50.2504
 05 12 22 19  0  0.0000000  0  9G18G02G28G27G08G32G23G24G10
   9410458.09847   7340389.69544  22755132.5234                   22755135.2464
        44.2504         28.2504
   1429172.16046   1440299.96543  24511901.0394                   24511902.3554
        38.0004         21.0004
   4788382.19945   3767567.29742  24884032.6564                   24884042.7734
        34.5004         17.7504
  -1276984.64547   -960805.24647  21720825.8204                   21720829.4064
        47.5004         44.0004
 -10199048.56247  -7897022.59446  22516488.7504                   22516493.1644
        43.5004         37.5004
 -12421487.72348  -9656547.92648  20670241.3364                   20670243.6844
        51.0004         51.0004
   7523166.34047   5869012.83645  21960186.2344                   21960187.5354
        44.2504         31.7504
  -3169371.69146  -2447934.80945  23232588.9224                   23232592.8444
        40.0004         33.5004
  -2470457.43448  -1892139.43748  20987736.2194                   20987738.6684
        51.2504         50.2504
 05 12 22 19  0 30.0000000  0  9G18G02G28G27G08G32G23G24G10
   9449180.71547   7370563.02344  22762501.0314                   22762504.4264
        44.0004         28.7504
   1293599.28946   1334658.91043  24486101.8594                   24486103.8094
        36.5004         19.2504
   4643279.78145   3654500.75042  24856420.5864                   24856430.1054
        35.7504         17.7504
  -1279498.77347   -962764.37547  21720347.2344                   21720350.4884
        47.5004         44.2504
 -10262160.42647  -7946200.67646  22504478.5864                   22504482.9184
        43.0004         37.7504
 -12502758.68448  -9719875.93048  20654776.4384                   20654778.2074
        51.7504         51.0004
   7533970.82447   5877431.87545  21962242.4384                   21962243.8204
        44.5004         32.0004
  -3184052.27346  -2459374.24645  23229795.4924                   23229799.5354
        38.0004         33.5004
  -2513076.58248  -1925349.16048  20979626.2344                   20979628.4694
        51.2504         50.0004
 05 12 22 19  1  0.0000000  0  9G18G02G28G27G08G32G23G24G10
   9488212.05547   7400976.90644  22769929.0004                   22769932.5044
        43.5004         28.7504
   1158066.98046   1229049.48043  24460310.7504                   24460312.4844
        36.0004         19.5004
   4498089.47746   3541365.83243  24828789.8674                   24828800.6954
        37.0004         19.0004
  -1281490.48447   -964316.42647  21719968.7504                   21719971.9414
        47.5004         44.0004
 -10324708.13747  -7994939.16046  22492576.7584                   22492580.8014
        43.5004         37.5004
 -12583536.94148  -9782820.00448  20639404.4304                   20639406.5784
        51.5004         51.0004
   7544892.20347   5885941.98845  21964320.9694                   21964321.9924
        44.2504         31.2504
  -3198123.36746  -2470338.75845  23227117.1804                   23227122.0594
        38.5004         33.2504
  -2555521.94148  -1958423.47748  20971548.9454                   20971551.5904
        49.7504         50.2504
 05 12 22 19  1 30.0000000  0  9G18G02G28G27G08G32G23G24G10
   9527553.20747   7431632.21144  22777415.5004                   22777418.4574
        44.0004         28.0004
   1022579.16846   1123474.68843  24434528.6334                   24434530.4804
        37.0004         19.7504
   4352816.02046   3428165.97342  24801147.1484                   24801155.5664
        37.2504         17.7504
  -1282959.55147   -965461.21947  21719688.9614                   21719692.3754
        47.0004         43.7504
 -10386689.27347  -8043236.15646  22480781.8914                   22480786.0554
        43.5004         37.5004
 -12663819.98448  -9845378.19948  20624127.1334                   20624129.0744
        51.2504         51.0004
   7555932.50847   5894544.76645  21966421.5474                   21966423.0044
        43.5004         31.7504
  -3211583.45346  -2480827.16445  23224556.7194                   23224560.7974
        40.0004         33.0004
  -2597791.55148  -1991360.84448  20963505.5084                   20963508.0234
        50.5004         50.2504
 05 12 22 19  2  0.0000000  0  9G18G02G28G27G08G32G23G24G10
   9567202.33247   7462527.50444  22784960.5864                   22784963.8554
        42.2504         27.5004
    887136.65646   1017935.18843  24408754.1174                   24408755.6214
        39.0004         19.0004
   4207461.42646   3314902.97742  24773486.4384                   24773495.4924
        36.7504         17.7504
  -1283908.81247   -966200.97347  21719508.0554                   21719511.3674
        47.0004         44.5004
 -10448104.46547  -8091092.16446  22469095.0234                   22469099.3834
        43.5004         38.0004
 -12743608.36748  -9907550.94548  20608943.5554                   20608946.0864
        50.7504         51.2504
   7567090.73047   5903239.43445  21968545.0634                   21968546.2894
        43.0004         31.7504
  -3224434.10546  -2490840.68445  23222111.0394                   23222114.8594
        40.0004         32.7504
  -2639886.52048  -2024162.11748  20955495.0704                   20955497.2934
        50.2504         50.2504
 05 12 22 19  2 30.0000000  0  9G18G02G28G27G08G32G23G24G10
  11182578.75047   8721262.23844  23092356.1724                   23092359.3364
        43.0004         27.0004
   2327167.27046   2140037.02342  24682782.8134                   24682784.1334
        39.0004         17.7504
   5637454.58245   4429183.67242  25045604.3364                   25045614.2464
        34.0004         14.7504
    291081.24247    261063.93447  22019219.0314                   22019222.2504
        47.5004         43.7504
  -8933529.78147  -6910904.10246  22757308.9144                   22757313.2854
        44.2504         37.5004
 -11247477.53548  -8741734.68748  20893648.1484                   20893650.2544
        51.0004         51.0004
   9153787.88347   7139626.77045  22270483.6564                   22270485.0864
        44.0004         32.0004
  -1661253.94946  -1272778.24645  23519573.9454                   23519578.2704
        39.5004         33.0004
  -1106384.03548   -829225.12148  21247311.1094                   21247313.2384
        51.0004         50.2504
 05 12 22 19  3  0.0000000  0  9G18G02G28G27G08G32G23G24G10
  11222839.26647   8752633.91444  23100017.7034                   23100020.3484
        43.2504         27.0004
   2191818.64546   2034570.67643  24657027.3134                   24657027.7234
        39.5004         20.2504
   5491943.90245   4315799.07442  25017914.4924                   25017923.7544
        35.5004         17.7504
    291163.90647    261128.28147  22019234.7274                   22019238.1764
        47.0004         43.7504
  -8993813.89547  -6957878.73846  22745837.1954                   22745841.5594
        44.0004         37.7504
 -11326277.25048  -8803137.03948  20878652.7894                   20878655.2624
        51.2504         51.2504
   9165179.95747   7148503.66845  22272651.8754                   22272653.3094
        43.2504         31.5004
  -1672889.28946  -1281844.75845  23517359.9224                   23517364.2894
        39.7504         33.0004
  -1148131.80548   -861755.85248  21239366.4144                   21239368.9264
        50.5004         50.2504
 05 12 22 19  3 30.0000000  0  9G18G02G28G27G08G32G23G24G10
  11263402.93047   8784241.80944  23107737.0004                   23107739.6994
        43.0004         28.0004
   2056518.30146   1929141.92643  24631279.9224                   24631281.6414
        38.2504         20.7504
   5346358.28546   4202356.05143  24990210.4454                   24990218.9804
        37.0004         19.0004
    291758.32847    261591.40247  22019348.0474                   22019351.4774
        47.0004         43.7504
  -9053533.26247  -7004413.31246  22734473.1564                   22734477.4804
        43.5004         38.5004
 -11404583.32848  -8864154.74248  20863751.9534                   20863753.6054
        51.0004         51.2504
   9176687.68447   7157470.67245  22274841.4924                   22274842.8794
        43.7504         31.0004
  -1683919.15646  -1290439.48445  23515261.5164                   23515265.3874
        39.7504         33.0004
  -1189707.35948   -894152.39548  21231455.2734                   21231457.2974
        51.5004         50.2504
 05 12 22 19  4  0.0000000  0  9G18G02G28G27G08G32G23G24G10
  11304273.49647   8816088.85244  23115514.7114                   23115517.4224
        43.5004         27.7504
   1921272.86346   1823756.02043  24605543.1954                   24605544.8134
        37.2504         20.0004
   5200705.10545   4088860.33242  24962492.2344                   24962501.5434
        35.0004         16.2504
    292867.35947    262455.50847  22019559.0004                   22019562.5474
        47.2504         43.7504
  -9112682.90647  -7050503.96146  22723217.4224                   22723221.5824
        43.7504         37.5004
 -11482390.66848  -8924783.81648  20848945.6174                   20848947.6954
        50.5004         51.5004
   9188315.76247   7166531.46945  22277054.2114                   22277055.5864
        43.5004         31.5004
  -1694339.43746  -1298559.20745  23513277.9304                   23513282.2624
        40.0004         33.5004
  -1231106.08248   -926411.14548  21223577.0234                   21223579.3014
        51.2504         50.2504
 05 12 22 19  4 30.0000000  0  9G18G02G28G27G08G32G23G24G10
  11345450.76646   8848174.89544  23123350.7344                   23123353.0164
        41.5004         28.5004
   1786084.89146   1718414.93043  24579818.2344                   24579819.3404
        37.5004         20.2504
   5054988.07045   3975314.93442  24934763.1414                   24934772.8444
        34.5004         16.7504
    294489.69147    263719.59847  22019867.7194                   22019871.0234
        47.2504         43.5004
  -9171261.83647  -7096149.88746  22712070.2734                   22712074.6724
        44.0004         37.5004
 -11559698.19948  -8985023.43048  20834234.4534                   20834236.4654
        50.2504         51.5004
   9200064.97747   7175686.64545  22279289.7734                   22279291.5944
        42.7504         31.7504
  -1704150.03146  -1306203.84445  23511410.9454                   23511415.2504
        39.2504         33.2504
  -1272327.28148   -958531.56648  21215733.1484                   21215735.1724
        51.0004         50.2504
 05 12 22 19  5  0.0000000  0  9G18G02G28G27G08G32G23G24G10
  11386928.45747   8880495.00444  23131243.8754                   23131247.1954
        42.2504         28.2504
   1650950.91046   1613115.85543  24554103.4614                   24554104.2934
        39.5004         22.7504
   4909204.60946   3861717.72743  24907022.3054                   24907030.5234
        36.7504         18.2504
    296617.99247    265377.94547  22020273.1484                   22020276.6414
        47.0004         44.0004
  -9229275.14847  -7141355.09046  22701030.8364                   22701034.9304
        43.5004         38.0004
 -11636511.00048  -9044877.54348  20819617.6024                   20819619.4964
        50.7504         51.2504
   9211929.89547   7184931.99645  22281547.7894                   22281549.2114
        43.7504         31.5004
  -1713357.07446  -1313378.19145  23509659.0234                   23509663.7274
        39.7504         33.5004
  -1313376.38748   -990517.89148  21207921.6954                   21207923.7504
        51.0004         50.2504
 05 12 22 19  5 30.0000000  0  9G18G02G28G27G08G32G23G24G10
  11428704.77346   8913047.84044  23139193.1484                   23139196.4734
        41.5004         28.0004
   1515871.69146   1507859.46143  24528398.1174                   24528399.4884
        39.7504         22.2504
   4763356.84445   3748070.44142  24879267.9224                   24879276.3094
        35.0004         17.7504
    299249.43847    267428.34847  22020773.6644                   22020777.0434
        47.2504         44.0004
  -9286723.44947  -7186120.01646  22690099.1334                   22690102.8284
        44.0004         37.5004
 -11712829.54748  -9104346.51648  20805094.5394                   20805096.6414
        50.7504         51.5004
   9223909.71947   7194266.86745  22283827.6334                   22283828.9694
        43.0004         31.0004
  -1721962.12546  -1320083.44145  23508021.8054                   23508025.9534
        39.5004         33.5004
  -1354254.29748  -1022370.81648  21200142.7664                   21200144.9454
        50.5004         50.2504
 05 12 22 19  6  0.0000000  0  9G18G02G28G27G08G32G23G24G10
  11470779.38346   8945833.09044  23147200.2974                   23147203.3364
        41.5004         27.7504
   1380849.81346   1402647.72343  24502704.7274                   24502705.5314
        41.5004         22.0004
   4617448.01645   3634375.57442  24851501.4064                   24851510.3284
        35.7504         16.2504
    302382.57847    269869.68847  22021370.0784                   22021373.7734
        46.5004         43.5004
  -9343606.01647  -7230444.10546  22679274.0234                   22679278.4964
        42.7504         37.0004
 -11788652.99648  -9163429.70748  20790665.6644                   20790668.0004
        50.7504         51.5004
   9236005.09047   7203691.78945  22286129.3674                   22286130.8054
        43.2504         30.5004
  -1729965.30946  -1326319.71145  23506498.8284                   23506503.2584
        39.0004         34.0004
  -1394960.41448  -1054089.86748  21192396.9454                   21192398.8014
        51.2504         50.2504
 05 12 22 19  6 30.0000000  0  9G18G02G28G27G08G32G23G24G10
  11513152.12546   8978850.66444  23155263.7974                   23155267.0124
        41.5004         27.2504
   1245888.02046   1297482.78943  24477021.7894                   24477022.5004
        40.0004         20.5004
   4471482.07446   3520636.23442  24823725.1644                   24823734.5044
        37.5004         15.5004
    306016.23847    272701.03947  22022061.5554                   22022065.1334
        46.5004         43.2504
  -9399921.77047  -7274326.53546  22668557.5314                   22668562.0004
        43.2504         37.2504
 -11863980.16848  -9222126.18448  20776331.0474                   20776333.7544
        50.7504         51.5004
   9248216.87947   7213207.41845  22288452.9614                   22288454.7504
        42.5004         30.5004
  -1737366.51646  -1332086.90645  23505090.0864                   23505095.0864
        40.2504         33.2504
  -1435493.95348  -1085674.44948  21184683.5394                   21184685.7304
        51.0004         50.0004
 05 12 22 19  7  0.0000000  0  9G18G02G28G27G08G32G23G24G10
  11555823.18046   9012100.66844  23163383.5084                   23163386.5864
        41.0004         27.7504
   1110989.02346   1192366.81643  24451350.6254                   24451352.2074
        39.0004         20.5004
   4325462.98446   3406855.40642  24795938.2894                   24795947.2424
        38.5004         17.7504
    310149.39847    275921.61347  22022847.8284                   22022851.2074
        46.2504         43.5004
  -9455669.48047  -7317766.32446  22657949.3524                   22657953.8594
        44.0004         38.2504
 -11938809.75048  -9280434.93748  20762091.5234                   20762094.0824
        51.2504         51.5004
   9260546.15247   7222814.58645  22290799.4614                   22290801.1094
        43.0004         31.2504
  -1744165.48846  -1337384.81645  23503796.6024                   23503801.0514
        39.7504         33.5004
  -1475853.85548  -1117123.73048  21177003.2034                   21177005.1804
        49.7504         50.0004
 05 12 22 19  7 30.0000000  0  9G18G02G28G27G08G32G23G24G10
  11598785.71146   9045577.80544  23171559.4694                   23171562.3204
        41.5004         27.0004
    976149.02046   1087296.84843  24425690.9694                   24425692.8094
        38.7504         22.5004
   4179387.59446   3293030.78542  24768139.9614                   24768150.0744
        36.0004         17.7504
    314774.18047    279525.27047  22023728.0394                   22023731.6844
        47.0004         43.5004
  -9510854.96947  -7360768.02746  22647447.6564                   22647452.3594
        43.5004         37.7504
 -12013147.38348  -9338360.34448  20747945.7814                   20747948.1214
        49.7504         51.5004
   9272987.10547   7232508.78145  22293166.6644                   22293168.6454
        42.7504         31.0004
  -1750368.91446  -1342218.68045  23502615.9384                   23502620.3134
        40.5004         32.0004
  -1516046.05548  -1148442.33648  21169354.8674                   21169357.2544
        50.0004         50.0004
 05 12 22 19  8  0.0000000  0  9G18G02G28G27G08G32G23G24G10
  11642042.48846   9079284.22744  23179791.3524                   23179794.0394
        41.7504         27.7504
    841373.66046    982277.23443  24400044.5784                   24400045.8594
        40.2504         22.5004
   4033262.74646   3179167.64842  24740334.1884                   24740342.9184
        36.5004         17.7504
    319892.29747    283513.33647  22024702.1024                   22024705.6024
        47.2504         43.7504
  -9565474.22747  -7403328.50846  22637053.6094                   22637057.8524
        43.5004         37.5004
 -12086988.98048  -9395899.22748  20733894.1724                   20733896.3164
        50.5004         51.5004
   9285543.64147   7242293.03945  22295556.3524                   22295557.6414
        44.0004         30.7504
  -1755973.72746  -1346586.07045  23501549.2974                   23501554.1844
        40.5004         32.2504
  -1556066.62948  -1179627.20348  21161739.3284                   21161741.1804
        50.0004         50.0004
 05 12 22 19  8 30.0000000  0  9G18G02G28G27G08G32G23G24G10
  11685589.47746   9113216.75844  23188078.2664                   23188080.8134
        41.2504         26.5004
    706661.90246    877307.17643  24374409.7664                   24374411.3484
        39.5004         23.5004
   3887088.33645   3065265.86343  24712517.3594                   24712526.2774
        35.5004         18.2504
    325498.57447    287881.79347  22025768.9614                   22025772.8014
        46.5004         43.2504
  -9619530.26647  -7445450.10946  22626767.1954                   22626771.6094
        43.2504         38.0004
 -12160337.44548  -9453053.85548  20719936.2194                   20719938.3834
        50.5004         51.5004
   9298212.74247   7252165.00445  22297967.4224                   22297968.7304
        44.5004         30.5004
  -1760983.94946  -1350490.16445  23500596.1334                   23500600.3204
        41.0004         33.5004
  -1595918.73448  -1210680.80548  21154155.6094                   21154158.0274
        50.0004         50.2504
 05 12 22 19  9  0.0000000  0  9G18G02G28G27G08G32G23G24G10
  11729430.23046   9147378.22344  23196420.5474                   23196423.2114
        41.2504         26.5004
    572019.77046    772391.36743  24348787.5084                   24348788.7664
        39.2504         22.0004
   3740871.79345   2951331.23842  24684692.9064                   24684701.7664
        35.7504         16.2504
    331595.44947    292632.53947  22026929.0704                   22026932.7464
        46.5004         43.2504
  -9673018.52047  -7487129.28946  22616588.7894                   22616593.0944
        43.5004         38.0004
 -12233188.02748  -9509820.52348  20706073.3364                   20706075.6334
        50.5004         51.7504
   9310998.97747   7262128.24645  22300400.4304                   22300401.8134
        43.7504         31.0004
  -1765395.91046  -1353928.05545  23499756.8754                   23499760.8524
        40.7504         32.5004
  -1635597.77348  -1241599.53548  21146604.8134                   21146607.1134
        49.7504         50.2504
 05 12 22 19  9 30.0000000  0  9G18G02G28G27G08G32G23G24G10
  11773563.16846   9181767.34044  23204819.2194                   23204822.2074
        41.5004         27.5004
    437448.92246    667531.10543  24323179.7584                   24323180.2544
        39.0004         22.0004
   3594615.34846   2837365.57042  24656862.0234                   24656870.7774
        36.0004         17.7504
    338180.18847    297763.42247  22028182.2734                   22028185.9104
        46.0004         43.0004
  -9725939.52047  -7528366.44946  22606518.5784                   22606523.3754
        43.7504         39.0004
 -12305541.10948  -9566199.52748  20692304.9694                   20692307.1414
        50.0004         51.7504
   9323901.88347   7272182.39545  22302855.6954                   22302857.5514
        44.0004         31.0004
  -1769211.05946  -1356900.91845  23499030.9774                   23499034.9694
        40.5004         32.0004
  -1675104.37548  -1272383.91048  21139087.2814                   21139089.5204
        49.0004         50.2504
 05 12 22 19 10  0.0000000  0  9G18G02G28G27G08G32G23G24G10
  11817986.87547   9216383.04744  23213272.2974                   23213275.6564
        42.0004         28.0004
    302950.93846    562727.61743  24297585.2734                   24297587.0274
        39.2504         22.5004
   3448321.66846   2723370.86742  24629022.5004                   24629030.5824
        38.0004         17.2504
    345250.30547    303272.52747  22029527.9694                   22029531.4654
        46.7504         43.7504
  -9778293.60947  -7569161.86346  22596555.6644                   22596560.4104
        43.5004         38.2504
 -12377396.93048  -9622191.05148  20678631.3054                   20678633.5204
        50.7504         51.7504
   9336921.03547   7282327.13344  22305333.1024                   22305334.5164
        43.0004         29.7504
  -1772430.75446  -1359409.78945  23498417.9614                   23498422.2154
        41.0004         32.5004
  -1714438.91448  -1303034.19948  21131601.8284                   21131604.1804
        49.5004         50.2504
 05 12 22 19 10 30.0000000  0  9G18G02G28G27G08G32G23G24G10
  11862700.50447   9251224.66444  23221781.3524                   23221784.7074
        42.0004         26.5004
    168527.93446    457982.54744  24272006.0784                   24272006.7544
        39.5004         24.0004
   3301993.87546   2609349.57842  24601176.5084                   24601185.6334
        37.2504         17.2504
    352803.82047    309158.30547  22030965.0864                   22030968.7934
        46.2504         43.0004
  -9830080.61747  -7609515.39846  22586701.0394                   22586705.5704
        43.5004         38.2504
 -12448755.13748  -9677794.83248  20665052.2814                   20665054.1884
        51.0004         51.7504
   9350056.87947   7292562.80144  22307833.1174                   22307834.6484
        43.0004         29.5004
  -1775055.73046  -1361455.24245  23497918.4774                   23497922.9384
        40.7504         32.0004
  -1753601.07848  -1333550.17648  21124149.6094                   21124151.9884
        49.2504         50.5004
 05 12 22 19 11  0.0000000  0  9G18G02G28G27G08G32G23G24G10
  11907702.00446   9286290.60544  23230344.7034                   23230348.9184
        40.5004         27.5004
     34180.52046    353296.35944  24246440.0084                   24246441.4414
        40.0004         25.0004
   3155633.85546   2495303.15642  24573325.3284                   24573333.7274
        37.0004         17.2504
    360837.42247    315418.17247  22032494.2424                   22032497.6174
        46.2504         42.7504
  -9881301.66047  -7649427.92246  22576953.9694                   22576958.5314
        43.5004         38.5004
 -12519616.73048  -9733011.64148  20651567.7274                   20651569.9454
        50.0004         51.7504
   9363308.27747   7302888.51245  22310354.6804                   22310356.2664
        43.0004         30.0004
  -1777088.14846  -1363038.95345  23497531.5784                   23497536.2114
        40.5004         32.7504
  -1792591.97348  -1363932.70348  21116730.1254                   21116732.1524
        49.0004         50.5004
 05 12 22 19 11 30.0000000  0  9G18G02G28G27G08G32G23G24G10
  11952983.26247   9321574.52044  23238961.9534                   23238965.1914
        42.0004         26.0004
   -100096.23846    248665.23444  24220888.6564                   24220889.3094
        39.7504         24.0004
   3009237.60246   2381228.54343  24545466.4454                   24545475.1484
        38.2504         19.0004
    369341.96947    322045.01247  22034112.6414                   22034115.8284
        46.0004         43.0004
  -9931963.79347  -7688904.93746  22567313.8284                   22567317.6054
        43.5004         38.0004
 -12589988.58648  -9787846.83248  20638176.4924                   20638178.4804
        51.0004         51.7504
   9376668.37947   7313298.91844  22312896.9384                   22312898.5164
        43.7504         29.0004
  -1778535.87946  -1364167.07445  23497256.5704                   23497260.7934
        40.2504         32.0004
  -1831418.54348  -1394187.17648  21109341.6094                   21109344.0434
        49.7504         50.2504
 05 12 22 19 12  0.0000000  0  9G18G02G28G27G08G32G23G24G10
  11998546.82447   9357078.39544  23247632.8834                   23247635.9224
        42.0004         27.2504
   -234296.85946    144093.46544  24195350.4534                   24195351.8634
        38.2504         25.0004
   2862811.60546   2267130.76243  24517601.9924                   24517610.8834
        38.2504         18.2504
    378318.83247    329039.89147  22035820.7504                   22035824.7704
        46.0004         43.0004
  -9982063.53947  -7727943.72346  22557780.2274                   22557784.2974
        43.0004         38.5004
 -12659867.00848  -9842297.52748  20624879.0084                   20624880.9884
        51.7504         51.7504
   9390140.82447   7323796.85944  22315461.0554                   22315462.2704
        43.5004         29.7504
  -1779396.42646  -1364837.66445  23497092.6334                   23497096.7624
        40.7504         33.2504
  -1870077.20748  -1424310.81248  21101985.1724                   21101987.0204
        50.5004         50.2504
 05 12 22 19 12 30.0000000  0  9G18G02G28G27G08G32G23G24G10
  12044395.80947   9392804.69544  23256357.2814                   23256360.7114
        42.0004         27.7504
   -368415.25046     39585.73843  24169827.5784                   24169829.4654
        38.5004         22.2504
   2716363.01246   2153015.35942  24489733.0704                   24489742.1844
        37.5004         17.7504
    387769.95747    336404.32447  22037619.2194                   22037623.0904
        46.2504         42.7504
 -10031596.75047  -7766541.07046  22548354.2894                   22548358.3014
        43.5004         38.5004
 -12729247.75848  -9896360.43748  20611676.4304                   20611678.2704
        51.7504         51.7504
   9403729.95747   7334385.74245  22318047.2034                   22318048.5204
        44.5004         30.2504
  -1779666.68046  -1365048.28545  23497040.0554                   23497045.4964
        40.5004         32.5004
  -1908563.61748  -1454300.22348  21094661.5554                   21094663.7504
        51.0004         50.0004
 05 12 22 19 13  0.0000000  0  9G18G02G28G27G08G32G23G24G10
  12090528.15646   9428751.78144  23265136.1954                   23265139.7114
        41.2504         25.5004
   -502450.31246    -64857.04743  24144322.3754                   24144323.4804
        39.7504         22.2504
   2569893.91046   2038883.91443  24461861.4224                   24461869.8444
        39.0004         18.5004
    397692.12947    344135.81347  22039507.5004                   22039511.1294
        46.5004         43.0004
 -10080564.64147  -7804697.90646  22539035.8754                   22539040.2384
        42.5004         38.2504
 -12798131.77048  -9950036.27048  20598568.1484                   20598569.8484
        51.7504         51.7504
   9417434.84847   7345064.80144  22320655.2974                   22320656.6564
        44.5004         29.5004
  -1779348.62946  -1364800.48445  23497101.6724                   23497106.2624
        40.2504         32.2504
  -1946878.84848  -1484156.25048  21087370.0944                   21087372.0474
        51.0004         50.0004
 05 12 22 19 13 30.0000000  0  9G18G02G28G27G08G32G23G24G10
  12136938.86346   9464915.78144  23273968.1094                   23273971.3594
        41.5004         25.2504
   -636404.07446   -169236.48044  24118831.6094                   24118833.2464
        38.7504         24.0004
   2423403.25446   1924735.74243  24433984.7194                   24433993.0704
        37.2504         18.5004
    408079.12547    352229.49247  22041484.0554                   22041487.9414
        46.0004         42.5004
 -10128971.25047  -7842417.36746  22529824.2734                   22529828.4104
        42.5004         38.0004
 -12866522.99248 -10003328.11748  20585553.5704                   20585555.6644
        52.0004         52.0004
   9431251.69947   7355831.11345  22323284.2734                   22323285.7934
        43.5004         30.0004
  -1778447.41846  -1364098.25845  23497272.9144                   23497277.7234
        41.0004         34.0004
  -1985026.71548  -1513881.85248  21080110.8754                   21080113.1174
        50.5004         50.0004
 05 12 22 19 14  0.0000000  0  9G18G02G28G27G08G32G23G24G10
  12183630.25046   9501298.48844  23282853.3204                   23282856.4884
        40.5004         25.5004
   -770271.25446   -273548.44943  24093357.1724                   24093358.3754
        38.5004         23.7504
   2276897.39846   1810575.65643  24406105.1254                   24406113.6954
        39.7504         19.5004
    418932.10247    360686.27347  22043549.1334                   22043552.9454
        45.0004         43.0004
 -10176813.41847  -7879697.01646  22520720.6334                   22520724.4224
        42.5004         38.0004
 -12934417.99248 -10056233.29748  20572633.4694                   20572635.7464
        52.0004         52.0004
   9445183.96147   7366687.35944  22325935.4614                   22325937.2034
        42.0004         29.7504
  -1776960.76246  -1362939.84645  23497556.6954                   23497560.8754
        41.0004         32.7504
  -2023003.72748  -1543474.33248  21072884.1174                   21072886.2304
        50.2504         50.0004
 05 12 22 19 14 30.0000000  0  9G18G02G28G27G08G32G23G24G10
  12230599.19146   9537897.45744  23291791.2344                   23291795.1484
        41.2504         26.0004
   -904051.79346   -377792.91043  24067900.1564                   24067900.7154
        39.0004         22.7504
   2130377.50846   1696404.64543  24378223.2194                   24378231.0314
        39.0004         19.2504
    430246.80947    369502.84047  22045702.7274                   22045706.5824
        45.0004         42.7504
 -10224093.16446  -7916538.41846  22511723.4144                   22511727.7814
        41.5004         38.0004
 -13001818.68748 -10108753.30948  20559807.7814                   20559809.9654
        52.5004         52.0004
   9459229.78947   7377632.09844  22328608.0784                   22328609.5664
        43.2504         29.7504
  -1774891.72346  -1361327.62145  23497949.9304                   23497954.1914
        40.7504         32.0004
  -2060811.81248  -1572935.18048  21065689.0944                   21065691.2934
        50.7504         50.0004
 05 12 22 19 15  0.0000000  0  9G18G02G28G27G08G32G23G24G10
  12277841.68846   9574709.57444  23300781.4774                   23300785.0984
        41.0004         26.5004
  -1037746.70746   -481970.64143  24042459.1414                   24042459.2034
        38.5004         23.0004
   1983843.52046   1582222.62143  24350338.4694                   24350345.9694
        38.5004         19.2504
    442017.98047    378675.10247  22047942.9614                   22047946.9024
        44.5004         42.7504
 -10270813.80147  -7952944.14846  22502832.2424                   22502837.0664
        43.7504         38.0004
 -13068728.07848 -10160890.47748  20547075.5474                   20547077.7624
        52.0004         52.0004
   9473386.47347   7388663.22744  22331302.5394                   22331304.0044
        42.0004         28.2504
  -1772244.41846  -1359264.81645  23498453.6644                   23498457.6684
        40.7504         32.0004
  -2098453.78948  -1602266.59848  21058526.3984                   21058528.1024
        50.0004         49.7504
 05 12 22 19 15 30.0000000  0  9G18G02G28G27G08G32G23G24G10
  12325358.75446   9611735.64144  23309823.9774                   23309827.5904
        40.7504         25.7504
  -1171351.62146   -586078.27043  24017034.5784                   24017034.8674
        38.5004         22.5004
   1837300.71546   1468033.72743  24322452.2894                   24322459.4304
        39.7504         19.2504
    454245.56347    388203.00447  22050269.9694                   22050273.4964
        45.5004         43.0004
 -10316973.30147  -7988912.64146  22494048.8984                   22494052.9734
        43.5004         37.2504
 -13135143.99648 -10212643.13348  20534436.6724                   20534438.9774
        51.2504         52.0004
   9487656.25847   7399782.47744  22334017.7664                   22334019.0124
        43.7504         29.0004
  -1769017.94246  -1356750.70545  23499067.7584                   23499071.6294
        40.7504         32.2504
  -2135927.35248  -1631466.78548  21051395.5704                   21051397.3134
        49.7504         49.7504
 05 12 22 19 16  0.0000000  0  9G18G02G28G27G08G32G23G24G10
  12373148.79346   9648974.41044  23318918.1174                   23318921.8794
        39.7504         25.2504
  -1304865.12946   -690114.69543  23991628.1724                   23991628.3054
        39.7504         22.5004
   1690751.68446   1353840.00443  24294564.2424                   24294572.0004
        39.0004         19.2504
    466926.59847    398084.23847  22052682.9614                   22052686.8054
        45.5004         43.0004
 -10362572.54347  -8024444.54746  22485372.0234                   22485376.0784
        43.5004         37.7504
 -13201067.03548 -10264011.72348  20521892.0314                   20521894.0514
        51.5004         52.0004
   9502038.75047   7410989.54344  22336754.9304                   22336756.2274
        44.0004         29.0004
  -1765213.95346  -1353786.58245  23499791.5864                   23499796.4144
        40.2504         32.0004
  -2173233.04348  -1660536.17248  21044296.4144                   21044298.9184
        50.7504         49.7504
 05 12 22 19 16 30.0000000  0  9G18G02G28G27G08G32G23G24G10
  12421213.63746   9686427.30944  23328064.9384                   23328068.7154
        40.2504         25.5004
  -1438282.22346   -794075.98444  23966239.1954                   23966239.7274
        37.5004         24.2504
   1544202.26646   1239645.93443  24266677.6644                   24266684.1764
        40.0004         19.5004
    480061.83247    408319.39147  22055182.4844                   22055186.1914
        43.7504         42.7504
 -10407608.77347  -8059537.75046  22476801.5394                   22476805.9494
        42.7504         37.7504
 -13266494.25448 -10314993.95748  20509441.5554                   20509443.7464
        50.5004         52.0004
   9516537.02347   7422286.82844  22339513.7814                   22339514.8484
        42.7504         29.5004
  -1760830.77046  -1350371.14845  23500625.6254                   23500630.0514
        40.5004         32.0004
  -2210367.70748  -1689472.27748  21037230.0084                   21037232.2234
        48.2504         50.0004
 05 12 22 19 17  0.0000000  0  9G18G02G28G27G08G32G23G24G10
  12469551.43446   9724092.92644  23337263.5474                   23337267.3714
        40.5004         25.0004
  -1571601.59846   -897961.10243  23940869.2344                   23940869.8324
        38.2504         22.7504
   1397654.85546   1125453.43043  24238790.4534                   24238797.2504
        40.2504         21.0004
    493648.10947    418906.01647  22057767.8204                   22057772.0394
        44.7504         42.5004
 -10452083.07447  -8094193.08646  22468338.4384                   22468342.9064
        43.0004         37.5004
 -13331426.53948 -10365590.53148  20497085.2504                   20497087.0274
        51.5004         52.0004
   9531150.56347   7433673.92644  22342294.3284                   22342296.0944
        43.5004         29.0004
  -1755870.37946  -1346505.94945  23501569.4924                   23501573.8134
        40.5004         33.0004
  -2247332.00448  -1718275.64148  21030195.8444                   21030198.1334
        49.0004         49.7504
 05 12 22 19 17 30.0000000  0  9G18G02G28G27G08G32G23G24G10
  12518158.28546   9761968.20344  23346512.7424                   23346517.3404
        39.5004         24.5004
  -1704824.20746  -1001770.82043  23915517.1954                   23915518.1604
        37.7504         23.5004
   1251109.64746   1011262.62643  24210902.9304                   24210909.7344
        40.5004         19.5004
    507680.31647    429840.11747  22060438.2504                   22060442.3794
        45.5004         42.2504
 -10495998.50447  -8128412.94546  22459981.2734                   22459985.7194
        42.7504         37.5004
 -13395866.73048 -10415803.65648  20484822.6884                   20484824.7624
        51.0004         52.2504
   9545876.66447   7445148.73844  22345097.3054                   22345098.6254
        44.0004         28.5004
  -1750336.85546  -1342194.13745  23502622.8444                   23502626.9614
        40.5004         32.2504
  -2284128.51648  -1746948.25848  21023193.5944                   21023195.8284
        49.0004         49.7504
 05 12 22 19 18  0.0000000  0  9G18G02G28G27G08G32G23G24G10
  12567034.07046   9800053.05144  23355813.3204                   23355818.0984
        39.5004         24.5004
  -1837947.05946  -1105502.84844  23890185.4384                   23890185.6644
        38.5004         24.5004
   1104570.98046    897076.92243  24183017.3054                   24183024.2074
        40.7504         20.5004
    522157.21547    441120.72747  22063193.1954                   22063197.1954
        45.0004         42.5004
 -10539354.39847  -8162196.78946  22451731.2114                   22451735.7274
        42.7504         37.5004
 -13459813.81648 -10465632.53548  20472653.9924                   20472656.2074
        51.0004         52.2504
   9560716.68847   7456712.32445  22347920.8204                   22347922.8714
        44.0004         30.0004
  -1744230.35946  -1337435.85245  23503784.1024                   23503789.6254
        39.5004         31.2504
  -2320756.09048  -1775489.23048  21016223.6334                   21016225.8524
        49.0004         49.7504
 05 12 22 19 18 30.0000000  0  9G18G02G28G27G08G32G23G24G10
  12616176.87946   9838345.93044  23365166.0234                   23365169.7584
        40.0004         25.2504
  -1970968.32246  -1209155.67943  23864871.6334                   23864872.5554
        38.0004         22.5004
    958040.99246    782897.95343  24155133.7974                   24155139.7974
        40.5004         21.0004
    537075.63347    452745.36747  22066031.8444                   22066036.1604
        45.7504         42.5004
 -10582151.83247  -8195545.47746  22443587.3594                   22443591.7304
        42.2504         37.5004
 -13523268.73048 -10515077.91848  20460578.7504                   20460581.0124
        52.2504         52.2504
   9575669.94547   7468364.15244  22350766.5084                   22350768.4414
        43.0004         29.0004
  -1737553.01246  -1332232.76645  23505055.3914                   23505059.8874
        39.5004         31.0004
  -2357215.29748  -1803899.02348  21009285.5704                   21009288.1294
        49.0004         50.0004
 05 12 22 19 19  0.0000000  0  9G18G02G28G27G08G32G23G24G10
  12665585.29346   9876845.78544  23374567.5234                   23374571.8134
        39.5004         24.0004
  -2103886.73446  -1312728.40243  23839578.0554                   23839579.4494
        38.0004         22.5004
    811522.65746    668728.04143  24127251.8594                   24127258.4574
        40.5004         19.2504
    552433.01247    464712.06647  22068954.5004                   22068958.6454
        44.5004         42.5004
 -10624391.41046  -8228459.47346  22435549.4224                   22435553.5864
        41.2504         37.5004
 -13586231.70748 -10564139.95748  20448597.3754                   20448599.3984
        51.5004         52.2504
   9590736.52747   7480104.29344  22353633.4844                   22353635.7624
        43.7504         29.0004
  -1730306.31646  -1326586.01645  23506434.8674                   23506439.1024
        39.5004         30.2504
  -2393506.17648  -1832177.64148  21002380.0084                   21002382.0904
        49.5004         49.7504
 05 12 22 19 19 30.0000000  0  9G18G02G28G27G08G32G23G24G10
  12715255.60246   9915549.69944  23384019.6724                   23384024.0704
        39.5004         25.0004
  -2236702.62946  -1416221.23043  23814304.5084                   23814304.7774
        38.7504         22.2504
    665016.48846    554567.63343  24099372.5474                   24099379.3204
        41.2504         21.2504
    568224.25047    477016.83247  22071959.3914                   22071963.6524
        44.0004         42.5004
 -10666076.23847  -8260941.19946  22427616.9694                   22427621.6214
        42.5004         37.5004
 -13648705.70748 -10612820.97748  20436708.9844                   20436711.1884
        52.5004         52.2504
   9605913.85547   7491930.75044  22356521.5634                   22356523.8164
        44.0004         29.0004
  -1722494.36346  -1320498.79745  23507920.2664                   23507925.3284
        40.5004         30.7504
  -2429631.27748  -1860327.08648  20995505.2584                   20995507.5274
        50.0004         49.7504
 05 12 22 19 20  0.0000000  0  9G18G02G28G27G08G32G23G24G10
  14340607.15246  11182057.16844  23693313.7894                   23693318.2894
        39.5004         24.2504
   -793987.00046   -292027.14144  24088844.2274                   24088843.8954
        39.2504         24.2504
   2093952.62946   1668024.59443  24371289.5634                   24371296.3324
        41.0004         20.7504
   2159868.67647   1717259.14547  22374839.3524                   22374843.8444
        44.7504         42.2504
  -9131783.14147  -7065388.16446  22719583.2114                   22719587.5164
        43.2504         37.0004
 -12135266.45348  -9433517.64548  20724706.9774                   20724708.7934
        52.0004         52.2504
  11196623.91447   8731445.02044  22659224.4774                   22659226.0274
        42.7504         28.5004
   -138696.42246    -86370.57045  23809308.1414                   23809312.4844
        39.0004         31.0004
   -890166.91048   -660744.48448  21288455.9224                   21288457.9224
        50.7504         49.7504
 05 12 22 19 20 30.0000000  0  9G18G02G28G27G08G32G23G24G10
  14390799.75446  11221168.03544  23702865.7114                   23702869.7894
        40.2504         25.5004
   -926588.77046   -395353.08644  24063610.2734                   24063611.3794
        39.5004         24.5004
   1947482.06646   1553891.92243  24343417.4304                   24343423.1764
        40.5004         21.5004
   2176522.56347   1730236.10547  22378008.9304                   22378012.7464
        43.7504         42.0004
  -9172357.56247  -7097004.64146  22711862.5944                   22711866.6414
        43.0004         37.0004
 -12196760.68448  -9481435.20748  20713005.0084                   20713007.0514
        52.5004         52.2504
  11212025.59047   8743446.26644  22662155.1804                   22662156.1994
        43.5004         29.2504
   -129755.81646    -79403.91045  23811009.7274                   23811013.3164
        40.0004         30.7504
   -925957.69948   -688633.43048  21281645.0704                   21281647.2154
        50.5004         49.5004
 05 12 22 19 21  0.0000000  0  9G18G02G28G27G08G32G23G24G10
  14441251.46546  11260480.84444  23712465.8594                   23712470.8834
        39.5004         24.2504
  -1059080.99246   -498593.69944  24038398.5784                   24038398.3834
        40.5004         24.0004
   1801033.77346   1439776.59443  24315548.6884                   24315555.1414
        41.0004         22.0004
   2193603.98447   1743546.20346  22381259.2274                   22381263.0474
        44.7504         41.7504
  -9212377.73047  -7128189.22346  22704246.2584                   22704251.1134
        42.7504         37.0004
 -12257765.54748  -9528971.44548  20701396.2584                   20701398.0984
        52.7504         52.2504
  11227539.48447   8755534.94944  22665107.1414                   22665108.4844
        44.0004         29.0004
   -120253.24646    -71999.35545  23812817.5784                   23812822.1684
        40.5004         30.2504
   -961581.28548   -716392.09048  21274866.2114                   21274868.5944
        50.7504         49.7504
 05 12 22 19 21 30.0000000  0  9G18G02G28G27G08G32G23G24G10
  14491962.60946  11299995.77744  23722116.6334                   23722121.5394
        40.0004         24.5004
  -1191460.08246   -601746.12544  24013206.3204                   24013207.1524
        40.2504         24.5004
   1654612.33246   1325682.18443  24287685.5864                   24287690.8284
        40.5004         21.5004
   2211111.89847   1757188.63347  22384590.5864                   22384594.9494
        44.0004         42.2504
  -9251842.71547  -7158941.19546  22696737.4924                   22696741.6024
        43.5004         37.2504
 -12318279.85548  -9576125.43448  20689880.5394                   20689882.5274
        52.5004         52.2504
  11243167.32847   8767712.42244  22668080.7344                   22668082.3714
        43.7504         28.5004
   -110188.62946    -64156.82445  23814731.9614                   23814736.9844
        38.7504         30.2504
   -997035.97348   -744019.14148  21268119.3444                   21268121.5634
        51.5004         49.5004
 05 12 22 19 22  0.0000000  0  9G18G02G28G27G08G32G23G24G10
  14542931.46546  11339711.53144  23731815.4534                   23731820.6294
        40.0004         25.0004
  -1323724.39146   -704809.12944  23988038.0634                   23988038.4454
        40.5004         26.0004
   1508220.35546   1211610.70743  24259827.6884                   24259833.7114
        39.5004         21.5004
   2229043.31647   1771161.07047  22388003.5164                   22388007.6564
        45.2504         42.2504
  -9290753.56647  -7189261.37546  22689332.4144                   22689336.7034
        42.5004         37.5004
 -12378304.30148  -9622897.70748  20678458.6024                   20678460.3364
        53.0004         52.5004
  11258908.73447   8779978.40244  22671076.5784                   22671078.6374
        44.0004         27.7504
    -99564.06646    -55877.98845  23816754.3674                   23816759.1334
        39.5004         30.5004
  -1032322.12148   -771514.85548  21261404.5314                   21261406.9224
        51.5004         49.5004
 05 12 22 19 22 30.0000000  0  9G18G02G28G27G08G32G23G24G10
  14594154.45746  11379625.30144  23741563.3914                   23741568.1334
        38.7504         24.7504
  -1455874.13746   -807782.85544  23962890.0784                   23962890.7234
        40.5004         24.7504
   1361858.63746   1097562.84443  24231976.1484                   24231981.4774
        40.0004         21.5004
   2247393.50047   1785459.82047  22391495.1804                   22391499.7194
        44.7504         42.0004
  -9329113.07046  -7219151.93446  22682032.8204                   22682037.1994
        41.5004         37.0004
 -12437841.49648  -9669290.30148  20667128.8444                   20667130.6684
        53.0004         52.5004
  11274761.59447   8792331.21544  22674093.8754                   22674094.9494
        44.0004         28.0004
    -88383.29346    -47165.72344  23818882.0474                   23818887.4304
        38.7504         29.5004
  -1067441.87148   -798880.90648  21254721.3674                   21254723.6294
        50.2504         49.5004
 05 12 22 19 23  0.0000000  0  9G18G02G28G27G08G32G23G24G10
  14645633.18046  11419738.35544  23751360.0554                   23751364.8134
        38.7504         24.0004
  -1587904.05946   -910663.20743  23937765.7034                   23937765.9454
        40.5004         23.7504
   1215533.08246    983543.16043  24204131.3284                   24204136.7974
        39.5004         22.5004
   2266162.63747   1800085.02347  22395066.7584                   22395071.2934
        44.0004         42.5004
  -9366919.18046  -7248611.27046  22674839.1024                   22674843.4024
        41.0004         37.5004
 -12496888.96148  -9715301.30148  20655892.3204                   20655894.5394
        53.7504         52.2504
  11290728.88047   8804773.19844  22677131.2114                   22677133.3714
        42.2504         27.5004
    -76645.13346    -38019.11344  23821115.8054                   23821120.2584
        39.0004         29.0004
  -1102392.30148   -826115.02748  21248070.4614                   21248073.0204
        50.0004         49.5004
 05 12 22 19 23 30.0000000  0  9G18G02G28G27G08G32G23G24G10
  14697363.98046  11460047.80544  23761204.3984                   23761208.9534
        39.2504         25.2504
  -1719814.91046  -1013450.78544  23912664.1484                   23912664.6994
        40.2504         24.0004
   1069244.55146    869552.31343  24176292.7344                   24176298.6454
        39.0004         22.5004
   2285346.05547   1815033.04747  22398717.1254                   22398721.9964
        45.0004         42.5004
  -9404174.67647  -7277641.55946  22667749.2114                   22667753.6884
        42.5004         37.0004
 -12555449.25048  -9760932.67248  20644748.6804                   20644750.5594
        52.7504         52.2504
  11306808.58247   8817302.78944  22680192.0554                   22680193.5634
        44.5004         29.5004
    -64353.27346    -28441.05944  23823455.1724                   23823459.5594
        38.5004         28.5004
  -1137175.41048   -853218.75848  21241451.7274                   21241454.2034
        51.0004         49.5004
 05 12 22 19 24  0.0000000  0  9G18G02G28G27G08G32G23G24G10
  14749346.14846  11500553.14544  23771095.8444                   23771100.8324
        38.5004         24.7504
  -1851604.03946  -1116143.49244  23887585.0554                   23887585.0824
        40.5004         24.5004
    922996.52046    755593.04343  24148463.1174                   24148468.2854
        40.0004         21.7504
   2304941.55947   1830302.17647  22402446.5084                   22402451.1684
        46.0004         42.0004
  -9440879.80947  -7306243.00446  22660764.3524                   22660768.5234
        43.7504         37.2504
 -12613522.28148  -9806184.36748  20633697.9844                   20633699.5664
        53.0004         52.2504
  11323001.26647   8829920.39844  22683273.4534                   22683274.6334
        44.2504         28.5004
    -51509.02346    -18432.58244  23825898.7734                   23825903.2074
        38.7504         29.2504
  -1171790.61748   -880191.65648  21234864.5394                   21234867.1804
        50.5004         49.5004
 05 12 22 19 24 30.0000000  0  9G18G02G28G27G08G32G23G24G10
  14801573.25846  11541249.31344  23781033.9924                   23781039.4414
        38.7504         25.2504
  -1983274.29746  -1218743.60944  23862529.2584                   23862529.3714
        41.0004         24.2504
    776787.14546    641663.85943  24120639.8134                   24120645.8324
        39.5004         22.5004
   2324941.56647   1845886.49647  22406252.0084                   22406256.6884
        45.5004         42.0004
  -9477040.34047  -7334420.08246  22653883.1724                   22653887.6174
        42.0004         37.2504
 -12671113.46948  -9851060.59848  20622738.5704                   20622740.6684
        52.5004         52.2504
  11339302.06647   8842622.26244  22686375.2584                   22686376.9774
        43.7504         29.2504
    -38118.94146     -7998.77744  23828446.8984                   23828451.3094
        39.2504         28.7504
  -1206242.76248   -907037.50048  21228308.6884                   21228311.0704
        50.7504         49.5004
 05 12 22 19 25  0.0000000  0  9G18G02G28G27G08G32G23G24G10
  14854048.25446  11582138.64543  23791020.4144                   23791024.6954
        39.2504         23.7504
  -2114819.35246  -1321246.15244  23837497.1644                   23837497.2814
        40.7504         26.2504
    630623.79746    527770.57043  24092825.8524                   24092831.8794
        40.7504         22.7504
   2345347.81347   1861787.37546  22410135.5944                   22410139.9694
        45.0004         41.7504
  -9512652.75846  -7362170.06246  22647106.3674                   22647110.9774
        41.2504         37.2504
 -12728218.95748  -9895558.36748  20611871.5864                   20611873.4064
        53.5004         52.2504
  11355715.45747   8855411.85544  22689498.5314                   22689500.0904
        44.2504         28.0004
    -24180.48046      2862.35244  23831099.4774                   23831103.6134
        39.2504         28.5004
  -1240527.43748   -933752.84448  21221784.3914                   21221787.1024
        50.0004         49.5004
 05 12 22 19 25 30.0000000  0  9G18G02G28G27G08G32G23G24G10
  14906766.93446  11623217.89843  23801052.2664                   23801058.0124
        39.7504         22.7504
  -2246239.83246  -1423651.60944  23812487.7974                   23812489.1374
        41.0004         25.0004
    484506.55946    413913.23043  24065020.0234                   24065026.5554
        41.0004         22.0004
   2366154.67647   1878000.41846  22414095.1884                   22414099.6334
        44.7504         41.7504
  -9547720.71547  -7389495.79346  22640433.0704                   22640437.6174
        42.0004         36.7504
 -12784842.07848  -9939680.26248  20601096.7194                   20601098.5784
        52.5004         52.2504
  11372238.62147   8868286.98844  22692642.7504                   22692644.5274
        43.2504         28.0004
     -9698.19146     14147.21544  23833855.5554                   23833860.1134
        39.5004         28.7504
  -1274647.39848   -960339.83248  21215292.1414                   21215293.9224
        50.7504         49.5004
 05 12 22 19 26  0.0000000  0  9G18G02G28G27G08G32G23G24G10
  14959733.15646  11664490.00844  23811132.2814                   23811137.1294
        40.7504         25.5004
  -2377528.64546  -1525954.49244  23787505.7034                   23787504.5394
        41.2504         24.5004
    338443.86746    300098.35943  24037225.4694                   24037231.7504
        41.2504         22.7504
   2387364.87147   1894527.74246  22418131.0084                   22418135.8914
        45.2504         41.5004
  -9582239.73047  -7416393.76646  22633864.6724                   22633869.2344
        43.5004         36.5004
 -12840978.02048  -9983422.54348  20590414.3984                   20590416.1484
        53.2504         52.2504
  11388877.00047   8881251.89544  22695808.7584                   22695810.6914
        43.2504         27.7504
      5331.44946     25858.59444  23836715.3754                   23836719.5634
        38.5004         27.0004
  -1308597.18048   -986794.22348  21208831.3984                   21208833.5664
        51.0004         49.5004
 05 12 22 19 26 30.0000000  0  9G18G02G28G27G08G32G23G24G10
  15012945.58246  11705953.96544  23821258.4924                   23821263.2704
        39.7504         24.2504
  -2508683.88346  -1628153.29744  23762547.1884                   23762547.1524
        41.0004         25.0004
    192438.68846    186328.32843  24009441.6564                   24009447.1604
        41.0004         22.5004
   2408975.67247   1911367.21547  22422243.8914                   22422248.5354
        44.7504         42.0004
  -9616210.68447  -7442864.69546  22627399.7194                   22627404.4694
        43.5004         37.5004
 -12896627.28948 -10026785.59848  20579824.5784                   20579826.6214
        52.7504         52.2504
  11405630.76247   8894306.72344  22698997.1024                   22698998.9184
        42.5004         28.5004
     20906.69946     37995.14544  23839679.4454                   23839683.7114
        38.5004         27.5004
  -1342376.65648  -1013115.90248  21202403.5784                   21202405.5044
        50.2504         49.2504
 05 12 22 19 27  0.0000000  0  9G18G02G28G27G08G32G23G24G10
  15066398.51646  11747605.33244  23831430.1484                   23831435.0784
        40.5004         25.7504
  -2639707.53546  -1730249.53544  23737614.0554                   23737614.1644
        40.2504         24.5004
     46489.83246     72602.17643  23981668.4384                   23981673.9494
        40.2504         22.5004
   2430980.12947   1928513.44546  22426431.7034                   22426435.8754
        45.7504         41.5004
  -9649638.70747  -7468912.53946  22621039.3834                   22621043.8014
        43.5004         37.7504
 -12951794.70748 -10069773.17648  20569326.4844                   20569328.7074
        52.5004         52.2504
  11422495.69547   8907448.17644  22702206.7734                   22702208.4844
        43.2504         28.0004
     37021.41446     50552.06344  23842746.4224                   23842751.0434
        37.7504         29.5004
  -1375989.96948  -1039308.10548  21196007.0234                   21196009.1994
        50.7504         49.2504
 05 12 22 19 27 30.0000000  0  9G18G02G28G27G08G32G23G24G10
  15120094.19146  11789445.84844  23841648.6174                   23841653.7464
        40.5004         24.5004
  -2770594.00046  -1832238.89844  23712706.5474                   23712706.8984
        41.5004         25.0004
    -99395.91446    -41074.81243  23953906.6804                   23953912.6914
        40.0004         22.7504
   2453379.20347   1945967.16446  22430693.8444                   22430698.3014
        45.0004         41.5004
  -9682521.05547  -7494535.19146  22614781.8054                   22614786.5314
        44.0004         37.0004
 -13006477.13348 -10112382.85548  20558920.8364                   20558922.5554
        52.5004         52.2504
  11439475.69147   8920679.28144  22705438.3054                   22705440.0004
        45.0004         29.0004
     53677.54346     63530.80544  23845915.2664                   23845920.8794
        37.0004         29.5004
  -1409433.32848  -1065367.87548  21189642.6884                   21189644.9884
        50.5004         49.2504
 05 12 22 19 28  0.0000000  0  9G18G02G28G27G08G32G23G24G10
  15174026.47346  11831470.75844  23851911.9454                   23851917.1804
        41.0004         24.0004
  -2901345.76646  -1934123.31244  23687826.2814                   23687825.2194
        41.7504         26.5004
   -245220.21146   -154703.89543  23926156.7734                   23926163.0204
        38.7504         22.5004
   2476165.55947   1963722.65247  22435029.8674                   22435034.5904
        44.7504         42.0004
  -9714863.34046  -7519737.02346  22608627.3134                   22608632.1994
        41.2504         37.7504
 -13060679.76248 -10154618.65648  20548606.4454                   20548608.2274
        52.0004         52.0004
  11456566.12947   8933996.44544  22708690.6334                   22708692.1764
        43.7504         28.2504
     70868.53946     76926.34044  23849187.2194                   23849192.0124
        37.5004         29.2504
  -1442711.23048  -1091298.71948  21183310.4304                   21183312.4804
        50.0004         49.2504
 05 12 22 19 28 30.0000000  0  9G18G02G28G27G08G32G23G24G10
  15228201.62946  11873684.89143  23862221.2114                   23862226.2114
        40.7504         23.0004
  -3031953.14846  -2035895.21544  23662971.6174                   23662971.6134
        41.5004         25.5004
   -390972.30946   -268276.70344  23898420.8914                   23898426.4024
        39.7504         24.5004
   2499344.10947   1981783.75446  22439440.8754                   22439445.1644
        44.5004         41.5004
  -9746658.82047  -7544512.77746  22602576.6884                   22602581.5164
        42.0004         37.5004
 -13114395.56248 -10196475.11748  20538384.6564                   20538386.5004
        53.0004         52.2504
  11473774.76247   8947405.71544  22711965.0944                   22711966.8834
        44.2504         28.5004
     88600.15246     90743.15644  23852561.6954                   23852565.7424
        37.0004         27.7504
  -1475815.90648  -1117094.57848  21177010.7194                   21177012.9694
        50.0004         49.0004
 05 12 22 19 29  0.0000000  0  9G18G02G28G27G08G32G23G24G10
  15282611.67646  11916082.08643  23872574.9384                   23872580.7034
        40.2504         22.5004
  -3162420.54347  -2137558.03144  23638144.3444                   23638144.4184
        42.0004         27.2504
   -536655.62946   -381795.97744  23870698.5704                   23870704.2934
        40.0004         24.0004
   2522905.62547   2000143.27346  22443924.4614                   22443929.1764
        43.7504         41.5004
  -9777914.97347  -7568868.28146  22596629.0634                   22596633.6564
        43.2504         37.7504
 -13167631.56648 -10237957.71148  20528254.1024                   20528255.9924
        52.5004         52.2504
  11491095.28547   8960902.17244  22715260.6414                   22715263.0044
        43.5004         28.0004
    106864.12946    104974.79744  23856035.8204                   23856041.2854
        37.0004         27.0004
  -1508753.68748  -1142760.39148  21170742.6724                   21170744.8674
        50.2504         49.2504
 05 12 22 19 29 30.0000000  0  9G18G02G28G27G08G32G23G24G10
  15337257.69946  11958663.12944  23882973.9694                   23882979.8634
        40.5004         24.5004
  -3292743.55147  -2239108.34044  23613344.8834                   23613345.1764
        42.7504         27.0004
   -682264.58646   -495257.26243  23842989.9224                   23842995.3594
        39.0004         22.7504
   2546849.87947   2018801.03146  22448480.9694                   22448485.6524
        43.7504         41.7504
  -9808630.32047  -7592802.37546  22590784.0394                   22590789.0354
        43.5004         37.5004
 -13220385.90248 -10279064.97348  20518215.5314                   20518217.1844
        52.7504         52.2504
  11508530.34447   8974487.87544  22718578.7664                   22718580.7814
        43.0004         28.5004
    125661.00046    119621.64144  23859613.9614                   23859618.5314
        37.2504         26.2504
  -1541521.87548  -1168294.05148  21164506.8674                   21164509.5554
        50.5004         49.2504
 05 12 22 19 30  0.0000000  0  9G18G02G28G27G08G32G23G24G10
  15392137.19146  12001426.09844  23893417.6334                   23893423.5234
        40.0004         24.0004
  -3422921.05547  -2340545.28544  23588573.0634                   23588573.0204
        42.7504         26.7504
   -827797.15246   -608659.04743  23815296.0634                   23815301.4144
        40.5004         23.7504
   2571173.08247   2037754.07846  22453109.7114                   22453114.1954
        44.2504         41.5004
  -9838806.89847  -7616316.65646  22585042.1414                   22585046.2344
        42.5004         37.0004
 -13272660.27748 -10319798.24248  20508267.8674                   20508269.6214
        52.2504         52.2504
  11526079.00847   8988162.10944  22721918.2504                   22721919.9574
        42.5004         26.7504
    144987.85546    134681.52044  23863291.0634                   23863296.3134
        38.2504         28.0004
  -1574121.34848  -1193696.25048  21158304.0554                   21158305.8874
        50.0004         49.2504
 05 12 22 19 30 30.0000000  0  9G18G02G28G27G08G32G23G24G10
  15447248.83246  12044369.99244  23903905.1724                   23903910.8284
        40.5004         24.5004
  -3552951.18447  -2441867.39144  23563829.6484                   23563828.9024
        42.5004         27.0004
   -973250.19546   -721998.85944  23787616.6024                   23787621.7814
        40.2504         25.0004
   2595872.53947   2057000.30946  22457809.5944                   22457814.8754
        43.7504         41.5004
  -9868445.66447  -7639411.85946  22579401.7894                   22579406.1564
        43.2504         37.5004
 -13324455.18448 -10360157.91048  20498411.4224                   20498412.9384
        53.0004         52.2504
  11543741.53947   9001925.06644  22725279.4384                   22725281.1484
        43.0004         28.5004
    164842.77746    150152.84844  23867069.4614                   23867074.3484
        38.0004         27.0004
  -1606551.82848  -1218966.76248  21152132.4844                   21152134.8674
        51.0004         49.2504
 05 12 22 19 31  0.0000000  0  9G18G02G28G27G08G32G23G24G10
  15502590.09846  12087492.79743  23914436.2424                   23914442.1294
        40.0004         23.0004
  -3682832.34047  -2543073.41844  23539113.5704                   23539113.1684
        42.5004         26.0004
  -1118621.43446   -835274.94943  23759953.3524                   23759958.7734
        39.5004         22.5004
   2620944.61747   2076536.88746  22462581.1804                   22462585.6294
        43.7504         41.0004
  -9897548.56247  -7662089.51646  22573864.0864                   22573868.7034
        43.7504         37.5004
 -13375772.19148 -10400145.18448  20488646.1334                   20488648.1914
        53.2504         52.2504
  11561517.21547   9015776.17644  22728661.9924                   22728663.5664
        42.7504         28.0004
    185223.05946    166033.56344  23870948.3834                   23870951.8594
        37.5004         24.0004
  -1638814.04748  -1244106.16048  21145993.0634                   21145995.4694
        50.5004         49.5004
 05 12 22 19 31 30.0000000  0  9G18G02G28G27G08G32G23G24G10
  15558157.98446  12130792.17644  23925011.1024                   23925016.7774
        40.7504         24.7504
  -3812564.21547  -2644163.10944  23514426.1174                   23514426.2584
        42.0004         28.2504
  -1263909.53546   -948486.23043  23732305.4304                   23732310.3834
        40.5004         22.7504
   2646384.87947   2096360.35946  22467422.3364                   22467426.8754
        44.0004         41.5004
  -9926118.34847  -7684351.74246  22568427.5004                   22568432.0594
        44.0004         37.5004
 -13426613.62548 -10439761.87948  20478971.5164                   20478973.1914
        52.0004         52.0004
  11579404.46947   9029714.22744  22732066.1414                   22732067.4494
        43.5004         28.5004
    206124.95746    182320.71544  23874925.6414                   23874930.2664
        36.7504         25.0004
  -1670909.48048  -1269115.60548  21139885.8914                   21139888.0984
        50.7504         49.2504
 05 12 22 19 32  0.0000000  0  9G18G02G28G27G08G32G23G24G10
  15613953.35246  12174268.80143  23935628.9064                   23935634.3554
        39.2504         23.0004
  -3942142.23847  -2745132.92644  23489768.2344                   23489768.1604
        43.5004         28.0004
  -1409108.89546  -1061628.37944  23704674.9304                   23704680.1604
        41.0004         24.2504
   2672192.96147   2116470.44146  22472333.3674                   22472338.0044
        43.7504         41.0004
  -9954153.69547  -7706197.53546  22563091.9224                   22563097.3164
        44.0004         37.2504
 -13476977.73448 -10479006.63348  20469387.3204                   20469389.2504
        52.0004         52.0004
  11597405.85947   9043741.21944  22735491.4064                   22735493.3204
        43.0004         27.7504
    227548.97346    199014.71144  23879002.5084                   23879006.8914
        37.5004         24.2504
  -1702835.52048  -1293993.03948  21133810.4064                   21133812.8524
        50.5004         49.2504
 05 12 22 19 32 30.0000000  0  9G18G02G28G27G08G32G23G24G10
  15669972.24246  12217919.59843  23946289.1564                   23946294.5904
        39.7504         22.5004
  -4071566.83647  -2845983.18444  23465139.4774                   23465138.9694
        42.7504         27.0004
  -1554218.97346  -1174700.96144  23677061.3444                   23677066.2504
        41.0004         24.2504
   2698363.54747   2136862.99646  22477313.3364                   22477318.7034
        44.0004         41.5004
  -9981658.29347  -7727629.74246  22557858.2274                   22557863.4454
        43.7504         37.2504
 -13526867.79748 -10517882.00448  20459893.8594                   20459895.8914
        53.2504         52.2504
  11615519.05147   9057855.31344  22738938.2584                   22738940.3874
        43.0004         28.2504
    249490.54346    216112.03544  23883177.7194                   23883183.1724
        37.0004         24.0004
  -1734594.52348  -1318740.32848  21127766.8754                   21127769.0594
        50.0004         49.0004
 05 12 22 19 33  0.0000000  0  9G18G02G28G27G08G32G23G24G10
  15726212.81346  12261743.10543  23956991.0474                   23956997.2114
        39.5004         22.2504
  -4200836.03147  -2946712.32444  23440539.9304                   23440539.9884
        43.0004         27.7504
  -1699236.81246  -1287701.67243  23649465.2584                   23649469.9924
        41.0004         23.0004
   2724893.63347   2157535.68046  22482362.1254                   22482366.9454
        43.2504         41.5004
 -10008633.41447  -7748649.39146  22552725.1564                   22552729.9224
        44.2504         37.7504
 -13576284.67248 -10556388.64848  20450490.1174                   20450491.8794
        52.2504         52.0004
  11633744.01647   9072056.53144  22742406.0164                   22742408.4414
        42.5004         28.0004
    271947.46946    233610.92244  23887450.5314                   23887456.0234
        37.2504         25.2504
  -1766186.39548  -1343357.38348  21121755.0234                   21121757.5354
        50.5004         49.2504
 05 12 22 19 33 30.0000000  0  9G18G02G28G27G08G32G23G24G10
  15782675.52346  12305739.75043  23967736.4224                   23967741.2274
        40.5004         22.7504
  -4329946.17247  -3047317.55544  23415971.3594                   23415970.9184
        43.0004         27.5004
  -1844157.55546  -1400626.72743  23621887.3834                   23621892.6134
        41.0004         23.5004
   2751782.21547   2178487.71146  22487479.2974                   22487483.6914
        44.2504         40.7504
 -10035078.51647  -7769256.02346  22547692.6024                   22547697.4574
        43.7504         37.5004
 -13625227.32448 -10594525.78548  20441176.5944                   20441178.3914
        52.7504         52.2504
  11652082.68847   9086346.33644  22745896.3524                   22745898.2934
        42.2504         28.0004
    294919.50046    251511.19144  23891822.2894                   23891827.2774
        36.7504         25.5004
  -1797609.21548  -1367842.71548  21115775.5704                   21115777.6884
        50.7504         49.0004
 05 12 22 19 34  0.0000000  0  9G18G02G28G27G08G32G23G24G10
  15839360.42646  12349909.56643  23978523.6024                   23978528.3954
        40.5004         22.0004
  -4458893.30947  -3147795.75844  23391433.3674                   23391432.7544
        42.5004         28.0004
  -1988976.34446  -1513472.32843  23594329.4924                   23594334.7344
        40.5004         22.7504
   2779028.12947   2199718.18046  22492663.8984                   22492668.5864
        44.5004         41.0004
 -10060993.12947  -7789449.29746  22542762.1414                   22542766.1604
        43.7504         37.5004
 -13673694.82048 -10632292.66448  20431953.6414                   20431955.4024
        52.2504         52.2504
  11670536.90247   9100726.18044  22749407.9384                   22749410.0164
        43.0004         27.7504
    318406.26646    269812.51644  23896291.9614                   23896296.1954
        37.2504         25.0004
  -1828861.07048  -1392194.83248  21109828.5634                   21109830.7114
        50.2504         49.0004
 05 12 22 19 34 30.0000000  0  9G18G02G28G27G08G32G23G24G10
  15896261.20746  12394247.50043  23989350.8284                   23989357.1764
        39.0004         22.7504
  -4587680.02747  -3248148.96144  23366926.1414                   23366926.0514
        43.2504         28.0004
  -2133694.83646  -1626239.79344  23566790.2814                   23566795.1334
        40.7504         25.2504
   2806623.88747   2221221.25846  22497914.7814                   22497919.8674
        43.7504         41.0004
 -10086383.11347  -7809233.77046  22537929.6804                   22537935.2974
        44.2504         37.2504
 -13721692.64148 -10669693.56248  20422819.8524                   20422821.8634
        53.0004         52.2504
  11689102.11347   9115192.52044  22752940.5234                   22752943.2704
        42.5004         28.7504
    342400.94946    288509.63744  23900858.2504                   23900863.1684
        36.5004         26.0004
  -1859946.41448  -1416417.19948  21103913.2974                   21103915.6254
        50.5004         49.0004
 05 12 22 19 35  0.0000000  0  9G18G02G28G27G08G32G23G24G10
  15953380.03546  12438755.36743  24000220.9774                   24000226.7384
        39.0004         21.0004
  -4716300.97747  -3348372.98044  23342450.0314                   23342450.1334
        43.5004         27.5004
  -2278306.44546  -1738923.95343  23539271.6094                   23539275.9184
        41.2504         23.2504
   2834570.16847   2242997.47746  22503233.7584                   22503238.2424
        44.2504         41.0004
 -10111246.21547  -7828607.67246  22533198.6254                   22533204.0514
        44.2504         37.2504
 -13769218.03548 -10706726.34448  20413776.0864                   20413778.3594
        52.5004         52.2504
  11707782.03147   9129748.22344  22756495.9454                   22756497.5904
        42.5004         29.2504
    366905.01646    307603.65644  23905521.0164                   23905525.8984
        36.7504         27.7504
  -1890861.54348  -1440506.92648  21098030.2034                   21098032.2894
        49.7504         49.0004
 05 12 22 19 35 30.0000000  0  9G18G02G28G27G08G32G23G24G10
  16010717.16446  12483433.39143  24011131.5234                   24011138.1524
        38.2504         21.5004
  -4844751.79747  -3448464.43744  23318007.1334                   23318006.9454
        43.2504         27.0004
  -2422806.11747  -1851520.93744  23511773.9534                   23511778.8244
        42.0004         25.0004
   2862865.92247   2265046.00046  22508617.8914                   22508622.7424
        44.2504         40.5004
 -10135581.84847  -7847570.56246  22528567.7814                   22528572.5984
        43.5004         37.0004
 -13816269.94948 -10743390.16848  20404822.3054                   20404824.2814
        50.0004         52.2504
  11726578.65247   9144394.86744  22760073.0164                   22760074.7624
        43.0004         27.5004
    391918.14146    327094.37144  23910281.2664                   23910285.9734
        36.7504         26.0004
  -1921604.35548  -1464462.38348  21092180.2814                   21092182.5704
        50.5004         49.0004
 05 12 22 19 36  0.0000000  0  9G18G02G28G27G08G32G23G24G10
  16068265.43046  12528275.93443  24022083.1644                   24022089.4414
        40.0004         21.7504
  -4973036.29347  -3548426.28144  23293594.8594                   23293594.7974
        42.2504         26.7504
  -2567196.41446  -1964032.64144  23484297.2114                   23484301.9064
        41.7504         25.0004
   2891502.69947   2287360.27046  22514067.3754                   22514072.4884
        44.5004         40.5004
 -10159396.97347  -7866127.86746  22524036.2584                   22524040.8954
        44.5004         37.2504
 -13862854.82048 -10779690.07048  20395957.5474                   20395959.2624
        52.7504         52.0004
  11745486.56347   9159128.20744  22763670.7734                   22763672.1884
        43.0004         27.5004
    417432.69146    346975.81644  23915136.0234                   23915141.0744
        36.0004         24.5004
  -1952180.21948  -1488287.75048  21086361.7504                   21086363.8914
        51.0004         48.7504
 05 12 22 19 36 30.0000000  0  9G18G02G28G27G08G32G23G24G10
  16126025.22346  12573283.27043  24033074.5944                   24033081.5004
        39.7504         21.2504
  -5101150.01247  -3648255.07044  23269215.7034                   23269215.5944
        43.0004         28.2504
  -2711471.96146  -2076454.96944  23456842.0704                   23456846.7704
        41.7504         24.5004
   2920479.75847   2309939.68446  22519581.4534                   22519586.3594
        44.2504         40.5004
 -10182690.70347  -7884278.88746  22519603.1334                   22519608.1334
        43.7504         37.2504
 -13908971.38748 -10815625.05148  20387181.7664                   20387183.8594
        53.2504         52.2504
  11764507.95347   9173949.98844  22767290.5314                   22767292.3014
        42.5004         28.0004
    443448.57445    367247.87944  23920086.5784                   23920091.8754
        35.5004         26.7504
  -1982586.84448  -1511981.24248  21080575.4614                   21080577.6914
        51.0004         49.0004
 05 12 22 19 37  0.0000000  0  9G18G02G28G27G08G32G23G24G10
  16183996.70746  12618455.61743  24044106.4144                   24044113.1914
        39.7504         21.5004
  -5229089.08647  -3747947.74644  23244869.8054                   23244869.4184
        42.5004         27.5004
  -2855628.22346  -2188784.33244  23429410.4694                   23429415.1604
        41.2504         24.5004
   2949795.79747   2332783.24646  22525160.4454                   22525165.0904
        43.7504         40.2504
 -10205462.88347  -7902023.51646  22515270.2274                   22515274.9224
        43.7504         37.2504
 -13954618.92248 -10851194.55148  20378495.3134                   20378497.2584
        52.5004         52.0004
  11783644.55947   9188861.55544  22770931.5394                   22770934.1954
        42.0004         27.5004
    469965.12945    387910.07844  23925132.7344                   23925138.2464
        35.5004         25.5004
  -2012822.36748  -1535541.41048  21074821.9534                   21074824.4184
        50.7504         49.0004
 05 12 22 19 37 30.0000000  0  9G18G02G28G27G08G32G23G24G10
  17817593.12946  13891387.60543  24354969.4144                   24354976.5394
        40.5004         22.5004
  -3781430.28147  -2619901.83244  23520349.8284                   23520349.8204
        43.2504         28.0004
  -1424240.31646  -1073416.95744  23701794.4774                   23701798.8164
        41.7504         25.0004
   4554863.81647   3583485.48846  22830594.5634                   22830599.6294
        44.2504         40.0004
  -8652297.16447  -6691764.57446  22810828.1484                   22810832.6684
        43.0004         37.5004
 -12424379.87548  -9658800.49248  20669690.2034                   20669691.9844
        52.2504         52.0004
  13378312.89846  10431460.18844  23074387.1484                   23074389.3714
        41.5004         27.0004
   2072396.24245   1636557.65243  24230065.4224                   24230070.7894
        32.2504         22.5004
   -467468.66448   -331369.70748  21368892.9304                   21368895.2814
        50.5004         49.0004
 05 12 22 19 38  0.0000000  0  9G18G02G28G27G08G32G23G24G10
  17875979.80546  13936883.38343  24366081.1094                   24366087.4574
        40.0004         20.2504
  -3909017.41447  -2719320.29344  23496071.0234                   23496070.1764
        44.0004         28.0004
  -1568151.72346  -1185555.52744  23674408.4774                   23674413.3364
        41.2504         25.0004
   4584845.84847   3606848.00446  22836300.4064                   22836305.3014
        43.2504         40.2504
  -8674033.58247  -6708702.10546  22806691.3674                   22806696.4614
        43.5004         37.5004
 -12469095.21948  -9693643.61748  20661181.1954                   20661183.2894
        51.2504         52.0004
  13397677.21946  10446549.17244  23078072.1094                   23078075.1214
        41.2504         26.5004
   2099904.46145   1657992.56643  24235300.5554                   24235304.7304
        33.7504         22.7504
   -497364.57848   -354665.24248  21363204.1094                   21363206.6414
        50.7504         49.0004
 05 12 22 19 38 30.0000000  0  9G18G02G28G27G08G32G23G24G10
  17934570.78946  13982538.40643  24377230.3674                   24377236.9184
        40.5004         20.0004
  -4036426.39847  -2818599.94144  23471825.3364                   23471824.7234
        43.0004         27.5004
  -1711936.99647  -1297595.80144  23647047.3364                   23647051.2934
        42.0004         25.7504
   4615155.72347   3630465.98046  22842068.0944                   22842072.7814
        43.5004         40.0004
  -8695255.02047  -6725238.35246  22802653.4844                   22802658.6094
        43.2504         37.5004
 -12513346.66048  -9728125.25448  20652760.3364                   20652762.6914
        51.2504         52.2504
  13417154.87546  10461726.51244  23081778.4844                   23081781.3324
        40.5004         27.5004
   2127904.23045   1679810.53943  24240628.6884                   24240632.9304
        33.5004         22.5004
   -527091.13748   -377828.81248  21357547.1024                   21357549.3164
        50.0004         49.0004
 05 12 22 19 39  0.0000000  0  9G18G02G28G27G08G32G23G24G10
  17993362.95346  14028350.19143  24388418.0864                   24388424.8404
        39.5004         20.0004
  -4163656.50047  -2917740.18044  23447614.5164                   23447614.6994
        43.5004         28.0004
  -1855594.50447  -1409536.52044  23619709.7814                   23619714.1804
        42.0004         24.7504
   4645788.93847   3654335.90646  22847897.3674                   22847902.1454
        43.5004         39.7504
  -8715964.53547  -6741375.69946  22798712.3284                   22798717.4804
        43.5004         37.2504
 -12557136.66448  -9762247.33248  20644427.4454                   20644429.1454
        51.7504         52.0004
  13436744.34846  10476990.94944  23085506.3834                   23085509.2854
        41.5004         27.5004
   2156391.84045   1702008.64543  24246049.6254                   24246054.5474
        33.5004         22.2504
   -556649.72348   -400861.49248  21351922.4064                   21351924.7234
        50.2504         48.7504
 05 12 22 19 39 30.0000000  0  9G18G02G28G27G08G32G23G24G10
  18052354.88746  14074317.63343  24399644.4774                   24399650.3244
        40.7504         20.2504
  -4290705.32847  -3016739.19144  23423437.4454                   23423437.4494
        43.0004         27.2504
  -1999120.87147  -1521375.04744  23592397.6884                   23592402.2034
        42.2504         26.0004
   4676742.76647   3678455.66046  22853787.4064                   22853792.4964
        42.7504         39.2504
  -8736163.38747  -6757115.12146  22794868.7344                   22794873.7934
        43.2504         38.0004
 -12600466.04748  -9796010.47748  20636182.2344                   20636184.0664
        52.2504         52.2504
  13456445.99246  10492342.80944  23089256.1174                   23089258.7344
        41.5004         27.2504
   2185365.25845   1724585.29743  24251562.5234                   24251567.5164
        35.2504         23.7504
   -586039.89848   -423762.93748  21346329.7664                   21346332.0904
        50.5004         48.5004
 05 12 22 19 40  0.0000000  0  9G18G02G28G27G08G32G23G24G10
  18111543.95346  14120438.66443  24410907.8984                   24410914.6764
        39.0004         19.7504
  -4417571.88347  -3115596.15644  23399295.3284                   23399295.7424
        43.5004         28.0004
  -2142513.98047  -1633109.73444  23565110.3674                   23565115.0554
        42.0004         25.7504
   4708013.25847   3702822.16446  22859738.1564                   22859743.8204
        43.0004         39.7504
  -8755853.98447  -6772458.50846  22791121.8364                   22791126.9654
        42.5004         37.5004
 -12643336.65648  -9829416.14548  20628024.2664                   20628025.9654
        52.5004         52.2504
  13476259.11346  10507781.52744  23093026.5864                   23093028.4064
        41.0004         27.0004
   2214821.10545   1747537.85944  24257168.0554                   24257173.2194
        35.5004         27.0004
   -615262.31248   -446533.66848  21340768.6024                   21340770.6564
        51.0004         48.5004
 05 12 22 19 40 30.0000000  0  9G18G02G28G27G08G32G23G24G10
  18170928.11346  14166711.69943  24422208.7814                   24422215.0704
        39.5004         19.7504
  -4544254.09447  -3214309.48844  23375188.6954                   23375188.3204
        43.7504         28.0004
  -2285771.10547  -1744738.46544  23537849.7974                   23537853.3324
        42.0004         26.0004
   4739597.14847   3727432.87546  22865749.1484                   22865754.1604
        42.5004         39.7504
  -8775038.24247  -6787407.35546  22787471.1954                   22787476.5984
        42.7504         37.5004
 -12685749.86748  -9862465.39148  20619953.1804                   20619954.7464
        52.0004         52.0004
  13496183.36646  10523306.82944  23096817.5004                   23096819.6954
        40.5004         28.0004
   2244756.80546   1770864.33644  24262864.4924                   24262869.5084
        36.0004         26.0004
   -644317.12948   -469173.80148  21335239.7974                   21335242.1844
        50.5004         48.5004
 05 12 22 19 41  0.0000000  0  9G18G02G28G27G08G32G23G24G10
  18230509.96546  14213138.84843  24433546.3284                   24433553.3054
        38.2504         18.5004
  -4670745.88747  -3312874.44144  23351118.3914                   23351117.6254
        43.7504         28.0004
  -2428885.01647  -1856255.62144  23510615.4454                   23510619.9574
        43.0004         24.5004
   4771495.67247   3752288.75846  22871818.9774                   22871823.9884
        43.5004         39.2504
  -8793713.51247  -6801959.59046  22783917.8524                   22783922.4574
        44.0004         37.7504
 -12727702.46548  -9895155.72748  20611969.8444                   20611971.6374
        50.7504         52.0004
  13516223.07846  10538922.09844  23100631.1094                   23100632.9924
        40.7504         26.0004
   2275174.11346   1794566.11744  24268654.1094                   24268658.1254
        36.0004         25.2504
   -673199.88748   -491679.85948  21329743.8134                   21329746.0314
        51.0004         48.5004
 05 12 22 19 41 30.0000000  0  9G18G02G28G27G08G32G23G24G10
  18290286.34846  14259717.53143  24444921.8674                   24444928.6334
        38.7504         18.2504
  -4797046.66047  -3411290.55544  23327084.2114                   23327083.6054
        44.0004         28.5004
  -2571854.04347  -1967659.85244  23483409.5944                   23483413.5274
        42.0004         26.2504
   4803704.35547   3777386.31646  22877948.5394                   22877953.5274
        43.0004         39.2504
  -8811882.79347  -6816117.53146  22780460.0864                   22780464.7934
        43.0004         37.5004
 -12769196.96948  -9927489.09848  20604073.5864                   20604075.4734
        52.2504         52.0004
  13536377.02046  10554626.39144  23104466.3134                   23104468.3324
        40.0004         25.7504
   2306069.38745   1818640.31644  24274531.9144                   24274537.0984
        35.7504         25.2504
   -701911.84448   -514052.82048  21324280.0864                   21324282.4534
        51.2504         48.5004
 05 12 22 19 42  0.0000000  0  9G18G02G28G27G08G32G23G24G10
  18350253.98446  14306445.25043  24456334.2194                   24456340.7974
        40.2504         19.7504
  -4923155.69547  -3509557.25044  23303086.4144                   23303085.9614
        44.0004         28.7504
  -2714676.51647  -2078949.89144  23456231.1484                   23456234.8054
        43.2504         27.0004
   4836218.80147   3802722.13746  22884135.7034                   22884141.0594
        43.2504         40.0004
  -8829549.17647  -6829883.62546  22777098.8364                   22777103.4024
        42.5004         37.5004
 -12810235.87948  -9959467.46148  20596264.2424                   20596266.3674
        51.7504         52.0004
  13556643.82446  10570418.62544  23108322.7274                   23108325.1764
        41.7504         25.7504
   2337438.78145   1843083.97344  24280501.7424                   24280507.3404
        34.2504         27.0004
   -730454.18448   -536293.62148  21318848.7504                   21318850.5514
        50.2504         48.5004
 05 12 22 19 42 30.0000000  0  9G18G02G28G27G08G32G23G24G10
  18410412.37546  14353321.56343  24467781.9224                   24467788.8874
        39.0004         19.2504
  -5049069.78547  -3607672.04744  23279125.4774                   23279125.1174
        44.5004         29.2504
  -2857348.32847  -2190122.57044  23429081.0164                   23429085.3444
        42.7504         26.5004
   4869037.10247   3828294.73046  22890380.4924                   22890385.9574
        43.5004         39.7504
  -8846713.17647  -6843258.23846  22773832.1484                   22773837.0354
        42.5004         36.7504
 -12850819.15248  -9991090.79348  20588541.4384                   20588543.3554
        52.0004         52.0004
  13577024.74247  10586299.75044  23112201.6334                   23112203.4884
        42.0004         26.0004
   2369280.75846   1867895.85544  24286562.6484                   24286566.2504
        36.5004         28.0004
   -758825.55148   -558401.19148  21313449.8834                   21313452.1724
        50.7504         48.5004
 05 12 22 19 43  0.0000000  0  9G18G02G28G27G08G32G23G24G10
  18470759.77746  14400345.20343  24479266.9774                   24479272.5904
        38.7504         19.7504
  -5174786.84847  -3705633.31244  23255202.3914                   23255201.9384
        44.5004         29.5004
  -2999866.33247  -2301175.39544  23401960.7814                   23401964.9184
        42.5004         25.2504
   4902156.19147   3854101.70346  22896682.5784                   22896688.8594
        43.2504         39.5004
  -8863376.42247  -6856242.66446  22770661.5394                   22770666.1684
        43.2504         37.0004
 -12890947.88748 -10022359.92248  20580905.2664                   20580907.1604
        52.2504         52.0004
  13597519.78547  10602269.83244  23116101.9924                   23116103.7934
        42.0004         25.2504
   2401593.13345   1893074.29344  24292709.6094                   24292715.1254
        33.5004         25.7504
   -787025.78148   -580375.41048  21308083.2734                   21308085.8834
        50.5004         48.5004
 05 12 22 19 43 30.0000000  0  9G18G02G28G27G08G32G23G24G10
  18531293.19946  14447513.80542  24490784.9694                   24490792.3554
        37.2504         17.2504
  -5300305.79347  -3803440.20344  23231316.9144                   23231316.0434
        43.5004         29.0004
  -3142228.68047  -2412106.88344  23374870.3054                   23374873.8244
        43.7504         27.7504
   4935571.84847   3880139.77046  22903041.9384                   22903047.6454
        42.7504         39.0004
  -8879541.82447  -6868839.15646  22767585.1884                   22767589.7814
        43.5004         37.2504
 -12930624.39848 -10053276.67648  20573355.1024                   20573356.8834
        52.0004         52.0004
  13618127.94047  10618328.04844  23120023.0554                   23120025.6914
        42.7504         25.5004
                                  24298946.9844                   24298952.5354
        31.2504         21.2504
   -815055.89548   -602217.07048  21302749.2974                   21302751.5514
        50.7504         48.5004
 05 12 22 19 44  0.0000000  0 10G18G02G28G27G08G31G32G23G24G10
  18592009.81346  14494825.06343  24502339.1954                   24502347.1414
        37.5004         18.2504
  -5425625.96147  -3901092.21144  23207468.8444                   23207468.8484
        43.2504         28.5004
  -3284433.53547  -2522915.68744  23347809.4614                   23347813.0354
        43.0004         26.7504
   4969279.89147   3906405.65246  22909456.5164                   22909461.8164
        42.5004         39.0004
  -8895212.27747  -6881049.96546  22764603.3754                   22764608.3014
        43.2504         37.2504
  12376788.22356   9681560.40654  25301993.1024                   25302004.3444
        38.7504         28.7504
 -12969851.01648 -10083842.87148  20565890.4844                   20565892.2194
        53.0004         52.0004
  13638848.06347  10634473.51244  23123966.9064                   23123969.1524
        42.5004         26.5004
   2467614.30945   1944519.20344  24305274.7344                   24305277.6134
        32.7504         24.5004
   -842916.73448   -623926.83248  21297447.6174                   21297450.1454
        50.7504         48.5004
 05 12 22 19 44 30.0000000  0 10G18G02G28G27G08G31G32G23G24G10
  18652901.26646  14542272.64143  24513927.1414                   24513934.7854
        38.0004         19.0004
  -5550751.83647  -3998592.82445  23183658.4694                   23183658.0234
        43.7504         30.0004
  -3426484.24647  -2633604.38344  23320777.6414                   23320781.1914
        42.7504         26.5004
   5003270.71947   3932891.89146  22915924.8594                   22915930.0124
        42.5004         39.2504
  -8910396.03547  -6892881.54346  22761713.8364                   22761718.6134
        43.5004         37.0004
  12222594.55946   9561409.84844  25272650.3364                   25272661.6994
        38.5004         28.5004
 -13008635.36748 -10114064.44148  20558509.9224                   20558511.6844
        52.0004         52.0004
  13659673.84846  10650701.31344  23127929.4454                   23127931.8134
        41.5004         25.5004
   2501310.43845   1970775.91044  24311685.2814                   24311690.4384
        34.0004         24.5004
   -870614.68748   -645509.67648  21292177.0554                   21292179.4804
        50.7504         48.5004
 05 12 22 19 45  0.0000000  0 10G18G02G28G27G08G31G32G23G24G10
  18713957.73046  14589848.77342  24525546.3054                   24525553.7544
        37.5004         17.7504
  -5675689.27347  -4095946.59444  23159882.7034                   23159882.7114
        43.0004         28.5004
  -3568385.89847  -2744176.92644  23293774.8134                   23293778.8284
        42.5004         27.7504
   5037533.22747   3959589.82446  22922444.9774                   22922450.2544
        42.5004         39.2504
  -8925102.87947  -6904341.48846  22758915.3444                   22758920.3134
        43.0004         37.7504
  12068256.13746   9441146.53544  25243280.8134                   25243292.1024
        38.2504         29.2504
 -13046986.68448 -10143948.57848  20551212.1024                   20551213.9224
        51.7504         52.0004
  13680597.18046  10667005.12144  23131910.8984                   23131912.7934
        41.5004         25.2504
   2535450.10245   1997378.18844  24318181.5704                   24318186.9264
        33.0004         26.0004
   -898157.53148   -666971.65648  21286935.8364                   21286937.9224
        50.7504         48.5004
 05 12 22 19 45 30.0000000  0 10G18G02G28G27G08G31G32G23G24G10
  18775182.72346  14637556.21143  24537196.6804                   24537205.3324
        36.7504         19.7504
  -5800430.78547  -4193147.70744  23136146.2034                   23136145.4734
        43.0004         28.2504
  -3710130.13347  -2854626.80544  23266801.4144                   23266805.4344
        43.0004         26.2504
   5072069.60947   3986501.17246  22929016.6884                   22929022.5234
        43.5004         39.0004
  -8939329.33247  -6915427.10546  22756208.4064                   22756213.1684
        43.5004         37.7504
  11913780.89546   9320776.61744  25213884.9454                   25213895.8364
        38.5004         29.0004
 -13084900.90248 -10173492.12948  20543997.0784                   20543998.9534
        52.0004         52.0004
  13701623.50846  10683389.18044  23135911.9534                   23135914.1604
        40.0004         25.5004
   2570035.94145   2024328.12944  24324763.9224                   24324768.8444
        32.2504         26.5004
   -925539.73848   -688308.46548  21281725.1884                   21281727.3914
        50.5004         48.5004
 05 12 22 19 46  0.0000000  0 10G18G02G28G27G08G31G32G23G24G10
  18836578.05946  14685396.37543  24548880.9304                   24548888.6094
        37.7504         19.7504
  -5924970.67247  -4290191.70744  23112446.7194                   23112446.2274
        43.0004         29.0004
  -3851710.31247  -2964948.85944  23239859.9064                   23239863.4264
        43.0004         27.0004
   5106880.48847   4013626.40246  22935641.3444                   22935646.6484
        42.5004         39.2504
  -8953073.61347  -6926137.00446  22753592.7664                   22753597.8094
        42.7504         37.7504
  11759174.74646   9200304.71144  25184463.5784                   25184474.8134
        37.2504         28.0004
 -13122375.55148 -10202693.16448  20536866.1564                   20536868.2664
        52.5004         52.2504
  13722756.58646  10699856.42244  23139933.7504                   23139936.5944
        41.0004         26.2504
   2605069.19145   2051626.71544  24331430.2584                   24331435.3054
        35.2504         26.7504
   -952757.46548   -709517.10948  21276546.0314                   21276548.2384
        51.5004         48.5004
 05 12 22 19 46 30.0000000  0 10G18G02G28G27G08G31G32G23G24G10
  18898148.98846  14733373.40643  24560597.4384                   24560605.5314
        37.5004         18.5004
  -6049300.04347  -4387071.67244  23088787.1414                   23088786.9414
        42.0004         29.0004
  -3993116.22347  -3075135.13744  23212950.8914                   23212954.5204
        43.2504         27.2504
   5141969.80547   4040968.60946  22942319.0704                   22942324.6024
        42.0004         38.0004
  -8966330.38747  -6936467.02746  22751069.8284                   22751075.5434
        42.2504         37.0004
  11604447.51646   9079738.48044  25155019.7344                   25155030.7234
        37.7504         28.7504
 -13159404.78148 -10231547.10248  20529819.4614                   20529821.6994
        51.5004         51.5004
  13744003.59046  10716412.43844  23143977.0474                   23143979.4224
        40.2504         24.7504
   2640554.31346   2079277.47344  24338182.5084                   24338187.3324
        36.5004         26.5004
   -979803.42248   -730591.89848  21271399.1484                   21271401.5744
        50.5004         48.0004
 05 12 22 19 47  0.0000000  0 10G18G02G28G27G08G31G32G23G24G10
  18959894.28945  14781486.34042  24572347.1644                   24572355.2854
        35.0004         17.7504
  -6173416.10947  -4483785.44944  23065168.6024                   23065168.3054
        43.7504         29.0004
  -4134344.34847  -3185182.84844  23186076.0554                   23186079.0234
        43.5004         27.0004
   5177334.98847   4068525.76246  22949048.4534                   22949054.2464
        42.5004         38.5004
  -8979101.00047  -6946418.22746  22748640.1804                   22748645.7114
        42.0004         37.2504
  11449601.92646   8959080.08645  25125552.8594                   25125563.9534
        37.7504         30.5004
 -13195989.32448 -10260054.55148  20522857.7584                   20522859.8164
        52.5004         52.2504
  13765365.07846  10733057.64544  23148041.9064                   23148045.2384
        40.0004         26.5004
   2676489.20345   2107278.64844  24345020.7974                   24345026.2854
        35.0004         28.7504
  -1006676.85548   -751532.26648  21266285.5164                   21266287.6334
        50.5004         48.5004
 05 12 22 19 47 30.0000000  0 10G18G02G28G27G08G31G32G23G24G10
  19021811.38746  14829732.97343  24584130.0234                   24584138.6094
        36.7504         19.2504
  -6297317.46147  -4580331.90245  23041591.7034                   23041590.6844
        43.0004         30.0004
  -4275392.51247  -3295090.34444  23159234.9304                   23159239.1954
        42.7504         28.2504
   5212972.12147   4096294.83646  22955830.4384                   22955835.7544
        42.0004         38.2504
  -8991388.22347  -6955992.76646  22746301.5004                   22746307.6024
        42.5004         37.5004
  11294639.93046   8838330.98444  25096064.3984                   25096075.3984
        36.0004         29.2504
 -13232131.16448 -10288217.02748  20515980.3284                   20515982.2274
        51.7504         52.2504
  13786840.32046  10749791.52044  23152129.3054                   23152131.9104
        41.0004         26.7504
   2712870.70345   2135627.78544  24351944.1254                   24351949.1414
        34.0004         27.7504
  -1033378.30948   -772338.62148  21261204.2504                   21261206.3204
        50.2504         48.5004
 05 12 22 19 48  0.0000000  0 10G18G02G28G27G08G31G32G23G24G10
  19083902.71146  14878115.51642  24595946.0634                   24595954.2464
        37.5004         17.7504
  -6420997.72347  -4676706.08244  23018056.0554                   23018054.7114
        43.0004         29.5004
  -4416253.16047  -3404851.74244  23132430.0944                   23132433.9064
        43.5004         28.2504
   5248882.57846   4124276.87946  22962663.9924                   22962669.3794
        41.5004         38.0004
  -9003189.35246  -6965188.52346  22744056.4534                   22744061.9414
        41.7504         37.5004
  11139567.84446   8717496.14844  25066555.5704                   25066565.8134
        36.5004         27.5004
 -13267827.18048 -10316032.10948  20509187.2814                   20509189.3714
        52.2504         52.0004
  13808433.85946  10766617.57044  23156237.5634                   23156240.8794
        39.5004         26.7504
   2749700.44945   2164326.23844  24358952.0004                   24358957.9964
        35.5004         28.7504
  -1059903.10948   -793007.33248  21256157.0084                   21256159.4774
        50.0004         48.5004
 05 12 22 19 48 30.0000000  0 10G18G02G28G27G08G31G32G23G24G10
  19146165.12145  14926631.33642  24607793.3754                   24607802.8754
        35.0004         16.7504
  -6544456.25447  -4772907.48445  22994562.3204                   22994561.7854
        44.0004         30.5004
  -4556924.72347  -3514465.79344  23105661.1094                   23105664.5554
        43.5004         27.7504
   5285061.75847   4152468.31646  22969548.4304                   22969554.4264
        42.5004         39.2504
  -9014507.88747  -6974008.24246  22741902.4064                   22741908.1684
        42.0004         37.2504
  10984387.38746   8596576.87144  25037024.1804                   25037035.4224
        36.2504         27.7504
 -13303080.10248 -10343501.92248  20502478.9694                   20502480.6484
        52.2504         52.2504
  13830144.34846  10783534.75444  23160369.3054                   23160372.5594
        39.5004         25.2504
   2786974.45345   2193370.91444  24366045.3444                   24366050.9494
        35.5004         28.0004
  -1086252.48848   -813539.34448  21251142.4064                   21251144.8954
        50.7504         48.5004
 05 12 22 19 49  0.0000000  0 10G18G02G28G27G08G31G32G23G24G10
  19208599.56346  14975281.20743  24619675.1254                   24619683.9534
        38.0004         19.7504
  -6667687.96547  -4868932.15245  22971112.0314                   22971111.4264
        44.2504         30.0004
  -4697401.15647  -3623927.79344  23078929.5234                   23078933.1484
        43.2504         27.5004
   5321509.59847   4180869.08646  22976484.5704                   22976490.2034
        42.5004         38.5004
  -9025342.68447  -6982451.02046  22739840.5944                   22739846.0474
        43.0004         37.0004
  10829103.66846   8475577.12544  25007474.6644                   25007485.4694
        36.5004         27.2504
 -13337888.16448 -10370625.08248  20495855.5474                   20495856.9964
        52.5004         52.0004
  13851974.85546  10800545.44544  23164523.5704                   23164526.2344
        39.7504         25.0004
   2824693.12545   2222762.07044  24373223.3914                   24373228.5204
        34.5004         25.5004
  -1112423.16448   -833932.10548  21246162.4144                   21246164.9224
        50.0004         48.5004
 05 12 22 19 49 30.0000000  0 10G18G02G28G27G08G31G32G23G24G10
  19271199.55146  15024060.07043  24631587.6804                   24631596.3524
        38.0004         18.2504
  -6790695.61347  -4964782.22344  22947704.3914                   22947703.9924
        43.7504         29.7504
  -4837684.25447  -3733239.16444  23052234.1254                   23052237.4184
        44.0004         27.7504
   5358218.16447   4209473.02046  22983470.3204                   22983475.5944
        42.5004         38.5004
  -9035700.55147  -6990522.15646  22737869.6024                   22737875.5314
        42.5004         37.0004
  10673714.20745   8354494.96144  24977905.2034                   24977914.8364
        35.5004         27.5004
 -13372257.58248 -10397406.44948  20489315.0394                   20489316.9574
        52.2504         52.0004
  13873920.57446  10817645.91444  23168699.3754                   23168702.2734
        40.5004         25.5004
   2862848.94545   2252493.79744  24380484.4224                   24380489.2274
        33.5004         25.5004
  -1138419.78148   -854189.23848  21241215.4384                   21241217.9804
        50.0004         48.5004
 05 12 22 19 50  0.0000000  0 10G18G02G28G27G08G31G32G23G24G10
  19333967.91845  15072970.09042  24643530.7734                   24643540.9144
        31.7504         16.2504
  -6913472.55947  -5060452.52745  22924341.1094                   22924340.1604
        43.7504         30.0004
  -4977766.39147  -3842393.92644  23025577.0864                   23025580.9144
        43.2504         27.7504
   5395188.83646   4238281.19146  22990505.4534                   22990511.6684
        41.7504         38.2504
  -9045578.86347  -6998219.61746  22735989.9454                   22735995.4344
        42.7504         37.5004
  10518226.37145   8233336.14144  24948315.9384                   24948325.6884
        35.5004         27.0004
 -13406185.02748 -10423843.41848  20482859.1174                   20482860.8134
        52.5004         52.0004
  13895986.20346  10834839.81344  23172898.7664                   23172901.3284
        41.5004         25.5004
   2901443.91846   2282567.76245  24387828.1724                   24387834.2384
        37.5004         30.2504
  -1164237.49248   -874306.97748  21236302.6414                   21236305.2034
        50.2504         48.5004
 05 12 22 19 50 30.0000000  0 10G18G02G28G27G08G31G32G23G24G10
  19396899.63346  15122007.41842  24655509.0474                   24655516.4184
        37.5004         17.7504
  -7036019.48847  -5155943.59845  22901020.7664                   22901020.6844
        44.0004         30.5004
  -5117647.34847  -3951391.93044  22998958.6724                   22998962.0554
        42.5004         27.7504
   5432415.70747   4267288.99246  22997589.8674                   22997595.1844
        42.0004         38.0004
  -9054982.46147  -7005547.16846  22734200.4534                   22734206.2814
        42.7504         37.0004
  10362639.89145   8112100.41844  24918708.9774                   24918718.3754
        35.2504         27.5004
 -13439674.71548 -10449939.27748  20476485.9224                   20476488.0824
        52.2504         52.0004
  13918168.99647  10852124.98844  23177119.6094                   23177122.9414
        42.2504         25.7504
   2940472.47746   2312979.59445  24395255.8204                   24395261.0084
        36.7504         31.5004
  -1189878.86348   -894287.29748  21231423.3054                   21231425.8754
        50.5004         48.5004
 05 12 22 19 51  0.0000000  0 10G18G02G28G27G08G31G32G23G24G10
  19459991.83246  15171169.80143  24667514.3594                   24667522.7384
        36.0004         19.2504
  -7158335.55547  -5251254.78945  22877744.5634                   22877744.1294
        44.5004         30.2504
  -5257325.41447  -4060231.84844  22972378.9384                   22972381.8524
        43.0004         27.0004
   5469894.39846   4296493.02346  23004722.0864                   23004727.6484
        41.2504         38.0004
  -9063914.62147  -7012507.36746  22732501.1094                   22732506.7734
        42.5004         37.2504
  10206955.85245   7990788.67644  24889082.6484                   24889092.1414
        34.7504         27.2504
 -13472729.21548 -10475696.03148  20470195.9224                   20470198.0314
        52.2504         52.0004
  13940467.77746  10869500.55544  23181363.5864                   23181366.3754
        41.5004         25.5004
   2979930.69946   2343726.22744  24402763.3364                   24402769.7344
        36.5004         29.5004
  -1215344.95348   -914131.03148  21226577.4384                   21226579.7274
        50.2504         48.5004
 05 12 22 19 51 30.0000000  0 10G18G02G28G27G08G31G32G23G24G10
  19523243.85245  15220456.74243  24679551.3914                   24679559.8244
        35.5004         18.2504
  -7280417.49647  -5346383.53145  22854513.3594                   22854512.8834
        45.2504         30.2504
  -5396796.26647  -4168910.30944  22945837.6414                   22945841.4224
        43.2504         29.0004
   5507623.03546   4325891.82046  23011901.3364                   23011907.0124
        41.5004         37.7504
  -9072376.03947  -7019100.74646  22730890.5944                   22730896.1254
        43.0004         36.7504
  10051178.02346   7869403.82044  24859438.3364                   24859448.5394
        36.0004         26.5004
 -13505348.55548 -10501113.70748  20463988.6484                   20463990.6844
        52.7504         52.2504
  13962883.88346  10886967.55944  23185628.7664                   23185632.0944
        41.5004         26.0004
   3019817.28545   2374806.60244  24410354.0634                   24410359.5354
        34.5004         27.0004
  -1240634.08248   -933836.87148  21221764.9224                   21221767.5234
        50.7504         48.2504
 05 12 22 19 52  0.0000000  0 10G18G02G28G27G08G31G32G23G24G10
  19586652.50846  15269865.69942  24691617.6254                   24691626.6644
        36.0004         16.7504
  -7402264.59847  -5441329.28545  22831326.2814                   22831325.5904
        45.0004         30.2504
  -5536058.20747  -4277426.00044  22919337.6094                   22919340.9224
        42.5004         27.5004
   5545597.14547   4355481.89546  23019128.1484                   23019133.4844
        42.0004         38.0004
  -9080370.14147  -7025329.99646  22729369.8524                   22729375.4414
        43.0004         36.7504
   9895307.91846   7747947.06344  24829776.8594                   24829786.1604
        37.0004         25.2504
 -13537535.48048 -10526194.43448  20457863.7274                   20457865.4184
        52.7504         52.0004
  13985416.05146  10904524.98844  23189916.9064                   23189920.4844
        41.0004         26.5004
   3060128.23046   2406217.68845  24418025.8284                   24418030.5124
        37.0004         30.0004
  -1265747.44148   -953405.75448  21216986.2894                   21216988.7464
        50.7504         48.5004
 05 12 22 19 52 30.0000000  0 10G18G02G28G27G08G31G32G23G24G10
  19650219.40245  15319397.94143  24703714.3134                   24703722.7114
        34.7504         18.2504
  -7523870.97347  -5536087.44944  22808185.5554                   22808184.5124
        46.0004         29.7504
  -5675104.59047  -4385773.69544  22892878.0554                   22892881.2854
        43.2504         28.5004
   5583817.18446   4385263.59846  23026400.7894                   23026406.1454
        41.2504         37.7504
  -9087895.42247  -7031193.93046  22727937.4144                   22727943.2384
        43.0004         37.2504
   9739351.27746   7626422.89844  24800098.8674                   24800108.1804
        36.2504         24.5004
 -13569287.79748 -10550936.50048  20451821.5784                   20451823.4654
        52.2504         52.0004
  14008067.95346  10922175.73044  23194227.6094                   23194230.9144
        41.5004         25.7504
   3100864.18846   2437959.97345  24425776.9064                   24425782.1914
        38.2504         32.7504
  -1290681.14148   -972834.63748  21212241.3204                   21212243.5394
        49.7504         48.5004
 05 12 22 19 53  0.0000000  0 10G18G02G28G27G08G31G32G23G24G10
  19713941.49645  15369051.16043  24715840.7664                   24715849.3484
        35.7504         19.7504
  -7645235.87547  -5630657.46945  22785090.5704                   22785089.9184
        46.0004         30.5004
  -5813933.56647  -4493952.01644  22866458.8984                   22866462.7584
        43.5004         27.7504
   5622278.85547   4415233.59046  23033719.8984                   23033725.8204
        42.2504         37.2504
  -9094955.08247  -7036695.03946  22726594.1644                   22726600.2274
        43.0004         37.0004
   9583309.92246   7504832.73044  24770404.6094                   24770414.0984
        36.0004         25.5004
 -13600608.05148 -10575341.89548  20445861.3524                   20445863.3244
        53.2504         52.0004
  14030838.50446  10939918.91844  23198561.1024                   23198563.8674
        41.7504         26.0004
   3142021.51246   2470030.60245  24433609.4144                   24433614.8324
        39.7504         34.5004
  -1315436.06248   -992124.21148  21207530.7894                   21207533.0084
        50.5004         48.2504
 05 12 22 19 53 30.0000000  0 10G18G02G28G27G08G31G32G23G24G10
  19777815.29345  15418822.56643  24727995.0004                   24728004.3714
        33.0004         19.0004
  -7766358.68047  -5725038.83645  22762041.5634                   22762040.9454
        45.5004         31.0004
  -5952543.75847  -4601959.86344  22840082.3984                   22840086.0434
        43.2504         27.7504
   5660977.39547   4445388.14546  23041084.3914                   23041089.9774
        42.0004         37.5004
  -9101552.78147  -7041836.17646  22725339.2504                   22725344.9104
        42.5004         36.7504
   9427184.40246   7383176.91844  24740695.5864                   24740704.0084
        37.0004         26.2504
 -13631499.19148 -10599412.91448  20439982.9844                   20439985.1024
        52.7504         52.0004
  14053726.16046  10957753.34444  23202916.7974                   23202919.6454
        40.7504         24.0004
   3183595.72346   2502426.05545  24441520.8284                   24441525.9024
        39.0004         32.7504
  -1340013.55148  -1011275.52748  21202853.5314                   21202855.9384
        51.5004         48.5004
 05 12 22 19 54  0.0000000  0 10G18G02G28G27G08G31G32G23G24G10
  19841839.01646  15468710.71143  24740179.4534                   24740188.5434
        36.0004         20.0004
  -7887237.33647  -5819229.95745  22739038.8284                   22739038.3204
        45.2504         31.0004
  -6090932.00047  -4709794.75044  22813747.9064                   22813751.5594
        43.5004         27.7504
   5699909.73047   4475724.88346  23048492.8674                   23048498.7934
        42.5004         37.0004
  -9107690.70347  -7046619.05546  22724171.0394                   22724176.9144
        43.0004         37.2504
   9270977.42645   7261457.63344  24710968.9304                   24710978.4964
        35.7504         24.2504
 -13661962.65248 -10623150.67248  20434186.1484                   20434187.8204
        53.2504         52.0004
  14076731.12546  10975679.16844  23207294.4304                   23207296.8754
        41.7504         25.0004
   3225584.25046   2535144.31645  24449510.9694                   24449516.1844
        37.0004         32.7504
  -1364413.26248  -1030288.31248  21198210.4924                   21198212.8284
        50.7504         48.5004
 05 12 22 19 54 30.0000000  0 11G18G02G28G27G08G31G32G23G24G01G10
  19906011.78545  15518715.09443  24752390.7974                   24752401.1994
        35.7504         19.2504
  -8007868.53947  -5913228.24645  22716083.5704                   22716083.1844
        44.5004         30.7504
  -6229094.15247  -4817453.46544  22787456.1254                   22787459.8874
        43.0004         28.2504
   5739073.85947   4506242.24646  23055945.9774                   23055951.4224
        42.2504         37.2504
  -9113369.76647  -7051044.37546  22723089.9384                   22723096.2274
        42.5004         36.5004
   9114692.73046   7139677.78144  24681228.8674                   24681237.8834
        36.0004         25.0004
 -13691998.66848 -10646555.35948  20428470.3284                   20428472.1374
        52.5004         52.0004
  14099854.52347  10993697.30544  23211694.7894                   23211697.7154
        42.5004         26.0004
   3267985.43446   2568184.14845  24457579.4144                   24457584.6804
        38.2504         31.0004
  12386879.65255   9708970.70752  24965801.4694                   24965807.1564
        33.7504         14.7504
  -1388633.81248  -1049161.50048  21193601.7344                   21193603.9694
        51.2504         48.2504
 05 12 22 19 55  0.0000000  0 11G18G02G28G27G08G31G32G23G24G01G10
  19970324.98045  15568828.91043  24764629.7114                   24764639.9534
        34.2504         18.2504
  -8128256.84047  -6007037.26245  22693174.4144                   22693173.9804
        44.7504         31.0004
  -6367034.13347  -4924939.06244  22761207.7114                   22761210.6454
        43.2504         29.0004
   5778459.70746   4536932.37146  23063440.6254                   23063446.4804
        41.5004         36.5004
  -9118599.03547  -7055119.19946  22722095.1804                   22722100.9494
        42.7504         36.7504
   8958326.02746   7017833.97744  24651473.2034                   24651481.9694
        36.2504         24.2504
 -13721615.60948 -10669633.49248  20422834.4304                   20422836.5944
        52.5004         52.0004
  14123089.53947  11011802.40644  23216115.8984                   23216118.5664
        42.2504         24.7504
   3310789.62946   2601538.03545  24465724.7734                   24465730.2734
        39.5004         31.7504
  12238976.93046   9593721.96542  24937656.2894                   24937661.7894
        36.0004         17.7504
  -1412681.78148  -1067900.20748  21189025.4224                   21189027.8324
        51.0004         48.2504
 05 12 22 19 55 30.0000000  0 11G18G02G28G27G08G31G32G23G24G01G10
  21610185.52345  16846641.86342  25076684.5234                   25076696.0864
        32.5004         16.2504
  -6672986.03947  -4873059.95745  22970103.5164                   22970102.5004
        45.0004         30.0004
  -4929333.25447  -3804652.54744  23034793.0164                   23034795.8204
        43.5004         28.2504
   7393473.87547   5795384.82446  23370767.4534                   23370773.2704
        42.5004         37.2504
  -7547969.46547  -5831252.09446  23020976.1414                   23020981.9884
        42.5004         36.0004
  10377296.21545   8123525.41844  24921494.3594                   24921503.0204
        35.0004         25.5004
 -12175402.84448  -9464792.37548  20717068.8284                   20717070.6414
        52.0004         52.0004
  15721846.57047  12257586.97344  23520349.2504                   23520352.8404
        42.0004         24.5004
   4929403.73846   3862795.78545  24773737.1804                   24773741.7274
        40.0004         32.7504
  13666498.73845  10706076.75042  25209304.2894                   25209310.1684
        34.7504         16.7504
    138854.99648    141089.45748  21484273.3914                   21484275.7814
        50.7504         48.5004
 05 12 22 19 56  0.0000000  0 11G18G02G28G27G08G31G32G23G24G01G10
  21674760.25856  16896959.44553  25088973.6954                   25088984.6334
        37.0004         18.5004
  -6792896.60547  -4966496.69945  22947285.1804                   22947284.3524
        43.7504         30.7504
  -5066833.11747  -3911795.19144  23008627.3134                   23008630.0044
        43.0004         29.2504
   7433280.36747   5826402.73046  23378342.4384                   23378348.9734
        42.2504         37.5004
  -7552319.02747  -5834641.43746  23020148.2664                   23020154.2774
        42.2504         36.5004
  10220760.25445   8001549.70344  24891705.9694                   24891714.9534
        34.5004         24.7504
 -12204199.25448  -9487231.12548  20711589.0704                   20711590.8244
        52.7504         52.0004
  15745291.76246  12275855.84844  23524810.5634                   23524814.0394
        41.7504         26.2504
   4972992.33646   3896760.91845  24782031.4774                   24782036.9454
        39.5004         32.0004
  13518601.14845  10590831.89542  25181160.6724                   25181166.4774
        35.0004         16.2504
    115139.77348    122610.04348  21479760.5164                   21479762.8054
        50.5004         48.2504
