     2.11           OBSERVATION DATA    G (GPS)             RINEX VERSION / TYPE
teqc  2019Feb25     K Rivera            20250725 01:43:59UTCPGM / RUN BY / DATE
Linux 2.6.32-573.12.1.x86_64|x86_64|gcc -static|Linux 64|=+ COMMENT
teqc  2019Feb25                         20250725 01:41:11UTCCOMMENT
BIT 2 OF LLI FLAGS DATA COLLECTED UNDER A/S CONDITION       COMMENT
RAIN                                                        MARKER NAME
                                                            MARKER NUMBER
K Baraggiotta       University of California, Riverside     OBSERVER / AGENCY
0220413523          TRIMBLE R7          2.32                REC # / TYPE / VERS
1441040465          TRM57971.00                             ANT # / TYPE
 -2392436.0681 -4653677.1783  3636005.9935                  APPROX POSITION XYZ
        0.9444        0.0000        0.0000                  ANTENNA: DELTA H/E/N
     1     1                                                WAVELENGTH FACT L1/2
     7    L1    L2    C1    P1    P2    S1    S2            # / TYPES OF OBSERV
    18                                                      LEAP SECONDS
 SNR is mapped to RINEX snr flag value [0-9]                COMMENT
  L1 & L2: min(max(int(snr_dBHz/6), 0), 9)                  COMMENT
  2025     7    15     0     0   30.0000000     GPS         TIME OF FIRST OBS
                                                            END OF HEADER
 25  7 15  0  0 30.0000000  0 10G03G10G02G28G25G04G31G01G26G32
 -34021180.37957 -26468561.55157  21633672.4304                   21633669.8324
        45.5004         43.5004
 -38131924.14156 -29676012.34055  23966962.2194                   23966962.8794
        40.5004         34.0004
 -57433478.46957 -44713295.26256  21741238.3444                   21741231.8164
        47.0004         36.2504
 -58685691.36757 -45689103.41856  21165901.0164                   21165895.8244
        46.7504         37.0004
 -11207959.83655 -12602641.71954  24296702.0234                   24296703.0514
        35.0004         27.2504
 -20343660.61356 -15805514.79354  23235058.5474                   23235056.7894
        39.2504         25.2504
 -55911596.63758 -43522750.04758  19997690.2664                   19997684.0594
        48.7504         49.2504
 -47836472.13757 -37232303.14856  20972244.4534                   20972239.3554
        46.2504         36.7504
 -17763299.40256 -13792473.33255  23435413.9384                   23435414.3554
        38.7504         32.5004
 -52442644.60957 -40755691.33256  23328084.5634                   23328082.4694
        43.2504         38.2504
 25  7 15  0  1  0.0000000  0 10G03G10G02G28G25G04G31G01G26G32
 -32619775.28947 -25376557.54747  21900350.6804                   21900347.9924
        46.0004         43.0004
 -36566854.31246 -28456477.53945  24264785.1724                   24264785.5004
        38.5004         32.5004
 -55901286.65647 -43519379.61346  22032804.8674                   22032798.4534
        46.5004         37.2504
 -57153570.84047 -44495243.28946  21457453.7814                   21457448.8244
        46.5004         36.5004
  -9701376.11346 -11428680.45744  24583397.3674                   24583396.2154
        37.5004         26.0004
 -18932503.16446 -14705911.43744  23503592.6884                   23503590.7664
        39.0004         26.0004
 -54443651.91448 -42378897.00848  20277030.7584                   20277024.7704
        49.0004         49.2504
 -46362232.20347 -36083544.77346  21252782.6094                   21252777.9694
        46.2504         36.0004
 -16371516.10246 -12707966.76245  23700261.4534                   23700261.2624
        38.7504         32.5004
 -50893879.94547 -39548861.76246  23622804.1884                   23622802.7074
        43.0004         38.7504
 25  7 15  0  1 30.0000000  0 10G03G10G02G28G25G04G31G01G26G32
 -32793587.10547 -25511995.29747  21867275.7734                   21867272.7584
        45.2504         43.5004
 -36576933.25846 -28464331.41445  24262867.6484                   24262868.7814
        40.0004         33.0004
 -55944055.46147 -43552705.99646  22024666.7194                   22024660.1214
        47.0004         36.7504
 -57196357.59047 -44528583.62146  21449311.5944                   21449306.4964
        46.2504         37.0004
  -9769625.06645 -11481861.32044  24570409.0634                   24570408.2624
        35.0004         26.5004
 -19096587.17246 -14833768.98444  23472368.5554                   23472366.8244
        39.0004         25.5004
 -54550457.44948 -42462122.09448  20256706.3204                   20256700.5824
        48.2504         49.2504
 -46462776.18447 -36161890.73446  21233649.7194                   21233645.2664
        46.0004         36.2504
 -16554993.84046 -12850936.28945  23665347.1414                   23665346.7544
        40.0004         33.0004
 -50920465.38347 -39569577.76646  23617745.0944                   23617743.4534
        44.7504         38.5004
 25  7 15  0  2  0.0000000  0 10G03G10G02G28G25G04G31G01G26G32
 -32967200.92247 -25647278.75047  21834237.9924                   21834235.3244
        45.7504         43.0004
 -36586754.19146 -28471984.22345  24260997.9144                   24260999.2814
        38.2504         31.7504
 -55986378.73447 -43585685.21146  22016612.5314                   22016606.0234
        47.0004         36.5004
 -57238645.28947 -44561535.08246  21441264.8284                   21441259.4804
        46.0004         36.7504
  -9837297.50845 -11534593.18043  24557531.4304                   24557531.2624
        33.5004         23.5004
 -19260500.30546 -14961493.36744  23441176.8284                   23441175.0634
        38.7504         25.0004
 -54656602.90648 -42544832.82848  20236507.4844                   20236501.7114
        48.5004         49.2504
 -46562693.49647 -36239748.39146  21214636.1884                   21214631.5944
        46.7504         36.5004
 -16738316.23846 -12993784.77345  23630461.5704                   23630461.8754
        40.5004         34.0004
 -50946993.33647 -39590248.94946  23612697.6724                   23612695.7464
        44.0004         39.0004
 25  7 15  0  2 30.0000000  0 10G03G10G02G28G25G04G31G01G26G32
 -33140612.09847 -25782404.31647  21801238.5554                   21801236.3284
        45.5004         43.5004
 -36596315.44546 -28479434.65245  24259178.6094                   24259179.0904
        39.5004         31.7504
 -56028255.28147 -43618316.33246  22008644.2194                   22008636.7194
        47.0004         36.7504
 -57280433.42647 -44594097.28146  21433312.6484                   21433307.6414
        45.5004         37.0004
  -9904391.48445 -11586874.22344  24544762.2114                   24544764.6254
        34.2504         25.0004
 -19424239.92246 -15089082.56244  23410017.4144                   23410016.4574
        39.0004         25.7504
 -54762085.16048 -42627026.78548  20216435.1024                   20216429.2734
        48.2504         49.2504
 -46661981.25447 -36317115.48846  21195742.3984                   21195738.1134
        45.7504         36.2504
 -16921477.34046 -13136507.59845  23595607.5784                   23595607.4614
        41.2504         33.7504
 -50973461.41047 -39610873.47746  23607660.9534                   23607658.5234
        42.5004         38.0004
 25  7 15  0  3  0.0000000  0 10G03G10G02G28G25G04G31G01G26G32
 -33313817.41447 -25917369.46547  21768278.6644                   21768276.5004
        45.5004         43.5004
 -36605616.26246 -28486682.22345  24257409.1884                   24257408.9064
        39.7504         32.5004
 -56069686.23047 -43650600.23046  22000759.5314                   22000753.4964
        46.5004         36.5004
 -57321722.93747 -44626270.93746  21425455.4454                   21425450.2934
        46.2504         37.2504
  -9970905.99646 -11638703.82844  24532109.2114                   24532105.4534
        40.0004         26.0004
 -19587804.92246 -15216535.65644  23378892.0634                   23378890.6764
        40.0004         24.5004
 -54866903.51647 -42708703.42248  20196488.7974                   20196482.6604
        47.5004         49.2504
 -46760638.18447 -36393991.02346  21176968.8834                   21176963.6644
        47.2504         36.2504
 -17104472.80946 -13279101.33645  23560784.2194                   23560783.8284
        40.2504         33.0004
 -50999868.76647 -39631450.68046  23602635.4774                   23602634.3164
        43.0004         38.5004
 25  7 15  0  3 30.0000000  0 10G03G10G02G28G25G04G31G01G26G32
 -33486812.94547 -26052171.14847  21735358.5784                   21735356.0084
        46.2504         43.5004
 -36614655.67646 -28493726.12145  24255688.6094                   24255689.7934
        37.2504         31.0004
 -56110671.32847 -43682536.71946  21992960.6484                   21992954.4574
        46.5004         37.0004
 -57362514.09047 -44658056.26646  21417693.2504                   21417688.1524
        46.2504         36.2504
 -10036839.80146 -11690080.76244  24519560.5554                   24519559.1484
        39.0004         26.2504
 -19751193.34446 -15343851.20744  23347801.0554                   23347798.6094
        40.5004         26.0004
 -54971055.98047 -42789861.18048  20176669.3284                   20176663.2894
        47.7504         49.5004
 -46858662.20747 -36470373.38746  21158315.3364                   21158310.6954
        46.5004         36.5004
 -17287297.37546 -13421561.89545  23525993.1254                   23525993.8444
        40.2504         33.5004
 -51026213.73447 -39651979.28546  23597622.1884                   23597620.1604
        44.5004         38.5004
 25  7 15  0  4  0.0000000  0 10G03G10G02G28G25G04G31G01G26G32
 -33659597.89847 -26186808.74247  21702478.7344                   21702476.2304
        46.5004         43.5004
 -36623435.69146 -28500567.88745  24254019.5164                   24254020.3674
        38.2504         32.7504
 -56151213.73047 -43714128.23846  21985245.8134                   21985239.1914
        46.0004         36.5004
 -57402810.30147 -44689455.92246  21410025.2274                   21410019.8594
        45.7504         36.2504
 -10102194.44146 -11741006.45344  24507124.6094                   24507122.2624
        39.0004         24.2504
 -19914406.57446 -15471030.20744  23316741.5784                   23316740.5474
        40.7504         26.0004
 -55074544.00047 -42870501.18448  20156975.9774                   20156969.8954
        47.7504         49.2504
 -46956054.49647 -36546263.49246  21139781.8984                   21139777.8364
        45.7504         36.2504
 -17469949.10546 -13563887.84045  23491235.5864                   23491236.4884
        40.2504         33.7504
 -51052497.90647 -39672460.50446  23592620.7894                   23592619.6054
        43.7504         38.7504
 25  7 15  0  4 30.0000000  0 10G03G10G02G28G25G04G31G01G26G32
 -33832159.86747 -26321272.58647  21669641.3134                   21669638.8204
        46.5004         43.7504
 -36631946.74246 -28507199.98045  24252399.1174                   24252400.3284
        36.7504         31.2504
 -56191305.47347 -43745368.60246  21977616.4774                   21977610.0274
        45.7504         36.5004
 -57442603.45347 -44720463.58246  21402452.7504                   21402447.7544
        46.0004         37.2504
 -10166960.19145 -11791473.35244  24494799.2734                   24494799.0864
        35.5004         26.0004
 -20077434.35946 -15598064.74244  23285718.7814                   23285717.1994
        40.5004         26.5004
 -55177357.22347 -42950615.37548  20137411.6484                   20137405.0864
        47.7504         49.2504
 -47052804.69547 -36621653.27346  21121371.3984                   21121366.2194
        46.0004         36.2504
 -17652414.39146 -13706068.47745  23456513.9614                   23456513.3714
        39.7504         33.0004
 -51078711.23047 -39692886.52746  23587632.9384                   23587630.4734
        43.5004         38.0004
 25  7 15  0  5  0.0000000  0 10G03G10G02G28G25G04G31G01G26G32
 -34004497.82047 -26455561.86747  21636846.6414                   21636843.8404
        46.0004         43.5004
 -36640190.56646 -28513623.96945  24250830.8834                   24250832.2424
        39.7504         33.5004
 -56230949.57847 -43776260.16046  21970072.2504                   21970065.6844
        46.2504         36.5004
 -57481896.65647 -44751081.68746  21394975.2584                   21394970.3674
        45.7504         36.2504
 -10231138.48846 -11841482.49244  24482587.6414                   24482586.9064
        36.0004         26.5004
 -20240277.71946 -15724955.53944  23254730.5944                   23254728.6024
        40.5004         27.0004
 -55279497.02747 -43030204.82848  20117974.7504                   20117968.9184
        47.2504         49.5004
 -47148913.72747 -36696543.43746  21103082.2424                   21103077.4104
        46.2504         36.5004
 -17834690.88746 -13848102.00445  23421828.2424                   23421827.6804
        39.5004         33.5004
 -51104854.94547 -39713258.28946  23582657.1254                   23582655.7584
        44.2504         38.0004
 25  7 15  0  5 30.0000000  0 10G03G10G02G28G25G04G31G01G26G32
 -34176606.20747 -26589672.26247  21604095.6484                   21604093.0084
        46.2504         44.0004
 -36648164.43046 -28519837.53145  24249313.2034                   24249314.4494
        37.0004         30.5004
 -56270144.52747 -43806801.71946  21962613.7344                   21962607.5474
        46.2504         36.2504
 -57520688.68447 -44781309.25046  21387593.5864                   21387588.4534
        45.5004         36.7504
 -10294726.56646 -11891031.62544  24470486.9144                   24470487.0904
        39.2504         28.0004
 -20402933.28546 -15851700.00444  23223778.3284                   23223776.2774
        40.7504         25.2504
 -55380960.05547 -43109266.92648  20098666.9694                   20098660.9494
        47.5004         49.2504
 -47244378.08247 -36770931.26246  21084916.1254                   21084911.1374
        46.5004         36.0004
 -18016771.95346 -13989983.24645  23387179.1094                   23387179.1994
        40.0004         34.5004
 -51130925.69147 -39733573.22746  23577697.2734                   23577695.0164
        45.2504         38.5004
 25  7 15  0  6  0.0000000  0 10G03G10G02G28G25G04G31G01G26G32
 -34348477.85547 -26723598.19547  21571389.3054                   21571386.6294
        46.2504         43.7504
 -36655864.07846 -28525837.39845  24247849.4064                   24247848.8554
        39.5004         32.2504
 -56308886.93447 -43836990.65645  21955241.6564                   21955235.0234
        45.5004         35.5004
 -57558976.62147 -44811144.03146  21380307.7974                   21380302.6954
        45.5004         36.7504
 -10357719.69146 -11940117.26244  24458498.2344                   24458498.2344
        36.5004         24.2504
 -20565395.95746 -15978294.17644  23192862.4534                   23192860.4964
        40.7504         24.5004
 -55481741.46947 -43187797.89148  20079488.8524                   20079482.7114
        47.7504         49.2504
 -47339192.66847 -36844812.76246  21066873.4774                   21066868.6054
        46.5004         36.2504
 -18198649.17646 -14131705.66845  23352568.4924                   23352568.5044
        40.2504         34.2504
 -51156918.79747 -39753827.67246  23572750.7894                   23572748.2194
        44.2504         37.5004
 25  7 15  0  6 30.0000000  0 10G03G10G02G28G25G04G31G01G26G32
 -34520103.11747 -26857332.13747  21538729.9614                   21538727.2034
        46.2504         44.0004
 -36663282.72746 -28531618.39145  24246437.4924                   24246437.4344
        38.5004         31.2504
 -56347171.48047 -43866822.81645  21947956.1804                   21947949.6994
        45.7504         35.2504
 -57596755.14547 -44840581.84846  21373118.6644                   21373113.3594
        46.0004         36.5004
 -10420111.10546 -11988733.91444  24446627.6954                   24446626.5434
        38.2504         26.5004
 -20727658.25446 -16104732.21944  23161984.5394                   23161982.8554
        40.5004         27.2504
 -55581833.93047 -43265792.01248  20060441.6884                   20060436.3404
        47.7504         49.2504
 -47433349.93747 -36918182.07046  21048955.7894                   21048950.9144
        46.5004         36.5004
 -18380311.69146 -14273260.74645  23317999.6414                   23317999.5394
        39.7504         34.5004
 -51182826.90647 -39774015.84046  23567820.7114                   23567819.1214
        43.7504         37.7504
 25  7 15  0  7  0.0000000  0 10G03G10G02G28G25G04G31G01G26G32
 -34691485.96147 -26990877.18047  21506116.9224                   21506114.3164
        46.0004         44.5004
 -36670427.15646 -28537185.69144  24245078.9774                   24245078.1294
        39.0004         29.5004
 -56385006.59047 -43896304.77045  21940756.4844                   21940750.0634
        46.0004         35.2504
 -57634032.46547 -44869629.12146  21366024.9534                   21366020.0394
        46.0004         37.0004
 -10481907.23446 -12036886.74644  24434866.9774                   24434868.1334
        36.2504         27.0004
 -20889726.25046 -16231018.85244  23131144.1254                   23131142.5664
        40.7504         26.5004
 -55681243.84847 -43343254.28148  20041524.6564                   20041518.9024
        47.0004         49.5004
 -47526855.95747 -36991043.91846  21031162.1724                   21031157.8284
        46.5004         36.0004
 -18561762.27046 -14414650.69545  23283470.0634                   23283470.8444
        40.0004         35.2504
 -51208656.26247 -39794142.66446  23562905.3594                   23562902.4144
        44.7504         38.0004
 25  7 15  0  7 30.0000000  0 10G03G10G02G28G25G04G31G01G26G32
 -34862622.76647 -27124230.49647  21473550.6334                   21473548.0434
        46.2504         44.0004
 -36677296.85946 -28542538.83245  24243770.9064                   24243771.5984
        37.7504         31.2504
 -56422392.37547 -43925436.59446  21933642.3444                   21933636.2194
        46.0004         36.0004
 -57670809.31647 -44898286.42246  21359026.7504                   21359021.5164
        45.2504         36.5004
 -10543107.28546 -12084575.17244  24423220.2894                   24423221.5314
        37.2504         25.7504
 -21051598.55546 -16357153.01244  23100340.1884                   23100338.8244
        41.2504         26.7504
 -55779969.81247 -43420183.59848  20022737.8594                   20022731.9534
        46.2504         49.5004
 -47619709.37147 -37063397.23446  21013492.6564                   21013488.0204
        46.7504         36.0004
 -18742996.11346 -14555871.78145  23248982.0394                   23248982.9414
        40.2504         35.5004
 -51234405.59847 -39814207.15646  23558005.3984                   23558003.8484
        44.0004         37.5004
 25  7 15  0  8  0.0000000  0 10G03G10G02G28G25G04G31G01G26G32
 -35033514.69147 -27257393.00447  21441031.5784                   21441028.0744
        46.5004         44.5004
 -36683895.79346 -28547681.09844  24242515.2664                   24242515.2974
        37.7504         28.0004
 -56459334.47747 -43954222.69945  21926612.4534                   21926606.1684
        45.7504         35.5004
 -57707091.24647 -44926558.06646  21352122.5164                   21352117.4144
        46.5004         36.2504
 -10603715.30946 -12131802.28144  24411688.5554                   24411688.3674
        37.7504         27.0004
 -21213278.44546 -16483137.21144  23069574.1254                   23069571.8484
        41.5004         27.0004
 -55878015.57447 -43496582.88348  20004080.3594                   20004074.8094
        46.7504         49.2504
 -47711913.52747 -37135244.62946  20995947.1724                   20995942.4534
        46.5004         36.5004
 -18924013.25446 -14696923.98445  23214536.2894                   23214535.8094
        41.0004         33.7504
 -51260078.37147 -39834211.95346  23553119.5474                   23553117.4734
        44.5004         36.7504
 25  7 15  0  8 30.0000000  0 10G03G10G02G28G25G04G31G01G26G32
 -35204158.08247 -27390361.85547  21408558.3834                   21408556.1844
        46.2504         44.5004
 -36690223.24246 -28552611.69144  24241310.4844                   24241311.0204
        38.2504         27.5004
 -56495833.43047 -43982663.48845  21919667.0704                   21919660.7074
        46.5004         34.7504
 -57742878.92647 -44954444.58246  21345312.4844                   21345307.4064
        46.2504         36.7504
 -10663730.25446 -12178567.18444  24400269.1954                   24400267.3554
        38.5004         26.5004
 -21374764.50046 -16608970.41844  23038844.2344                   23038842.2344
        41.7504         26.2504
 -55975379.89148 -43572451.17648  19985552.5944                   19985546.5164
        48.0004         49.5004
 -47803467.00847 -37206585.02346  20978525.2034                   20978519.8874
        47.2504         36.5004
 -19104808.79746 -14837803.50045  23180132.0784                   23180131.8754
        41.0004         35.0004
 -51285673.32447 -39854156.12946  23548248.8674                   23548247.7544
        44.7504         37.0004
 25  7 15  0  9  0.0000000  0 10G03G10G02G28G25G04G31G01G26G32
 -33799129.26247 -26295534.17247  21675926.6174                   21675924.3874
        46.7504         45.0004
 -35120863.91046 -27329734.50045  24539949.8134                   24539952.3444
        38.0004         31.7504
 -54956474.18747 -42783162.81245  22212597.3524                   22212591.0784
        46.7504         35.0004
 -56202757.52347 -43754349.99646  21638387.6414                   21638382.8094
        46.0004         36.7504
  -9147735.10546 -10997272.31243  24688752.1254                   24688751.3794
        36.5004         22.7504
 -19960635.49247 -15507051.56244  23307944.3914                   23307941.7234
        42.0004         26.5004
 -54496644.07048 -42420189.48848  20266946.7664                   20266940.3834
        48.5004         49.5004
 -46318951.05547 -36049819.34046  21261019.2504                   21261014.3754
        46.7504         36.7504
 -17709957.50846 -13750906.29345  23445563.1484                   23445563.6684
        41.5004         35.5004
 -49735773.80947 -38646442.29346  23843185.9924                   23843183.4844
        45.0004         37.2504
 25  7 15  0  9 30.0000000  0 10G03G10G02G28G25G04G31G01G26G32
 -33969275.69547 -26428115.78147  21643548.9694                   21643546.3914
        47.0004         45.0004
 -35126657.38746 -27334249.10244  24538847.8134                   24538847.9104
        38.7504         27.7504
 -54992099.58247 -42810922.91045  22205818.2274                   22205811.4924
        47.0004         35.0004
 -56237570.00047 -43781476.60946  21631763.2114                   21631758.0864
        46.5004         37.5004
  -9206572.79346 -11043119.81244  24677555.5784                   24677554.4884
        36.7504         24.2504
 -20121740.52746 -15632587.85244  23277286.9534                   23277284.5514
        41.7504         26.0004
 -54592653.31247 -42495001.87948  20248676.3134                   20248670.2544
        47.0004         49.5004
 -46409210.19547 -36120151.15646  21243843.1954                   21243838.4734
        47.7504         36.5004
 -17890306.41446 -13891437.81645  23411243.3284                   23411243.6914
        40.0004         35.0004
 -49761220.05947 -38666270.59046  23838343.3054                   23838340.9024
        43.0004         37.0004
 25  7 15  0 10  0.0000000  0 10G03G10G02G28G25G04G31G01G26G32
 -34139173.67247 -26560503.79347  21611218.3754                   21611215.7074
        47.2504         45.0004
 -35132188.36346 -27338559.18745  24537796.4224                   24537796.5124
        39.7504         30.0004
 -55027294.39847 -42838347.49245  22199120.8984                   22199114.3594
        46.2504         35.2504
 -56271901.40247 -43808228.37146  21625230.3444                   21625224.9964
        45.2504         36.7504
  -9264826.14846 -11088512.03144  24666469.5164                   24666471.6804
        37.5004         28.0004
 -20282658.26247 -15757978.19144  23246664.9614                   23246662.9024
        42.0004         27.2504
 -54687988.86747 -42569289.31648  20230534.7894                   20230528.7734
        46.2504         49.5004
 -46498825.64848 -36189981.37946  21226790.0394                   21226785.1724
        48.0004         36.5004
 -18070430.30946 -14031793.97345  23376967.1174                   23376966.3244
        41.0004         33.5004
 -49786595.43746 -38686043.63746  23833514.0634                   23833512.6414
        41.2504         36.2504
 25  7 15  0 10 30.0000000  0 10G03G10G02G28G25G04G31G01G26G32
 -34308824.18047 -26692698.96547  21578935.2894                   21578932.7194
        47.5004         44.7504
 -35137460.89546 -27342667.83645  24536791.8284                   24536794.5784
        37.2504         31.0004
 -55062064.18047 -42865440.86745  22192504.2894                   22192498.1914
        46.2504         35.5004
 -56305757.28547 -43834609.59446  21618787.3134                   21618782.5394
        45.2504         37.0004
  -9322499.09446 -11133452.01644  24655493.7274                   24655497.0594
        38.0004         28.7504
 -20443392.06646 -15883225.20744  23216078.1644                   23216076.3834
        41.5004         26.5004
 -54782654.38347 -42643054.64548  20212520.7664                   20212514.8284
        46.7504         49.2504
 -46587800.78947 -36259312.66846  21209858.6564                   21209854.0704
        47.5004         36.7504
 -18250328.97746 -14171974.62945  23342733.5314                   23342733.6174
        41.2504         34.5004
 -49811903.29747 -38705764.12546  23828697.8284                   23828696.6454
        43.0004         37.2504
 25  7 15  0 11  0.0000000  0 10G03G10G02G28G25G04G31G01G26G32
 -34478222.84447 -26824697.89547  21546699.4304                   21546697.1604
        47.0004         45.0004
 -35142473.60946 -27346574.07044  24535839.5554                   24535839.2974
        37.7504         28.7504
 -55096408.83647 -42892202.99245  22185968.9614                   22185962.6804
        46.7504         34.7504
 -56339137.59847 -43860620.24246  21612435.2034                   21612430.3914
        46.0004         36.5004
  -9379590.02346 -11177938.55944  24644631.4774                   24644632.1524
        36.7504         27.0004
 -20603939.70346 -16008327.15244  23185527.2814                   23185524.4694
        41.2504         26.7504
 -54876647.95347 -42716296.37948  20194634.3984                   20194628.3954
        46.2504         49.5004
 -46676133.63748 -36328143.46946  21193049.8054                   21193044.9064
        48.0004         36.5004
 -18429996.95346 -14311975.53545  23308543.4924                   23308543.9494
        40.2504         34.7504
 -49837141.58246 -38725430.36345  23823894.7114                   23823894.1844
        41.7504         35.5004
 25  7 15  0 11 30.0000000  0 10G03G10G02G28G25G04G31G01G26G32
 -34647358.02747 -26956491.52047  21514513.6804                   21514511.5044
        47.2504         45.0004
 -35147218.01246 -27350271.16444  24534935.2114                   24534937.6524
        36.0004         29.7504
 -55130321.29347 -42918628.32845  22179515.4694                   22179509.4964
        46.0004         34.7504
 -56372035.25047 -43886254.79746  21606175.6484                   21606170.1454
        45.0004         36.0004
  -9436090.59446 -11221965.01244  24633879.8914                   24633879.9804
        37.7504         26.5004
 -20764291.78946 -16133276.73044  23155012.5164                   23155010.5944
        41.5004         27.5004
 -54969960.79747 -42789007.67248  20176877.3674                   20176871.4804
        46.7504         49.2504
 -46763815.07447 -36396466.68046  21176364.1254                   21176359.6334
        47.2504         36.5004
 -18609421.43446 -14451786.74645  23274400.2274                   23274400.2274
        39.5004         34.5004
 -49862300.98847 -38745035.19146  23819109.2424                   23819106.2234
        42.5004         36.2504
 25  7 15  0 12  0.0000000  0 10G03G10G02G28G25G04G31G01G26G32
 -34816219.11747 -27088071.56247  21482380.3284                   21482377.9654
        47.5004         45.2504
 -35151686.30146 -27353753.10945  24534085.3054                   24534087.0474
        38.5004         31.0004
 -55163795.03547 -42944711.81645  22173145.7974                   22173139.2154
        45.5004         35.0004
 -56404444.04747 -43911508.42246  21600008.3754                   21600003.4694
        45.5004         36.5004
  -9491992.98845 -11265525.27344  24623240.8204                   24623240.7664
        34.5004         24.0004
 -20924439.91846 -16258067.38344  23124537.7664                   23124535.1294
        41.5004         26.7504
 -55062584.96948 -42861182.34048  20159251.2274                   20159245.2854
        48.7504         49.2504
 -46850836.89547 -36464275.89846  21159804.6334                   21159800.1214
        47.2504         36.5004
 -18788590.62546 -14591398.98845  23240304.8754                   23240304.9104
        39.0004         34.7504
 -49887373.23847 -38764572.09045  23814338.5394                   23814335.0904
        42.5004         35.2504
 25  7 15  0 12 30.0000000  0 10G03G10G02G28G25G04G31G01G26G32
 -34984801.87547 -27219434.72347  21450300.3594                   21450297.9534
        47.5004         45.2504
 -35155877.46946 -27357019.19545  24533287.7114                   24533290.3554
        37.2504         30.5004
 -55196830.22347 -42970453.56645  22166859.4454                   22166852.9414
        45.2504         35.0004
 -56436364.25447 -43936381.32846  21593934.1254                   21593929.3834
        44.7504         36.0004
  -9547296.15246 -11308618.74644  24612717.4144                   24612719.2664
        38.0004         27.5004
 -21084382.14547 -16382697.57844  23094101.8834                   23094099.6024
        42.0004         27.2504
 -55154518.91047 -42932819.17248  20141756.9694                   20141750.8444
        47.5004         49.2504
 -46937197.38348 -36531569.80146  21143370.6564                   21143365.6374
        48.0004         36.5004
 -18967499.19546 -14730808.14845  23206260.1024                   23206259.5864
        39.7504         34.7504
 -49912356.42647 -38784039.53146  23809583.6024                   23809581.8634
        42.0004         36.0004
 25  7 15  0 13  0.0000000  0 10G03G10G02G28G25G04G31G01G26G32
 -35153110.93747 -27350584.60947  21418272.1724                   21418269.7194
        47.5004         45.2504
 -35159799.16446 -27360075.39845  24532543.6884                   24532545.5474
        38.0004         30.7504
 -55229435.60547 -42995860.41045  22160654.7194                   22160648.2854
        45.0004         35.0004
 -56467804.99247 -43960880.62546  21587950.5554                   21587945.8594
        45.5004         36.2504
  -9602007.62955 -11351251.08654  24602304.6414                   24602307.0704
        35.0004         25.0004
 -21244125.35546 -16507172.70344  23063703.3444                   23063700.8914
        41.5004         26.7504
 -55245770.05147 -43003923.94948  20124392.8284                   20124386.6214
        46.7504         49.0004
 -47022903.75448 -36598354.00046  21127061.4384                   21127056.6134
        48.5004         36.2504
 -19146150.66846 -14870016.97745  23172263.6334                   23172264.5984
        40.0004         35.0004
 -49937257.51247 -38803443.01246  23804845.6724                   23804842.4494
        44.7504         36.5004
 25  7 15  0 13 30.0000000  0 10G03G10G02G28G25G04G31G01G26G32
 -35321147.20347 -27481521.93047  21386296.4304                   21386293.4734
        47.5004         45.2504
 -35163455.44946 -27362924.56644  24531847.8524                   24531847.0234
        38.2504         29.2504
 -55261616.84047 -43020936.74645  22154530.6954                   22154524.4804
        45.5004         35.0004
 -56498771.58647 -43985010.45746  21582058.1094                   21582053.1454
        46.0004         36.5004
  -9656131.45746 -11393425.59044  24592008.2584                   24592007.1174
        39.0004         27.7504
 -21403672.61746 -16631495.14144  23033342.5234                   23033339.8284
        40.7504         27.5004
 -55336342.20747 -43074499.64548  20107157.3364                   20107151.2074
        47.0004         49.2504
 -47107959.35547 -36664631.10546  21110875.5944                   21110871.0744
        47.7504         36.5004
 -19324544.69546 -15009025.23045  23138316.9144                   23138316.7504
        40.0004         35.0004
 -49962079.60947 -38822784.99246  23800121.7344                   23800119.8754
        43.2504         36.0004
 25  7 15  0 14  0.0000000  0 10G03G10G02G28G25G04G31G01G26G32
 -35488904.14547 -27612241.59047  21354372.9224                   21354370.1484
        47.7504         45.7504
 -35166842.98846 -27365564.42644  24531201.2664                   24531203.2464
        37.0004         28.7504
 -55293371.93747 -43045681.02745  22148488.2584                   22148482.0084
        45.5004         34.5004
 -56529262.20347 -44008769.40246  21576255.8054                   21576250.8874
        46.2504         36.2504
  -9709664.22745 -11435139.50044  24581819.0084                   24581820.2704
        34.2504         24.5004
 -21563019.84047 -16755661.71544  23003019.1884                   23003017.0664
        42.2504         27.2504
 -55426231.59847 -43144543.31648  20090051.7114                   20090045.8954
        47.0004         49.0004
 -47192360.40648 -36730398.16446  21094814.8594                   21094810.2464
        48.0004         36.2504
 -19502673.80146 -15147827.02345  23104420.0474                   23104418.9264
        39.0004         35.0004
 -49986818.72747 -38842062.25045  23795413.4694                   23795411.6914
        42.5004         35.7504
 25  7 15  0 14 30.0000000  0 10G03G10G02G28G25G04G31G01G26G32
 -35656378.63347 -27742741.16047  21322503.8444                   21322500.9734
        47.0004         45.5004
 -35169961.68046 -27367994.85245  24530610.3444                   24530610.1414
        40.0004         31.7504
 -55324701.85247 -43070094.00045  22142526.2894                   22142520.0164
        45.5004         34.2504
 -56559278.12147 -44032158.44946  21570544.1484                   21570539.1414
        46.2504         36.5004
  -9762605.99246 -11476392.80144  24571746.3524                   24571744.9534
        37.5004         24.5004
 -21722166.03147 -16879671.64144  22972734.8984                   22972732.4024
        42.0004         27.0004
 -55515437.78547 -43214054.62148  20073076.8204                   20073070.6414
        47.5004         49.2504
 -47276106.34447 -36795654.75046  21078878.6644                   21078873.9534
        47.5004         36.0004
 -19680533.64546 -15286418.99645  23070574.1564                   23070573.6054
        39.7504         34.7504
 -50011473.96147 -38861274.18745  23790722.2034                   23790720.5084
        43.2504         35.2504
 25  7 15  0 15  0.0000000  0 10G03G10G02G28G25G04G31G01G26G32
 -35823570.45748 -27873020.46147  21290688.2114                   21290685.1994
        48.0004         45.5004
 -35172814.24246 -27370217.91044  24530068.3594                   24530067.1804
        39.7504         27.0004
 -55355611.41447 -43094179.42645  22136644.2034                   22136638.1844
        44.5004         35.5004
 -56588823.66447 -44055180.97345  21564921.8444                   21564917.0474
        44.5004         35.7504
  -9814959.61745 -11517187.85544  24561782.8754                   24561784.4924
        34.5004         25.0004
 -21881113.27347 -17003526.52744  22942488.3444                   22942486.0274
        42.0004         28.0004
 -55603963.68448 -43283035.82848  20056230.4144                   20056224.6724
        48.0004         49.2504
 -47359199.59848 -36860402.75446  21063066.4614                   21063061.7464
        48.0004         36.5004
 -19858122.90246 -15424800.13345  23036779.8054                   23036779.4414
        39.5004         35.0004
 -50036047.25846 -38880422.29345  23786045.9144                   23786044.1294
        40.2504         34.7504
 25  7 15  0 15 30.0000000  0 10G03G10G02G28G25G04G31G01G26G32
 -35990473.31647 -28003074.60547  21258927.5704                   21258924.8954
        47.5004         45.7504
 -35175397.81246 -27372231.28945  24529575.1334                   24529577.6024
        38.2504         30.2504
 -55386097.98447 -43117935.24245  22130843.0084                   22130837.0434
        46.0004         35.2504
 -56617897.12947 -44077835.64146  21559389.3914                   21559384.3014
        46.5004         36.2504
  -9866722.26245 -11557522.32443  24551930.8364                   24551930.7074
        34.0004         22.5004
 -22039857.59847 -17127223.31244  22912279.8914                   22912277.4734
        42.2504         27.5004
 -55691805.82448 -43351484.24648  20039514.6804                   20039508.6054
        48.0004         49.5004
 -47441636.59047 -36924639.38746  21047378.6564                   21047374.4534
        47.0004         36.5004
 -20035434.15646 -15562964.67646  23003038.6174                   23003039.4774
        40.0004         36.0004
 -50060534.82847 -38899503.55946  23781386.4454                   23781383.8794
        42.5004         36.5004
 25  7 15  0 16  0.0000000  0 10G03G10G02G28G25G04G31G01G26G32
 -36157088.39848 -28132904.50447  21227221.2034                   21227218.9884
        48.0004         45.7504
 -35177716.68046 -27374038.47345  24529133.0704                   24529136.4734
        36.5004         30.2504
 -55416167.28547 -43141365.91045  22125121.1094                   22125115.0234
        44.5004         35.0004
 -56646504.23047 -44100126.91046  21553945.6564                   21553940.8634
        45.0004         36.5004
  -9917898.00045 -11597399.59844  24542193.1724                   24542194.8914
        33.7504         26.0004
 -22198402.49647 -17250764.67644  22882110.4534                   22882107.3444
        42.7504         28.0004
 -55778968.53147 -43419403.23048  20022928.5704                   20022922.3954
        47.2504         49.5004
 -47523421.21547 -36988367.68046  21031815.9534                   21031811.4384
        47.0004         36.2504
 -20212467.50446 -15700912.62945  22969350.5164                   22969350.4964
        41.2504         35.7504
 -50084940.10546 -38918520.70345  23776742.3134                   23776740.1214
        41.0004         35.2504
 25  7 15  0 16 30.0000000  0 10G03G10G02G28G25G04G31G01G26G32
 -36323408.21147 -28262504.32847  21195572.0944                   21195569.1764
        47.5004         45.7504
 -35179766.45746 -27375635.94144  24528744.8984                   24528745.1024
        39.7504         29.2504
 -55445816.82047 -43164469.50045  22119479.1334                   22119473.2504
        45.5004         35.5004
 -56674642.08247 -44122052.53146  21548591.0314                   21548586.1724
        45.7504         36.2504
  -9968482.82446 -11636816.38344  24532567.7114                   24532569.9144
        36.0004         28.2504
 -22356742.69947 -17374146.55544  22851979.5944                   22851976.1604
        42.5004         27.0004
 -55865447.19947 -43486789.19948  20006471.9774                   20006465.5044
        47.7504         49.2504
 -47604548.76647 -37051583.95346  21016378.2974                   21016373.1254
        47.7504         36.0004
 -20389214.35946 -15838637.37145  22935715.7274                   22935715.6684
        40.5004         34.7504
 -50109257.89546 -38937469.72745  23772114.8204                   23772113.3984
        40.0004         35.2504
 25  7 15  0 17  0.0000000  0  9G03G10G02G28G04G31G01G26G32
 -36489429.91847 -28391871.84847  21163979.1094                   21163976.2544
        47.0004         45.7504
 -35181547.62546 -27377024.05944  24528405.4924                   24528406.8484
        38.0004         29.5004
 -55475048.40247 -43187247.41045  22113916.7734                   22113910.2624
        44.5004         35.2504
 -56702312.48047 -44143613.89846  21543325.8674                   21543320.8244
        44.5004         36.5004
 -22514877.76647 -17497368.58644  22821886.6414                   22821883.7034
        42.7504         28.2504
 -55951242.07447 -43553642.34048  19990145.6954                   19990139.5004
        47.5004         49.2504
 -47685019.24247 -37114288.23846  21001064.9774                   21001060.1994
        47.7504         36.0004
 -20565670.81246 -15976135.78946  22902137.2814                   22902137.2304
        40.5004         36.0004
 -50133487.77747 -38956350.18045  23767503.8204                   23767500.5594
        42.2504         35.7504
 25  7 15  0 17 30.0000000  0 10G03G10G02G28G25G04G31G01G26G32
 -35079724.16447 -27293399.80147  21432237.1954                   21432234.3204
        47.7504         45.7504
 -33607639.37546 -26150602.35244  24827909.7664                   24827912.0744
        38.0004         29.2504
 -53928441.25447 -41982099.02345  22408226.2584                   22408220.0204
        46.2504         34.7504
 -55154095.27047 -42937210.89846  21837941.7274                   21837936.5634
        46.2504         36.0004
  -8492457.71556 -10486666.87154  24813447.9844                   24813446.3674
        37.2504         25.0004
 -21097380.87547 -16392825.48044  23091627.2274                   23091624.7464
        43.7504         27.5004
 -54460929.43048 -42392359.74648  20273742.8134                   20273736.9184
        48.0004         49.2504
 -46189408.87548 -35948877.57046  21285670.0314                   21285665.1414
        48.0004         36.0004
 -19166406.07046 -14885799.54746  23168408.9844                   23168408.5004
        40.5004         36.0004
 -48582207.30146 -37747560.27345  24062703.4454                   24062701.1454
        40.5004         35.0004
 25  7 15  0 18  0.0000000  0 10G03G10G02G28G25G04G31G01G26G32
 -35245137.86747 -27422293.56247  21400759.6884                   21400756.9534
        47.5004         46.2504
 -33608881.16446 -26151570.18744  24827673.6094                   24827675.7074
        37.5004         27.5004
 -53956837.85947 -42004226.31245  22402822.8984                   22402816.2274
        46.2504         34.7504
 -55180832.71547 -42958045.29746  21832853.7194                   21832848.8014
        46.7504         36.5004
   4704438.90655 -10508238.70353  24804173.6174                   24804159.0784
        35.5004         21.5004
 -21255100.75847 -16515723.99644  23061613.8364                   23061611.5434
        42.7504         27.5004
 -54545353.81247 -42458144.97348  20257677.0314                   20257671.0274
        47.5004         49.2504
 -46268561.78547 -36010555.17246  21270608.0864                   21270603.5044
        47.5004         36.0004
 -19342266.69146 -15022833.72346  23134943.5704                   23134943.2384
        40.7504         36.0004
 -48606256.41846 -37766299.88345  24058125.6884                   24058125.6254
        41.5004         35.2504
 25  7 15  0 18 30.0000000  0 10G03G10G02G28G25G04G31G01G26G32
 -35410248.80947 -27550951.40647  21369340.5234                   21369337.4574
        47.5004         46.0004
 -33609859.10246 -26152332.53544  24827487.0634                   24827490.5004
        36.0004         29.2504
 -53984825.00847 -42026034.52745  22397496.9614                   22397490.4804
        46.0004         34.7504
 -55207111.86747 -42978522.57846  21827852.7664                   21827848.2624
        45.7504         36.2504
   4656212.46546 -10545817.84044  24794984.8054                   24794983.1094
        39.7504         28.5004
 -21412617.79347 -16638464.44544  23031639.2274                   23031636.8484
        43.2504         25.7504
 -54629098.83647 -42523400.82848  20241741.2194                   20241735.5824
        47.5004         49.2504
 -46347061.47347 -36071723.77346  21255669.8834                   21255665.2114
        47.5004         36.0004
 -19517828.99646 -15159635.43745  23101535.6724                   23101534.1254
        41.5004         35.2504
 -48630219.87546 -37784972.77345  24053565.5394                   24053564.5904
        40.5004         35.0004
 25  7 15  0 19  0.0000000  0 11G03G10G02G28G25G04G31G01G26G32G16
 -35575052.53147 -27679369.85947  21337979.3204                   21337976.5234
        46.2504         46.2504
 -33610572.33146 -26152888.51345  24827352.2504                   24827355.3324
        38.0004         31.2504
 -54012403.25047 -42047524.12145  22392248.6094                   22392242.6884
        45.5004         34.5004
 -55232932.89147 -42998642.87946  21822939.4614                   21822934.8324
        46.2504         36.2504
                                  24785912.3444                   24785916.1094
        31.7504         22.7504
 -21569929.82447 -16761045.14144  23001704.3834                   23001701.5044
        43.5004         27.0004
 -54712163.47348 -42588126.51248  20225934.7274                   20225928.6174
        48.2504         49.2504
 -46424906.40647 -36132382.16846  21240856.3914                   21240851.8984
        47.2504         36.0004
 -19693087.48846 -15296200.41045  23068184.4454                   23068183.7814
        40.7504         35.5004
 -48654095.56247 -37803577.22745  24049021.9454                   24049021.0314
        42.0004         34.5004
   4483315.24655   3558790.84053  25276678.5084                   25276681.6294
        35.0004         19.2504
 25  7 15  0 19 30.0000000  0 11G03G10G02G28G25G04G31G01G26G32G16
 -35739551.21947 -27807550.63347  21306676.0004                   21306673.4454
        46.7504         46.5004
 -33611026.05546 -26153242.32044  24827266.3984                   24827267.3244
        38.5004         28.7504
 -54039579.19547 -42068700.23845  22387077.1804                   22387071.4304
        44.2504         34.5004
 -55258302.62547 -43018411.52346  21818112.0944                   21818107.2154
        45.0004         36.5004
   4561512.77055 -10619609.82053  24776960.9304                   24776962.7544
        34.5004         22.0004
 -21727041.43747 -16883469.66444  22971806.7424                   22971804.1254
        43.0004         27.0004
 -54794552.79348 -42652325.98048  20210255.9924                   20210250.2384
        48.2504         49.2504
 -46502101.73847 -36192534.38746  21226166.5234                   21226162.1684
        46.7504         36.5004
 -19868043.25046 -15432529.48446  23034891.5234                   23034891.0594
        40.2504         36.0004
 -48677887.84446 -37822116.75445  24044495.5314                   24044493.8524
        40.2504         35.5004
   4292397.94545   3410024.51242  25240348.0554                   25240352.2194
        33.0004         15.5004
 25  7 15  0 20  0.0000000  0 11G03G10G02G28G25G04G31G01G26G32G16
 -35903756.16847 -27935502.51247  21275429.1254                   21275426.2504
        47.5004         46.2504
 -33611234.84846 -26153405.39145  24827229.0234                   24827230.6024
        40.2504         32.2504
 -54066368.72747 -42089575.25845  22381979.4924                   22381973.2814
        45.7504         34.0004
 -55283237.02047 -43037840.94546  21813366.8834                   21813362.1804
        46.5004         36.0004
   4515019.07055 -10655838.65253  24768110.5784                   24768114.4884
        31.0004         22.5004
 -21883966.25847 -17005748.65244  22941945.3524                   22941942.0274
        43.2504         26.7504
 -54876281.50048 -42716010.68448  20194703.9144                   20194698.1294
        48.0004         49.2504
 -46578661.72347 -36252191.52746  21211597.8594                   21211593.4884
        46.7504         36.2504
 -20042706.57446 -15568630.71146  23001654.5394                   23001653.7624
        40.7504         36.0004
 -48701610.52746 -37840602.00445  24039980.3444                   24039980.7114
        41.5004         35.7504
   4101361.29345   3261165.23442  25203993.3444                   25203999.4414
        33.5004         14.7504
 25  7 15  0 20 30.0000000  0 11G03G10G02G28G25G04G31G01G26G32G16
 -36067677.00447 -28063233.01247  21244235.9694                   21244232.9304
        47.2504         46.5004
 -33611211.75846 -26153387.67244  24827230.6334                   24827234.1804
        37.5004         27.7504
 -54092786.01247 -42110160.20345  22376952.3444                   22376946.4384
        46.0004         34.5004
 -55307750.35547 -43056942.27045  21808702.2504                   21808697.4844
        46.7504         35.7504
   4469078.10546 -10691636.77044  24759371.2894                   24759369.5354
        36.5004         25.5004
 -22040716.17247 -17127891.34044  22912115.5864                   22912113.0044
        43.2504         27.5004
 -54957362.29748 -42779190.52048  20179274.6724                   20179268.5664
        48.2504         49.2504
 -46654598.98047 -36311363.42646  21197147.3444                   21197142.6094
        47.0004         36.0004
 -20217085.99246 -15704510.70346  22968470.5784                   22968470.0084
        40.7504         36.5004
 -48725275.39146 -37859042.23045  24035477.7194                   24035477.0704
        41.2504         35.0004
   3910196.363 5                  25167616.531
        33.500
 25  7 15  0 21  0.0000000  0 11G03G10G02G28G25G04G31G01G26G32G16
 -36231303.41447 -28190734.08247  21213099.1564                   21213096.1094
        47.0004         46.5004
 -33610949.72746 -26153183.68044  24827280.9304                   24827284.2934
        38.0004         29.7504
 -54118825.43747 -42130450.72345  22371997.6254                   22371991.6214
        46.0004         34.5004
 -55331836.99647 -43075711.09846  21804119.0084                   21804113.6914
        46.2504         36.0004
   4423696.66845 -10726998.96943  24750733.8984                   24750736.0394
        35.2504         23.5004
 -22197283.27747 -17249891.59444  22882322.4924                   22882319.4964
        43.0004         27.5004
 -55037788.20348 -42841860.05148  20163970.1094                   20163964.4414
        48.5004         49.5004
 -46729906.22347 -36370044.40646  21182817.0864                   21182812.5354
        46.5004         36.2504
 -20391170.16846 -15840160.62146  22935343.7974                   22935342.8914
        41.2504         36.0004
 -48748874.55947 -37877431.27345  24030987.7974                   24030985.7194
        43.5004         35.5004
   3718913.441 5                  25131215.836
        30.250
 25  7 15  0 21 30.0000000  0 11G03G10G02G28G25G04G31G01G26G32G16
 -36394633.48848 -28318004.24247  21182018.2274                   21182015.0474
        48.2504         46.5004
 -33610450.14146 -26152794.68745  24827378.5234                   24827378.9534
        40.5004         30.7504
 -54144489.69547 -42150448.89845  22367113.6954                   22367107.7774
        43.7504         34.0004
 -55355499.73847 -43094149.62945  21799615.5084                   21799611.0204
        45.7504         35.5004
   4378873.36355 -10761926.26653  24742207.3984                   24742206.0434
        33.2504         22.2504
 -22353668.07447 -17371749.78944  22852563.1724                   22852560.3714
        43.0004         26.0004
 -55117560.69548 -42904020.43048  20148789.7814                   20148783.8164
        49.0004         49.2504
 -46804584.65647 -36428235.41446  21168606.1644                   21168601.5864
        47.5004         36.2504
 -20564956.18746 -15975578.21146  22902273.5164                   22902272.0554
        41.5004         36.5004
 -48772408.36347 -37895769.33645  24026509.5164                   24026506.9734
        42.0004         35.0004
   3527514.78115                  25094793.430
        33.500
 25  7 15  0 22  0.0000000  0 11G03G10G02G28G25G04G31G01G26G32G16
 -36557667.53548 -28445043.74247  21150993.5164                   21150990.8204
        48.0004         46.7504
 -33609716.68746 -26152223.53945  24827516.2814                   24827520.4064
        37.7504         30.0004
 -54169783.90247 -42170158.73045  22362300.2734                   22362294.1604
        43.7504         33.5004
 -55378743.53947 -43112261.70345  21795192.5784                   21795187.9494
        45.2504         35.5004
                                  24733807.125
        26.250
 -22509873.21547 -17493467.96944  22822838.3914                   22822835.3484
        43.0004         26.7504
 -55196683.26248 -42965674.37948  20133733.4304                   20133727.6024
        49.2504         49.2504
 -46878637.63747 -36485939.05146  21154514.3134                   21154510.0904
        47.7504         36.2504
 -20738443.28147 -16110762.86746  22869259.5784                   22869258.8954
        42.5004         36.7504
 -48795879.43047 -37914058.53946  24022043.4144                   24022042.1414
        42.0004         36.2504
   3336000.63345   3125036.83652  25058349.8204                   25058353.6884
        35.0004         15.5004
 25  7 15  0 22 30.0000000  0 11G03G10G02G28G25G04G31G01G26G32G16
 -36720399.65248 -28571847.96147  21120026.9844                   21120024.1604
        48.0004         46.7504
 -33608746.70346 -26151467.90644  24827701.3524                   24827703.9924
        37.5004         29.5004
 -54194706.76247 -42189579.19145  22357557.9384                   22357551.9184
        44.0004         32.5004
 -55401567.22347 -43130046.41445  21790849.7114                   21790844.9264
        45.0004         35.0004
   4690142.51254 -10794320.73453  24725459.0004                   24725463.7074
        28.7504         22.2504
 -22665895.16447 -17615043.43444  22793148.1804                   22793145.8204
        42.7504         26.2504
 -55275153.33248 -43026819.88748  20118801.2344                   20118795.2034
        49.2504         49.2504
 -46952062.43447 -36543153.19546  21140541.9924                   21140537.0234
        47.5004         36.0004
 -20911624.53947 -16245709.22746  22836304.1414                   22836303.2384
        42.5004         36.7504
 -48819284.23446 -37932296.11345  24017588.5704                   24017587.3054
        41.7504         35.5004
   3144377.29345   2975720.24242  25021884.8444                   25021888.4104
        30.5004         15.5004
 25  7 15  0 23  0.0000000  0 11G03G10G02G28G25G04G31G01G26G32G16
 -36882819.15248 -28698408.58647  21089119.5554                   21089116.4304
        48.0004         47.0004
 -33607532.92246 -26150522.34844  24827933.4144                   24827934.2154
        38.7504         28.2504
 -54219252.34447 -42208705.67245  22352887.0394                   22352880.5984
        45.0004         33.5004
 -55423964.78947 -43147499.08245  21786587.5234                   21786582.4614
        46.0004         35.7504
   4646993.19156 -10827943.57054  24717252.5634                   24717254.2854
        37.0004         28.5004
 -22821725.55147 -17736469.62144  22763494.9844                   22763492.0314
        43.0004         27.7504
 -55352963.79748 -43087451.41848  20103994.2504                   20103988.1994
        48.7504         49.2504
 -47024851.43747 -36599871.91446  21126691.3204                   21126686.1684
        47.5004         36.0004
 -21084488.30146 -16380408.18046  22803409.3674                   22803408.7544
        41.7504         36.7504
 -48842614.28147 -37950475.43046  24013149.3054                   24013148.3794
        43.0004         36.2504
   2952655.62545   2826327.19542  24985400.5164                   24985405.6454
        33.5004         14.7504
 25  7 15  0 23 30.0000000  0 10G03G10G02G28G04G31G01G26G32G16
 -37044916.03148 -28824717.81247  21058273.4454                   21058270.3364
        48.2504         47.0004
 -33606068.57045 -26149381.67644  24828210.5784                   24828215.1374
        35.7504         28.0004
 -54243415.17247 -42227533.90245  22348288.8674                   22348283.0594
        44.0004         34.0004
 -55445931.00047 -43164615.62946  21782407.3054                   21782402.3754
        44.0004         36.0004
 -22977356.87547 -17857740.69544  22733879.2504                   22733876.0824
        43.0004         26.5004
 -55430107.90648 -43147563.71148  20089314.4304                   20089308.3054
        49.0004         49.2504
 -47096997.92247 -36656089.97345  21112962.0164                   21112957.0944
        47.0004         35.7504
 -21257023.46947 -16514851.08246  22770576.7194                   22770576.5354
        42.0004         36.2504
 -48865862.00046 -37968590.59045  24008725.4614                   24008724.3014
        40.2504         35.5004
   2760846.03945   2676865.59042  24948900.0944                   24948904.9534
        35.0004         15.5004
 25  7 15  0 24  0.0000000  0 10G03G10G02G28G04G31G01G26G32G16
 -37206681.14147 -28950768.52047  21027490.5394                   21027487.7234
        47.7504         47.2504
 -33604348.19946 -26148041.37944  24828539.2504                   24828542.6524
        38.0004         29.7504
 -54267191.02347 -42246060.59845  22343764.6484                   22343758.7544
        45.2504         33.5004
 -55467461.39147 -43181392.58245  21778310.0864                   21778305.1884
        46.2504         35.5004
 -23132782.29747 -17978851.31644  22704302.2344                   22704299.7974
        42.7504         28.0004
 -55506580.02748 -43207152.36748  20074762.0554                   20074756.4144
        48.5004         49.2504
 -47168495.91847 -36711802.71146  21099356.4304                   21099352.0164
        47.5004         36.0004
 -21429219.97746 -16649030.10546  22737809.3204                   22737808.0664
        41.5004         37.2504
 -48889020.47747 -37986636.22345  24004319.1954                   24004317.0824
        42.2504         35.5004
   2568958.23046   2527342.94942  24912385.6254                   24912389.3914
        36.5004         14.7504
 25  7 15  0 24 30.0000000  0 10G03G10G02G28G04G31G01G26G32G16
 -37368108.78548 -29076556.27347  20996772.1174                   20996769.3754
        48.0004         47.2504
 -33602369.20346 -26146499.60544  24828916.4304                   24828918.7934
        37.2504         27.0004
 -54290578.70347 -42264284.83245  22339314.4844                   22339307.9924
        45.7504         33.0004
 -55488555.00447 -43197829.18045  21774296.2504                   21774291.1914
        46.0004         35.2504
 -23287998.54347 -18099798.96944  22674764.9774                   22674762.9414
        42.2504         28.2504
 -55582377.75048 -43266215.52748  20060338.7344                   20060332.8404
        48.5004         49.2504
 -47239342.95747 -36767008.21145  21085874.4534                   21085869.8984
        47.7504         35.5004
 -21601071.12946 -16782940.02046  22705106.5314                   22705105.5314
        41.5004         36.5004
 -48912086.28146 -38004609.65246  23999929.4844                   23999927.8244
        40.7504         36.0004
   2376998.37945   2377764.15642  24875856.3754                   24875860.1414
        35.0004         15.5004
 25  7 15  0 25  0.0000000  0 10G03G10G02G28G04G31G01G26G32G16
 -37529182.10247 -29202067.92247  20966120.2504                   20966117.6954
        47.5004         47.2504
 -33600118.28946 -26144745.91045  24829344.6724                   24829347.8284
        37.5004         30.2504
 -54313566.20347 -42282197.23045  22334940.2194                   22334933.4654
        45.0004         33.7504
 -55509199.73047 -43213916.00445  21770368.0004                   21770362.9414
        45.2504         34.2504
 -23442991.07447 -18220572.27744  22645271.2424                   22645268.6914
        43.2504         27.7504
 -55657487.58648 -43324742.67648  20046045.6884                   20046039.5084
        48.5004         49.2504
 -47309525.49247 -36821695.91446  21072519.2734                   21072514.7504
        47.5004         36.0004
 -21772559.00846 -16916566.85246  22672473.2584                   22672472.6254
        41.5004         37.0004
 -48935044.96947 -38022499.58646  23995560.4454                   23995560.2664
        42.7504         36.2504
   2184983.66445   2228142.75842  24839316.6564                   24839320.9104
        33.7504         14.7504
 25  7 15  0 25 30.0000000  0 10G03G10G02G28G04G31G01G26G32G16
 -37689903.08247 -29327305.01247  20935536.4144                   20935533.0744
        46.5004         47.2504
 -33597600.55546 -26142784.44544  24829824.8674                   24829826.7544
        38.7504         28.5004
 -54336160.15647 -42299802.97345  22330639.8914                   22330634.4574
        45.0004         34.2504
 -55529402.28147 -43229658.26245  21766523.4534                   21766518.3714
        46.7504         35.0004
 -23597764.36746 -18341174.75844  22615819.0864                   22615816.5004
        41.7504         28.5004
 -55731915.41048 -43382738.38348  20031882.3834                   20031876.1294
        48.5004         49.0004
 -47379048.76647 -36875869.91445  21059289.4064                   21059285.1524
        46.0004         35.7504
 -21943684.65646 -17049911.43446  22639909.2584                   22639908.1454
        41.5004         37.0004
 -48957900.74247 -38040309.39146  23991211.7424                   23991210.8014
        43.7504         36.7504
   1992912.23845   2078477.10242  24802765.9304                   24802771.1994
        34.5004         14.7504
 25  7 15  0 26  0.0000000  0 10G03G10G02G28G04G31G01G26G32G16
 -36274845.96547 -28224663.07047  21204812.6174                   21204810.0704
        47.2504         47.5004
 -32019399.38745 -24913017.57444  25130146.9774                   25130148.4024
        35.7504         26.0004
 -52782944.50047 -41089505.12145  22626207.7424                   22626201.1524
        45.0004         33.7504
 -53973746.34447 -42017458.85545  22062555.1174                   22062549.8284
        45.5004         35.2504
 -22176895.18047 -17234003.88344  22886200.8524                   22886198.4654
        42.2504         27.2504
 -54230241.66047 -42212602.98848  20317641.4304                   20317635.3054
        47.7504         49.2504
 -45872493.41047 -35701930.69945  21345977.5784                   21345972.9454
        46.5004         35.7504
 -20539021.03947 -15955368.27746  22907207.7584                   22907207.4654
        42.0004         38.5004
 -47405234.78547 -36830439.84045  24286674.1564                   24286671.8134
        43.5004         35.5004
   3376211.83245   3156373.20342  25065999.5004                   25066003.1524
        35.7504         14.7504
 25  7 15  0 26 30.0000000  0 10G03G10G02G28G04G31G01G26G32G16
 -36434858.87147 -28349348.42647  21174363.0864                   21174360.2664
        47.0004         47.2504
 -32016355.47746 -24910645.98044  25130725.9924                   25130728.5594
        36.5004         27.5004
 -52804762.68747 -41106506.37545  22622056.2274                   22622049.6724
        46.2504         33.0004
 -53993075.37147 -42032520.45745  22058876.6804                   22058871.8444
        46.2504         34.7504
 -22331233.68047 -17354267.57444  22856831.4454                   22856828.5354
        42.2504         28.2504
 -54303312.47348 -42269541.28148  20303736.5554                   20303730.4964
        48.7504         49.2504
 -45940704.80947 -35755082.45745  21332997.1954                   21332992.7704
        46.0004         35.7504
 -20709415.85947 -16088143.38346  22874782.8284                   22874781.9844
        42.0004         37.7504
 -47427888.17647 -36848091.94546  24282363.6644                   24282362.6724
        42.0004         36.7504
   3184032.46146   3006623.41042  25029429.0704                   25029432.1644
        36.0004         15.5004
 25  7 15  0 27  0.0000000  0 10G03G10G02G28G04G31G01G26G32G16
 -36594518.96147 -28473758.85947  21143980.7274                   21143978.0314
        46.5004         47.2504
 -32013054.78945 -24908074.24244  25131351.6174                   25131357.6214
        32.0004         25.0004
 -52826201.28947 -41123211.84445  22617976.2504                   22617969.8594
        46.0004         33.2504
 -54011976.00447 -42047248.24645  22055279.7974                   22055275.5314
        45.5004         34.5004
 -22485359.61347 -17474365.60544  22827502.2814                   22827499.3984
        42.0004         28.2504
 -54375711.29347 -42325955.95348  20289959.0004                   20289952.9804
        47.7504         49.0004
 -46008266.52047 -35807727.96546  21320140.6024                   21320136.1644
        46.2504         36.0004
 -20879445.04347 -16220633.58246  22842427.1254                   22842426.4804
        42.0004         38.0004
 -47450445.12146 -36865668.85946  24278070.5864                   24278069.6254
        41.5004         36.2504
   2991798.51245   2856831.11742  24992847.1254                   24992850.7624
        34.2504         13.7504
 25  7 15  0 27 30.0000000  0 10G03G10G02G28G04G31G01G26G32G16
 -36753829.60547 -28597896.99247  21113664.7734                   21113662.4804
        46.2504         47.2504
 -32009504.09856 -24905307.89154  25132029.8984                   25132033.4774
        36.2504         26.7504
 -52847268.50047 -41139627.92245  22613967.0164                   22613961.2504
        45.7504         33.0004
 -54030456.43047 -42061648.60245  22051763.4774                   22051758.4924
        45.5004         34.5004
 -22639278.78947 -17594302.56644  22798212.3524                   22798209.7814
        42.5004         28.5004
 -54447445.12948 -42381852.44148  20276308.7194                   20276302.8874
        48.5004         49.2504
 -46075185.37147 -35859872.54345  21307406.4304                   21307401.7934
        46.0004         35.5004
 -21049111.11347 -16352840.81646  22810140.9844                   22810140.1524
        42.2504         37.7504
 -47472911.29346 -36883175.01645  24273795.2034                   24273793.7704
        41.5004         35.2504
   2799506.81345   2706993.80142  24956255.9224                   24956259.1644
        35.7504         16.2504
 25  7 15  0 28  0.0000000  0 10G03G10G02G28G04G31G01G26G32G16
 -36912790.31647 -28721762.45347  21083415.6884                   21083413.0434
        46.5004         47.5004
 -32005706.40646 -24902348.91044  25132753.4224                   25132755.2304
        37.5004         26.0004
 -52867968.71547 -41155758.02745  22610028.6254                   22610022.1334
        46.5004         33.0004
 -54048520.88747 -42075724.82445  22048325.9454                   22048321.1134
        46.5004         35.0004
 -22792993.10246 -17714079.86744  22768961.9384                   22768959.0474
        41.2504         28.0004
 -54518517.26647 -42437233.32848  20262784.1804                   20262778.2624
        47.7504         49.0004
 -46141464.29747 -35911518.48445  21294793.9144                   21294789.5234
        46.0004         35.5004
 -21218412.41447 -16484763.83246  22777923.4844                   22777922.8204
        42.5004         38.0004
 -47495288.44147 -36900611.83646  24269537.7034                   24269536.4064
        43.0004         36.0004
   2607158.61345   2557112.48442  24919652.2894                   24919656.1414
        34.7504         16.7504
 25  7 15  0 28 30.0000000  0 10G03G10G02G28G04G31G01G26G32G16
 -37071393.09847 -28845349.00847  21053234.8134                   21053231.9734
        47.2504         47.5004
 -32001657.36746 -24899194.07444  25133524.2814                   25133526.7464
        38.2504         28.5004
 -52888298.68047 -41171599.61745  22606159.6094                   22606153.6024
        43.7504         33.2504
 -54066166.14847 -42089474.39845  22044968.1804                   22044963.4064
        44.7504         34.7504
 -22946496.98847 -17833693.21944  22739750.4064                   22739747.7544
        42.2504         29.0004
 -54588923.12547 -42492095.03548  20249386.5944                   20249380.2894
        47.7504         49.0004
 -46207098.78547 -35962662.25846  21282304.2034                   21282299.7304
        46.2504         36.0004
 -21387340.21547 -16616395.80546  22745777.2344                   22745776.7154
        42.2504         37.5004
 -47517570.82446 -36917974.84045  24265297.7664                   24265295.8984
        41.5004         35.0004
   2414762.34046   2407193.60942  24883040.2584                   24883043.5944
        36.0004         14.7504
 25  7 15  0 29  0.0000000  0 10G03G10G02G28G04G31G01G26G32G16
 -37229642.44147 -28968660.14847  21023120.6174                   21023118.1524
        47.0004         47.5004
 -31997364.51646 -24895849.43044  25134340.4224                   25134344.3754
        38.0004         26.2504
 -52908267.67647 -41187159.93745  22602359.8914                   22602353.6414
        45.0004         33.0004
 -54083401.50847 -42102904.58645  22041688.6024                   22041683.5164
        45.5004         35.2504
 -23099797.29747 -17953147.92644  22710578.7344                   22710575.6804
        42.5004         28.7504
 -54658671.00848 -42546444.03948  20236113.9224                   20236107.8754
        48.0004         49.0004
 -46272096.80147 -36013310.07845  21269935.1884                   21269930.8134
        46.5004         35.5004
 -21555897.96146 -16747739.42646  22713701.9774                   22713701.3014
        41.5004         37.7504
 -47539765.27747 -36935269.24645  24261074.7194                   24261072.7504
        43.7504         35.5004
   2222313.84446   2257234.14842  24846417.9304                   24846421.3094
        36.7504         16.2504
 25  7 15  0 29 30.0000000  0 10G03G10G02G28G04G31G01G26G32G16
 -37387534.94947 -29091693.24247  20993074.8444                   20993071.8634
        47.5004         47.7504
 -31992828.37146 -24892314.96943  25135205.0634                   25135206.8484
        37.0004         22.5004
 -52927877.31247 -41202440.24645  22598628.5084                   22598622.1374
        45.5004         32.5004
 -54100228.39147 -42116016.46545  22038486.4694                   22038481.6484
        46.0004         35.5004
 -23252893.19947 -18072443.36344  22681445.7034                   22681442.5274
        42.0004         28.2504
 -54727761.55948 -42600280.82848  20222966.3054                   20222960.2704
        48.5004         49.0004
 -46336458.48047 -36063462.04745  21257688.0164                   21257683.5354
        46.5004         35.5004
 -21724081.37546 -16878791.35546  22681697.7664                   22681696.9734
        41.7504         38.2504
 -47561870.63746 -36952494.32445  24256866.5634                   24256865.2384
        39.7504         34.0004
   2029817.04745   2107237.09842  24809786.5314                   24809789.3134
        35.7504         15.5004
 25  7 15  0 30  0.0000000  0  9G03G02G28G04G31G01G26G32G16
 -37545069.21947 -29214447.19147  20963096.8444                   20963094.0434
        47.7504         47.7504
 -52947130.65647 -41217442.91845  22594964.1334                   22594958.8524
        46.0004         32.7504
 -54116650.11347 -42128812.63745  22035361.7974                   22035357.1214
        46.7504         34.5004
 -23405785.60947 -18191580.23044  22652350.8284                   22652347.7384
        42.7504         29.0004
 -54796196.66048 -42653606.87948  20209943.6954                   20209937.4694
        48.7504         49.0004
 -46400185.93447 -36113119.83245  21245560.9454                   21245556.5234
        46.5004         35.5004
 -21891888.10547 -17009549.77746  22649764.9924                   22649764.8834
        42.0004         38.0004
 -47583887.87146 -36969650.69145  24252677.2344                   24252676.4344
        40.5004         34.0004
   1837274.06646   1957204.02342  24773147.4144                   24773149.1644
        37.7504         17.7504
 25  7 15  0 30 30.0000000  0  9G03G02G28G04G31G01G26G32G16
 -37702248.25848 -29336924.33648  20933186.7344                   20933184.0124
        48.2504         48.0004
 -52966036.03547 -41232174.44545  22591366.8364                   22591361.1994
        45.0004         32.0004
 -54132674.51247 -42141299.21545  22032312.1254                   22032307.4414
        47.0004         35.0004
 -23558479.98447 -18310562.78544  22623293.9534                   22623290.9104
        43.0004         29.0004
 -54863983.27048 -42706427.61348  20197044.2424                   20197037.9804
        48.5004         49.0004
 -46463285.78147 -36162288.56245  21233553.4924                   21233548.8364
        46.5004         35.5004
 -22059320.29346 -17140016.33646  22617904.0944                   22617903.1884
        41.5004         37.5004
 -47605822.22347 -36986742.44145  24248503.4224                   24248501.5354
        42.0004         34.7504
   1644682.18846   1807132.89543  24736497.3204                   24736499.1564
        36.2504         18.5004
 25  7 15  0 31  0.0000000  0  9G03G02G28G04G31G01G26G32G16
 -37859066.65248 -29459120.46148  20903345.2734                   20903342.5234
        48.0004         48.0004
 -52984592.64847 -41246634.21145  22587835.9774                   22587830.0044
        45.5004         32.2504
 -54148300.91047 -42153475.65645  22029338.2504                   22029333.4614
        46.5004         34.7504
 -23710973.27047 -18429388.65644  22594275.5084                   22594272.2624
        42.0004         28.5004
 -54931119.73848 -42758741.74248  20184268.6884                   20184262.5044
        48.5004         49.0004
 -46525756.14547 -36210966.78145  21221665.8834                   21221661.4384
        46.0004         35.2504
 -22226371.49647 -17270186.04746  22586114.7034                   22586114.2194
        42.7504         38.2504
 -47627670.46146 -37003767.11345  24244345.5474                   24244343.8834
        41.5004         33.5004
   1452047.13346   1657028.07042  24699840.2114                   24699842.4384
        36.2504         15.5004
 25  7 15  0 31 30.0000000  0  9G03G02G28G04G31G01G26G32G16
 -38015510.79748 -29581024.96148  20873574.9064                   20873571.8754
        48.0004         48.0004
 -53002791.89147 -41260815.50845  22584372.6484                   22584366.8484
        46.0004         33.0004
 -54163520.62147 -42165335.20345  22026442.3834                   22026437.4184
        46.5004         34.7504
 -23863254.37947 -18548049.20744  22565297.1254                   22565294.2384
        43.0004         28.5004
 -54997596.32848 -42810541.68748  20171618.5864                   20171612.7114
        48.2504         49.0004
 -46587587.14547 -36259146.80545  21209899.8134                   21209894.9964
        47.0004         35.5004
 -22393027.33647 -17400047.68446  22554401.6174                   22554400.5394
        42.2504         38.5004
 -47649421.28547 -37020715.93045  24240207.9534                   24240207.1024
        43.0004         35.7504
   1259383.48846   1506900.97742  24663176.4224                   24663178.6094
        36.5004         17.2504
 25  7 15  0 32  0.0000000  0  9G03G02G28G04G31G01G26G32G16
 -38171579.67248 -29702637.04348  20843876.3754                   20843873.3134
        48.0004         48.0004
 -53020637.42647 -41274721.19145  22580977.0084                   22580970.8794
        46.0004         32.5004
 -54178337.28547 -42176880.69145  22023622.6484                   22023617.8674
        47.0004         35.0004
 -24015324.69947 -18666545.47744  22536359.1024                   22536356.0984
        42.5004         29.0004
 -55063415.78147 -42861829.57048  20159093.3754                   20159087.7584
        47.0004         48.7504
 -46648781.33647 -36306830.60546  21198255.0864                   21198250.6374
        47.0004         36.0004
 -22559285.83647 -17529599.68746  22522763.2814                   22522762.6454
        42.0004         38.0004
 -47671076.12946 -37037589.87145  24236086.7274                   24236084.5784
        41.0004         32.0004
   1066692.70746   1356752.78942  24626508.5164                   24626510.5904
        36.5004         17.7504
 25  7 15  0 32 30.0000000  0  9G03G02G28G04G31G01G26G32G16
 -38327269.75447 -29823953.95348  20814248.6174                   20814246.0904
        47.7504         48.0004
 -53038130.78947 -41288352.44945  22577648.6804                   22577642.1644
        45.7504         32.5004
 -54192752.32847 -42188113.21945  22020879.4064                   22020874.8054
        46.7504         34.5004
 -24167183.07447 -18784876.60944  22507461.7894                   22507458.4224
        42.0004         28.5004
 -55128578.40247 -42912605.64148  20146693.3284                   20146687.5514
        47.0004         48.7504
 -46709338.93047 -36354018.36345  21186731.3524                   21186726.5314
        45.5004         35.5004
 -22725142.60947 -17658838.65246  22491201.6484                   22491200.8164
        42.5004         38.5004
 -47692633.52047 -37054387.87545  24231983.5164                   24231982.3754
        42.0004         33.5004
    873978.55945   1206586.36342  24589836.2274                   24589837.6374
        35.5004         16.7504
 25  7 15  0 33  0.0000000  0  9G03G02G28G04G31G01G26G32G16
 -38482583.44547 -29944977.58248  20784693.8754                   20784691.0514
        47.7504         48.0004
 -53055279.20747 -41301714.91845  22574384.7894                   22574379.1954
        45.7504         32.7504
 -54206772.85947 -42199038.34845  22018211.5084                   22018207.3954
        46.5004         33.5004
 -24318834.44947 -18903046.45744  22478602.8524                   22478600.1134
        42.2504         28.7504
 -55193090.55147 -42962874.84848  20134417.1414                   20134410.9614
        47.2504         48.5004
 -46769265.93047 -36400714.74245  21175327.4224                   21175323.2194
        46.2504         35.5004
 -22890599.14147 -17787765.73846  22459716.8134                   22459715.5554
        42.2504         38.7504
 -47714098.21146 -37071113.73045  24227899.5634                   24227899.4064
        41.0004         33.2504
    681239.49645   1056400.49642  24553157.9064                   24553160.0664
        35.7504         17.7504
 25  7 15  0 33 30.0000000  0  9G03G02G28G04G31G01G26G32G16
 -38637518.50547 -30065706.17548  20755210.7894                   20755207.7194
        47.7504         48.0004
 -53072085.50847 -41314810.80145  22571186.9924                   22571180.9574
        45.5004         32.5004
 -54220401.48447 -42209658.08645  22015618.8914                   22015613.7154
        46.0004         34.7504
 -24470278.93446 -19021055.08244  22449784.1954                   22449780.8444
        41.5004         28.7504
 -55256953.71547 -43012638.35548  20122264.0394                   20122258.4774
        47.5004         48.5004
 -46828563.90247 -36446920.97345  21164043.9694                   21164039.0314
        47.0004         35.5004
 -23055652.37547 -17916378.57446  22428307.7664                   22428306.7704
        43.0004         38.2504
 -47735470.12947 -37087767.26645  24223834.7974                   24223829.4184
        42.0004         31.7504
    488477.93446    906197.12143  24516477.3444                   24516478.5084
        36.2504         19.0004
 25  7 15  0 34  0.0000000  0  9G03G02G28G04G31G01G26G32G16
 -38792071.02747 -30186136.68748  20725800.5634                   20725797.4734
        47.2504         48.0004
 -53088550.36747 -41327640.63745  22568053.6954                   22568047.9104
        45.5004         32.0004
 -54233639.05147 -42219973.10245  22013099.1484                   22013094.6844
        45.7504         35.0004
 -24621515.02047 -19138901.30944  22421005.0004                   22421001.7274
        43.5004         28.7504
 -55320168.09447 -43061896.31648  20110234.9694                   20110229.1804
        47.2504         48.5004
 -46887232.60247 -36492636.85946  21152879.2194                   21152874.8484
        46.5004         36.0004
 -23220297.46947 -18044673.38346  22396976.5394                   22396975.4964
        42.5004         38.5004
 -47756747.79346 -37104347.34045  24219784.5234                   24219782.9024
        40.2504         32.5004
    295698.73845    755979.93842  24479792.5784                   24479792.9024
        35.0004         17.7504
 25  7 15  0 34 30.0000000  0  9G03G02G28G04G31G01G26G32G16
 -37370814.96547 -29078664.40648  20996256.5084                   20996253.2624
        47.5004         48.2504
 -51529257.82047 -40112607.54745  22864777.2344                   22864771.3874
        45.0004         32.7504
 -52671069.09847 -41002386.16045  22310446.2974                   22310441.8284
        45.5004         34.7504
 -23197119.30147 -18028982.50844  22692057.9614                   22692054.7114
        42.5004         28.7504
 -53807314.69947 -41883049.51248  20398121.3834                   20398115.8164
        46.5004         48.7504
 -45369853.07447 -35310263.21945  21441627.0164                   21441622.5164
        46.2504         35.7504
 -21809107.27747 -16945044.60546  22665517.2814                   22665516.5124
        42.5004         38.5004
 -46202511.74647 -35893254.39545  24515545.8674                   24515544.7624
        43.0004         33.7504
   1678329.37545   1833354.93042  24742897.7734                   24742898.9654
        35.0004         16.7504
 25  7 15  0 35  0.0000000  0  9G03G02G28G04G31G01G26G32G16
 -37524601.98847 -29198498.42248  20966991.7584                   20966988.6994
        46.0004         48.2504
 -51545054.80947 -40124916.96945  22861771.0864                   22861765.5634
        45.5004         33.0004
 -52683538.69147 -41012102.75445  22308073.7894                   22308068.8284
        46.2504         34.5004
 -23347945.58647 -18146509.42244  22663357.1094                   22663353.6524
        42.0004         29.2504
 -53869243.01647 -41931305.34848  20386336.9304                   20386330.7894
        46.0004         48.7504
 -45427274.32447 -35355007.06645  21430700.2974                   21430695.8674
        47.2504         35.5004
 -21972933.28947 -17072701.16446  22634342.4224                   22634341.1024
        43.5004         38.2504
 -46223607.14146 -35909692.37545  24511529.1564                   24511531.1024
        38.5004         31.0004
   1485517.01645   1683111.88743  24706207.5474                   24706207.2154
        35.7504         19.0004
 25  7 15  0 35 30.0000000  0  9G03G02G28G04G31G01G26G32G16
 -37677995.04747 -29318025.45748  20937801.8754                   20937798.9964
        46.7504         48.2504
 -51560513.75447 -40136962.97345  22858829.7344                   22858824.0204
        45.0004         32.0004
 -52695620.32047 -41021517.04345  22305774.7974                   22305769.6884
        45.5004         34.2504
 -23498559.44147 -18263870.79744  22634696.5084                   22634692.4064
        42.7504         29.2504
 -53930522.84447 -41979055.86348  20374675.4694                   20374669.6094
        46.5004         48.2504
 -45484066.33247 -35399260.59045  21419892.8364                   21419888.4024
        46.0004         35.5004
 -22136337.23847 -17200028.85546  22603247.3054                   22603246.8204
        42.7504         38.7504
 -46244603.39146 -35926053.20745  24507536.4844                   24507535.4304
        41.7504         33.2504
   1292699.75045   1532865.13342  24669514.7424                   24669515.2114
        35.2504         16.7504
 25  7 15  0 36  0.0000000  0  9G03G02G28G04G31G01G26G32G16
 -37830986.96547 -29437239.91848  20908688.6094                   20908685.7584
        47.0004         48.5004
 -51575632.80147 -40148744.12545  22855952.7274                   22855946.9224
        43.5004         32.0004
 -52707311.57847 -41030627.15245  22303549.7194                   22303545.1914
        44.7504         34.5004
 -23648956.08247 -18381062.92644  22606076.2814                   22606073.2384
        42.5004         29.0004
 -53991151.19147 -42026298.73048  20363138.2424                   20363132.6884
        46.5004         48.5004
 -45540225.76647 -35443021.19945  21409206.0784                   21409201.7344
        47.0004         35.5004
 -22299311.14147 -17327021.44546  22572234.8134                   22572233.3204
        42.7504         38.5004
 -46265495.73446 -35942333.05145  24503560.8524                   24503558.1724
        40.0004         31.7504
   1099885.52345   1382620.63343  24632821.6334                   24632823.5274
        34.2504         18.5004
 25  7 15  0 36 30.0000000  0  9G03G02G28G04G31G01G26G32G16
 -37983574.80947 -29556139.51248  20879652.0394                   20879649.1454
        47.5004         48.5004
 -51590413.84047 -40160261.88345  22853139.8594                   22853134.0474
        44.5004         32.0004
 -52718614.31647 -41039434.50845  22301399.2344                   22301394.6214
        45.7504         34.0004
 -23799134.97347 -18498085.37144  22577498.6024                   22577495.0944
        43.7504         29.0004
 -54051129.01647 -42073034.69948  20351724.8914                   20351718.8444
        47.0004         48.5004
 -45595753.51647 -35486289.59845  21398639.5234                   21398634.7814
        47.7504         35.7504
 -22461851.13747 -17453675.93446  22541304.3594                   22541303.4734
        43.7504         39.0004
 -46286283.54346 -35958531.38745  24499605.7504                   24499603.7734
        41.2504         32.7504
    907078.07846   1232381.46542  24596132.3674                   24596133.1414
        36.0004         17.2504
 25  7 15  0 37  0.0000000  0  9G03G02G28G04G31G01G26G32G16
 -38135752.75447 -29674719.70348  20850692.9694                   20850690.3164
        47.2504         48.5004
 -51604855.77747 -40171515.42645  22850391.3984                   22850385.8874
        44.5004         32.5004
 -52729527.65647 -41047938.44145  22299322.3914                   22299317.8634
        45.2504         34.5004
 -23949092.84447 -18614935.60244  22548961.9924                   22548958.7774
        43.5004         28.5004
 -54110454.77747 -42119262.57048  20340435.5864                   20340429.7034
        47.5004         48.5004
 -45650647.75047 -35529064.33645  21388193.3444                   21388189.0944
        46.5004         35.2504
 -22623950.76247 -17579987.27346  22510457.9924                   22510456.5594
        43.5004         39.5004
 -46306963.13746 -35974645.41445  24495669.5004                   24495667.8014
        40.5004         32.2504
    714283.80145   1082152.51243  24559444.9384                   24559444.9104
        35.0004         18.5004
 25  7 15  0 37 30.0000000  0  9G03G02G28G04G31G01G26G32G16
 -38287517.59047 -29792977.98848  20821813.4144                   20821810.8134
        46.7504         48.7504
 -51618960.31247 -40182506.05145  22847707.9614                   22847701.9144
        44.7504         31.5004
 -52740053.08247 -41056140.10245  22297319.3594                   22297314.8014
        45.0004         34.0004
 -24098828.78947 -18731612.91045  22520468.6884                   22520464.8754
        42.5004         30.0004
 -54169129.09447 -42164982.82048  20329270.5314                   20329264.2774
        47.0004         48.2504
 -45704909.08647 -35571345.91445  21377867.5314                   21377863.3054
        47.0004         35.5004
 -22785605.87547 -17705952.22346  22479695.6644                   22479694.5554
        42.7504         39.0004
 -46327533.50446 -35990674.30145  24491754.9224                   24491753.6414
        40.7504         32.7504
    521506.47745    931936.87542  24522759.7114                   24522760.3094
        34.7504         16.7504
 25  7 15  0 38  0.0000000  0  9G03G02G28G04G31G01G26G32G16
 -38438863.69947 -29910910.00048  20793013.2894                   20793010.2544
        47.7504         48.7504
 -51632727.05147 -40193233.44545  22845088.1024                   22845082.7424
        45.2504         32.0004
 -52750189.82047 -41064038.88745  22295390.4454                   22295385.9224
        45.7504         33.7504
 -24248339.73047 -18848114.88744  22492017.4224                   22492013.9144
        42.2504         29.2504
 -54227150.58647 -42210194.37548  20318229.5784                   20318223.7114
        46.7504         48.5004
 -45758535.89847 -35613133.05545  21367663.1484                   21367658.6954
        47.0004         35.0004
 -22946810.10947 -17831565.86346  22449019.7504                   22449018.1604
        43.2504         39.0004
 -46347991.38846 -36006615.66345  24487861.7424                   24487860.5394
        38.2504         30.2504
    328752.44146    781739.19943  24486080.3834                   24486079.5984
        36.0004         18.2504
 25  7 15  0 38 30.0000000  0  9G03G02G28G04G31G01G26G32G16
 -38589785.84047 -30028511.64548  20764294.0234                   20764290.7814
        47.2504         48.7504
 -51646155.69147 -40203697.40245  22842532.8594                   22842526.9104
        44.7504         30.7504
 -52759937.45747 -41071634.47745  22293535.9454                   22293530.6524
        45.7504         34.0004
 -24397622.78947 -18964439.28945  22463609.7424                   22463606.2774
        42.2504         30.0004
 -54284517.94547 -42254896.21548  20307312.4454                   20307306.9964
        47.2504         48.2504
 -45811526.86747 -35654424.74245  21357579.5704                   21357575.0634
        46.2504         35.5004
 -23107557.37147 -17956823.41046  22418430.5164                   22418429.2814
        43.7504         39.5004
 -46368333.64146 -36022466.84045  24483992.0084                   24483990.6914
        40.0004         32.5004
    136027.50446    631564.31643  24449406.1254                   24449405.7544
        37.5004         18.2504
 25  7 15  0 39  0.0000000  0  9G03G02G28G04G31G01G26G32G16
 -38740294.23847 -30145790.90248  20735653.1564                   20735650.1294
        47.7504         49.0004
 -51659261.57847 -40213909.86745  22840038.9774                   22840033.3364
        45.0004         31.2504
 -52769311.00847 -41078938.58645  22291751.8524                   22291747.2234
        45.7504         34.5004
 -24546690.64547 -19080596.00845  22435243.1334                   22435239.7974
        42.2504         30.2504
 -54341245.80547 -42299099.75048  20296517.9224                   20296512.0004
        47.0004         48.2504
 -45863896.23447 -35695232.06645  21347613.4224                   21347608.8674
        47.2504         35.7504
 -23267857.20747 -18081732.30546  22387925.8674                   22387925.1374
        43.7504         39.0004
 -46388572.69546 -36038237.62145  24480140.5704                   24480138.5314
        39.7504         30.7504
    -56677.81645    481404.68442  24412733.3364                   24412733.5124
        35.5004         17.7504
 25  7 15  0 39 30.0000000  0  9G03G02G28G04G31G01G26G32G16
 -38890390.76247 -30262749.20748  20707090.8674                   20707087.9144
        47.2504         49.0004
 -51672051.40647 -40223876.05145  22837605.6024                   22837599.4304
        44.0004         31.0004
 -52778317.21147 -41085956.44545  22290038.3444                   22290033.5704
        45.2504         33.7504
 -24695547.59847 -19196588.37944  22406916.2504                   22406912.8364
        42.0004         29.5004
 -54397339.99247 -42342809.50848  20285843.2194                   20285837.6094
        46.5004         48.2504
 -45915649.84847 -35735559.58245  21337765.1884                   21337760.9844
        46.5004         35.0004
 -23427710.64547 -18206293.36746  22357506.9384                   22357505.7304
        43.7504         38.7504
 -46408712.71946 -36053931.19145  24476308.1484                   24476305.7934
        41.0004         32.2504
   -249364.75446    331259.37943  24376067.7274                   24376066.5634
        38.0004         18.2504
 25  7 15  0 40  0.0000000  0  9G03G02G28G04G31G01G26G32G16
 -39040077.75048 -30379388.40648  20678606.1334                   20678603.3054
        48.0004         49.0004
 -51684532.38347 -40233601.55945  22835230.0944                   22835224.7304
        44.5004         31.5004
 -52786963.11747 -41092693.55145  22288392.8594                   22288388.5784
        45.0004         33.2504
 -24844198.36347 -19312420.09444  22378628.6564                   22378625.4024
        43.5004         29.0004
 -54452806.87947 -42386030.45748  20275288.6174                   20275282.6374
        47.7504         48.2504
 -45966794.06247 -35775412.23445  21328032.7504                   21328028.8134
        46.7504         35.0004
 -23587119.23847 -18330507.80946  22327172.7584                   22327171.6024
        43.5004         39.0004
 -46428758.21146 -36069551.10945  24472493.5704                   24472491.7194
        39.5004         31.5004
   -442035.05146    181127.00043  24339403.2344                   24339402.2894
        38.2504         19.5004
 25  7 15  0 40 30.0000000  0  9G03G02G28G04G31G01G26G32G16
 -39189358.18748 -30495710.80148  20650198.9144                   20650196.0514
        48.2504         49.0004
 -51696712.65247 -40243092.76645  22832912.4534                   22832907.0164
        45.0004         31.5004
 -52795256.60247 -41099156.03945  22286814.9144                   22286810.2384
        45.7504         34.0004
 -24992648.42647 -19428095.41444  22350380.2424                   22350376.5204
        43.0004         29.2504
 -54507653.74248 -42428768.27748  20264851.4694                   20264845.6024
        48.0004         48.2504
 -46017335.92247 -35814795.53145  21318414.7974                   21318410.6994
        47.0004         35.2504
 -23746085.27047 -18454377.39846  22296921.9924                   22296921.0084
        44.0004         39.5004
 -46448714.51647 -36085101.60545  24468697.1334                   24468696.9774
        43.2504         33.2504
   -634690.99646     31005.82443  24302741.5084                   24302741.5554
        38.0004         19.2504
 25  7 15  0 41  0.0000000  0  9G03G02G28G04G31G01G26G32G16
 -39338226.48447 -30611712.05548  20621870.4064                   20621867.2504
        47.7504         49.2504
 -51708591.59847 -40252349.16445  22830651.4614                   22830645.9454
        44.5004         30.5004
 -52803196.84847 -41105343.27345  22285303.8984                   22285299.3014
        46.0004         34.0004
 -25140894.53547 -19543611.80944  22322169.4774                   22322166.2504
        42.7504         28.7504
 -54561878.98848 -42471021.71948  20254532.6564                   20254526.8914
        48.2504         48.2504
 -46067273.89847 -35853708.27045  21308912.6174                   21308907.6724
        46.5004         35.2504
 -23904602.29747 -18577897.09446  22266757.2114                   22266756.4064
        44.0004         39.0004
 -46468578.05146 -36100579.70745  24464915.9844                   24464915.2034
        41.7504         32.2504
   -827326.19146   -119099.21543  24266083.9774                   24266083.5664
        38.2504         20.0004
 25  7 15  0 41 30.0000000  0  9G03G02G28G04G31G01G26G32G16
 -39486683.47348 -30727392.81648  20593619.7664                   20593616.8794
        48.2504         49.0004
 -51720174.79347 -40261375.11345  22828447.8444                   22828442.3054
        44.7504         30.7504
 -52810789.45347 -41111259.63345  22283859.0554                   22283854.9104
        45.7504         33.5004
 -25288939.96947 -19658971.84045  22293997.5084                   22293994.1174
        43.5004         30.0004
 -54615487.93048 -42512794.92648  20244331.3204                   20244325.2774
        48.0004         48.0004
 -46116612.84847 -35892154.23445  21299523.4694                   21299518.7734
        47.5004         35.5004
 -24062670.46147 -18701067.04746  22236678.3054                   22236677.0784
        43.5004         39.7504
 -46488351.88347 -36115987.94545  24461153.7504                   24461152.0984
        43.0004         34.0004
  -1019940.58246   -269188.05543  24229429.8444                   24229429.4534
        37.7504         18.5004
 25  7 15  0 42  0.0000000  0  9G03G02G28G04G31G01G26G32G16
 -39634722.07448 -30842747.55948  20565448.8594                   20565446.2504
        48.0004         49.0004
 -51731460.33647 -40270169.12145  22826300.7344                   22826294.9494
        44.7504         30.7504
 -52818032.19547 -41116903.35945  22282480.6334                   22282476.0704
        45.7504         33.5004
 -25436780.12947 -19774171.91045  22265864.5164                   22265860.6994
        42.5004         30.5004
 -54668477.77748 -42554085.72348  20234247.5394                   20234241.6724
        49.0004         48.0004
 -46165349.87947 -35930131.18045  21290249.0634                   21290244.7854
        47.2504         35.0004
 -24220281.91047 -18823881.09846  22206685.2974                   22206684.2704
        44.0004         39.0004
 -46508031.21547 -36131322.57445  24457409.0474                   24457405.7544
        42.7504         32.7504
  -1212526.43446   -419254.64143  24192782.5474                   24192781.6724
        38.7504         18.2504
 25  7 15  0 42 30.0000000  0  9G03G02G28G04G31G01G26G32G16
 -39782338.27047 -30957773.15648  20537358.4304                   20537355.9064
        47.7504         49.2504
 -51742449.21947 -40278731.98045  22824209.1094                   22824203.8634
        44.5004         30.7504
 -52824925.83247 -41122275.05945  22281169.0394                   22281164.2854
        46.2504         33.5004
 -25584413.37147 -19889210.74245  22237770.6414                   22237767.4024
        42.2504         30.5004
 -54720848.65248 -42594894.19548  20224281.9924                   20224275.9614
        48.5004         48.0004
 -46213485.07847 -35967639.14845  21281089.3594                   21281084.8594
        47.0004         35.0004
 -24377432.00847 -18946335.66446  22176781.5634                   22176779.9574
        44.7504         40.5004
 -46527614.14546 -36146582.13345  24453682.0084                   24453679.8014
        41.5004         31.2504
  -1405079.33246   -569295.57443  24156140.6804                   24156139.9734
        38.5004         19.5004
 25  7 15  0 43  0.0000000  0  9G03G02G28G04G31G01G26G32G16
 -39929522.83648 -31072462.41048  20509350.3364                   20509347.5434
        48.2504         49.2504
 -51753137.35547 -40287060.48045  22822175.3914                   22822169.6724
        44.5004         31.2504
 -52831465.93047 -41127371.28145  22279924.1884                   22279919.6134
        45.2504         33.2504
 -25731832.88747 -20004083.04344  22209717.1334                   22209714.1254
        43.5004         29.0004
 -54772595.27348 -42635216.24248  20214434.7734                   20214428.8874
        48.7504         48.0004
 -46261013.34047 -36004674.19945  21272044.9774                   21272040.9024
        46.5004         34.7504
 -24534110.81247 -19068422.99246  22146965.7194                   22146964.5044
        44.5004         39.7504
 -46547093.71147 -36161761.09045  24449975.6484                   24449976.4774
        42.7504         34.5004
  -1597589.22346   -719302.97742  24119506.7424                   24119506.3444
        37.5004         17.7504
 25  7 15  0 43 30.0000000  0  9G03G02G28G04G31G01G26G32G16
 -38500848.56648 -29959209.71948  20781217.9304                   20781214.5984
        48.5004         49.0004
 -50188106.84447 -39067556.26245  23119990.6414                   23119985.4774
        44.7504         30.2504
 -51262234.79347 -39904593.80145  22578539.0084                   22578534.4024
        44.5004         33.0004
 -24303613.85547 -18891185.04344  22481498.5634                   22481495.2584
        43.2504         29.0004
 -53248298.21148 -41447452.30548  20504499.0784                   20504492.7154
        48.2504         48.2504
 -44732515.00847 -34813636.57845  21562908.8914                   21562904.3444
        47.0004         34.7504
 -23114890.03547 -17962536.63346  22417034.6334                   22417032.8404
        43.7504         39.5004
 -44991049.02747 -34949258.79745  24746082.1174                   24746082.5434
        42.5004         35.7504
   -214626.63346    358330.45743  24382675.3444                   24382674.8714
        37.0004         18.5004
 25  7 15  0 44  0.0000000  0  9G03G02G28G04G31G01G26G32G16
 -38647159.51247 -30073218.23848  20753375.9534                   20753373.1524
        47.7504         49.5004
 -50198197.82447 -39075419.43045  23118070.7734                   23118065.0864
        45.5004         31.0004
 -51268071.88347 -39909142.22745  22577428.8054                   22577423.9104
        45.7504         32.7504
 -24450602.80547 -19005721.83245  22453527.1414                   22453524.0944
        43.0004         30.0004
 -53298799.55548 -41486803.99648  20494888.9534                   20494883.1454
        49.2504         48.0004
 -44778831.59847 -34849727.46145  21554095.1644                   21554090.6724
        47.5004         35.2504
 -23270613.67247 -18083879.68446  22387400.9224                   22387400.3094
        44.0004         40.0004
 -45010317.98046 -34964273.57045  24742413.4384                   24742411.8674
        40.5004         32.5004
   -407037.70346    208400.02743  24346062.2894                   24346060.2894
        39.0004         19.2504
 25  7 15  0 44 30.0000000  0  9G03G02G28G04G31G01G26G32G16
 -38793027.75848 -30186881.79748  20725617.9614                   20725615.2934
        48.5004         49.5004
 -50207991.68447 -39083051.10545  23116207.1024                   23116201.5904
        45.0004         31.0004
 -51273558.71947 -39913417.72745  22576384.6254                   22576379.7774
        45.5004         33.0004
 -24597374.12947 -19120089.05144  22425597.2974                   22425594.6844
        43.2504         29.5004
 -53348678.68448 -41525670.85548  20485397.2194                   20485391.3834
        48.2504         48.0004
 -44824542.79347 -34885346.61345  21545396.2034                   21545391.9494
        47.0004         35.0004
 -23425852.75047 -18204845.15646  22357859.8054                   22357858.6844
        44.5004         40.2504
 -45029478.87547 -34979204.47345  24738770.5164                   24738768.2234
        43.5004         31.0004
   -599392.52046     58513.44143  24309456.9774                   24309456.0554
        37.0004         19.2504
 25  7 15  0 45  0.0000000  0  9G03G02G28G04G31G01G26G32G16
 -38938449.12547 -30300197.13348  20697945.1484                   20697942.4734
        47.7504         49.5004
 -50217489.26647 -39090451.90245  23114399.8204                   23114394.3794
        44.7504         30.0004
 -51278695.90247 -39917420.76245  22575406.9454                   22575402.1054
        45.7504         33.0004
 -24743926.14547 -19234285.37545  22397709.1094                   22397706.5514
        42.0004         30.7504
 -53397935.90248 -41564053.10548  20476024.1174                   20476017.8484
        49.0004         48.0004
 -44869648.55947 -34920494.00045  21536813.1094                   21536808.5474
        47.5004         35.0004
 -23580602.44547 -18325429.28146  22328412.2814                   22328411.0784
        44.0004         40.2504
 -45048529.97747 -34994049.52345  24735144.3524                   24735143.1994
        43.2504         32.5004
   -791685.54746    -91325.03143  24272865.1564                   24272863.3164
        39.0004         18.5004
 25  7 15  0 45 30.0000000  0  9G03G02G28G04G31G01G26G32G16
 -39083422.11348 -30413163.08248  20670357.6174                   20670354.5984
        48.5004         49.5004
 -50226694.35247 -39097624.76644  23112648.5084                   23112642.9224
        44.5004         29.5004
 -51283486.69147 -39921153.88745  22574495.2034                   22574491.0354
        45.5004         33.2504
 -24890259.67247 -19348311.45345  22369863.6644                   22369859.7424
        42.2504         30.5004
 -53446573.75048 -41601952.73047  20466768.1334                   20466762.4224
        48.5004         47.7504
 -44914151.69147 -34955171.80945  21528344.5474                   21528340.2304
        47.7504         35.0004
 -23734860.58647 -18445630.36746  22299057.7194                   22299056.6334
        43.5004         40.0004
 -45067471.67646 -35008809.28945  24731538.0234                   24731537.9454
        40.2504         32.5004
   -983914.93446   -241113.90243  24236284.2194                   24236283.2464
        37.5004         18.2504
 25  7 15  0 46  0.0000000  0  9G03G02G28G04G31G01G26G32G16
 -39227951.40248 -30525783.29348  20642854.6954                   20642851.7734
        48.0004         49.7504
 -50235616.64547 -39104577.28544  23110950.3364                   23110944.8834
        45.0004         29.5004
 -51287940.56647 -39924624.47745  22573647.8754                   22573643.1764
        45.5004         33.0004
 -25036381.80147 -19462172.79745  22342056.9144                   22342053.5904
        42.0004         31.0004
 -53494601.14148 -41639376.67247  20457628.9384                   20457623.1724
        48.0004         47.7504
 -44958061.07447 -34989386.93745  21519988.7894                   21519984.3094
        46.5004         35.5004
 -23888631.17647 -18565451.55546  22269795.9924                   22269794.9804
        43.5004         40.2504
 -45086311.00346 -35023489.39945  24727953.4384                   24727950.1884
        41.5004         30.0004
  -1176084.47346   -390856.14543  24199714.9454                   24199714.4924
        37.0004         18.2504
 25  7 15  0 46 30.0000000  0  9G03G02G28G04G31G01G26G32G16
 -39372028.84448 -30638051.41048  20615438.0394                   20615434.5904
        49.0004         49.5004
 -50244253.00847 -39111306.98444  23109307.2584                   23109301.7584
        44.0004         29.5004
 -51292054.10947 -39927829.87145  22572865.1954                   22572860.4454
        44.7504         32.5004
 -25182286.73447 -19575864.89145  22314292.5944                   22314289.1994
        43.5004         30.5004
 -53542014.48848 -41676322.14547  20448606.5394                   20448600.7974
        48.7504         47.7504
 -45001372.84447 -35023136.40245  21511746.8834                   21511742.4264
        46.7504         35.5004
 -24041905.42247 -18684885.98046  22240628.6564                   22240627.4654
        43.0004         40.0004
 -45105041.74246 -35038084.96945  24724387.9064                   24724390.1724
        36.5004         31.0004
  -1368185.25846   -540544.83643  24163160.3914                   24163158.3244
        38.7504         19.2504
 25  7 15  0 47  0.0000000  0  9G03G02G28G04G31G01G26G32G16
 -39515659.18448 -30749971.13748  20588105.8444                   20588102.8364
        48.2504         49.7504
 -50252612.85247 -39117821.23044  23107715.7034                   23107710.7114
        44.2504         29.7504
 -51295836.86347 -39930777.51645  22572145.0634                   22572140.2114
        45.0004         32.5004
 -25327981.69947 -19689393.37945  22286567.5784                   22286563.9654
        42.2504         31.5004
 -53588822.93448 -41712796.25447  20439699.2114                   20439692.8134
        48.5004         47.7504
 -45044096.06647 -35056427.25845  21503616.8674                   21503612.9304
        47.7504         35.5004
 -24194687.41447 -18803936.83246  22211555.4614                   22211554.2624
        43.5004         40.0004
 -45123671.10946 -35052601.28545  24720842.4534                   24720845.7774
        38.7504         33.5004
  -1560221.03946   -690182.89142  24126616.4304                   24126614.4964
        37.2504         17.7504
 25  7 15  0 47 30.0000000  0  9G03G02G28G04G31G01G26G32G16
 -39658838.95348 -30861539.77048  20560859.6174                   20560856.5784
        49.5004         49.7504
 -50260697.92647 -39124121.37544  23106177.5704                   23106172.4534
        43.0004         29.5004
 -51299290.07847 -39933468.37945  22571488.0084                   22571483.7274
        45.0004         32.5004
 -25473465.51647 -19802757.34045  22258882.7424                   22258879.8324
        43.5004         30.5004
 -53635027.30148 -41748799.66047  20430906.8364                   20430900.9774
        48.5004         47.5004
 -45086231.57448 -35089260.15245  21495598.8834                   21495594.5314
        48.0004         35.0004
 -24346973.08247 -18922600.93746  22182576.0634                   22182575.0354
        43.7504         40.0004
 -45142197.37946 -35067037.46944  24717317.5314                   24717314.4694
        38.2504         29.5004
  -1752187.61746   -839767.05543  24090085.5944                   24090084.4454
        37.2504         19.0004
 25  7 15  0 48  0.0000000  0  9G03G02G28G04G31G01G26G32G16
 -39801571.82848 -30972760.17248  20533698.3204                   20533695.4344
        49.0004         49.7504
 -50268517.00447 -39130214.24644  23104689.7664                   23104684.6724
        44.0004         29.5004
 -51302422.17647 -39935909.02045  22570892.4614                   22570887.6174
        45.2504         32.0004
 -25618744.27047 -19915961.50445  22231236.5474                   22231233.8244
        43.5004         30.2504
 -53680635.75848 -41784338.72347  20422227.6174                   20422222.2234
        48.7504         47.5004
 -45127787.34047 -35121641.29745  21487691.2814                   21487687.1024
        46.7504         35.0004
 -24498765.40647 -19040880.62146  22153691.3364                   22153689.7774
        44.2504         40.0004
 -45160626.63747 -35081398.06645  24713812.4454                   24713811.2114
        42.2504         32.2504
  -1944087.71146   -989299.31243  24053568.7664                   24053567.0744
        38.5004         19.5004
 25  7 15  0 48 30.0000000  0  9G03G02G28G04G31G01G26G32G16
 -39943857.08648 -31083631.77748  20506622.3914                   20506619.1994
        49.0004         49.7504
 -50276074.35247 -39136103.17244  23103251.2504                   23103246.0004
        44.0004         28.5004
 -51305237.18047 -39938102.57045  22570356.4224                   22570351.6644
        44.7504         32.5004
 -25763819.60247 -20029007.16445  22203630.0704                   22203626.3444
        43.7504         31.0004
 -53725651.70348 -41819416.08647  20413661.4694                   20413655.5824
        48.7504         47.5004
 -45168766.97747 -35153573.50845  21479893.0474                   21479888.4344
        47.7504         35.5004
 -24650063.07847 -19158774.84046  22124900.0234                   22124899.2624
        43.7504         40.5004
 -45178960.11346 -35095683.94545  24710321.7974                   24710324.6564
        39.5004         34.7504
  -2135919.89146  -1138778.70743  24017062.9844                   24017062.3404
        36.7504         18.2504
 25  7 15  0 49  0.0000000  0  9G03G02G28G04G31G01G26G32G16
 -40085693.85548 -31194153.91448  20479631.7344                   20479628.5084
        49.0004         49.7504
 -50283374.10547 -39141791.38744  23101863.1414                   23101857.8324
        43.7504         28.7504
 -51307738.93047 -39940052.02745  22569880.3444                   22569875.6804
        45.0004         32.7504
 -25908693.02047 -20141895.48845  22176061.4454                   22176058.0704
        44.2504         31.0004
 -53770079.30148 -41854034.99247  20405207.3914                   20405201.5664
        48.0004         47.5004
 -45209174.03147 -35185059.55145  21472203.9224                   21472199.3014
        47.0004         35.5004
 -24800864.62547 -19276282.48046  22096203.7344                   22096202.4614
        43.5004         40.5004
 -45197199.17246 -35109896.26245  24706853.7814                   24706851.0474
        41.5004         33.0004
  -2327682.10546  -1288203.57443  23980573.7504                   23980570.8674
        38.2504         20.5004
 25  7 15  0 49 30.0000000  0  9G03G02G28G04G31G01G26G32G16
 -40227078.85248 -31304324.01648  20452727.1024                   20452723.8524
        49.0004         50.0004
 -50290417.79747 -39147280.05544  23100522.1724                   23100517.0234
        43.5004         29.7504
 -51309928.84047 -39941758.49645  22569463.4304                   22569459.1724
        44.5004         32.0004
 -26053363.54747 -20254625.71145  22148531.5944                   22148528.1604
        44.5004         30.7504
 -53813919.06648 -41888195.85547  20396864.5314                   20396858.7934
        48.7504         47.5004
 -45249009.46147 -35216100.16845  21464623.2584                   21464619.3954
        46.7504         34.7504
 -24951166.12147 -19393400.47346  22067602.0944                   22067600.9694
        44.0004         40.5004
 -45215342.56646 -35124034.15245  24703400.4454                   24703399.3134
        40.0004         30.7504
  -2519370.43446  -1437570.89143  23944095.4144                   23944093.9574
        37.2504         19.5004
 25  7 15  0 50  0.0000000  0  9G03G02G28G04G31G01G26G32G16
 -40368012.27048 -31414142.24248  20425908.3754                   20425905.4654
        49.0004         50.0004
 -50297210.70347 -39152573.31244  23099229.8524                   23099224.6374
        43.7504         29.5004
 -51311811.91047 -39943225.85545  22569105.2894                   22569101.5864
        44.5004         32.7504
 -26197833.82847 -20367199.90645  22121040.0164                   22121036.3164
        43.5004         31.2504
 -53857175.81248 -41921902.42247  20388633.4144                   20388627.4924
        49.0004         47.5004
 -45288277.94547 -35246699.02745  21457150.9384                   21457146.8284
        47.2504         34.5004
 -25100967.22747 -19510128.55146  22039096.0554                   22039094.7544
        44.0004         40.5004
 -45233392.69546 -35138099.24245  24699965.0864                   24699967.6564
        38.7504         34.5004
  -2710984.23446  -1586880.10943  23907632.4304                   23907630.1524
        38.7504         21.0004
 25  7 15  0 50 30.0000000  0  9G03G02G28G04G31G01G26G32G16
 -40508492.41048 -31523607.26248  20399175.8594                   20399172.5084
        48.0004         50.0004
 -50303756.07847 -39157673.70344  23097984.4224                   23097979.1684
        43.2504         28.7504
 -51313391.03947 -39944456.39545  22568804.6414                   22568800.5394
        44.5004         32.0004
 -26342104.33247 -20479618.43045  22093586.2584                   22093582.6844
        43.5004         30.7504
 -53899852.32048 -41955156.84447  20380512.2274                   20380506.5234
        48.5004         47.5004
 -45326982.13747 -35276858.15245  21449786.0944                   21449781.6414
        46.5004         34.7504
 -25250265.53547 -19626464.84046  22010685.4614                   22010684.1644
        44.5004         40.5004
 -45251349.92246 -35152091.80545  24696547.0704                   24696547.1254
        38.2504         31.5004
  -2902520.76246  -1736129.16843  23871184.0554                   23871182.4224
        38.0004         20.7504
 25  7 15  0 51  0.0000000  0  9G03G02G28G04G31G01G26G32G16
 -40648522.11348 -31632721.29348  20372529.2424                   20372526.3524
        49.2504         50.0004
 -50310061.86347 -39162587.38744  23096784.5164                   23096779.3324
        44.2504         28.7504
 -51314673.80147 -39945455.99645  22568561.2034                   22568556.6684
        43.5004         32.5004
 -26486180.38747 -20591885.43445  22066169.6414                   22066165.8364
        44.5004         31.2504
 -53941955.94948 -41987964.87147  20372500.1334                   20372494.1884
        48.7504         47.5004
 -45365129.30547 -35306583.24645  21442526.3754                   21442522.4024
        46.5004         34.2504
 -25399063.39547 -19742411.17246  21982370.3524                   21982368.8674
        44.2504         41.0004
 -45269219.08646 -35166015.94544  24693146.3054                   24693143.9384
        38.7504         28.5004
  -3093981.87546  -1885319.37143  23834750.1804                   23834748.1334
        38.7504         20.2504
 25  7 15  0 51 30.0000000  0  9G03G02G28G04G31G01G26G32G16
 -40788096.64148 -31741480.64848  20345968.9454                   20345965.8554
        49.0004         50.0004
 -50316128.39547 -39167314.63344  23095630.6414                   23095624.9844
        43.5004         29.5004
 -51315660.17647 -39946224.64545  22568373.0704                   22568368.7194
        44.5004         31.7504
 -26630059.52047 -20703998.99245  22038790.6024                   22038786.9304
        44.7504         31.0004
 -53983486.36748 -42020326.23847  20364597.0864                   20364591.1804
        48.5004         47.5004
 -45402719.15647 -35335874.06245  21435373.3674                   21435369.3364
        46.0004         34.5004
 -25547355.50047 -19857963.39146  21954150.8134                   21954149.7464
        44.0004         40.7504
 -45286997.63346 -35179869.42645  24689763.4064                   24689766.1884
        39.5004         34.2504
  -3285361.93046  -2034446.51243  23798331.1564                   23798329.1134
        39.2504         21.5004
 25  7 15  0 52  0.0000000  0  9G03G02G28G04G31G01G26G32G16
 -39351796.84048 -30622285.98448  20619287.7734                   20619284.9024
        48.7504         50.0004
 -48746545.82847 -37944263.39144  23394312.3594                   23394307.1604
        43.5004         28.7504
 -49740940.34047 -38719170.27345  22868031.9694                   22868028.1524
        43.7504         31.2504
 -25198324.79347 -19588361.50845  22311240.1724                   22311236.6134
        45.2504         31.0004
 -52449032.30148 -40824647.75047  20656594.5234                   20656588.4184
        48.5004         47.5004
 -43864340.41047 -34137137.41445  21728117.4694                   21728112.9734
        46.5004         34.5004
 -24119721.87147 -18745521.53546  22225820.4844                   22225819.1724
        44.7504         40.7504
 -43729272.48446 -33966057.68745  24986189.3674                   24986187.1524
        40.2504         30.5004
  -1901239.27346   -955909.14843  24061721.0704                   24061719.3014
        39.2504         20.5004
 25  7 15  0 52 30.0000000  0  9G03G02G28G04G31G01G26G32G16
 -39490464.92248 -30730339.01648  20592900.0234                   20592896.8014
        48.5004         50.2504
 -48752152.57447 -37948632.36344  23393244.3134                   23393239.9184
        43.0004         29.7504
 -49741351.84047 -38719490.96945  22867954.2344                   22867949.6094
        44.0004         31.0004
 -25341820.96147 -19700176.65645  22283933.3284                   22283930.2814
        44.5004         31.5004
 -52489433.33648 -40856129.08247  20648906.1414                   20648900.1454
        49.0004         47.5004
 -43900832.85247 -34165573.11345  21721173.0004                   21721168.6994
        46.7504         34.5004
 -24267004.62547 -18860287.25446  22197793.6174                   22197791.9654
        43.5004         41.0004
 -43746879.83246 -33979777.86745  24982839.3284                   24982838.7704
        39.7504         31.2504
  -2092458.43746  -1104910.88743  24025332.7814                   24025330.8874
        39.0004         21.0004
 25  7 15  0 53  0.0000000  0  9G03G02G28G04G31G01G26G32G16
 -39628671.69548 -30838032.58648  20566600.2814                   20566597.3984
        48.7504         50.2504
 -48757529.00447 -37952821.90644  23392222.0554                   23392216.7584
        43.5004         29.5004
 -49741474.87147 -38719586.88345  22867931.0004                   22867926.2894
        43.7504         31.5004
 -25485121.05547 -19811839.02345  22256664.8914                   22256661.1844
        45.2504         31.0004
 -52529268.60947 -40887169.56247  20641325.8914                   20641319.5634
        47.7504         47.5004
 -43936775.22747 -34193580.18745  21714333.1174                   21714329.0084
        46.2504         34.2504
 -24413773.94547 -18974652.88746  22169864.4924                   22169862.5434
        44.2504         41.0004
 -43764396.73846 -33993427.43445  24979504.4924                   24979506.9534
        39.5004         31.2504
  -2283587.57046  -1253842.48443  23988962.2894                   23988960.3324
        38.7504         21.7504
 25  7 15  0 53 30.0000000  0  9G03G02G28G04G31G01G26G32G16
 -39766406.88748 -30945358.69548  20540389.9924                   20540386.8754
        48.7504         50.2504
 -48762669.40647 -37956827.52344  23391244.2584                   23391239.5004
        43.2504         29.5004
 -49741303.75047 -38719453.59045  22867963.3204                   22867959.0234
        43.5004         31.7504
 -25628217.09847 -19923342.39145  22229434.3984                   22229431.0784
        45.0004         31.0004
 -52568532.35548 -40917764.69947  20633853.8204                   20633847.9964
        48.2504         47.2504
 -43972161.66047 -34221154.06645  21707599.0474                   21707595.3484
        46.2504         34.7504
 -24560018.87147 -19088609.92246  22142034.7974                   22142033.2344
        44.5004         41.5004
 -43781814.74646 -34007000.01645  24976192.6334                   24976191.3204
        40.2504         32.0004
  -2474615.30546  -1402695.03943  23952611.0784                   23952608.6804
        39.0004         21.5004
 25  7 15  0 54  0.0000000  0  9G03G02G28G04G31G01G26G32G16
 -39903672.19948 -31052318.66448  20514269.3674                   20514265.9774
        49.2504         50.2504
 -48767580.47747 -37960654.41844  23390309.1174                   23390303.9064
        43.0004         28.5004
 -49740844.84047 -38719096.05145  22868051.1094                   22868046.4064
        43.7504         32.2504
 -25771113.07047 -20034689.86345  22202242.1024                   22202238.4344
        45.0004         30.5004
 -52607230.54348 -40947919.14147  20626490.3054                   20626484.0394
        48.0004         47.2504
 -44006998.39147 -34248299.59845  21700970.3284                   21700966.2384
        47.0004         35.0004
 -24705740.65647 -19202159.30146  22114304.9534                   22114303.2544
        43.5004         41.0004
 -43799137.80147 -34020498.54745  24972895.7664                   24972895.3164
        42.0004         34.7504
  -2665542.38346  -1551469.18743  23916277.9844                   23916276.2034
        39.0004         22.0004
 25  7 15  0 54 30.0000000  0  9G03G02G28G04G31G01G26G32G16
 -40040459.24648 -31158905.96548  20488239.3444                   20488236.1684
        48.7504         50.2504
 -48772259.20747 -37964300.27744  23389419.2424                   23389414.0314
        43.0004         28.5004
 -49740094.37547 -38718511.31245  22868193.5704                   22868189.0984
        44.0004         31.5004
 -25913802.84447 -20145876.66845  22175089.3284                   22175085.1764
        45.2504         30.7504
 -52645359.11748 -40977629.73047  20619234.3594                   20619228.3134
        48.5004         47.2504
 -44041281.56647 -34275013.80145  21694446.3364                   21694442.4844
        46.5004         34.5004
 -24850930.35247 -19315294.07846  22086676.0634                   22086674.6374
        45.0004         41.0004
 -43816359.38346 -34033918.03145  24969618.7194                   24969616.9104
        41.5004         31.7504
  -2856359.34846  -1700157.55143  23879966.5784                   23879964.4774
        39.2504         21.5004
 25  7 15  0 55  0.0000000  0  9G03G02G28G04G31G01G26G32G16
 -40176762.62548 -31265116.37948  20462301.7974                   20462298.8914
        49.2504         50.2504
 -48776705.02747 -37967764.64544  23388572.9694                   23388568.4064
        42.7504         29.0004
 -49739051.59447 -38717698.81245  22868392.5554                   22868388.1414
        43.7504         31.0004
 -26056283.37947 -20256900.41445  22147975.5554                   22147972.4414
        43.2504         31.2504
 -52682917.29748 -41006895.85247  20612087.4304                   20612081.4104
        48.7504         47.2504
 -44075010.26247 -34301295.93445  21688027.8834                   21688024.0084
        47.0004         34.0004
 -24995582.07847 -19428009.65246  22059149.7504                   22059148.5864
        43.2504         41.2504
 -43833476.31246 -34047256.05144  24966361.2814                   24966359.7664
        39.5004         29.2504
  -3047059.84446  -1848755.10543  23843676.9694                   23843675.0314
        38.5004         21.7504
 25  7 15  0 55 30.0000000  0  9G03G02G28G04G31G01G26G32G16
 -40312570.36348 -31370940.57848  20436458.5784                   20436455.8244
        49.7504         50.2504
 -48780911.01247 -37971042.14844  23387773.1804                   23387768.3094
        43.0004         28.7504
 -49737709.17247 -38716652.80545  22868647.4774                   22868642.9184
        44.0004         32.0004
 -26198544.92247 -20367753.52345  22120904.2274                   22120900.9384
        43.5004         31.0004
 -52719897.80948 -41035711.84847  20605050.0864                   20605044.0554
        48.0004         47.0004
 -44108177.03947 -34327140.21545  21681716.8054                   21681712.3404
        46.2504         34.0004
 -25139683.39547 -19540296.34046  22031727.9144                   22031726.8054
        43.2504         41.5004
 -43850478.60246 -34060504.63345  24963126.6884                   24963125.2934
        41.0004         33.5004
  -3237631.02046  -1997251.94143  23807413.4774                   23807410.7074
        39.7504         22.5004
 25  7 15  0 56  0.0000000  0  9G03G02G28G04G31G01G26G32G16
 -40447893.37948 -31476387.07048  20410707.2114                   20410704.4454
        49.7504         50.2504
 -48784892.71146 -37974144.86344  23387015.0784                   23387010.6844
        41.5004         28.7504
 -49736082.62547 -38715385.42645  22868957.6804                   22868952.6134
        44.2504         30.5004
 -26340600.66047 -20478446.26645  22093872.1414                   22093867.8404
        45.0004         31.5004
 -52756316.10948 -41064089.75847  20598120.0554                   20598114.2774
        48.2504         47.2504
 -44140797.40247 -34352558.71545  21675509.5704                   21675505.3484
        45.5004         33.7504
 -25283244.71147 -19652162.23846  22004409.2344                   22004407.5474
        45.0004         41.7504
 -43867379.07046 -34073673.93045  24959909.5394                   24959909.0084
        39.7504         31.2504
  -3428082.52746  -2145655.52343  23771171.7274                   23771169.0664
        40.0004         22.5004
 25  7 15  0 56 30.0000000  0  9G03G02G28G04G31G01G26G32G16
 -40582726.98048 -31581452.20348  20385049.1804                   20385046.2074
        49.2504         50.2504
 -48788650.66847 -37977073.23844  23386300.2814                   23386295.3914
        42.0004         28.2504
 -49734171.79347 -38713896.51245  22869321.2584                   22869316.5704
        44.0004         30.5004
 -26482448.10247 -20588976.70345  22066879.2034                   22066875.3594
        45.2504         30.7504
 -52792171.85947 -41092029.31647  20591296.8754                   20591290.9064
        47.2504         47.2504
 -44172871.12947 -34377551.26645  21669405.8984                   21669402.0704
        45.2504         34.7504
 -25426260.84447 -19763603.32846  21977194.0864                   21977192.9804
        45.0004         41.5004
 -43884175.10246 -34086761.85945  24956712.3834                   24956712.4574
        37.7504         30.7504
  -3618408.68746  -2293961.42243  23734953.3594                   23734950.9614
        40.2504         22.7504
 25  7 15  0 57  0.0000000  0  9G03G02G28G04G31G01G26G32G16
 -40717067.97748 -31686133.49648  20359485.0394                   20359481.7974
        49.5004         50.2504
 -48792186.62547 -37979828.63744  23385627.6804                   23385622.2234
        42.0004         28.2504
 -49731978.09847 -38712187.18745  22869738.1094                   22869733.9534
        44.2504         30.5004
 -26624086.37147 -20699344.14845  22039926.0234                   22039922.6564
        44.7504         31.2504
 -52827466.58248 -41119531.71547  20584580.4224                   20584574.9264
        48.0004         47.0004
 -44204399.60947 -34402118.95345  21663406.5634                   21663402.5904
        44.5004         34.5004
 -25568728.11747 -19874616.73446  21950083.2664                   21950081.8954
        45.5004         41.2504
 -43900865.55546 -34099767.45745  24953537.4534                   24953535.5354
        41.5004         31.2504
  -3808605.11346  -2442166.25443  23698760.1804                   23698757.1484
        40.5004         22.5004
 25  7 15  0 57 30.0000000  0  9G03G02G28G04G31G01G26G32G16
 -40850916.88748 -31790431.34048  20334014.5704                   20334011.6454
        49.0004         50.2504
 -48795506.07047 -37982415.30944  23384996.5784                   23384990.9654
        43.0004         28.5004
 -49729506.67247 -38710261.45345  22870209.0634                   22870204.1254
        44.5004         31.0004
 -26765518.21147 -20809550.73845  22013012.6644                   22013009.4064
        45.5004         30.7504
 -52862205.26248 -41146600.83247  20577970.1334                   20577964.1994
        48.5004         47.0004
 -44235387.96947 -34426265.76245  21657509.3444                   21657505.1994
        45.0004         33.7504
 -25710646.69947 -19985202.59046  21923077.0944                   21923075.7584
        45.5004         41.5004
 -43917452.89546 -34112692.72745  24950381.4534                   24950378.0824
        40.2504         30.5004
  -3998671.46146  -2590269.74243  23662591.0864                   23662588.4344
        39.0004         21.5004
 25  7 15  0 58  0.0000000  0  9G03G02G28G04G31G01G26G32G16
 -40984271.29348 -31894343.85248  20308638.0164                   20308634.9414
        49.5004         50.5004
 -48798611.09847 -37984834.91044  23384405.0474                   23384400.1724
        43.0004         27.5004
 -49726759.59447 -38708120.92245  22870731.6334                   22870727.3404
        44.0004         31.0004
 -26906743.36747 -20919596.26645  21986138.7194                   21986134.9774
        45.2504         32.0004
 -52896389.90648 -41173238.23047  20571465.0474                   20571459.0434
        48.0004         47.0004
 -44265838.31247 -34449993.34445  21651715.0474                   21651710.8874
        44.0004         34.2504
 -25852013.58647 -20095358.55546  21896175.9144                   21896174.6024
        45.7504         41.5004
 -43933936.68746 -34125537.36345  24947244.7344                   24947243.2424
        39.5004         31.5004
  -4188604.05946  -2738268.96143  23626448.1334                   23626445.7034
        39.5004         21.7504
 25  7 15  0 58 30.0000000  0 10G03G09G02G28G04G31G01G26G32G16
 -41117134.24248 -31997873.41448  20283355.2344                   20283351.8244
        49.0004         50.5004
  10638018.04755   8327990.79754  24925546.6254                   24925547.5164
        35.0004         25.2504
 -48801510.34847 -37987094.15644  23383852.2584                   23383848.5944
        43.0004         28.5004
 -49723744.47347 -38705771.52745  22871305.2814                   22871300.9384
        44.5004         30.2504
 -27047767.19147 -21029484.93745  21959302.6094                   21959298.7974
        45.5004         31.5004
 -52930028.01248 -41199449.76647  20565063.9694                   20565057.9964
        48.0004         47.2504
 -44295758.32047 -34473307.67645  21646021.2424                   21646017.3164
        45.2504         33.5004
 -25992831.45747 -20205086.70346  21869379.2584                   21869377.7074
        45.5004         41.5004
 -43950322.05146 -34138305.32844  24944125.6564                   24944126.4614
        38.0004         27.0004
  -4378404.84846  -2886165.51643  23590329.4614                   23590327.0634
        39.0004         22.0004
 25  7 15  0 59  0.0000000  0 10G03G09G02G28G04G31G01G26G32G16
 -41249524.64148 -32101034.75448  20258161.8284                   20258158.7814
        49.0004         50.5004
  10472902.06345   8199329.05944  24894126.3674                   24894126.2814
        35.2504         28.7504
 -48804227.31246 -37989211.39544  23383336.2504                   23383331.6174
        41.7504         26.7504
 -49720484.78947 -38703231.57445  22871925.3984                   22871921.4384
        44.0004         30.5004
 -27188610.75847 -21139233.13745  21932500.4144                   21932497.0474
        45.2504         31.5004
 -52963143.25048 -41225253.85947  20558762.3754                   20558756.5044
        48.0004         47.0004
 -44325171.48047 -34496227.05545  21640423.8444                   21640420.2114
        44.7504         33.5004
 -26133118.82447 -20314401.48446  21842683.0864                   21842682.0474
        45.5004         41.5004
 -43966629.68046 -34151012.58245  24941022.3364                   24941023.6054
        39.5004         31.7504
  -4568091.41446  -3033973.06643  23554233.6484                   23554230.5634
        38.5004         20.5004
 25  7 15  0 59 30.0000000  0 10G03G09G02G28G04G31G01G26G32G16
 -41381439.50448 -32203825.54748  20233059.1954                   20233056.4844
        48.7504         50.2504
  10307855.50856   8070721.75054  24862719.0704                   24862720.3094
        36.7504         28.0004
 -48806763.77747 -37991187.97744  23382854.1644                   23382849.1914
        42.5004         27.5004
 -49716982.07447 -38700502.24245  22872592.7974                   22872588.0664
        44.2504         30.5004
 -27329273.27047 -21248840.25845  21905733.8754                   21905729.7194
        44.7504         31.7504
 -52995737.18047 -41250651.73847  20552559.7344                   20552554.2734
        47.7504         47.0004
 -44354079.37547 -34518752.73045  21634923.3834                   21634918.9064
        44.5004         32.7504
 -26272872.24247 -20423300.19946  21816089.3754                   21816087.5744
        45.2504         41.7504
 -43982858.62146 -34163658.66845  24937934.9144                   24937935.3014
        39.7504         30.7504
  -4757659.91846  -3181688.58243  23518161.1954                   23518157.1454
        39.7504         21.7504
 25  7 15  1  0  0.0000000  0 10G03G09G02G28G04G31G01G26G32G16
 -41512872.11748 -32306240.55548  20208048.6484                   20208045.4224
        49.5004         50.5004
  10142883.32046   7942172.04744  24831324.8834                   24831325.3094
        38.0004         29.2504
 -48809118.27747 -37993022.74644  23382406.2034                   23382401.6994
        43.0004         27.0004
 -49713234.03947 -38697581.75444  22873305.4614                   22873301.1564
        43.2504         29.7504
 -27469750.20347 -21358302.77045  21879001.8364                   21878998.0084
        45.0004         32.5004
 -53027807.48448 -41275641.60547  20546456.8284                   20546451.4694
        48.5004         47.0004
 -44382479.92247 -34540883.06245  21629518.9694                   21629514.5864
        45.0004         33.5004
 -26412084.59847 -20531777.29746  21789598.2424                   21789596.0904
        45.5004         41.5004
 -43999004.11745 -34176239.63344  24934860.8364                   24934863.4064
        33.0004         27.0004
  -4947102.28146  -3329305.87943  23482110.3054                   23482107.8134
        39.2504         21.5004
 25  7 15  1  0 30.0000000  0 10G03G09G02G28G04G31G01G26G32G16
 -41643816.08248 -32408274.80148  20183130.6804                   20183127.5514
        48.7504         50.5004
   9977989.44555   7813683.43854  24799943.5634                   24799947.4654
        32.7504         25.2504
 -48811289.27747 -37994714.53944  23381993.3054                   23381988.3054
        43.0004         26.5004
 -49709238.85247 -38694468.66445  22874065.8674                   22874061.4064
        43.7504         30.7504
 -27610037.31247 -21467617.36345  21852305.5084                   21852302.3954
        43.2504         32.2504
 -53059352.34048 -41300222.03147  20540454.4844                   20540448.4734
        48.0004         47.0004
 -44410371.40247 -34562616.72345  21624211.2114                   21624207.0944
        46.0004         34.0004
 -26550749.09447 -20639827.49646  21763210.7114                   21763209.1134
        43.5004         41.7504
 -44015061.86746 -34188752.28944  24931806.3204                   24931805.9304
        36.5004         28.7504
  -5136411.05146  -3476819.05943  23446085.4454                   23446082.5124
        39.2504         20.5004
 25  7 15  1  1  0.0000000  0 10G03G09G02G28G04G31G01G26G32G16
 -40198845.18448 -31282323.43448  20458099.3674                   20458096.3984
        49.7504         50.5004
  11388599.12945   8912859.95344  25068375.8834                   25068375.4574
        35.0004         25.7504
 -47237859.45746 -36768665.43444  23681406.8054                   23681402.2034
        41.7504         27.2504
 -48129579.28947 -37463565.17244  23174665.0084                   23174660.8094
        43.2504         29.7504
 -26174710.25447 -20349180.66045  22125439.9224                   22125435.7814
        43.7504         32.5004
 -51514953.52347 -40096794.38747  20834343.4924                   20834337.6884
        47.5004         46.7504
 -42862335.59447 -33356355.09845  21918792.5394                   21918788.8634
        45.5004         33.2504
 -25113438.91047 -19519845.48047  22036721.4614                   22036720.1764
        44.2504         42.0004
 -42455611.25046 -32973596.03544  25228560.0394                   25228560.5824
        38.0004         29.5004
  -3750156.72746  -2396620.69943  23709881.6254                   23709878.1764
        39.5004         22.0004
 25  7 15  1  1 30.0000000  0 10G03G09G02G28G04G31G01G26G32G16
 -40328800.25448 -31383587.10248  20433369.7894                   20433366.8914
        49.5004         50.5004
  11223866.98446   8784497.35544  25037029.0704                   25037028.0314
        37.0004         28.2504
 -47239666.16846 -36770073.39144  23681063.3984                   23681058.4734
        41.5004         26.7504
 -48125091.65247 -37460068.37145  23175519.1644                   23175514.7344
        43.0004         30.7504
 -26314612.63747 -20458195.47745  22098817.2274                   22098813.3834
        45.2504         32.2504
 -51545449.72747 -40120557.68747  20828540.4924                   20828534.2934
        47.5004         46.7504
 -42889211.11347 -33377297.09445  21913678.3204                   21913674.4804
        45.7504         34.0004
 -25250994.98047 -19627031.97347  22010545.5474                   22010543.9924
        45.5004         42.0004
 -42471487.13346 -32985967.04344  25225540.5314                   25225539.0864
        38.5004         28.0004
  -3939182.85546  -2543913.64543  23673910.8914                   23673907.8284
        39.7504         22.7504
 25  7 15  1  2  0.0000000  0 10G03G09G02G28G04G31G01G26G32G16
 -40458255.22748 -31484461.09048  20408735.3984                   20408732.1644
        49.5004         50.5004
  11059218.10545   8656199.78544  25005695.3984                   25005697.9614
        35.2504         27.0004
 -47241292.35246 -36771340.65244  23680754.1724                   23680749.1644
        40.2504         25.5004
 -48120358.77047 -37456380.46144  23176419.8284                   23176415.5274
        43.0004         29.5004
 -26454320.21547 -20567058.49245  22072231.5234                   22072227.8674
        45.0004         33.0004
 -51575422.73047 -40143913.28947  20822836.8284                   20822831.0984
        47.7504         47.0004
 -42915579.97347 -33397844.30145  21908660.7734                   21908656.4224
        45.7504         33.2504
 -25387990.59447 -19733781.75447  21984476.0944                   21984474.6684
        45.0004         42.0004
 -42487269.64546 -32998265.09044  25222535.8444                   25222536.6844
        38.0004         27.7504
  -4128060.38746  -2691090.80143  23637968.2424                   23637964.4654
        40.7504         19.7504
 25  7 15  1  2 30.0000000  0 10G03G09G02G28G04G31G01G26G32G16
 -40587211.35248 -31584946.36348  20384195.9454                   20384192.9774
        50.0004         50.5004
  10894650.15656   8527965.36754  24974383.1024                   24974381.9304
        38.5004         29.5004
 -47242744.34446 -36772472.19144  23680477.6644                   23680473.2584
        41.5004         26.7504
 -48115386.35547 -37452505.90645  23177365.6884                   23177361.7934
        42.7504         30.0004
 -26593836.39547 -20675772.35945  22045683.0164                   22045678.7154
        45.5004         33.5004
 -51604878.50447 -40166865.85947  20817231.3364                   20817225.4184
        47.0004         46.7504
 -42941448.05547 -33418001.28545  21903738.3914                   21903734.2424
        45.7504         34.0004
 -25524426.63747 -19840095.50447  21958513.5084                   21958511.7854
        45.0004         42.2504
 -42502961.75846 -33010492.77744  25219549.7584                   25219549.8164
        39.0004         28.2504
  -4316789.11746  -2838151.97343  23602054.8284                   23602051.3324
        41.5004         20.2504
 25  7 15  1  3  0.0000000  0 10G03G09G02G28G04G31G01G26G32G16
 -40715667.32448 -31685041.90648  20359751.3054                   20359748.2664
        49.5004         50.7504
  10730160.08616                  24943080.336
        38.000
 -47244025.44146 -36773470.55544  23680233.6334                   23680229.4064
        41.2504         26.5004
 -48110177.53547 -37448447.13744  23178357.3284                   23178352.9064
        42.5004         29.5004
 -26733161.95747 -20784337.70745  22019169.9924                   22019165.6994
        46.0004         32.5004
 -51633820.15247 -40189417.81247  20811724.2734                   20811718.0354
        47.7504         46.7504
 -42966818.73047 -33437770.67245  21898910.4924                   21898906.5084
        46.0004         34.5004
 -25660301.50047 -19945971.98046  21932657.2814                   21932655.5434
        46.0004         41.7504
 -42518563.85246 -33022650.42644  25216582.3914                   25216580.4344
        39.0004         28.2504
  -4505366.64546  -2985095.32443  23566168.5864                   23566166.0594
        40.2504         21.5004
 25  7 15  1  3 30.0000000  0 10G03G09G02G28G04G31G01G26G32G16
 -40843620.42648 -31784745.60548  20335402.5784                   20335400.0004
        49.2504         50.5004
  10565749.49645   8294745.52754  24911788.6564                   24911793.2774
        35.0004         26.7504
 -47245137.96547 -36774337.54744  23680021.8524                   23680017.9264
        42.0004         28.0004
 -48104733.99647 -37444205.47344  23179393.3674                   23179389.1454
        43.2504         29.7504
 -26872296.28947 -20892754.03945  21992692.8444                   21992689.2114
        45.2504         31.7504
 -51662249.52047 -40211570.57447  20806314.5704                   20806308.4304
        47.5004         46.7504
 -42991693.91047 -33457153.96945  21894176.8364                   21894172.8954
        46.0004         33.7504
 -25795612.08247 -20051408.75447  21906907.8284                   21906906.8014
        44.7504         42.0004
 -42534075.46146 -33034737.41044  25213627.9844                   25213629.8984
        36.7504         26.0004
  -4693789.02046  -3131917.82043  23530313.0864                   23530310.2154
        40.5004         22.5004
 25  7 15  1  4  0.0000000  0 10G03G09G02G28G04G31G01G26G32G16
 -40971071.33648 -31884057.98448  20311149.7424                   20311147.0164
        49.0004         50.7504
                                  24880520.867
        38.250
 -47246087.43746 -36775077.52044  23679841.4064                   23679837.0124
        41.2504         27.5004
 -48099060.82047 -37439784.87944  23180472.3204                   23180468.9844
        42.5004         29.7504
 -27011242.18747 -21001023.53945  21966252.6254                   21966249.2624
        45.0004         31.7504
 -51690171.85248 -40233328.25847  20801000.8134                   20800995.2384
        48.0004         46.7504
 -43016078.93047 -33476155.32445  21889536.9534                   21889532.3834
        46.2504         34.0004
 -25930358.73847 -20156406.11347  21881267.1094                   21881265.2854
        46.0004         42.0004
 -42549498.80946 -33046755.73045  25210695.0554                   25210695.8984
        39.2504         32.5004
  -4882055.51646  -3278618.82443  23494487.9694                   23494483.6134
        40.5004         21.0004
 25  7 15  1  4 30.0000000  0 10G03G09G02G28G04G31G01G26G32G16
 -41098015.76248 -31982975.69948  20286993.2034                   20286990.4344
        49.7504         50.7504
  10237161.20746   8062600.02755  24849265.2664                   24849264.7304
        38.5004         30.0004
 -47246874.48046 -36775690.90644  23679691.7974                   23679687.0164
        41.7504         26.7504
 -48093158.13747 -37435185.46144  23181596.3674                   23181592.1994
        43.0004         29.5004
 -27149997.39847 -21109144.44145  21939848.5634                   21939844.8164
        44.7504         32.7504
 -51717587.39847 -40254691.04347  20795783.8284                   20795777.9384
        47.0004         46.5004
 -43039974.20347 -33494775.05545  21884989.6884                   21884985.4884
        44.7504         33.5004
 -26064536.84047 -20260960.43447  21855733.4924                   21855731.9844
        46.5004         42.0004
 -42564831.68046 -33058703.48444  25207776.5634                   25207775.7894
        36.7504         25.7504
  -5070160.53946  -3425194.01643  23458691.5554                   23458688.6524
        40.2504         22.2504
 25  7 15  1  5  0.0000000  0 10G03G09G02G28G04G31G01G26G32G16
 -41224449.91448 -32081495.80148  20262933.2894                   20262930.2814
        49.7504         50.7504
  10072987.01246   7934672.32044  24818023.3364                   24818023.4964
        37.7504         28.5004
 -47247500.01246 -36776178.46944  23679573.1564                   23679568.0314
        41.5004         27.5004
 -48087026.44547 -37430407.57445  23182762.7344                   23182758.8714
        42.5004         30.0004
 -27288560.23047 -21217115.46145  21913480.3204                   21913476.8834
        46.0004         32.0004
 -51744497.00848 -40275659.59047  20790663.2664                   20790657.4694
        48.2504         46.7504
 -43063380.57847 -33513013.82845  21880534.9694                   21880531.3914
        45.0004         33.5004
 -26198142.30147 -20365068.53947  21830309.3364                   21830307.3594
        46.0004         42.5004
 -42580072.23045 -33070579.25844  25204873.2034                   25204878.1524
        32.0004         27.0004
  -5258099.11746  -3571639.48843  23422928.7034                   23422924.8054
        40.2504         22.7504
 25  7 15  1  5 30.0000000  0 10G03G09G02G28G04G31G01G26G32G16
 -41350370.81248 -32179615.97348  20238971.6334                   20238968.4924
        49.0004         51.0004
   9908894.29345   7806808.00044  24786795.0084                   24786795.9654
        34.7504         26.2504
 -47247965.62547 -36776541.41844  23679484.3914                   23679479.4774
        42.2504         27.0004
 -48080667.15247 -37425452.34044  23183973.5234                   23183969.2274
        43.0004         29.2504
 -27426929.78147 -21324935.85545  21887149.8284                   21887146.1174
        46.2504         32.7504
 -51770902.17248 -40296235.05947  20785638.6884                   20785632.6334
        48.0004         46.7504
 -43086299.75047 -33530872.96545  21876174.5864                   21876170.2704
        45.5004         34.0004
 -26331171.89147 -20468727.91847  21804994.8524                   21804993.0084
        46.2504         42.5004
 -42595219.05956 -33082382.23854  25201995.7194                   25201996.3364
        38.5004         28.5004
  -5445866.79346  -3717951.87543  23387196.5944                   23387193.9494
        40.0004         23.2504
 25  7 15  1  6  0.0000000  0 10G03G09G02G28G04G31G01G26G32G16
 -41475773.21148 -32277332.10548  20215107.8524                   20215104.9224
        49.0004         50.7504
   9744886.33646   7679009.70345  24755587.4454                   24755586.3834
        37.7504         30.0004
 -47248271.23446 -36776779.68744  23679426.5864                   23679421.6994
        41.5004         26.2504
 -48074079.28547 -37420319.00044  23185227.1174                   23185222.8364
        42.2504         29.0004
 -27565102.75447 -21432603.07845  21860856.5864                   21860852.7344
        45.2504         33.0004
 -51796802.09047 -40316416.82447  20780709.6484                   20780703.5704
        47.5004         46.7504
 -43108731.16047 -33548352.02345  21871905.6804                   21871901.5044
        46.5004         34.2504
 -26463619.99647 -20571934.19147  21779791.0004                   21779788.8134
        46.2504         42.5004
 -42610268.72345 -33094109.20744  25199129.0314                   25199131.4224
        33.5004         29.0004
  -5633456.93446  -3864125.85243  23351499.9924                   23351496.6914
        40.7504         23.5004
 25  7 15  1  6 30.0000000  0 10G03G09G02G28G04G31G01G26G32G16
 -41600656.27748 -32374643.57448  20191343.6644                   20191340.4414
        49.0004         51.0004
   9580961.84445   7551276.43444  24724392.4454                   24724392.1484
        35.2504         27.5004
 -47248420.69146 -36776896.25444  23679397.8594                   23679393.8714
        41.0004         24.7504
 -48067266.42246 -37415010.32844  23186523.1094                   23186518.9884
        41.5004         29.5004
 -27703080.48447 -21540118.16445  21834600.3914                   21834596.5864
        45.7504         33.0004
 -51822200.79747 -40336208.04347  20775876.5394                   20775870.7624
        47.0004         46.7504
 -43130678.70747 -33565454.04745  21867729.0164                   21867725.3164
        44.5004         33.7504
 -26595485.50847 -20674686.50047  21754697.1884                   21754695.8404
        46.0004         42.7504
 -42625222.55546 -33105761.73844  25196285.4614                   25196287.5004
        39.0004         27.7504
  -5820867.57446  -4010159.98843  23315836.7734                   23315832.7974
        41.0004         22.7504
 25  7 15  1  7  0.0000000  0 10G03G09G02G28G04G31G01G26G32G16
 -41725023.57448 -32471553.14148  20167677.2584                   20167673.9104
        49.5004         51.0004
   9417114.98845   7423603.73444  24693213.2584                   24693213.3674
        35.2504         28.7504
 -47248422.32446 -36776897.66444  23679397.3134                   23679393.7894
        41.5004         25.5004
 -48060236.34447 -37409532.41445  23187861.2814                   23187857.2584
        42.0004         30.0004
 -27840868.41447 -21647485.34445  21808379.9694                   21808376.0864
        45.2504         33.7504
 -51847106.02348 -40355614.73047  20771137.0784                   20771131.5634
        48.0004         46.5004
 -43152150.57847 -33582185.42245  21863643.0864                   21863638.9224
        45.5004         33.2504
 -26726771.75447 -20776987.43047  21729714.2114                   21729712.8244
        46.0004         42.5004
 -42640085.39546 -33115181.09854  25193457.5864                   25193456.7584
        36.5004         29.0004
  -6008100.66046  -4156055.75443  23280207.7344                   23280203.9844
        41.0004         22.5004
 25  7 15  1  7 30.0000000  0 10G03G09G02G28G04G31G01G26G32G16
 -41848873.43748 -32568059.52048  20144109.2814                   20144106.0984
        49.7504         51.0004
   9253345.61746   7295991.35544  24662049.2664                   24662048.9964
        36.5004         29.2504
 -47248279.41446 -36776786.42644  23679424.8054                   23679421.3284
        40.7504         26.0004
 -48052991.73047 -37403887.31644  23189240.4614                   23189236.0354
        42.2504         29.7504
 -27978466.98447 -21754704.98045  21782195.3914                   21782192.0554
        44.5004         33.2504
 -51871520.76247 -40374639.22747  20766491.3204                   20766485.6294
        46.7504         46.5004
 -43173149.78147 -33598548.46945  21859647.4224                   21859643.1644
        45.2504         33.5004
 -26857476.80547 -20878835.48047  21704841.6884                   21704840.2934
        46.2504         42.5004
 -42654857.91846 -33126692.37144  25190645.9304                   25190647.9774
        38.0004         27.5004
  -6195153.55546  -4301811.12143  23244612.3594                   23244609.2934
        40.5004         23.5004
 25  7 15  1  8  0.0000000  0 10G03G09G02G28G04G31G01G26G32G16
 -41972204.36348 -32664161.52748  20120640.5944                   20120637.4964
        48.7504         51.0004
   9089653.05146   7168438.85545  24630900.1564                   24630899.9304
        36.7504         30.2504
 -47247994.86746 -36776564.84444  23679479.2974                   23679475.0084
        40.5004         27.0004
 -48045535.33246 -37398077.19545  23190658.2734                   23190654.8674
        41.5004         30.0004
 -28115876.61347 -21861777.38745  21756047.8444                   21756043.9734
        45.5004         33.2504
 -51895448.03948 -40393283.87547  20761938.0864                   20761932.5634
        48.0004         46.5004
 -43193679.59047 -33614545.77745  21855740.8524                   21855736.6094
        45.7504         33.0004
 -26987598.86347 -20980229.24647  21680080.3204                   21680078.9884
        46.5004         42.5004
 -42669540.18057 -33138133.11354  25187854.8524                   25187851.1764
        42.5004         29.5004
  -6382023.09846  -4447423.64844  23209051.7894                   23209049.4774
        40.0004         25.0004
 25  7 15  1  8 30.0000000  0 10G03G09G02G28G04G31G01G26G32G16
 -42095014.77748 -32759857.94548  20097270.1254                   20097266.8834
        49.5004         51.0004
   8926036.81345   7040945.83245  24599763.2584                   24599765.3834
        35.7504         30.2504
 -47247572.04746 -36776235.50444  23679559.1884                   23679555.5984
        40.7504         26.5004
 -48037869.80147 -37392104.11744  23192117.1024                   23192114.1174
        42.5004         28.7504
 -28253097.71547 -21968702.89845  21729934.8594                   21729931.4384
        44.5004         33.5004
 -51918890.97748 -40411551.12147  20757477.3674                   20757470.9804
        48.0004         46.5004
 -43213743.04347 -33630179.67645  21851922.8754                   21851918.8874
        45.2504         33.7504
 -27117136.16047 -21081167.36347  21655429.9454                   21655428.6334
        46.0004         42.5004
 -42684132.34845 -33149503.63744  25185070.4454                   25185076.0944
        30.7504         24.7504
  -6568705.94946  -4592890.68744  23173527.4224                   23173523.9344
        40.7504         24.2504
 25  7 15  1  9  0.0000000  0 10G03G09G02G28G04G31G01G26G32G16
 -42217300.87148 -32855145.80148  20073999.9534                   20073996.8164
        49.7504         51.0004
   8762498.94146   6913513.89845  24568645.3284                   24568644.7974
        39.0004         31.0004
 -47247011.78946 -36775799.10244  23679667.0314                   23679662.3914
        40.2504         24.7504
 -48029995.53147 -37385968.37545  23193616.0394                   23193612.1454
        43.0004         30.0004
 -28390128.43447 -22075480.05545  21703859.2974                   21703855.4964
        44.5004         33.0004
 -51941849.92248 -40429441.22747  20753108.0234                   20753102.3054
        48.0004         46.5004
 -43233341.03947 -33645450.88745  21848193.1254                   21848189.5984
        44.5004         33.0004
 -27246084.57047 -21181646.59847  21630892.4844                   21630890.4964
        46.2504         42.5004
 -42698631.47356 -33160801.53954  25182315.3914                   25182315.5274
        38.5004         24.5004
  -6755197.26246  -4738208.47744  23138039.3204                   23138034.9774
        41.0004         24.0004
 25  7 15  1  9 30.0000000  0 10G03G09G02G28G04G31G01G26G32G16
 -42339056.70348 -32950020.46548  20050830.4774                   20050827.6294
        48.7504         51.0004
   8599043.02746   6786145.78145  24537539.8984                   24537539.6174
        38.2504         30.5004
 -47246312.93046 -36775254.68044  23679799.6024                   23679794.9454
        39.7504         25.5004
 -48021910.87547 -37379668.70345  23195154.1414                   23195150.5904
        42.5004         30.2504
 -28526964.79347 -22182105.76645  21677820.1804                   21677816.3244
        45.5004         33.2504
 -51964323.94148 -40446953.46147  20748831.7344                   20748825.6954
        48.2504         46.5004
 -43252472.37547 -33660358.47345  21844553.1724                   21844548.7194
        45.0004         33.2504
 -27374438.08247 -21281662.27747  21606467.0164                   21606465.2464
        46.2504         42.7504
 -42713035.27046 -33172025.43044  25179574.6254                   25179575.8204
        38.0004         25.5004
  -6941489.61747  -4883371.21144  23102590.0944                   23102585.0084
        42.7504         24.5004
 25  7 15  1 10  0.0000000  0  9G03G09G02G28G04G31G01G26G16
 -42460278.53948 -33044479.03948  20027762.8914                   20027759.9534
        49.0004         51.0004
   8435671.10546   6658843.16844  24506451.6564                   24506450.6214
        39.0004         28.2504
 -47245476.62146 -36774603.17244  23679960.0704                   23679954.9694
        40.5004         25.5004
 -48013616.25447 -37373205.43044  23196732.7734                   23196729.1294
        42.2504         29.2504
 -28663604.99647 -22288578.62145  21651818.2584                   21651814.3324
        45.0004         34.0004
 -51986313.69148 -40464088.35547  20744647.1334                   20744641.0234
        48.0004         46.5004
 -43271137.96947 -33674903.12945  21841000.7894                   21840997.0084
        45.2504         33.7504
 -27502192.62947 -21381211.23847  21582156.1254                   21582154.3634
        46.0004         42.5004
  -7127577.94546  -5028374.97344  23067177.7504                   23067174.4534
        41.2504         24.0004
 25  7 15  1 10 30.0000000  0  9G03G09G02G28G04G31G01G26G16
 -41005536.27748 -31910913.63748  20304591.2194                   20304588.3984
        49.2504         51.0004
   9847812.55546   7759213.20344  24775172.1334                   24775171.7544
        37.7504         29.7504
 -45669081.26646 -35546243.30544  23979937.3204                   23979933.5664
        39.2504         25.5004
 -46429690.06647 -36138977.28544  23498144.6884                   23498140.2194
        43.2504         29.5004
 -27224620.26247 -21167291.78545  21925648.2894                   21925644.0004
        45.5004         34.5004
 -50432396.69947 -39253243.96947  21040347.6094                   21040341.7814
        47.2504         46.5004
 -41713915.84847 -32461483.34845  22137330.6334                   22137326.4694
        44.2504         32.2504
 -26053917.68747 -20252685.26247  21857753.7344                   21857752.2934
        46.7504         42.7504
  -5738028.22746  -3945608.85243  23331599.9774                   23331596.2234
        40.5004         23.0004
 25  7 15  1 11  0.0000000  0  9G03G09G02G28G04G31G01G26G16
 -41125670.90648 -32004525.03548  20281730.3914                   20281727.0664
        48.7504         51.0004
   9684621.74645   7632051.59044  24744117.2734                   24744117.1414
        33.5004         28.5004
 -45667964.21946 -35545373.00844  23980149.8054                   23980145.1684
        40.2504         25.0004
 -46420968.71947 -36132181.50044  23499803.6334                   23499800.2344
        42.7504         29.2504
 -27360854.57847 -21273448.36745  21899723.5084                   21899719.5904
        45.0004         33.2504
 -50453411.64848 -39269619.27047  21036348.8984                   21036342.9414
        48.2504         46.7504
 -41731644.82047 -32475298.18745  22133956.5864                   22133953.0704
        45.7504         32.2504
 -26180454.50847 -20351285.32847  21833674.8984                   21833672.9264
        46.5004         42.7504
  -5923684.34046  -4090275.84044  23296270.2974                   23296267.2074
        40.2504         25.0004
 25  7 15  1 11 30.0000000  0  9G03G09G02G28G04G31G01G26G16
 -41245251.07848 -32097704.38348  20258974.8204                   20258971.6334
        49.0004         51.2504
   9521529.19546   7504966.70744  24713081.6954                   24713080.6684
        37.5004         27.5004
 -45666703.20746 -35544390.53944  23980389.9064                   23980385.7074
        40.7504         25.5004
 -46412029.48047 -36125215.92244  23501504.8444                   23501500.5824
        43.5004         29.2504
 -27496877.97747 -21379440.60545  21873839.0004                   21873835.0554
        45.2504         33.5004
 -50473935.50048 -39285611.89847  21032443.1024                   21032437.4344
        48.0004         46.2504
 -41748901.74247 -32488745.18445  22130672.9144                   22130669.3284
        44.5004         33.0004
 -26306371.37547 -20449402.33247  21809713.6804                   21809712.1454
        46.0004         42.7504
  -6109111.24646  -4234764.19944  23260984.6254                   23260981.4064
        39.7504         25.2504
 25  7 15  1 12  0.0000000  0  9G03G09G02G28G04G31G01G26G16
 -41364265.91848 -32190443.22348  20236327.1024                   20236324.0634
        48.5004         51.2504
   9358544.15246   7377965.52044  24682066.2974                   24682066.8714
        36.0004         28.5004
 -45665291.88746 -35543290.95744  23980658.5634                   23980654.8324
        39.5004         24.5004
 -46402865.53947 -36118075.27044  23503249.2894                   23503245.0904
        43.0004         29.5004
 -27632681.39547 -21485261.41845  21847996.5634                   21847992.4884
        45.0004         33.5004
 -50493961.60948 -39301216.67647  21028632.4774                   21028626.5514
        48.0004         46.2504
 -41765680.36747 -32501819.48845  22127479.6094                   22127476.0234
        45.2504         32.5004
 -26431657.21547 -20547027.61747  21785872.2504                   21785870.6054
        46.2504         43.0004
  -6294296.55146  -4379064.30544  23225744.6414                   23225741.4144
        40.7504         25.5004
 25  7 15  1 12 30.0000000  0  9G03G09G02G28G04G31G01G26G16
 -41482712.64148 -32282739.36748  20213787.3914                   20213784.5744
        48.5004         51.2504
   9195667.34446   7251048.70344  24651071.4534                   24651072.4264
        36.0004         28.2504
 -45663732.19546 -35542075.78944  23980955.1564                   23980951.8014
        39.5004         25.2504
 -46393478.15247 -36110760.46944  23505035.0394                   23505031.6804
        43.0004         28.2504
 -27768263.94547 -21590910.13345  21822195.6804                   21822191.9534
        45.2504         34.2504
 -50513491.65648 -39316434.91047  21024915.8054                   21024910.2384
        48.0004         46.0004
 -41781982.60547 -32514522.58245  22124377.6484                   22124374.3404
        45.5004         32.5004
 -26556309.04747 -20644158.87947  21762151.7894                   21762150.0434
        46.5004         42.5004
  -6479236.24646  -4523173.03944  23190552.8204                   23190548.0594
        41.5004         25.5004
 25  7 15  1 13  0.0000000  0  9G03G09G02G28G04G31G01G26G16
 -41600598.18748 -32374598.23048  20191355.1024                   20191351.8134
        48.7504         51.2504
   9032889.96946   7124209.28945  24620096.7194                   24620097.3634
        36.7504         30.0004
 -45662035.72346 -35540754.02744  23981278.1644                   23981275.0204
        40.0004         25.2504
 -46383878.45347 -36103280.25044  23506861.7974                   23506858.4734
        43.2504         29.0004
 -27903634.38747 -21696393.56645  21796435.9454                   21796432.1684
        45.2504         33.2504
 -50532537.28147 -39331275.67647  21021291.4454                   21021285.4734
        46.5004         46.0004
 -41797820.12947 -32526863.55545  22121363.6884                   22121360.2234
        44.0004         32.2504
 -26680333.74647 -20740801.46147  21738550.8444                   21738548.7774
        46.0004         42.7504
  -6663935.39146  -4667094.35244  23155405.2034                   23155401.4964
        40.7504         25.0004
 25  7 15  1 13 30.0000000  0  9G03G09G02G28G04G31G01G26G16
 -41717920.28148 -32466018.03548  20169028.8134                   20169025.6374
        48.5004         51.2504
   8870212.35946   6997447.69545  24589142.2814                   24589140.0044
        39.0004         30.7504
 -45660204.70746 -35539327.43744  23981627.1334                   23981623.2854
        40.5004         24.2504
 -46374068.11347 -36095635.89544  23508729.1564                   23508725.3594
        42.2504         28.5004
 -28038792.24647 -21801711.34845  21770716.0474                   21770712.4384
        45.5004         34.0004
 -50551100.40648 -39345740.46547  21017759.4774                   21017753.7424
        48.0004         46.0004
 -41813195.34847 -32538844.30145  22118438.3364                   22118434.4654
        46.0004         32.5004
 -26803728.80147 -20836953.41447  21715069.3524                   21715067.5984
        46.2504         43.0004
  -6848390.21146  -4810825.23043  23120304.7664                   23120300.5314
        41.5004         22.7504
 25  7 15  1 14  0.0000000  0  9G03G09G02G28G04G31G01G26G16
 -41834678.93748 -32556998.80148  20146810.3984                   20146807.3634
        48.7504         51.5004
   8707632.60546   6870762.22745  24558201.7974                   24558202.0984
        36.2504         31.5004
 -45658243.59846 -35537799.43043  23981999.9144                   23981996.4844
        39.2504         22.7504
 -46364051.30147 -36087830.66044  23510635.0784                   23510631.4024
        42.2504         28.2504
 -28173739.34447 -21906864.90645  21745036.2194                   21745032.5634
        45.7504         34.2504
 -50569185.55147 -39359832.80547  21014317.8524                   21014311.9024
        47.0004         45.7504
 -41828112.91847 -32550468.43045  22115599.6884                   22115595.8244
        46.0004         33.0004
 -26926494.12947 -20932614.68447  21691708.1564                   21691706.1994
        46.2504         43.0004
  -7032598.96946  -4954364.42243  23085250.2584                   23085246.5514
        41.0004         23.5004
 25  7 15  1 14 30.0000000  0  9G03G09G02G28G04G31G01G26G16
 -41950871.94148 -32647538.78948  20124699.5944                   20124696.9304
        49.2504         51.2504
   8545151.12146   6744153.48045  24527284.3444                   24527283.1054
        39.0004         31.5004
 -45656154.99646 -35536172.09443  23982397.7814                   23982393.8404
        38.7504         23.5004
 -46353829.75047 -36079865.85944  23512579.9304                   23512576.5434
        42.5004         28.2504
 -28308475.28947 -22011853.92245  21719397.3834                   21719393.1684
        45.0004         33.5004
 -50586794.95747 -39373554.44147  21010966.7504                   21010961.1844
        47.2504         45.7504
 -41842575.36347 -32561737.91845  22112847.8834                   22112843.9064
        46.2504         32.5004
 -27048627.41447 -21027783.44147  21668466.7664                   21668465.0394
        46.0004         43.2504
  -7216558.33246  -5097709.23443  23050243.9774                   23050240.8984
        40.7504         23.7504
 25  7 15  1 15  0.0000000  0  9G03G09G02G28G04G31G01G26G16
 -42066499.15648 -32737637.91048  20102696.6644                   20102693.5234
        48.2504         51.5004
   8382766.19145   6617619.84044  24496380.8754                   24496381.5864
        33.5004         29.2504
 -45653943.15646 -35534448.75043  23982819.0164                   23982815.1374
        39.0004         22.7504
 -46343407.30947 -36071744.55144  23514563.8134                   23514559.5634
        42.5004         27.7504
 -28443001.64547 -22116679.62545  21693797.7194                   21693793.2384
        45.0004         33.5004
 -50603933.12947 -39386908.87547  21007705.8054                   21007699.7934
        47.5004         46.0004
 -41856587.16047 -32572656.25445  22110181.2974                   22110177.5514
        46.2504         32.2504
 -27170128.33247 -21122459.46147  21645345.9224                   21645343.8874
        45.7504         43.0004
  -7400266.22346  -5240858.11344  23015284.9384                   23015282.3554
        40.2504         25.0004
 25  7 15  1 15 30.0000000  0  9G03G09G02G28G04G31G01G26G16
 -42181561.16448 -32827296.60948  20080801.1254                   20080797.9614
        48.7504         51.5004
   8220475.51246   6491159.75845  24465499.8204                   24465497.8554
        37.0004         30.7504
 -45651613.22746 -35532633.37943  23983261.5084                   23983258.3204
        39.2504         22.5004
 -46332788.53547 -36063470.25044  23516584.5554                   23516580.8404
        42.0004         27.2504
 -28577320.75847 -22221343.83645  21668237.4614                   21668233.2894
        45.5004         33.5004
 -50620604.64847 -39399899.69147  21004532.9454                   21004527.2234
        47.7504         46.0004
 -41870153.60247 -32583227.55945  22107599.3364                   22107596.0944
        45.7504         32.7504
 -27290997.39847 -21216643.11347  21622345.5864                   21622343.7774
        46.7504         43.0004
  -7583721.44546  -5383810.13344  22980374.3754                   22980371.7584
        40.0004         25.2504
 25  7 15  1 16  0.0000000  0  9G03G09G02G28G04G31G01G26G16
 -42296057.82848 -32916514.77748  20059013.0084                   20059009.9694
        48.5004         51.5004
   8058277.15246   6364771.55145  24434632.7504                   24434632.8204
        36.7504         31.0004
 -45649169.90646 -35530729.69544  23983727.7974                   23983724.3874
        39.5004         24.7504
 -46321977.33247 -36055046.01644  23518641.1644                   23518637.8834
        42.2504         27.0004
 -28711434.24247 -22325847.81245  21642716.3054                   21642712.6134
        45.0004         34.2504
 -50636814.15647 -39412530.50047  21001448.9224                   21001442.6454
        46.5004         46.0004
 -41883279.24647 -32593455.39545  22105102.4144                   22105098.7774
        45.2504         31.7504
 -27411234.40247 -21310334.25847  21599464.9224                   21599462.8404
        46.2504         43.2504
  -7766922.62546  -5526564.19544  22945512.8364                   22945509.4104
        40.5004         25.0004
 25  7 15  1 16 30.0000000  0  9G03G09G02G28G04G31G01G26G16
 -42409982.40248 -33005287.16448  20037333.5554                   20037330.3164
        48.5004         51.2504
   7896176.20345   6238459.31644  24403785.6804                   24403786.0004
        35.2504         29.2504
 -45646610.75846 -35528735.72043  23984214.3914                   23984210.8714
        38.5004         23.0004
 -46310970.83246 -36046469.59844  23520736.5394                   23520732.9924
        41.5004         26.5004
 -28845337.08247 -22430187.65245  21617235.7974                   21617231.8954
        45.0004         34.2504
 -50652559.30547 -39424799.46547  20998452.5164                   20998446.1524
        47.0004         45.5004
 -41895962.04747 -32603338.14845  22102688.7974                   22102684.9804
        45.5004         32.2504
 -27530832.51647 -21403527.55947  21576705.7974                   21576704.4534
        46.0004         43.5004
  -7949860.75446  -5669113.27744  22910701.7424                   22910696.7734
        41.5004         26.2504
 25  7 15  1 17  0.0000000  0  9G03G09G02G28G04G31G01G26G16
 -42523333.51648 -33093612.69148  20015764.2424                   20015760.4144
        48.5004         51.5004
   7734172.29346   6112222.60544  24372957.4774                   24372956.3914
        36.2504         29.0004
 -45643938.68446 -35526653.75443  23984722.6484                   23984719.4924
        39.0004         22.0004
 -46299771.57447 -36037742.96544  23522867.6174                   23522864.2154
        42.5004         26.5004
 -28979029.54747 -22534363.57845  21591794.6094                   21591790.5634
        45.5004         34.2504
 -50667842.96147 -39436708.82047  20995543.8984                   20995537.9184
        47.7504         45.5004
 -41908205.26247 -32612878.36745  22100358.6334                   22100355.2074
        45.5004         31.7504
 -27649790.21947 -21496221.84447  21554069.4384                   21554067.4384
        46.2504         43.5004
  -8132533.10247  -5811455.25044  22875940.1094                   22875934.8054
        42.7504         25.2504
 25  7 15  1 17 30.0000000  0  9G03G09G02G28G04G31G01G26G16
 -42636109.25848 -33181489.88348  19994303.3204                   19994300.4064
        48.5004         51.5004
   7572265.47746   5986061.63345  24342148.6484                   24342147.9734
        37.2504         30.2504
 -45641156.39846 -35524485.94943  23985253.5634                   23985248.8954
        39.2504         22.5004
 -46288381.53546 -36028867.68044  23525034.9144                   23525031.1954
        41.5004         26.0004
 -29112511.49247 -22638375.45345  21566393.7734                   21566390.0234
        45.2504         34.2504
 -50682667.91048 -39448260.75047  20992723.0084                   20992717.3444
        48.0004         45.7504
 -41920011.63347 -32622078.18745  22098111.9454                   22098108.6884
        45.7504         32.0004
 -27768105.59047 -21588415.61347  21531554.5944                   21531552.8444
        46.0004         43.5004
  -8314936.02746  -5953587.30544  22841229.0704                   22841224.6254
        41.7504         24.5004
 25  7 15  1 18  0.0000000  0  9G03G09G02G28G04G31G01G26G16
 -42748307.29347 -33268916.90648  19972952.7034                   19972949.8164
        47.7504         51.5004
   7410456.27346   5859976.70344  24311357.0784                   24311356.0354
        37.2504         27.5004
 -45638266.24946 -35522234.05043  23985802.7344                   23985798.7234
        38.7504         22.5004
 -46276802.29346 -36019844.97744  23527238.4924                   23527234.7034
        40.5004         25.5004
 -29245782.20347 -22742222.73845  21541033.3204                   21541029.4454
        45.0004         34.0004
 -50697035.67248 -39459456.43047  20989988.7034                   20989982.7814
        48.0004         45.7504
 -41931383.51647 -32630939.45345  22095948.2584                   22095944.5124
        45.0004         31.7504
 -27885776.21947 -21680106.98447  21509162.8914                   21509160.4654
        45.5004         43.7504
  -8497065.77747  -6095506.42243  22806571.6024                   22806566.9614
        42.5004         23.7504
 25  7 15  1 18 30.0000000  0  9G03G09G02G28G04G31G01G26G16
 -42859921.61748 -33355889.09048  19951713.4224                   19951709.9694
        48.5004         51.5004
   7248749.18446   5733971.29745  24280585.0784                   24280584.5234
        36.7504         30.5004
 -45635266.45346 -35519896.69543  23986373.3054                   23986370.3914
        38.2504         22.0004
 -46265031.66446 -36010673.10944  23529477.8914                   23529474.8594
        41.0004         25.2504
 -29378837.25447 -22845901.96545  21515713.9064                   21515709.9104
        46.0004         34.5004
 -50710945.00847 -39470294.89147  20987341.6954                   20987336.1684
        47.5004         45.7504
 -41942319.50447 -32639461.04745  22093867.3914                   22093863.6844
        45.2504         32.0004
 -28002796.09447 -21771291.27347  21486894.5164                   21486892.6054
        46.0004         43.7504
  -8678914.57846  -6237206.66044  22771966.0474                   22771963.5124
        41.0004         25.0004
 25  7 15  1 19  0.0000000  0  9G03G09G02G28G04G31G01G26G16
 -42970956.70748 -33442409.92648  19930584.0004                   19930580.6954
        48.2504         51.5004
   7087137.83646   5608040.52345  24249830.2034                   24249830.9494
        37.0004         30.5004
 -45632165.93746 -35517480.87143  23986963.7344                   23986960.1374
        39.7504         22.5004
 -46253077.91046 -36001358.58244  23531753.4774                   23531748.9804
        40.7504         27.0004
 -29511682.79747 -22949417.94945  21490433.6254                   21490430.2034
        45.0004         33.5004
 -50724404.74247 -39480783.01647  20984780.6174                   20984775.1054
        47.7504         45.5004
 -41952828.73447 -32647650.11745  22091867.5084                   22091863.9064
        45.0004         32.0004
 -28119169.59047 -21861971.88747  21464749.0234                   21464747.5004
        45.7504         43.7504
  -8860484.76246  -6378689.79744  22737414.3054                   22737411.2274
        41.5004         26.5004
 25  7 15  1 19 30.0000000  0  9G03G09G02G28G04G31G01G26G16
 -41505984.25448 -32300872.93748  20209358.9774                   20209355.9924
        48.7504         51.5004
   8501050.58646   6709790.83245  24518889.9774                   24518889.4264
        37.2504         31.2504
 -44053544.67646 -34287386.61343  24287365.8834                   24287362.2034
        39.5004         21.7504
 -44665520.69146 -34764301.09044  23833855.6024                   23833851.7194
        41.2504         25.2504
 -28068891.36347 -21825164.85945  21764988.0164                   21764984.2234
        45.0004         34.0004
 -49161993.97348 -38263320.09847  21282097.4774                   21282091.6334
        48.2504         45.7504
 -40387490.93047 -31427906.42245  22389741.4614                   22389737.9304
        43.7504         32.2504
 -26659468.20747 -20724542.20747  21742521.2734                   21742519.5474
        46.2504         43.7504
  -7466344.19947  -5292346.41044  23002710.3284                   23002707.6604
        42.0004         26.7504
 25  7 15  1 20  0.0000000  0  9G03G09G02G28G04G31G01G26G16
 -41615851.91848 -32386484.09448  20188451.8754                   20188448.7854
        48.2504         51.5004
   8339634.70746   6584012.31345  24488172.9774                   24488172.1454
        37.5004         31.7504
 -44050247.03546 -34284817.21543  24287994.0784                   24287989.7974
        40.5004         23.0004
 -44653203.23846 -34754703.14844  23836199.3594                   23836195.5664
        40.7504         26.0004
 -28201313.68047 -21928351.05945  21739788.9924                   21739785.4064
        46.2504         34.5004
 -49174558.31247 -38273110.51247  21279706.4384                   21279700.7154
        47.7504         45.7504
 -40397151.66847 -31435434.32845  22387903.3754                   22387899.2464
        44.5004         32.2504
 -26774539.95747 -20814208.47747  21720623.7734                   21720621.8284
        46.2504         43.7504
  -7647342.85247  -5433384.22344  22968268.1564                   22968263.8054
        43.2504         27.5004
 25  7 15  1 20 30.0000000  0  9G03G09G02G28G04G31G01G26G16
 -41725132.25448 -32471637.59448  20167656.3594                   20167652.7814
        49.0004         51.5004
   8178317.69946   6458310.91845  24457478.3594                   24457475.1764
        41.0004         31.2504
 -44046853.61346 -34282173.17643  24288639.8674                   24288636.1564
        39.7504         22.5004
 -44640705.90246 -34744965.01644  23838577.5084                   23838574.2504
        40.5004         25.0004
 -28333523.12147 -22031371.37945  21714630.3284                   21714626.4264
        46.5004         34.0004
 -49186677.75447 -38282554.26647  21277400.3054                   21277394.8364
        47.5004         45.5004
 -40406391.46147 -31442634.20345  22386145.1414                   22386141.3284
        44.0004         31.2504
 -26888957.19947 -20903364.73847  21698850.8444                   21698849.0354
        46.0004         43.7504
  -7828049.75447  -5574194.71144  22933880.5554                   22933875.3594
        43.2504         27.2504
 25  7 15  1 21  0.0000000  0  9G03G09G02G28G04G31G01G26G16
 -41833821.61748 -32556330.59848  20146973.5704                   20146970.3634
        49.0004         51.2504
   8017101.43446   6332687.91845  24426796.0234                   24426795.8594
        36.7504         31.5004
 -44043365.48046 -34279455.34443  24289303.5944                   24289299.9534
        39.2504         22.0004
 -44628028.86746 -34735086.87544  23840990.1024                   23840986.0004
        41.5004         26.0004
 -28465517.62147 -22134224.21945  21689512.6254                   21689508.4344
        45.5004         34.0004
 -49198353.03947 -38291651.91447  21275178.8054                   21275173.0084
        46.5004         45.5004
 -40415211.34447 -31449506.88345  22384466.5704                   22384462.9224
        43.5004         31.0004
 -27002716.32047 -20992008.18047  21677203.0004                   21677201.1174
        46.0004         43.7504
  -8008459.28147  -5714773.45344  22899548.9534                   22899544.2344
        43.5004         26.5004
 25  7 15  1 21 30.0000000  0  9G03G09G02G28G04G31G01G26G16
 -41941911.27048 -32640556.29748  20126404.8204                   20126402.0354
        49.2504         51.5004
   7855993.28146   6207149.21145  24396138.9384                   24396138.2194
        38.2504         31.5004
 -44039777.94946 -34276660.07043  24289986.2194                   24289983.3954
        39.7504         22.0004
 -44615167.02346 -34725064.73044  23843437.7344                   23843433.7234
        41.2504         26.5004
 -28597289.94547 -22236903.92245  21664437.4304                   21664433.2274
        45.7504         35.0004
 -49209579.50047 -38300399.83647  21273042.2034                   21273036.7584
        47.5004         45.5004
 -40423607.07847 -31456049.06245  22382868.7424                   22382865.1524
        45.0004         31.0004
 -27115808.49647 -21080131.92647  21655682.4454                   21655680.3834
        46.0004         43.7504
  -8188561.23447  -5855112.55144  22865277.0164                   22865271.7344
        43.0004         25.7504
 25  7 15  1 22  0.0000000  0  9G03G09G02G28G04G31G01G26G16
 -42049398.54748 -32724312.60248  20105950.7344                   20105947.5274
        49.0004         51.5004
   7694994.02746   6081695.34445  24365501.8524                   24365500.3364
        39.0004         31.5004
 -44036092.77746 -34273788.68043  24290686.9924                   24290684.5164
        40.5004         22.7504
 -44602121.45747 -34714899.41844  23845920.3834                   23845916.3164
        42.5004         25.7504
 -28728838.86347 -22339409.56245  21639403.9534                   21639400.3364
        46.0004         34.7504
 -49220359.20747 -38308799.64547  21270991.2274                   21270985.3594
        47.0004         45.5004
 -40431580.70347 -31462262.33645  22381351.6414                   22381347.7934
        43.0004         31.7504
 -27228231.19147 -21167734.00047  21634288.7734                   21634287.0124
        46.5004         44.0004
  -8368350.46946  -5995207.94544  22831063.9144                   22831059.2384
        41.7504         27.0004
 25  7 15  1 22 30.0000000  0  9G03G09G02G28G04G31G01G26G16
 -42156281.89148 -32807598.32048  20085611.6804                   20085608.1374
        49.5004         51.2504
   7534103.75046   5956326.40245  24334884.8914                   24334884.2384
        38.7504         31.0004
 -44032312.68446 -34270843.38343  24291407.2664                   24291404.0514
        40.5004         22.2504
 -44588894.27746 -34704592.59844  23848437.5394                   23848433.6994
        41.7504         27.0004
 -28860164.40247 -22441741.12545  21614414.0704                   21614410.0434
        45.7504         35.5004
 -49230694.62547 -38316853.24647  21269024.2664                   21269018.6684
        46.7504         45.7504
 -40439135.24647 -31468149.03945  22379914.2734                   22379910.5784
        43.7504         31.5004
 -27339982.85947 -21254813.19947  21613023.1094                   21613021.1914
        46.0004         44.0004
  -8547823.78547  -6135057.14544  22796910.8754                   22796906.7504
        42.0004         26.2504
 25  7 15  1 23  0.0000000  0  9G03G09G02G28G04G31G01G26G16
 -42262557.11748 -32890410.18048  20065387.9304                   20065384.8984
        49.0004         51.5004
   7373325.10246   5831044.38745  24304289.8524                   24304289.0164
        38.0004         31.7504
 -44028437.55546 -34267823.99643  24292144.2734                   24292141.5434
        40.2504         22.7504
 -44575484.94547 -34694143.84044  23850988.6334                   23850985.5904
        42.2504         26.2504
 -28991263.81647 -22543896.48845  21589466.4844                   21589462.6214
        45.5004         35.0004
 -49240585.80947 -38324560.69147  21267142.3524                   21267136.5274
        47.2504         45.5004
 -40446271.09847 -31473709.49245  22378556.5004                   22378552.5044
        44.2504         30.2504
 -27451059.30547 -21341366.24647  21591886.0394                   21591884.0944
        45.2504         43.7504
  -8726975.25047  -6274655.57044  22762820.5474                   22762816.0044
        44.2504         27.5004
 25  7 15  1 23 30.0000000  0  9G03G09G02G28G04G31G01G26G16
 -42368214.20748 -32972740.37548  20045281.9614                   20045278.6604
        49.2504         51.5004
   7212666.50846   5705855.99245  24273717.5634                   24273717.2194
        36.7504         31.0004
 -44024461.95346 -34264726.35243  24292902.5554                   24292897.4924
        40.5004         22.7504
 -44561886.97346 -34683548.07844  23853576.9924                   23853573.2464
        40.5004         26.0004
 -29122128.50047 -22645868.95345  21564564.0394                   21564559.6054
        45.7504         35.0004
 -49250026.70747 -38331917.27047  21265345.7504                   21265339.8094
        47.7504         45.5004
 -40452982.79747 -31478939.44545  22377278.9694                   22377274.9184
        45.0004         30.5004
 -27561450.56247 -21427385.38347  21570879.8134                   21570877.6134
        46.2504         44.0004
  -8905792.93047  -6413993.92644  22728792.6884                   22728787.9804
        44.0004         26.7504
 25  7 15  1 24  0.0000000  0  9G03G09G02G28G04G31G01G26G16
 -42473257.45748 -33054592.25448  20025293.0004                   20025289.6214
        48.7504         51.5004
   7052122.19946   5580756.58245  24243167.1174                   24243165.9654
        38.0004         32.0004
 -44020394.28146 -34261556.96944  24293676.1804                   24293672.9924
        40.5004         24.2504
 -44548108.30946 -34672811.52044  23856198.9144                   23856195.5084
        41.5004         25.0004
 -29252764.16447 -22747662.95745  21539704.6564                   21539700.8134
        45.2504         35.0004
 -49259026.25048 -38338929.93447  21263633.1334                   21263627.5474
        48.2504         45.5004
 -40459279.21947 -31483845.79345  22376080.9774                   22376077.5634
        45.7504         31.5004
 -27671161.00047 -21512874.01647  21550002.2974                   21549999.9454
        46.7504         44.0004
  -9084279.19947  -6553074.05144  22694827.1414                   22694823.8364
        42.7504         27.5004
 25  7 15  1 24 30.0000000  0  9G03G09G02G28G04G31G01G26G16
 -42577677.41848 -33135958.45748  20005422.9224                   20005419.0704
        48.5004         51.5004
   6891700.04346   5455752.42245  24212640.3674                   24212638.6334
        38.7504         30.7504
 -44016229.29346 -34258311.72744  24294468.5864                   24294465.9304
        40.2504         24.5004
 -44534143.10946 -34661929.61344  23858855.6254                   23858852.4184
        40.5004         27.5004
 -29383162.77347 -22849272.25045  21514890.2664                   21514886.5434
        45.7504         35.2504
 -49267578.97348 -38345594.42647  21262005.8984                   21262000.1054
        48.0004         45.5004
 -40465155.50047 -31488424.77745  22374962.6484                   22374959.3094
        45.0004         32.0004
 -27780181.20347 -21597824.81247  21529256.1884                   21529254.3364
        45.5004         44.0004
  -9262422.53947  -6691886.97344  22660926.9384                   22660924.0124
        42.0004         27.5004
 25  7 15  1 25  0.0000000  0  9G03G09G02G28G04G31G01G26G16
 -42681465.93448 -33216832.62548  19985672.3054                   19985668.9454
        48.7504         51.5004
   6731406.71146   5330848.64145  24182137.5004                   24182135.9844
        37.0004         31.2504
 -44011963.02346 -34254987.62143  24295280.2664                   24295277.6484
        40.0004         22.5004
 -44519986.64146 -34650898.68444  23861550.0394                   23861546.4734
        40.7504         26.5004
 -29513317.54347 -22950691.53945  21490122.7194                   21490118.9574
        44.7504         34.7504
 -49275680.99647 -38351907.72747  21260464.0474                   21260458.3164
        47.0004         45.2504
 -40470608.02747 -31492673.55545  22373925.3444                   22373921.3404
        44.2504         31.5004
 -27888503.13347 -21682231.49247  21508643.5164                   21508641.2814
        46.0004         44.0004
  -9440213.05146  -6830424.91044  22627094.1414                   22627091.2274
        41.0004         28.0004
 25  7 15  1 25 30.0000000  0 10G03G09G02G28G06G04G31G01G26G16
 -42784616.33648 -33297209.56248  19966043.1804                   19966039.8204
        49.0004         51.5004
   6571247.45346   5206049.28945  24151659.6024                   24151658.3524
        37.7504         30.0004
 -44007592.95346 -34251582.62943  24296112.5314                   24296109.8594
        40.5004         22.5004
 -44505635.89146 -34639716.34844  23864281.2114                   23864277.3094
        41.2504         26.7504
  15549961.80556  12150122.90654  25375348.4614                   25375346.4414
        40.0004         29.0004
 -29643223.18447 -23051916.69945  21465402.6254                   21465398.6454
        45.0004         35.5004
 -49283329.55947 -38357867.68447  21259008.4454                   21259002.7624
        47.5004         45.0004
 -40475634.64547 -31496590.46145  22372968.6254                   22372965.4964
        45.7504         31.7504
 -27996120.21147 -21766088.93047  21488164.4384                   21488162.7584
        46.5004         44.0004
  -9617641.87547  -6968681.02744  22593331.8834                   22593327.5354
        43.2504         26.7504
 25  7 15  1 26  0.0000000  0 10G03G09G02G28G06G04G31G01G26G16
 -42887131.05148 -33377091.16048  19946535.4924                   19946532.4144
        49.0004         51.5004
   6411218.35246   5081351.35245  24121206.5864                   24121205.7734
        36.5004         30.2504
 -44003125.68746 -34248101.86343  24296962.9774                   24296959.7034
        39.0004         23.5004
 -44491096.67646 -34628387.17644  23867048.1174                   23867044.5704
        41.5004         27.2504
  15402122.23846  12034923.17644  25347212.9064                   25347213.0664
        36.7504         27.5004
 -29772883.42647 -23152950.63345  21440729.2034                   21440724.8094
        45.0004         35.2504
 -49290531.59848 -38363479.69547  21257637.9774                   21257632.3714
        48.5004         45.0004
 -40480242.33247 -31500180.91845  22372091.6564                   22372088.4804
        44.7504         31.2504
 -28103034.90647 -21849399.05947  21467819.2424                   21467817.6884
        47.0004         44.0004
  -9794709.33247  -7106655.59044  22559636.9454                   22559632.4024
        44.0004         28.7504
 25  7 15  1 26 30.0000000  0 10G03G09G02G28G06G04G31G01G26G16
 -42989015.82448 -33456481.89848  19927147.3134                   19927144.2934
        48.2504         51.5004
   6251312.21946   4956749.26645  24090777.2194                   24090776.9574
        37.5004         31.5004
 -43998571.18746 -34244553.14843  24297828.9304                   24297827.1024
        38.5004         22.2504
 -44476378.26646 -34616918.33644  23869849.3674                   23869845.4304
        41.5004         26.7504
  15254810.53555  11920134.82854  25319178.9534                   25319179.9264
        33.0004         26.5004
 -29902305.33647 -23253798.87145  21416100.9144                   21416097.0904
        44.0004         34.7504
 -49297297.09047 -38368751.53947  21256350.5944                   21256345.2114
        47.7504         45.0004
 -40484441.37947 -31503452.97345  22371292.7034                   22371289.1524
        44.5004         31.2504
 -28209253.09847 -21932166.46147  21447606.6094                   21447604.4184
        47.2504         44.0004
  -9971419.75047  -7244351.94544  22526009.1644                   22526004.8954
        43.2504         27.0004
 25  7 15  1 27  0.0000000  0 10G03G09G02G28G06G04G31G01G26G16
 -43090271.42248 -33535382.36348  19907878.8204                   19907876.0944
        48.7504         51.5004
   6091526.97746   4832241.36745  24060372.0394                   24060370.1294
        38.5004         31.7504
 -43993934.18446 -34240940.16443  24298711.8284                   24298709.2034
        38.0004         22.5004
 -44461484.84446 -34605313.14844  23872682.7664                   23872679.6454
        41.5004         27.0004
  15108026.90646  11805758.10244  25291248.4924                   25291248.5354
        36.0004         28.0004
 -30031490.95747 -23354462.98045  21391517.7424                   21391513.4264
        44.5004         35.5004
 -49303630.38747 -38373686.60947  21255145.3984                   21255139.6524
        47.5004         45.2504
 -40488236.96547 -31506410.63345  22370570.9454                   22370567.2074
        45.0004         30.5004
 -28314775.60947 -22014391.77047  21427526.2814                   21427524.4844
        47.5004         44.2504
 -10147771.54746  -7381768.84044  22492450.3524                   22492446.1994
        41.7504         27.7504
 25  7 15  1 27 30.0000000  0 10G03G09G02G28G06G04G31G01G26G16
 -43190891.28148 -33613787.44148  19888731.9614                   19888728.4184
        48.5004         51.5004
   5931867.59046   4707831.55545  24029989.2114                   24029988.1134
        38.7504         31.7504
 -43989212.30546 -34237261.04743  24299610.2894                   24299608.4184
        38.0004         22.2504
 -44446413.29746 -34593569.16044  23875551.9614                   23875546.9024
        41.2504         27.7504
  14961777.76246  11691797.74644  25263418.6414                   25263417.7504
        36.7504         27.0004
 -30160435.04347 -23454938.87945  21366980.7504                   21366976.6604
        45.2504         34.7504
 -49309529.36347 -38378283.25047  21254022.9534                   21254016.8524
        46.2504         45.0004
 -40491627.14547 -31509052.39545  22369925.6644                   22369922.2034
        42.5004         31.0004
 -28419596.09847 -22096070.05547  21407579.8914                   21407577.5474
        45.7504         44.2504
 -10323756.00446  -7518899.46544  22458961.9384                   22458957.2274
        41.5004         27.7504
 25  7 15  1 28  0.0000000  0 10G03G09G02G28G06G04G31G01G26G16
 -43290867.94948 -33691691.33648  19869707.0864                   19869703.6414
        48.7504         51.5004
   5772340.30146   4583524.66045  23999632.6564                   23999631.2304
        38.2504         32.0004
 -43984402.27346 -34233513.23443  24300527.6024                   24300523.9574
        40.5004         22.2504
 -44431159.54746 -34581683.18444  23878453.5004                   23878450.3594
        41.5004         27.0004
  14816071.14546  11578260.19144  25235691.9534                   25235691.4264
        38.5004         28.0004
 -30289131.36747 -23555221.71145  21342489.9144                   21342486.2854
        45.5004         35.0004
 -49314990.65648 -38382538.84047  21252983.4144                   21252977.8674
        48.0004         45.0004
 -40494608.93747 -31511375.94145  22369358.0394                   22369355.0044
        45.0004         31.2504
 -28523707.21947 -22177195.57447  21387768.1564                   21387766.3404
        47.0004         44.5004
 -10499363.87947  -7655736.66844  22425544.9774                   22425540.0354
        42.7504         28.2504
 25  7 15  1 28 30.0000000  0 10G03G09G02G28G06G04G31G01G26G16
 -43390201.83248 -33769094.35948  19850804.6334                   19850801.1174
        48.7504         51.5004
   5612943.35546   4459319.32845  23969298.8054                   23969298.3634
        37.5004         31.0004
 -43979508.33246 -34229700.01643  24301457.3594                   24301455.0634
        39.0004         22.0004
 -44415727.27747 -34569658.11744  23881390.3204                   23881386.6884
        42.0004         26.7504
  14670907.50045  11465145.72744  25208067.4304                   25208066.9104
        34.5004         26.2504
 -30417581.51647 -23655312.71945  21318047.0394                   21318042.9384
        46.0004         35.5004
 -49320018.53147 -38386456.69947  21252026.8594                   21252021.3204
        47.5004         45.0004
 -40497187.13347 -31513384.99645  22368867.9454                   22368864.5434
        44.7504         31.0004
 -28627109.42647 -22257768.70747  21368090.9774                   21368089.1684
        46.7504         44.2504
 -10674593.25447  -7792278.96144  22392199.9384                   22392194.6374
        43.5004         28.2504
 25  7 15  1 29  0.0000000  0 10G03G09G02G28G06G04G31G01G26G16
 -41913460.93048 -32618387.16448  20131818.6644                   20131815.3834
        49.0004         51.5004
   7029109.41046   5562825.44945  24238786.7664                   24238786.1174
        37.0004         32.2504
 -42399105.71946 -32998217.74244  24602198.4144                   24602196.8444
        39.0004         24.0004
 -42824691.70746 -33329890.19544  24184154.1484                   24184150.7544
        41.0004         27.0004
  16101720.46145  12580064.93844  25480341.3444                   25480342.5744
        34.5004         26.7504
 -28970353.66847 -22527602.69545  21593445.2664                   21593441.2734
        45.7504         35.5004
 -47749188.11347 -37162433.03547  21550946.2664                   21550940.7464
        46.7504         44.7504
 -38923937.41447 -30287476.19145  22668247.3914                   22668243.7624
        45.0004         30.5004
 -27154370.79347 -21110180.14147  21648344.2584                   21648341.8674
        47.2504         44.2504
  -9274007.70747  -6700913.52744  22658721.9844                   22658717.6254
        43.0004         28.5004
 25  7 15  1 29 30.0000000  0 10G03G09G02G28G06G04G31G01G26G16
 -42011489.76648 -32694773.27048  20113164.7344                   20113161.4614
        49.0004         51.5004
   6869988.63346   5438835.31645  24208507.7114                   24208506.4774
        38.5004         32.0004
 -42394036.55546 -32994267.98443  24603163.5394                   24603159.8134
        38.5004         20.5004
 -42808893.03146 -33317579.62144  24187161.0474                   24187157.6454
        41.7504         25.7504
  15957663.08646  12467812.44144  25452929.1724                   25452927.5434
        37.7504         28.5004
 -29098295.59447 -22627297.69545  21569098.7034                   21569094.7664
        45.0004         34.7504
 -47753341.80547 -37165669.71147  21550155.9304                   21550150.0394
        47.7504         44.7504
 -38925702.38747 -30288851.57845  22667911.3754                   22667908.1644
        44.7504         30.5004
 -27256336.28147 -21189633.75047  21628940.3914                   21628938.2424
        47.0004         44.5004
  -9448454.72346  -6836846.18044  22625525.1564                   22625521.3634
        40.7504         28.5004
 25  7 15  1 30  0.0000000  0 10G03G09G02G28G06G04G31G01G26G16
 -42108861.57847 -32770647.41048  20094635.3674                   20094632.2154
        47.7504         51.5004
   6711008.50846   5314954.79745  24178255.3834                   24178253.7774
        38.0004         31.7504
 -42388881.25046 -32990251.14143  24604143.4774                   24604141.9264
        37.0004         20.5004
 -42792911.60546 -33305126.64144  24190201.8914                   24190198.7074
        40.2504         24.7504
  15814164.16846  12355995.13744  25425622.8134                   25425620.7854
        37.2504         28.0004
 -29225980.70347 -22726792.57045  21544801.5784                   21544797.1024
        45.5004         35.5004
 -47757060.00047 -37168567.03547  21549448.2894                   21549442.7464
        46.7504         44.5004
 -38927062.92647 -30289911.81245  22667652.5864                   22667649.4614
        44.5004         30.5004
 -27357579.17247 -21268524.28947  21609674.7344                   21609672.9844
        46.0004         44.5004
  -9622502.55147  -6972467.73444  22592406.0004                   22592400.9024
        42.5004         28.2504
 25  7 15  1 30 30.0000000  0 10G03G09G02G28G06G04G31G01G26G16
 -42205572.18748 -32846006.33248  20076231.8204                   20076228.5784
        48.7504         51.5004
   6552171.88346   5191186.05145  24148029.0864                   24148027.3984
        38.2504         31.7504
 -42383639.59046 -32986167.08643  24605142.9144                   24605139.4264
        37.7504         21.5004
 -42776746.50047 -33292530.52344  24193279.1254                   24193274.8794
        42.2504         24.7504
  15671228.34446  12244616.60544  25398422.2114                   25398421.6414
        37.7504         28.0004
 -29353405.85547 -22826084.87945  21520552.6884                   21520549.0234
        45.0004         35.5004
 -47760342.50048 -37171124.85947  21548823.4064                   21548818.1054
        48.0004         44.5004
 -38928019.23847 -30290657.06245  22667470.6954                   22667467.3984
        43.5004         31.0004
 -27458095.43047 -21346848.62547  21590547.2504                   21590544.9494
        46.0004         44.2504
  -9796145.43047  -7107773.80944  22559362.7974                   22559358.2154
        43.7504         27.7504
 25  7 15  1 31  0.0000000  0 10G03G09G02G28G06G04G31G01G26G16
 -42301618.19547 -32920847.37948  20057954.8674                   20057951.6174
        47.5004         51.5004
   6393481.01246   5067530.91845  24117830.4774                   24117828.7854
        36.0004         31.2504
 -42378312.25846 -32982016.18443  24606156.2344                   24606153.4964
        37.7504         19.5004
 -42760397.49646 -33279791.12143  24196389.5474                   24196386.0594
        41.2504         23.7504
  15528859.68846  12133679.94544  25371330.1254                   25371329.0904
        36.0004         26.5004
 -29480568.80947 -22925172.89145  21496354.8754                   21496350.3324
        44.0004         34.7504
 -47763189.88747 -37173343.63747  21548281.5234                   21548275.8324
        47.0004         44.2504
 -38928572.32447 -30291088.09045  22667365.6484                   22667361.9654
        44.5004         30.5004
 -27557881.81247 -21424604.22747  21571557.9614                   21571556.2504
        46.5004         44.5004
  -9969377.47747  -7242759.73444  22526397.3674                   22526392.7344
        43.2504         27.7504
 25  7 15  1 31 30.0000000  0 10G03G09G02G28G06G04G31G01G26G16
 -42396995.08648 -32995167.03948  20039805.2344                   20039802.5274
        48.5004         51.5004
   6234939.19146   4943991.94545  24087660.9534                   24087659.9534
        37.0004         31.0004
 -42372898.59846 -32977798.01243  24607188.0084                   24607184.9384
        39.2504         21.0004
 -42743863.26246 -33266907.39544  24199536.5164                   24199532.8484
        41.0004         25.0004
  15387063.03146  12023189.07444  25344347.1334                   25344346.1994
        36.5004         27.5004
 -29607466.11747 -23024053.89545  21472206.8134                   21472202.7464
        44.5004         35.5004
 -47765601.56647 -37175222.89547  21547823.1024                   21547817.0824
        46.7504         44.2504
 -38928722.05547 -30291204.83245  22667337.3674                   22667333.5864
        44.5004         30.0004
 -27656934.00847 -21501787.74247  21552709.5864                   21552707.0514
        46.5004         44.5004
 -10142192.21947  -7377420.48044  22493511.8834                   22493507.0474
        42.5004         29.0004
 25  7 15  1 32  0.0000000  0 10G03G09G02G28G06G04G31G01G26G16
 -42491705.94948 -33068967.71548  20021782.7344                   20021779.3094
        48.2504         51.5004
   6076542.05546   4820565.71145  24057519.5634                   24057517.7304
        37.5004         30.2504
 -42367405.34446 -32973517.87943  24608232.5784                   24608230.8244
        38.5004         21.2504
 -42727150.15646 -33253884.23843  24202715.4774                   24202712.8094
        39.7504         23.0004
  15245835.94156  11913142.02354  25317473.6644                   25317472.4844
        38.0004         29.0004
 -29734101.91047 -23122731.12145  21448109.0394                   21448104.8834
        45.2504         35.5004
 -47767584.55147 -37176768.10947  21547445.3984                   21547440.1684
        47.0004         44.7504
 -38928475.94147 -30291013.12544  22667384.3984                   22667380.3324
        44.0004         29.5004
 -27755255.35247 -21578401.75047  21533999.5394                   21533997.4064
        45.7504         44.5004
 -10314590.32447  -7511756.58644  22460705.5784                   22460700.6604
        42.5004         28.7504
 25  7 15  1 32 30.0000000  0 10G03G09G02G28G06G04G31G01G26G16
 -42585744.76648 -33142244.72348  20003887.1954                   20003884.3524
        48.5004         51.5004
   5918294.49246   4697256.03545  24027405.9144                   24027404.0784
        39.2504         31.7504
 -42361830.62146 -32969174.16043  24609292.9774                   24609291.0744
        38.5004         21.5004
 -42710255.25847 -33240719.45344  24205931.8284                   24205927.6684
        42.0004         24.5004
  15105184.87545  11803543.80544  25290707.4844                   25290706.6844
        35.5004         27.5004
 -29860471.26247 -23221200.73045  21424061.3674                   21424057.8484
        46.0004         35.2504
 -47769136.55547 -37177977.49647  21547150.2974                   21547144.8834
        46.5004         44.0004
 -38927832.32047 -30290511.65645  22667506.5554                   22667503.1604
        43.7504         30.2504
 -27852839.95347 -21654441.68747  21515429.5314                   21515427.5554
        47.2504         44.5004
 -10486563.56247  -7645761.63744  22427980.3364                   22427974.9024
        43.2504         29.0004
 25  7 15  1 33  0.0000000  0 10G03G09G02G28G06G04G31G01G26G16
 -42679113.48448 -33214999.56648  19986120.1884                   19986116.7734
        48.0004         51.5004
   5760193.38746   4574060.45345  23997319.0784                   23997318.2584
        38.2504         31.7504
 -42356179.93746 -32964771.35543  24610369.7194                   24610366.8404
        40.0004         20.0004
 -42693183.59846 -33227416.96943  24209179.9694                   24209176.9924
        40.5004         22.7504
  14965108.47345  11694393.37544  25264050.8834                   25264050.2464
        34.7504         26.5004
 -29986577.07447 -23319464.99646  21400064.5004                   21400060.1844
        45.2504         36.0004
 -47770263.69147 -37178855.80947  21546936.1564                   21546930.3984
        46.2504         44.2504
 -38926797.48447 -30289705.34445  22667702.9774                   22667699.6954
        42.2504         31.0004
 -27949690.04347 -21729909.27347  21496999.7504                   21496997.6054
        47.5004         44.5004
 -10658111.88747  -7779435.59044  22395334.9694                   22395330.4184
        43.5004         29.0004
 25  7 15  1 33 30.0000000  0 10G03G09G02G28G06G04G31G01G26G16
 -42771809.45347 -33287230.18448  19968480.3524                   19968476.9924
        47.7504         51.5004
   5602240.36746   4450980.27045  23967261.2894                   23967261.1334
        38.5004         32.2504
 -42350454.75046 -32960310.42243  24611458.2664                   24611456.6214
        38.5004         19.5004
 -42675935.63746 -33213977.03943  24212462.7114                   24212458.8054
        40.2504         22.5004
  14825609.85546  11585693.17244  25237505.6564                   25237505.6024
        37.2504         28.5004
 -30112417.66447 -23417522.57445  21376117.4774                   21376113.7114
        46.5004         35.7504
 -47770966.57447 -37179403.53947  21546801.7974                   21546796.0864
        47.2504         44.0004
 -38925373.14147 -30288595.52745  22667974.1254                   22667970.7194
        43.2504         30.2504
 -28045803.18747 -21804802.62147  21478710.0394                   21478707.8404
        47.2504         44.7504
 -10829230.29347  -7912774.52744  22362772.6804                   22362768.1254
        43.5004         29.7504
 25  7 15  1 34  0.0000000  0 10G03G09G02G28G06G04G31G01G26G16
 -42863833.03948 -33358936.86748  19950969.1094                   19950965.6884
        49.0004         51.5004
   5444433.87146   4328014.27345  23937232.4064                   23937231.8444
        36.5004         31.7504
 -42344658.74246 -32955794.43443  24612563.1954                   24612560.1724
        40.7504         21.0004
 -42658514.86746 -33200402.50043  24215777.2814                   24215774.3754
        40.7504         21.7504
  14686689.09846  11477443.29344  25211069.7814                   25211069.5514
        37.5004         28.0004
 -30237994.44947 -23515374.60245  21352221.6254                   21352217.5004
        46.7504         35.5004
 -47771250.27747 -37179624.62947  21546748.2894                   21546742.1524
        45.7504         43.7504
 -38923563.96147 -30287185.84445  22668318.9694                   22668315.7384
        42.0004         30.0004
 -28141179.98447 -21879122.18047  21460560.4774                   21460558.3984
        47.0004         44.7504
 -10999917.11747  -8045777.16844  22330291.7424                   22330287.1724
        43.5004         29.2504
 25  7 15  1 34 30.0000000  0 10G03G09G02G28G06G04G31G01G26G16
 -42955184.10948 -33430119.51248  19933585.7814                   19933582.2734
        48.7504         51.5004
   5286772.94946   4205161.71945  23907230.5314                   23907229.6094
        38.0004         31.7504
 -42338796.04746 -32951226.32843  24613678.0634                   24613676.0394
        40.5004         21.2504
 -42640924.08246 -33186695.44143  24219124.3594                   24219121.4694
        40.0004         21.7504
  14548347.00846  11369644.28944  25184744.9224                   25184743.4454
        36.5004         28.0004
 -30363308.15247 -23613021.61746  21328374.8284                   21328370.7624
        46.5004         36.0004
 -47771118.20347 -37179521.73847  21546772.9694                   21546767.3914
        46.2504         43.7504
 -38921374.10247 -30285479.52345  22668735.3674                   22668732.6374
        43.7504         30.0004
 -28235820.54747 -21952868.06247  21442550.7894                   21442548.6604
        47.5004         44.7504
 -11170169.89847  -8178441.60944  22297894.1804                   22297889.1134
        44.2504         29.5004
 25  7 15  1 35  0.0000000  0 10G03G09G02G28G06G04G31G01G26G16
 -43045861.01648 -33500776.83648  19916330.0474                   19916327.1724
        49.0004         51.5004
   5129258.20746   4082423.05145  23877257.4144                   23877255.8674
        37.7504         32.5004
 -42332868.55146 -32946607.74643  24614805.7974                   24614803.8714
        40.5004         20.2504
 -42623164.69146 -33172857.02743  24222504.1414                   24222501.0004
        40.2504         21.5004
  14410585.66846  11262297.81644  25158528.9304                   25158528.1054
        37.0004         28.5004
 -30488358.10247 -23710463.11345  21304578.5704                   21304574.8444
        46.0004         35.7504
 -47770572.31247 -37179096.39547  21546876.9454                   21546871.6724
        46.5004         44.2504
 -38918806.17647 -30283478.60544  22669224.2974                   22669221.1374
        43.2504         29.7504
 -28329723.44547 -22026039.13747  21424681.9924                   21424679.3134
        47.0004         44.7504
 -11339984.40647  -8310764.51244  22265579.3914                   22265574.2894
        44.0004         29.0004
 25  7 15  1 35 30.0000000  0 10G03G09G02G28G06G04G31G01G26G16
 -43135862.84048 -33570908.12548  19899203.3284                   19899200.1524
        49.0004         51.2504
   4971889.57846   3959798.24245  23847310.2734                   23847309.0204
        38.5004         32.0004
 -42326879.17246 -32941940.95743  24615945.5234                   24615943.3554
        38.5004         20.0004
 -42605238.74246 -33158888.83243  24225916.1954                   24225912.1484
        40.0004         21.7504
  14273406.59045  11155405.05144  25132424.1414                   25132425.8134
        35.7504         29.7504
 -30613144.16847 -23807698.99246  21280832.8594                   21280828.9924
        46.5004         36.0004
 -47769615.46147 -37178350.81647  21547059.3284                   21547053.6804
        46.7504         43.7504
 -38915863.52347 -30281185.70344  22669784.7974                   22669781.4924
        43.0004         29.7504
 -28422888.00447 -22098634.88347  21406953.0394                   21406951.2114
        47.0004         44.7504
 -11509357.66847  -8442743.59444  22233348.3524                   22233344.1414
        43.2504         29.7504
 25  7 15  1 36  0.0000000  0 10G03G09G02G28G06G04G31G01G26G16
 -43225187.90647 -33640512.07048  19882205.4924                   19882202.2584
        47.5004         51.5004
   4814667.70346   3837287.78545  23817390.8444                   23817390.4694
        37.7504         32.7504
 -42320829.74246 -32937227.46143  24617097.0394                   24617095.0514
        39.0004         19.0004
 -42587147.54746 -33144791.88743  24229358.3594                   24229355.2854
        39.7504         22.0004
  14136811.87546  11048967.67244  25106431.6024                   25106430.9574
        37.0004         27.0004
 -30737665.55547 -23904728.62545  21257136.7974                   21257133.0004
        46.2504         35.5004
 -47768249.71947 -37177286.62147  21547318.6724                   21547313.3134
        46.0004         44.0004
 -38912548.76647 -30278602.82845  22670415.4534                   22670412.2304
        42.2504         30.5004
 -28515312.87547 -22170654.24647  21389365.0314                   21389363.3754
        46.2504         44.5004
 -11678285.48047  -8574375.59844  22201202.3204                   22201198.0864
        44.0004         29.5004
 25  7 15  1 36 30.0000000  0 10G03G09G02G28G06G04G31G01G26G16
 -43313840.23848 -33709591.80948  19865335.2344                   19865332.3324
        48.5004         51.5004
   4657587.57046   3714887.79745  23787500.8524                   23787499.4494
        39.0004         32.5004
 -42314728.12546 -32932473.22743  24618259.0554                   24618256.8244
        41.7504         21.2504
 -42568897.92646 -33130571.48443  24232831.0084                   24232827.5204
        41.5004         22.5004
  14000798.37146  10942983.13344  25080549.8754                   25080549.2464
        37.0004         28.2504
 -30861927.10247 -24001555.77346  21233491.2034                   21233486.6334
        45.7504         36.0004
 -47766482.75047 -37175909.78547  21547655.4614                   21547649.6214
        46.7504         43.7504
 -38908870.12147 -30275736.41845  22671115.0704                   22671111.7504
        42.0004         30.0004
 -28607002.27347 -22242100.51647  21371917.0004                   21371915.0514
        45.2504         45.0004
 -11846769.77047  -8705661.98044  22169141.0004                   22169135.7234
        43.5004         29.5004
 25  7 15  1 37  0.0000000  0 10G03G09G02G28G06G04G31G01G26G16
 -43401819.89148 -33778147.38748  19848593.4144                   19848590.4614
        49.0004         51.2504
   4500648.16446   3592597.43045  23757636.0234                   23757634.1994
        38.0004         32.0004
 -42308577.71946 -32927681.02343  24619429.6804                   24619427.4384
        40.0004         19.0004
 -42550492.94946 -33116230.05543  24236333.6564                   24236330.7154
        40.0004         22.2504
  13865366.20345  10837451.59844  25054776.5634                   25054776.0704
        35.7504         27.7504
 -30985929.77747 -24098181.20345  21209893.9384                   21209890.0944
        47.0004         35.7504
 -47764318.41847 -37174223.32047  21548067.3364                   21548061.5514
        47.0004         43.7504
 -38904831.92247 -30272589.83244  22671883.5944                   22671880.4694
        42.7504         29.0004
 -28697956.62547 -22312974.02747  21354609.3834                   21354607.3014
        46.5004         45.0004
 -12014808.44547  -8836601.12945  22137164.0554                   22137159.1254
        43.0004         30.5004
 25  7 15  1 37 30.0000000  0 10G03G09G02G28G06G04G31G01G26G16
 -43489122.96948 -33846175.75448  19831979.9064                   19831977.1134
        48.7504         51.2504
   4343852.45746   3470419.02745  23727798.1254                   23727797.1684
        38.2504         32.5004
 -42302378.40646 -32922850.68443  24620609.7344                   24620607.3874
        38.0004         18.2504
 -42531931.53946 -33101766.66443  24239865.5704                   24239862.4104
        41.0004         22.5004
  13730520.16446  10732376.91044  25029118.0634                   25029116.3164
        38.5004         27.5004
 -31109670.35947 -24194602.41046  21186346.9694                   21186342.8674
        47.2504         36.2504
 -47761756.41847 -37172226.97347  21548554.7894                   21548548.7274
        46.0004         43.7504
 -38900434.42247 -30269163.27344  22672720.5314                   22672717.3484
        42.7504         29.7504
 -28788172.23847 -22383271.89147  21337441.8444                   21337439.7854
        46.5004         44.7504
 -12182394.93447  -8967187.94144  22105273.4774                   22105268.6644
        44.5004         29.7504
 25  7 15  1 38  0.0000000  0 10G03G09G02G28G06G04G31G01G26G16
 -43575752.28947 -33913679.12148  19815495.5554                   19815492.2074
        47.7504         51.2504
   4187196.76646   3348349.76645  23697989.1884                   23697986.8364
        40.2504         32.7504
 -42296136.38746 -32917987.09843  24621797.0864                   24621796.3284
        37.2504         19.0004
 -42513219.23446 -33087185.75843  24243427.6724                   24243424.0394
        41.2504         22.5004
  13596257.58645  10627756.71944  25003567.0944                   25003567.6134
        35.0004         28.5004
 -31233152.51647 -24290822.23845  21162848.9534                   21162844.9534
        47.0004         35.7504
 -47758803.53147 -37169926.04747  21549117.0004                   21549111.3164
        45.5004         43.7504
 -38895684.63347 -30265462.21944  22673624.6254                   22673621.6804
        42.0004         29.5004
 -28877652.31247 -22452996.61347  21320414.7034                   21320412.3324
        45.5004         45.0004
 -12349529.63347  -9097422.70344  22073468.5704                   22073463.7544
        44.2504         29.0004
 25  7 15  1 38 30.0000000  0 10G03G09G02G28G06G04G31G01G26G16
 -43661701.64548 -33980652.64548  19799139.6024                   19799136.2504
        48.0004         51.5004
   4030686.32446   3226393.66445  23668205.4224                   23668203.2384
        40.0004         33.2504
 -42289849.27746 -32913088.31643  24622992.8674                   24622992.3134
        37.5004         19.0004
 -42494352.78546 -33072484.70343  24247017.9144                   24247014.2624
        41.5004         22.5004
  13462585.43846  10523596.69144  24978130.2274                   24978130.4694
        36.5004         27.7504
 -31356370.71547 -24386836.39146  21139401.2664                   21139396.9844
        47.0004         36.2504
 -47755456.83647 -37167318.26247  21549753.4774                   21549748.0164
        46.5004         44.0004
 -38890580.55147 -30261485.07845  22674596.1804                   22674592.5664
        42.5004         30.0004
 -28966390.89147 -22522143.53947  21303528.0474                   21303526.0004
        46.0004         45.2504
 -12516203.93747  -9227298.72745  22041751.5634                   22041746.7974
        43.7504         30.2504
 25  7 15  1 39  0.0000000  0 10G03G09G02G28G06G04G31G01G26G16
 -42171548.50447 -32819494.35548  20082706.3284                   20082703.0004
        47.2504         51.5004
   5449745.28146   4332153.96145  23938242.3914                   23938241.2934
        39.5004         33.5004
 -40708101.06646 -31680557.53143  24923990.7504                   24923989.4494
        37.5004         21.2504
 -40899915.81246 -31830066.36743  24550429.3284                   24550425.7584
        41.2504         22.0004
  14904928.52746  11647500.39844  25252600.0944                   25252599.6804
        36.2504         28.5004
 -29903901.84047 -23255042.43745  21415796.7114                   21415792.7154
        47.0004         35.7504
 -46176300.33247 -35936806.71547  21850257.0634                   21850251.5704
        45.5004         43.7504
 -37309706.75047 -29029635.43744  22975425.8674                   22975422.7034
        42.2504         29.5004
 -27478965.67247 -21363110.87947  21586575.8834                   21586573.3874
        45.0004         45.2504
 -11106990.41447  -8129210.20744  22309916.1564                   22309911.3284
        44.2504         29.5004
 25  7 15  1 39 30.0000000  0 10G03G09G02G28G06G04G31G01G26G16
 -42256130.64548 -32885402.52048  20066610.8054                   20066607.8014
        48.7504         51.2504
   5293530.19946   4210428.01645  23908516.2584                   23908514.4534
        40.0004         33.0004
 -40701726.86346 -31675590.86343  24925202.7424                   24925202.3674
        37.5004         19.7504
 -40880741.94146 -31815125.76244  24554078.2894                   24554074.0204
        41.0004         24.0004
  14772446.14545  11544267.39544  25227387.7894                   25227387.7114
        35.2504         27.2504
 -30026586.94547 -23350641.19146  21392450.8444                   21392446.3714
        47.0004         36.2504
 -46172169.63347 -35933588.00847  21851043.0394                   21851037.3134
        47.0004         43.7504
 -37303899.12547 -29025110.09044  22976531.8754                   22976528.1564
        43.0004         29.2504
 -27566214.96147 -21431097.32447  21569972.3524                   21569970.3954
        47.0004         44.7504
 -11272729.94547  -8258357.82444  22278377.1884                   22278372.0084
        44.0004         29.7504
 25  7 15  1 40  0.0000000  0 10G03G09G02G28G06G04G31G01G26G16
 -42340029.85248 -32950778.52748  20050644.9534                   20050642.0274
        48.0004         51.5004
   5137460.91446   4088815.64545  23878817.2274                   23878815.4884
        39.5004         33.5004
 -40695314.98846 -31670594.96543  24926422.9844                   24926423.2544
        37.5004         21.2504
 -40861419.07846 -31800069.01644  24557753.9384                   24557750.8524
        40.2504         24.0004
  14640558.87946  11441498.17644  25202290.9304                   25202290.9774
        37.2504         29.2504
 -30149007.12947 -23446033.51246  21369154.7194                   21369150.7194
        47.5004         36.2504
 -46167652.86747 -35930068.46947  21851903.0554                   21851897.0084
        46.0004         43.5004
 -37297746.62146 -29020316.02044  22977702.6334                   22977699.0554
        41.7504         29.0004
 -27652720.77347 -21498504.43747  21553510.8134                   21553508.9694
        46.0004         45.0004
 -11437998.81247  -8387138.69145  22246927.1174                   22246922.0354
        44.2504         30.0004
 25  7 15  1 40 30.0000000  0 10G03G09G02G28G06G04G31G01G26G16
 -42423243.40247 -33015620.25848  20034810.7504                   20034806.9144
        47.5004         51.5004
   4981539.39146   3967318.41845  23849146.2034                   23849144.7544
        40.0004         34.5004
 -40688866.20746 -31665570.20743  24927650.5394                   24927651.2464
        36.5004         22.7504
 -40841947.20746 -31784896.26243  24561459.5004                   24561456.7384
        40.5004         22.7504
  14509270.02046  11339195.20744  25177307.8834                   25177307.2304
        37.0004         28.7504
 -30271160.29747 -23541217.77046  21345909.9304                   21345905.7154
        47.0004         36.5004
 -46162751.18447 -35926248.99647  21852835.2274                   21852829.9804
        46.0004         43.5004
 -37291250.51247 -29015254.19544  22978937.9454                   22978935.1914
        42.2504         29.0004
 -27738480.69547 -21565330.33647  21537191.3594                   21537189.5664
        46.2504         45.0004
 -11602792.14147  -8515549.00845  22215567.9454                   22215563.1254
        44.0004         31.0004
 25  7 15  1 41  0.0000000  0 10G03G09G02G28G06G04G31G01G26G16
 -42505771.39147 -33079927.78148  20019105.8134                   20019102.5274
        47.7504         51.5004
   4825764.69946   3845935.64545  23819503.8674                   23819501.3054
        40.2504         33.0004
 -40682383.92246 -31660519.37943  24928886.4534                   24928884.4774
        38.5004         20.5004
 -40822329.06247 -31769609.44943  24565193.3444                   24565189.6174
        42.0004         22.5004
  14378580.03146  11237358.87144  25152439.4144                   25152438.0984
        37.5004         29.0004
 -30393047.21547 -23636194.56646  21322715.4924                   21322711.5704
        47.2504         36.0004
 -46157467.90647 -35922132.18447  21853841.0164                   21853835.6844
        46.2504         43.5004
 -37284415.02746 -29009927.92244  22980239.3134                   22980236.3484
        41.5004         28.2504
 -27823495.14847 -21631575.34447  21521013.3984                   21521011.5664
        47.5004         45.0004
 -11767107.34447  -8643586.76245  22184299.4454                   22184294.9414
        44.2504         30.0004
 25  7 15  1 41 30.0000000  0 10G03G09G02G28G06G04G31G01G26G16
 -42587610.96547 -33143698.87948  20003532.1644                   20003529.2074
        47.5004         51.5004
   4670139.00446   3724668.91845  23789888.4694                   23789886.6724
        39.7504         33.7504
 -40675869.04746 -31655443.22743  24930126.7274                   24930124.7814
        38.7504         19.2504
 -40802564.36346 -31754208.53543  24568954.4694                   24568951.4344
        41.2504         23.5004
  14248492.23446  11135991.78944  25127684.1804                   25127681.8594
        37.2504         28.2504
 -30514665.54747 -23730962.07445  21299572.4534                   21299568.0594
        47.0004         35.7504
 -46151803.61347 -35917718.46947  21854918.4774                   21854913.2424
        45.7504         43.5004
 -37277241.43746 -29004338.18444  22981603.8524                   22981601.3244
        41.2504         28.5004
 -27907761.71547 -21697237.58647  21504977.9844                   21504976.1644
        45.0004         44.7504
 -11930939.43747  -8771248.07445  22153123.4614                   22153118.7304
        44.0004         30.7504
 25  7 15  1 42  0.0000000  0 10G03G09G02G28G06G04G31G01G26G16
 -42668765.45348 -33206936.14848  19988089.2114                   19988086.0084
        48.2504         51.5004
   4514658.28546   3603515.17245  23760301.8444                   23760299.7894
        39.0004         34.2504
 -40669327.81646 -31650346.44143  24931372.5704                   24931370.3834
        39.2504         19.2504
 -40782659.16446 -31738698.02343  24572742.4384                   24572738.8484
        40.5004         22.7504
  14119004.01646  11035091.90245  25103043.9774                   25103042.9024
        38.0004         30.0004
 -30636019.18747 -23825523.34046  21276479.2424                   21276475.3244
        46.7504         36.0004
 -46145765.17647 -35913013.21547  21856067.9144                   21856062.6334
        46.5004         43.2504
 -37269736.91446 -28998490.57044  22983032.5864                   22983029.4064
        41.0004         27.7504
 -27991283.96547 -21762319.84047  21489084.4454                   21489082.1994
        47.0004         45.0004
 -12094288.87547  -8898533.27345  22122038.7894                   22122034.0204
        44.0004         30.0004
 25  7 15  1 42 30.0000000  0 10G03G09G02G28G06G04G31G01G26G16
 -42749231.43447 -33269636.91448  19972776.8134                   19972773.6254
        47.2504         51.5004
   4359325.32046   3482476.54745  23730741.9774                   23730740.4844
        39.5004         34.5004
 -40662760.10546 -31645228.98043  24932622.2424                   24932620.2854
        38.0004         20.5004
 -40762612.40646 -31723077.29744  24576557.9224                   24576554.7384
        41.2504         24.5004
  13990119.28146  10934662.30144  25078516.3054                   25078515.2504
        37.0004         29.0004
 -30757105.18447 -23919876.04346  21253437.1094                   21253433.3094
        46.7504         36.2504
 -46139352.50047 -35908016.34847  21857288.5394                   21857282.5824
        45.5004         43.2504
 -37261902.17246 -28992385.66444  22984523.6564                   22984520.7934
        40.7504         27.2504
 -28074058.92647 -21826819.78147  21473332.7424                   21473331.1294
        46.0004         45.0004
 -12257149.88747  -9025437.89145  22091047.4064                   22091042.9414
        43.7504         30.0004
 25  7 15  1 43  0.0000000  0 10G03G09G02G28G06G04G31G01G26G16
 -42829012.37547 -33331803.88348  19957595.0784                   19957591.9694
        47.2504         51.2504
   4204135.90646   3361549.81345  23701211.4224                   23701209.1254
        40.7504         35.0004
 -40656173.03146 -31640096.52343  24933875.2344                   24933874.5824
        39.0004         21.0004
 -40742430.24646 -31707350.95743  24580396.8524                   24580394.1254
        39.0004         21.5004
  13861835.12146  10834700.66444  25054105.8284                   25054105.6724
        36.0004         27.5004
 -30877927.52047 -24014023.29345  21230445.4224                   21230441.6374
        47.0004         35.7504
 -46132572.57047 -35902733.31647  21858578.3594                   21858572.7304
        45.0004         43.2504
 -37253744.66446 -28986029.23044  22986075.6644                   22986072.9734
        41.2504         28.5004
 -28156090.45747 -21890740.44147  21457722.5944                   21457720.5704
        46.5004         44.7504
 -12419523.35247  -9151962.59845  22060149.2194                   22060144.5514
        44.5004         30.5004
 25  7 15  1 43 30.0000000  0 10G03G09G02G28G06G04G31G01G26G16
 -42908097.60947 -33393428.73848  19942545.8364                   19942542.4694
        47.5004         51.2504
   4049100.15647   3240742.81345  23671709.1484                   23671706.8594
        42.0004         35.0004
 -40649558.88346 -31634943.07043  24935133.4384                   24935133.6414
        36.7504         18.5004
 -40722104.39146 -31691512.75443  24584265.3754                   24584262.6454
        41.0004         23.0004
  13734162.93046  10735215.88744  25029810.0234                   25029809.0084
        38.0004         29.5004
 -30998475.99647 -24107957.15646  21207505.8594                   21207501.6844
        47.0004         36.0004
 -46125418.10547 -35897158.43047  21859939.8444                   21859934.5514
        45.5004         43.5004
 -37245257.62546 -28979416.05144  22987691.5474                   22987687.9804
        41.0004         27.7504
 -28237368.18447 -21954073.71547  21442256.5004                   21442254.0634
        45.0004         44.7504
 -12581396.19147  -9278097.20745  22029345.7814                   22029340.6294
        45.5004         31.0004
 25  7 15  1 44  0.0000000  0 10G03G09G02G28G06G04G31G01G26G16
 -42986489.50848 -33454513.32848  19927628.0394                   19927624.6254
        48.0004         51.5004
   3894215.09847   3120053.22745  23642235.7894                   23642233.3674
        42.2504         35.5004
                                  24936395.688
        36.000
 -40701639.73446 -31675566.37143  24588159.4304                   24588157.3404
        38.2504         21.5004
  13607100.90246  10636206.54745  25005630.6094                   25005631.5474
        37.0004         31.2504
 -31118753.40247 -24201679.78546  21184617.8054                   21184613.8324
        47.2504         36.2504
 -46117894.57047 -35891295.96547  21861371.1484                   21861365.9104
        45.2504         43.0004
 -37236447.40646 -28972551.01244  22989366.7734                   22989364.3874
        40.7504         27.5004
 -28317894.91047 -22016821.79747  21426932.2734                   21426930.2034
        45.0004         45.0004
 -12742768.02347  -9403841.43045  21998637.5474                   21998632.5784
        45.0004         30.0004
 25  7 15  1 44 30.0000000  0 10G03G09G02G28G06G04G31G01G26G16
 -43064187.41848 -33515057.15248  19912842.6414                   19912839.5044
        48.0004         51.5004
   3739480.80146   2999481.12945  23612789.7974                   23612788.2854
        41.5004         35.5004
 -40636277.28516                  24937664.305
        37.750
 -40681038.11746 -31659513.21544  24592080.8524                   24592077.2384
        41.5004         25.5004
  13480650.17646  10537673.55944  24981567.0394                   24981567.0984
        36.7504         29.5004
 -31238759.52047 -24295191.03146  21161781.6644                   21161777.5824
        47.2504         36.2504
 -46110004.84047 -35885148.15647  21862872.7424                   21862867.2034
        45.0004         42.7504
 -37227317.34446 -28965436.76244  22991105.2034                   22991101.6524
        41.7504         29.0004
 -28397670.41447 -22078984.50847  21411751.6254                   21411749.7584
        45.2504         44.7504
 -12903635.68447  -9529192.78145  21968025.5394                   21968020.2734
        44.5004         31.2504
 25  7 15  1 45  0.0000000  0 10G03G09G02G28G06G04G31G01G26G16
 -43141188.88747 -33575058.29348  19898190.2114                   19898186.6484
        47.7504         51.2504
   3584899.18846   2879027.95745  23583373.7424                   23583372.2464
        41.5004         34.5004
 -40629605.29355 -31622125.42653  24938929.9844                   24938930.9574
        32.2504         20.7504
 -40660299.34046 -31643353.24243  24596026.0944                   24596024.1524
        38.2504         22.2504
  13354813.85246  10439619.30545  24957622.7194                   24957621.1764
        40.5004         30.0004
 -31358492.25047 -24388489.24646  21138996.8204                   21138993.0784
        47.0004         36.5004
 -46101750.00447 -35878715.84447  21864443.9144                   21864438.2974
        45.5004         42.7504
 -37217868.83647 -28958074.33644  22992903.4224                   22992900.0554
        42.0004         29.5004
 -28476692.59047 -22140560.21947  21396714.0784                   21396712.1054
        44.7504         44.7504
 -13063994.41447  -9654147.58245  21937510.0164                   21937505.1254
        45.0004         31.7504
 25  7 15  1 45 30.0000000  0 10G03G09G02G28G06G04G31G01G26G16
 -43217488.63747 -33634512.64148  19883670.4694                   19883667.1724
        47.0004         51.2504
   3430475.03946   2758697.52745  23553987.5394                   23553985.8794
        41.0004         35.2504
 -40622913.05945 -31616910.99243  24940206.3444                   24940206.1414
        34.0004         18.2504
 -40639420.65646 -31627084.18443  24599999.8984                   24599996.7974
        41.2504         22.5004
  13229597.78946  10342048.37144  24933794.0474                   24933793.5554
        38.5004         29.2504
 -31477946.65647 -24481570.59446  21116265.6414                   21116261.8204
        47.2504         36.7504
 -46093127.77747 -35871997.26247  21866084.6724                   21866079.5354
        46.0004         42.5004
 -37208100.46947 -28950462.69944  22994762.1024                   22994758.8714
        42.5004         28.7504
 -28554956.54747 -22201545.10247  21381821.1804                   21381818.9104
        45.0004         44.7504
 -13223835.96547  -9778699.37545  21907092.8444                   21907088.1644
        45.5004         31.5004
 25  7 15  1 46  0.0000000  0 10G03G09G02G28G06G04G31G01G26G16
 -43293087.89548 -33693421.14548  19869284.1254                   19869281.1954
        49.2504         51.2504
   3276206.65246   2638488.47745  23524631.0314                   23524629.3484
        41.2504         34.7504
 -40616205.07445 -31611684.32042  24941483.6644                   24941482.6294
        35.7504         17.2504
 -40618405.42646 -31610708.76243  24603996.7504                   24603996.6564
        38.5004         23.7504
  13105001.44946  10244960.33644  24910084.4844                   24910083.1844
        38.2504         29.2504
 -31597124.27047 -24574436.25046  21093587.0864                   21093582.9224
        47.2504         36.0004
 -46084142.39847 -35864995.69547  21867794.1094                   21867789.1684
        45.5004         42.5004
 -37198017.32447 -28942605.78944  22996680.7344                   22996677.9654
        42.2504         28.2504
 -28632463.99647 -22261940.50847  21367071.7584                   21367069.5664
        46.2504         44.7504
 -13383158.99247  -9902847.11345  21876775.2504                   21876769.9384
        45.2504         31.2504
 25  7 15  1 46 30.0000000  0 10G03G09G02G28G06G04G31G01G26G16
 -43367987.03548 -33751784.10948  19855031.5944                   19855028.4494
        49.0004         51.2504
   3122093.13347   2518400.12545  23495304.8834                   23495302.5474
        42.0004         35.0004
 -40609485.09446 -31606448.23443  24942762.9614                   24942762.5554
        38.2504         20.0004
 -40597256.54746 -31594229.21143  24608023.4064                   24608020.9534
        40.5004         22.7504
  12981024.92246  10148355.30945  24886492.1804                   24886492.2974
        37.2504         30.0004
 -31716025.82847 -24667086.80146  21070960.9064                   21070956.7274
        46.5004         36.7504
 -46074797.86747 -35857714.28947  21869572.5554                   21869567.0944
        46.0004         42.2504
 -37187623.67647 -28934506.90644  22998658.5704                   22998655.9924
        42.0004         28.7504
 -28709215.71947 -22321747.03147  21352466.1644                   21352464.3484
        45.5004         44.7504
 -13541961.34047 -10026589.14145  21846555.7974                   21846550.6334
        45.7504         32.0004
 25  7 15  1 47  0.0000000  0 11G03G09G02G28G06G04G31G01G26G07G16
 -43442186.52048 -33809601.88748  19840911.6254                   19840908.8754
        48.0004         51.2504
   2968133.63346   2398431.74645  23466006.4224                   23466004.9104
        41.5004         34.5004
 -40602756.11346 -31602114.17653  24944043.9924                   24944040.1644
        39.2504         20.0004
 -40575976.59846 -31577647.52043  24612073.6254                   24612070.4414
        39.2504         21.5004
  12857668.40246  10052233.41044  24863018.8524                   24863017.7814
        37.7504         29.7504
 -31834651.98047 -24759522.75046  21048386.9694                   21048382.9614
        46.5004         37.0004
 -46065097.39547 -35850155.51247  21871418.6644                   21871413.2074
        45.5004         42.5004
 -37176923.77046 -28926169.39844  23000694.7424                   23000692.3484
        41.2504         28.2504
 -28785212.55547 -22380965.33247  21338005.0864                   21338002.7664
        46.0004         44.7504
  18680368.73056  14589978.41054  25142350.6414                   25142352.7034
        37.0004         24.2504
 -13700240.95347 -10149923.84045  21816436.2114                   21816430.8324
        45.7504         31.2504
 25  7 15  1 47 30.0000000  0 11G03G09G02G28G06G04G31G01G26G07G16
 -43515686.85247 -33866874.86748  19826925.3594                   19826922.0984
        47.0004         51.2504
   2814327.23846   2278582.70345  23436738.6884                   23436736.9104
        41.2504         34.5004
 -40596021.82845 -31596866.96143  24945324.1644                   24945324.2894
        35.5004         20.0004
 -40554568.39546 -31560965.89143  24616146.8364                   24616144.0864
        40.2504         22.5004
  12734932.05146   9956594.69945  24839662.1644                   24839662.3164
        38.5004         31.2504
 -31953003.50447 -24851744.70346  21025865.1644                   21025861.4804
        47.5004         36.2504
 -46055044.64147 -35842322.24247  21873331.6254                   21873326.3714
        46.2504         42.2504
 -37165921.86347 -28917596.56244  23002788.7504                   23002786.1254
        42.0004         27.5004
 -28860455.46547 -22439596.16047  21323686.6094                   21323684.3134
        44.7504         44.7504
  18517961.39845  14463427.56644  25111444.5784                   25111447.5314
        35.7504         26.2504
 -13857995.55947 -10272849.44945  21786416.3364                   21786411.1134
        45.5004         31.2504
 25  7 15  1 48  0.0000000  0 11G03G09G02G28G06G04G31G01G26G07G16
 -43588497.84847 -33923610.70348  19813069.5474                   19813066.4694
        47.5004         51.2504
   2660663.83246   2158845.05945  23407497.6024                   23407495.2544
        40.7504         34.7504
 -40589295.51245 -31591625.95343  24946601.2194                   24946604.4144
        34.2504         18.2504
 -40533043.84046 -31544193.59843  24620242.7034                   24620239.9884
        37.0004         20.2504
  12612806.71946   9861432.13345  24816423.8754                   24816422.2504
        39.7504         30.0004
 -32071090.34847 -24943760.41046  21003394.2974                   21003390.1054
        46.7504         36.2504
 -46044652.97747 -35834224.87547  21875308.8914                   21875303.6724
        46.0004         42.0004
 -37154631.55946 -28908798.98444  23004936.3204                   23004934.1564
        41.7504         27.7504
 -28934954.65647 -22497647.46947  21309510.1174                   21309508.0274
        45.5004         44.5004
  18355820.75046  14337084.57444  25080590.8754                   25080592.6884
        37.0004         25.7504
 -14015232.30147 -10395371.52745  21756495.0004                   21756490.4064
        46.0004         31.7504
 25  7 15  1 48 30.0000000  0 11G03G09G02G28G06G04G31G01G26G07G16
 -43660611.02048 -33979802.78948  19799346.9614                   19799343.6804
        48.7504         51.2504
   2507151.39146   2039225.05145  23378284.9454                   23378282.6054
        40.7504         34.0004
 -40582571.09046 -31586386.52343  24947884.4614                   24947885.2734
        37.0004         21.0004
 -40511396.74646 -31527325.81243  24624362.4924                   24624359.5864
        38.7504         22.5004
  12491301.34046   9766752.63345  24793300.6804                   24793299.7464
        36.0004         30.0004
 -32188904.29347 -25035563.47746  20980974.9454                   20980970.8244
        47.0004         37.0004
 -46033916.85547 -35825859.10947  21877352.5234                   21877346.9734
        44.5004         42.5004
 -37143048.11346 -28899772.99644  23007141.5944                   23007138.6954
        41.7504         28.2504
 -29008702.14547 -22555113.03947  21295476.1644                   21295473.8164
        45.5004         44.5004
  18193955.23045  14210955.92643  25049788.4614                   25049789.1684
        35.0004         22.2504
 -14171940.07047 -10517481.41045  21726674.4844                   21726669.5314
        45.2504         32.5004
 25  7 15  1 49  0.0000000  0 11G03G09G02G28G06G04G31G01G26G07G16
 -42156608.25448 -32807852.58248  20085549.3054                   20085546.5354
        49.0004         51.0004
   3929210.60946   3147323.22745  23648893.6174                   23648891.9414
        39.7504         34.7504
 -39000436.57845 -30353554.52743  25248955.5634                   25248955.8914
        35.2504         18.5004
 -38914214.28546 -30282768.12943  24928295.3284                   24928293.5634
        36.2504         20.2504
  13945836.41046  10900156.62945  25070089.7034                   25070089.5744
        38.2504         31.2504
 -30731025.81647 -23899554.25846  21258400.1484                   21258395.9384
        47.0004         36.2504
 -44447423.91447 -34589630.88747  22179251.9924                   22179246.4384
        45.7504         43.0004
 -35555759.94146 -27662925.16044  23309191.8674                   23309189.7274
        41.5004         28.0004
 -27506280.16847 -21384394.60947  21581377.4384                   21581375.3244
        46.5004         44.5004
  19607786.32046  15312642.90244  25318830.8674                   25318832.4844
        38.2504         25.5004
 -12752695.40647  -9411576.41845  21996747.8754                   21996743.1524
        45.5004         32.5004
 25  7 15  1 49 30.0000000  0 11G03G09G02G28G06G04G31G01G26G07G16
 -42227326.90648 -32862958.03148  20072092.0784                   20072089.0044
        49.0004         51.0004
   3775998.27346   3027937.09445  23619738.1094                   23619735.8364
        40.5004         35.0004
 -38993726.47346 -30348326.14143  25250230.2974                   25250231.8134
        36.0004         20.2504
 -38892329.50046 -30265715.12543  24932460.8284                   24932457.4534
        36.2504         21.5004
  13825571.85546  10806444.01245  25047204.2584                   25047203.8484
        36.0004         30.0004
 -30848295.42647 -23990933.16846  21236084.3914                   21236080.3984
        47.2504         37.0004
 -44436008.87547 -34580736.09047  22181424.0784                   22181418.7624
        47.0004         42.7504
 -35543602.54747 -27653451.96144  23311506.5944                   23311503.5474
        43.7504         27.0004
 -27578526.72347 -21440690.62147  21567629.4384                   21567627.2584
        47.5004         44.5004
  19446470.96946  15186942.96544  25288133.5864                   25288135.0314
        37.5004         25.5004
 -12908338.30947  -9532856.54745  21967130.1254                   21967125.1914
        46.0004         32.2504
 25  7 15  1 50  0.0000000  0 11G03G09G02G28G06G04G31G01G26G07G16
 -42297335.35948 -32917510.07048  20058769.8674                   20058766.6604
        48.7504         51.0004
   3622948.49646   2908677.59445  23590613.3134                   23590611.7464
        40.5004         35.2504
 -38987014.78546 -30343096.56643  25251509.6954                   25251509.4454
        39.2504         19.7504
 -38870316.21945 -30248562.00843  24936649.6334                   24936647.6954
        35.5004         21.5004
  13705941.63746  10713225.68445  25024438.5784                   25024438.6804
        38.0004         31.0004
 -30965280.13347 -24082090.07446  21213822.8984                   21213818.9414
        47.5004         37.0004
 -44424246.08247 -34571570.32446  22183662.1804                   22183656.7194
        45.2504         41.7504
 -35531150.77047 -27643749.33644  23313875.1484                   23313872.9384
        42.0004         28.0004
 -27650010.52747 -21496392.27747  21554026.5164                   21554024.2704
        47.0004         44.5004
  19285444.24246  15061467.89544  25257490.7034                   25257491.4144
        37.2504         26.0004
 -13063431.42647  -9653708.25845  21937616.3984                   21937611.4184
        46.5004         32.0004
 25  7 15  1 50 30.0000000  0 11G03G09G02G28G06G04G31G01G26G07G16
 -42366622.43048 -32971500.00048  20045584.8054                   20045581.9884
        48.7504         51.0004
   3470072.22746   2789553.31345  23561522.0474                   23561520.3324
        40.5004         35.0004
 -38980293.20346 -30337859.32443  25252789.6254                   25252789.3324
        38.7504         20.5004
 -38848165.18446 -30231301.54743  24940866.9454                   24940862.1024
        39.5004         20.5004
  13586957.46546  10620510.74245  25001797.4774                   25001797.0314
        37.0004         31.0004
 -31081968.73847 -24173016.25446  21191617.8364                   21191614.0234
        46.5004         36.5004
 -44412127.37547 -34562127.21547  22185968.6174                   22185963.3054
        45.5004         42.0004
 -35518397.01246 -27633811.46144  23316302.6024                   23316300.4414
        41.0004         26.7504
 -27720720.90647 -21551491.26647  21540570.7584                   21540568.6644
        47.2504         44.7504
  19124717.56346  14936226.78544  25226906.3444                   25226906.3014
        39.2504         24.5004
 -13217960.96547  -9774120.84045  21908210.7974                   21908205.6334
        46.0004         33.2504
 25  7 15  1 51  0.0000000  0 11G03G09G02G28G06G04G31G01G26G07G16
 -42435178.75448 -33024920.51648  20032539.1174                   20032535.5594
        49.0004         51.0004
   3317378.62546   2670571.35546  23532465.5554                   23532463.6914
        41.0004         36.0004
 -38973555.24646 -30333660.06654  25254070.7034                   25254071.2464
        39.7504         25.2504
 -38825869.03545 -30213927.92643  24945106.2504                   24945105.1954
        33.2504         19.5004
  13468629.36746  10528307.07445  24979280.2734                   24979279.4454
        38.0004         31.2504
 -31198352.00447 -24263704.50046  21169471.0314                   21169466.9064
        47.0004         37.0004
 -44399646.11347 -34552401.58647  22188343.6024                   22188338.1604
        45.7504         42.2504
 -35505335.64547 -27623633.84044  23318788.5864                   23318785.1804
        43.0004         27.0004
 -27790648.94947 -21605980.64547  21527263.9064                   21527261.6564
        47.7504         45.0004
  18964300.58246  14811226.87144  25196378.8594                   25196380.7974
        39.0004         28.0004
 -13371915.18447  -9894085.10545  21878914.0234                   21878909.0554
        46.0004         32.0004
 25  7 15  1 51 30.0000000  0 10G03G09G28G06G04G31G01G26G07G16
 -42503000.97348 -33077769.00848  20019632.9844                   20019629.8794
        49.0004         51.0004
   3164870.86346   2551734.21545  23503444.1094                   23503442.2464
        40.5004         35.0004
 -38803426.48046 -30196440.39543  24949380.3834                   24949376.7114
        39.5004         22.0004
  13350961.31645  10436617.70345  24956887.8444                   24956888.2344
        35.7504         30.7504
 -31314426.50047 -24354152.15646  21147382.7894                   21147378.4344
        47.0004         36.5004
 -44386801.72347 -34542393.01647  22190787.8284                   22190782.9654
        45.7504         42.0004
 -35491966.82847 -27613216.65244  23321331.9844                   23321329.2504
        42.2504         26.5004
 -27859791.78947 -21659858.18047  21514106.0474                   21514104.4774
        47.5004         44.5004
  18804197.19945  14686471.30543  25165910.9064                   25165912.5234
        35.0004         22.7504
 -13525287.75447 -10013596.13745  21849728.1334                   21849723.1684
        46.0004         32.0004
 25  7 15  1 52  0.0000000  0 10G03G09G28G06G04G31G01G26G07G16
 -42570088.13748 -33130044.72748  20006866.6334                   20006863.5124
        48.7504         51.2504
   3012549.78146   2433042.52345  23474458.5314                   23474456.5554
        40.5004         35.7504
 -38780838.42246 -30178839.35543  24953676.5164                   24953674.0704
        36.2504         19.2504
  13233955.01246  10345443.98845  24934622.8444                   24934623.2504
        39.0004         31.0004
 -31430191.22747 -24444358.41846  21125353.0084                   21125348.9494
        47.0004         37.0004
 -44373596.72347 -34532103.44947  22193300.5784                   22193295.2194
        45.7504         42.0004
 -35478293.18747 -27602561.94144  23323934.0314                   23323930.7074
        42.0004         25.7504
 -27928148.90647 -21713123.45747  21501098.2734                   21501096.4344
        47.2504         44.7504
  18644408.61746  14561961.10244  25135505.8134                   25135504.9574
        39.5004         26.0004
 -13678074.96547 -10132651.05945  21820653.7114                   21820648.4774
        45.5004         32.0004
 25  7 15  1 52 30.0000000  0 10G03G09G28G06G04G31G01G26G07G16
 -42636421.85248 -33181733.33648  19994243.9304                   19994240.6724
        49.5004         51.2504
   2860433.64846   2314510.54745  23445511.6954                   23445509.7114
        40.0004         35.5004
 -38758088.42646 -30161112.14543  24958005.3364                   24958004.1134
        38.0004         21.7504
  13117629.35246  10254800.64145  24912486.6414                   24912486.0904
        37.5004         31.0004
 -31545627.82047 -24534309.00046  21103386.3984                   21103382.3484
        47.0004         37.0004
 -44360015.10947 -34521520.41046  22195885.9774                   22195880.0784
        46.0004         41.5004
 -35464299.94546 -27591658.18044  23326596.6804                   23326593.8364
        41.5004         26.0004
 -27995702.50847 -21765762.62147  21488243.2584                   21488241.0124
        47.7504         44.5004
  18484953.80946  14437711.01644  25105160.6564                   25105163.4454
        36.0004         26.5004
 -13830255.67647 -10251233.37545  21791694.8364                   21791689.6914
        45.5004         32.5004
 25  7 15  1 53  0.0000000  0 10G03G09G28G06G04G31G01G26G07G16
 -42701994.24248 -33232828.71948  19981765.8594                   19981762.7424
        49.0004         51.0004
   2708530.17646   2196144.25445  23416605.0944                   23416603.3284
        39.2504         35.0004
 -38735170.45746 -30143254.03943  24962366.2504                   24962364.6254
        37.0004         20.2504
  13001992.91846  10164694.35245  24890481.3754                   24890482.0514
        37.5004         32.0004
 -31660728.28947 -24623997.67246  21081483.4384                   21081479.2814
        47.2504         36.7504
 -44346052.03947 -34510640.14146  22198542.7584                   22198537.2114
        46.5004         41.2504
 -35449982.71146 -27580501.98844  23329321.3134                   23329318.4614
        41.0004         26.7504
 -28062445.10247 -21817769.82847  21475542.3524                   21475540.6334
        47.5004         44.5004
  18325841.00846  14313727.30544  25074883.4844                   25074883.3594
        39.2504         25.2504
 -13981819.04347 -10369334.65245  21762853.1414                   21762847.8054
        45.5004         32.5004
 25  7 15  1 53 30.0000000  0 10G03G09G28G06G04G31G01G26G07G16
 -42766791.12148 -33283319.80148  19969435.4614                   19969432.1454
        49.2504         51.0004
   2556853.56346   2077954.75445  23387742.3444                   23387740.4144
        40.7504         35.5004
 -38712072.23846 -30125255.44543  24966763.1724                   24966760.6414
        38.5004         20.5004
  12887060.45346  10075136.65245  24868611.0164                   24868610.7974
        38.5004         31.2504
 -31775478.38347 -24713413.32046  21059647.3754                   21059643.1334
        47.5004         36.5004
 -44331696.09847 -34499453.73846  22201274.2274                   22201268.7234
        45.7504         41.5004
 -35435330.85546 -27569085.03144  23332109.8134                   23332107.1844
        41.5004         27.0004
 -28128363.09047 -21869134.49247  21462999.0394                   21462996.8054
        47.5004         44.5004
  18167084.35546  14190021.28544  25044671.6954                   25044674.1024
        37.0004         26.0004
 -14132748.25047 -10486941.76645  21734132.4304                   21734126.9264
        45.2504         32.0004
 25  7 15  1 54  0.0000000  0 10G03G09G28G06G04G31G01G26G07G16
 -42830817.71548 -33333210.65648  19957251.4844                   19957248.3524
        49.0004         51.0004
   2405398.54346   1959937.90245  23358921.1884                   23358919.0514
        39.5004         34.5004
 -38688800.82846 -30107122.01243  24971191.5084                   24971188.7624
        36.5004         20.0004
  12772827.48846   9986123.95345  24846873.9534                   24846872.6094
        38.5004         31.5004
 -31889883.08647 -24802559.82845  21037876.5004                   21037872.7234
        46.7504         35.7504
 -44316955.15647 -34487967.32846  22204079.5084                   22204074.0634
        45.5004         41.7504
 -35420353.05946 -27557414.10944  23334959.7664                   23334957.5744
        41.5004         28.5004
 -28193462.14147 -21919861.02347  21450610.9304                   21450608.8404
        47.2504         44.5004
  18008679.83646  14066589.54743  25014528.9224                   25014530.4184
        38.0004         22.0004
 -14283045.65247 -10604056.56645  21705531.5004                   21705526.3284
        45.2504         32.2504
 25  7 15  1 54 30.0000000  0 10G03G09G28G06G04G31G01G26G07G16
 -42894068.19547 -33382496.74648  19945215.3834                   19945212.1994
        47.5004         51.2504
   2254170.96546   1842098.29345  23330143.1484                   23330141.4304
        40.0004         35.0004
 -38665352.09046 -30088850.32443  24975653.8054                   24975651.4454
        38.7504         20.0004
  12659300.41046   9897661.34045  24825270.7584                   24825268.6914
        38.5004         31.5004
 -32003936.42647 -24891432.55546  21016172.9774                   21016168.9534
        46.7504         37.0004
 -44301826.10947 -34476178.50046  22206958.4384                   22206953.4104
        45.7504         41.7504
 -35405046.87546 -27545487.34044  23337873.5164                   23337870.4064
        41.2504         25.5004
 -28257736.96147 -21969945.29347  21438380.2664                   21438377.7274
        45.2504         44.5004
  17850633.32846  13943436.72744  24984452.8754                   24984454.1484
        39.5004         27.5004
 -14432702.51247 -10720672.25445  21677052.8284                   21677047.2194
        45.5004         33.0004
 25  7 15  1 55  0.0000000  0 10G03G09G28G06G04G31G01G26G07G16
 -42956552.03948 -33431185.46548  19933325.0704                   19933322.1804
        48.2504         51.2504
   2103161.33246   1724428.49245  23301407.0394                   23301405.3054
        39.7504         35.2504
 -38641737.28945 -30070449.20343  24980146.8984                   24980144.5904
        35.5004         20.2504
  12546470.47346   9809741.89845  24803798.4304                   24803798.4574
        38.5004         31.7504
 -32117647.71947 -24980038.74246  20994534.6414                   20994530.1454
        47.2504         36.7504
 -44286321.31247 -34464096.87546  22209908.7504                   22209903.8634
        46.0004         41.2504
 -35389425.32846 -27533314.77744  23340845.6804                   23340843.0864
        41.7504         26.5004
 -28321197.59047 -22019395.12547  21426303.9534                   21426301.3714
        45.7504         44.5004
  17692936.04346  13820556.06344  24954444.1334                   24954444.4614
        37.7504         26.0004
 -14581725.59447 -10836794.09045  21648694.3594                   21648689.1294
        46.0004         32.7504
 25  7 15  1 55 30.0000000  0 10G03G09G28G06G04G31G01G26G07G16
 -43018269.98848 -33479277.37948  19921580.4144                   19921577.3634
        49.7504         51.0004
   1952368.97746   1606928.00045  23272711.8594                   23272710.4024
        39.7504         35.5004
 -38617958.89546 -30051920.69543  24984674.2814                   24984669.7664
        39.7504         20.0004
  12434337.46146   9722365.57045  24782460.9534                   24782460.7074
        38.0004         32.0004
 -32231017.45347 -25068378.78146  20972961.2114                   20972956.7464
        46.7504         37.0004
 -44270443.91447 -34451724.92247  22212930.3754                   22212925.0164
        45.5004         42.0004
 -35373492.50346 -27520899.69744  23343877.4694                   23343874.9774
        41.0004         26.5004
 -28383845.21547 -22068211.45347  21414382.2194                   21414380.0704
        47.0004         44.0004
  17535587.43846  13697947.10544  24924502.2584                   24924502.5394
        39.7504         29.2504
 -14730112.56647 -10952420.24645  21620457.2894                   21620452.2624
        45.5004         32.7504
 25  7 15  1 56  0.0000000  0 10G03G09G28G06G04G31G01G26G07G16
 -43079230.83648 -33526779.34448  19909980.1484                   19909976.8984
        49.5004         51.0004
   1801785.26246   1489590.08645  23244057.3364                   23244055.1994
        41.2504         35.7504
 -38594027.52346 -30033272.92643  24989227.4384                   24989224.1374
        40.5004         19.0004
  12322893.45346   9635526.09045  24761253.7344                   24761252.8404
        37.0004         31.2504
 -32344054.14147 -25156459.30546  20951450.6174                   20951446.5234
        47.0004         37.2504
 -44254205.60247 -34439071.73846  22216020.3594                   22216015.1644
        46.0004         41.7504
 -35357260.53146 -27508251.48844  23346966.7664                   23346964.2074
        41.2504         27.7504
 -28445689.17647 -22116401.55547  21402614.0314                   21402611.8244
        47.5004         44.5004
  17378579.43846  13575603.58244  24894622.9224                   24894624.5784
        37.2504         26.7504
 -14877869.66447 -11067555.59445  21592340.2974                   21592334.6644
        45.5004         33.0004
 25  7 15  1 56 30.0000000  0 10G03G09G28G06G04G31G01G26G07G16
 -43139438.15248 -33573694.14848  19898522.8834                   19898520.0904
        49.2504         51.0004
   1651406.68446   1372412.02045  23215440.7814                   23215438.8484
        41.0004         35.5004
 -38569948.12946 -30014509.80943  24993808.3594                   24993805.8634
        38.0004         18.2504
  12212135.31346   9549221.09445  24740176.8054                   24740177.0314
        37.7504         31.7504
 -32456761.09447 -25244282.89846  20930003.5164                   20929999.3794
        47.0004         36.7504
 -44237612.22747 -34426141.87546  22219178.1724                   22219172.6254
        45.2504         41.0004
 -35340736.43746 -27495375.66444  23350111.4304                   23350109.0944
        41.5004         28.5004
 -28506733.61347 -22163968.65247  21390997.2734                   21390995.2664
        47.0004         44.2504
  17221909.09846  13453523.10544  24864809.9774                   24864809.9024
        38.7504         28.7504
 -15024997.20747 -11182200.37945  21564342.4844                   21564337.3204
        44.5004         32.7504
 25  7 15  1 57  0.0000000  0 10G03G09G28G06G04G31G01G26G07G16
 -43198901.74648 -33620029.42648  19887207.3754                   19887204.2894
        49.0004         51.0004
   1501223.57046   1255386.26646  23186862.5554                   23186860.0824
        40.7504         36.0004
 -38545732.41446 -29995640.52743  24998416.1954                   24998415.4304
        39.0004         20.2504
  12102053.97746   9463443.45345  24719229.6414                   24719228.7734
        37.7504         31.7504
 -32569147.80947 -25331856.95346  20908616.7504                   20908612.8444
        47.0004         36.7504
 -44220676.72347 -34412945.41446  22222400.9614                   22222395.9344
        45.0004         41.0004
 -35323933.29346 -27482282.39844  23353309.1954                   23353306.2344
        40.0004         27.0004
 -28566988.80147 -22210920.73847  21379531.0704                   21379528.8634
        47.5004         44.5004
  17065567.22746  13331698.62544  24835058.2344                   24835058.6254
        38.5004         26.7504
 -15171502.21947 -11296360.07845  21536463.7274                   21536458.4344
        44.5004         32.0004
 25  7 15  1 57 30.0000000  0 10G03G09G28G06G04G31G01G26G07G16
 -43257617.39848 -33665781.89548  19876034.6644                   19876031.2624
        49.2504         51.2504
   1351240.38346   1138516.29746  23158321.7734                   23158318.9454
        40.7504         36.5004
 -38521377.52046 -29976662.74642  25003052.5554                   25003049.1024
        39.5004         17.7504
  11992654.41846   9378197.02345  24698411.0784                   24698410.4534
        37.0004         32.5004
 -32681209.62547 -25419177.84046  20887292.1954                   20887288.0664
        46.0004         37.5004
 -44203397.00447 -34399480.74646  22225689.2344                   22225684.0704
        45.7504         41.7504
 -35306850.12546 -27468970.95744  23356559.8674                   23356557.2544
        40.2504         26.0004
 -28626451.09847 -22257254.99247  21368215.9924                   21368214.0084
        46.7504         44.2504
  16909558.06346  13210133.37944  24805371.8444                   24805370.9064
        37.5004         26.0004
 -15317377.74247 -11410029.25845  21508704.2344                   21508699.3794
        44.2504         33.2504
 25  7 15  1 58  0.0000000  0 10G03G09G28G06G04G31G01G26G07G16
 -43315602.77348 -33710965.31648  19865000.1954                   19864996.9964
        49.0004         51.0004
   1201439.57446   1021788.44146  23129814.7974                   23129812.8834
        41.0004         36.5004
 -38496902.72746 -29957591.47743  25007709.8984                   25007705.9614
        39.7504         20.2504
  11883919.43046   9293468.51645  24677719.6174                   24677719.6684
        39.0004         32.0004
 -32792963.91447 -25506259.10546  20866026.2584                   20866022.0314
        47.0004         37.5004
 -44185793.40647 -34385763.69946  22229039.0234                   22229033.9264
        44.5004         40.7504
 -35289507.96947 -27455457.68444  23359860.1024                   23359857.2544
        42.2504         27.0004
 -28685138.69147 -22302985.58247  21357047.8984                   21357046.1094
        47.0004         44.2504
  16753864.87946  13088814.35244  24775743.5394                   24775742.7304
        38.7504         27.7504
 -15462638.39847 -11523219.32445  21481062.3364                   21481056.8324
        44.7504         32.5004
 25  7 15  1 58 30.0000000  0 10G03G09G28G06G04G31G01G26G07G16
 -43372859.02348 -33755580.58248  19854104.5634                   19854101.6954
        49.2504         51.0004
   1051820.34046    905202.06646  23101343.5164                   23101341.1884
        41.0004         36.2504
 -38472310.77045 -29938429.02743  25012386.7734                   25012386.7424
        35.7504         19.0004
  11775848.61345   9209257.46145  24657153.5084                   24657153.3324
        35.7504         31.2504
 -32904411.47347 -25593101.35546  20844818.1724                   20844814.1334
        47.0004         37.5004
 -44167869.50047 -34371797.05946  22232449.3984                   22232444.7154
        45.5004         41.0004
 -35271911.20747 -27441745.98844  23363208.5164                   23363205.9494
        42.7504         27.2504
 -28743053.33647 -22348113.87947  21346026.9774                   21346025.0204
        47.0004         44.2504
  16598487.09746  12967741.09244  24746176.2734                   24746175.4384
        38.5004         26.5004
 -15607282.65647 -11635929.08245  21453536.9844                   21453532.1024
        44.5004         33.0004
 25  7 15  1 59  0.0000000  0 10G03G09G28G06G04G31G01G26G07G16
 -43429395.92648 -33799635.32448  19843345.9384                   19843342.8874
        48.2504         51.0004
    902373.08246    788749.70346  23072905.4924                   23072902.5434
        41.0004         36.2504
 -38447612.82847 -29919183.89842  25017090.9454                   25017086.1804
        42.0004         16.2504
  11668432.88746   9125556.92645  24636713.5314                   24636713.5084
        39.0004         32.2504
 -33015561.46947 -25679711.73846  20823667.2344                   20823663.0634
        46.2504         37.5004
 -44149637.16047 -34357590.08246  22235919.4924                   22235914.1954
        45.5004         41.0004
 -35254072.78946 -27427846.01244  23366602.2974                   23366600.5864
        40.0004         24.5004
 -28800205.27047 -22392647.84447  21335151.4844                   21335149.4924
        46.5004         44.5004
  16443415.69946  12846906.51644  24716666.1414                   24716665.4924
        38.2504         27.2504
 -15751317.25047 -11748163.78945  21426128.7194                   21426123.1764
        44.7504         34.0004
 25  7 15  1 59 30.0000000  0 10G03G09G28G06G04G31G01G26G07G16
 -41909791.80947 -32615528.23448  20132517.0474                   20132514.2424
        47.7504         51.0004
   2328522.89546   1900035.32446  23344292.2734                   23344289.5944
        41.5004         36.7504
 -36847391.43046 -28672258.18043  25321600.7034                   25321599.1844
        39.7504         21.0004
  13137096.28546  10269969.96545  24916190.9224                   24916190.7154
        37.7504         32.5004
 -31550990.03147 -24538487.24646  21102365.8984                   21102361.9844
        47.0004         37.2504
 -42555680.07447 -33115545.63746  22539239.3524                   22539234.1954
        45.5004         41.2504
 -33660576.62146 -26186160.83244  23669834.9774                   23669833.0314
        40.2504         25.5004
 -27281173.43447 -21208986.67247  21624213.6804                   21624211.8054
        44.5004         44.2504
  17864075.99646  13953914.91844  24987008.7814                   24987009.2894
        38.5004         28.7504
 -14319314.65647 -10632317.56645  21698629.0394                   21698624.4734
        44.2504         33.5004
 25  7 15  2  0  0.0000000  0 10G03G09G28G06G04G31G01G26G07G16
 -41964892.19148 -32658463.61348  20122031.9534                   20122028.7074
        48.7504         51.0004
   2179418.42246   1783850.06646  23315918.3444                   23315916.3054
        41.5004         37.0004
 -36822487.97346 -28652853.07043  25326339.4064                   25326337.7544
        38.2504         19.2504
  13030990.62146  10187290.24245  24896000.8834                   24895999.4884
        38.5004         33.0004
 -31661545.80947 -24624634.59446  21081327.9064                   21081323.6484
        46.2504         37.2504
 -42536841.34047 -33100866.15246  22542824.2664                   22542819.1804
        45.0004         41.0004
 -33642266.59046 -26171893.38744  23673319.7194                   23673317.6254
        41.2504         26.5004
 -27336803.89147 -21252335.07447  21613627.7114                   21613626.0434
        45.7504         44.5004
  17709616.75446  13833557.30544  24957615.7894                   24957614.3794
        38.5004         28.7504
 -14462123.06247 -10743596.79745  21671453.7974                   21671448.4224
        43.7504         33.2504
 25  7 15  2  0 30.0000000  0 10G03G09G28G06G04G31G01G26G07G16
 -42019276.29748 -32700840.85248  20111682.7034                   20111679.8594
        48.0004         51.0004
   2030483.89847   1667797.25046  23287576.6954                   23287574.7774
        43.0004         36.7504
 -36797486.03946 -28633371.00042  25331097.3284                   25331095.3134
        39.7504         17.7504
  12925538.88346  10105120.09845  24875932.1024                   24875932.5634
        37.5004         32.0004
 -31771805.71947 -24710551.40646  21060346.1334                   21060341.8054
        46.5004         37.5004
 -42517704.89147 -33085954.67646  22546465.4614                   22546460.8204
        44.0004         40.7504
 -33623727.51647 -26157447.44544  23676848.1334                   23676845.9774
        42.0004         27.5004
 -27391676.53547 -21295092.97747  21603185.6094                   21603183.4184
        45.5004         44.5004
  17555462.68446  13713437.56644  24928281.1954                   24928280.7774
        39.2504         29.2504
 -14604316.07047 -10854396.48845  21644395.4064                   21644390.0784
        44.2504         33.7504
 25  7 15  2  1  0.0000000  0 10G03G09G28G06G04G31G01G26G07G16
 -42072944.95348 -32742660.59848  20101470.0234                   20101466.7194
        48.0004         51.0004
   1881718.87547   1551876.50046  23259268.0314                   23259265.8204
        42.5004         36.7504
 -36772387.54346 -28613813.81643  25335872.6254                   25335872.2504
        38.0004         20.5004
  12820741.10246  10023459.44545  24855991.0944                   24855990.2854
        37.5004         31.7504
 -31881769.96147 -24796237.82446  21039420.5944                   21039416.4454
        46.7504         37.5004
 -42498273.67647 -33070813.52046  22550164.1804                   22550158.0434
        45.0004         40.7504
 -33604963.29746 -26142826.07044  23680418.2344                   23680416.0594
        41.7504         27.5004
 -27445792.61747 -21337261.34447  21592887.8674                   21592885.7344
        46.2504         44.0004
  17401613.57446  13593555.42244  24899004.3444                   24899003.1564
        40.0004         29.7504
 -14745891.12547 -10964714.67245  21617454.1804                   21617448.9574
        44.5004         33.7504
 25  7 15  2  1 30.0000000  0 10G03G09G28G06G04G31G01G26G07G16
 -42125896.66048 -32783921.68048  20091393.7504                   20091390.6604
        48.0004         51.0004
   1733125.23047   1436089.28946  23230991.5784                   23230989.2234
        42.5004         37.2504
 -36747192.55546 -28594181.46543  25340667.7194                   25340666.5664
        38.2504         20.2504
  12716599.30546   9942310.02345  24836173.1024                   24836173.4574
        38.7504         31.7504
 -31991436.49247 -24881692.25846  21018551.8284                   21018547.4574
        45.0004         37.5004
 -42478548.67647 -33055443.44146  22553917.0784                   22553911.9774
        44.7504         40.5004
 -33585975.50846 -26128030.48444  23684031.7194                   23684029.0704
        40.5004         25.2504
 -27499151.28147 -21378839.52747  21582734.2194                   21582731.5394
        46.5004         44.2504
  17248071.43446  13473912.53144  24869785.9534                   24869785.9144
        38.5004         29.2504
 -14886844.09047 -11074548.09445  21590631.6024                   21590626.8834
        43.7504         33.5004
 25  7 15  2  2  0.0000000  0 10G03G09G28G06G04G31G01G26G07G16
 -42178128.90248 -32824622.12948  20081454.2424                   20081451.1564
        49.0004         51.0004
   1584705.98447   1320437.98846  23202748.5004                   23202746.2584
        42.7504         37.5004
 -36721899.63346 -28574472.75042  25345479.6484                   25345480.3914
        36.5004         16.2504
  12613116.75046   9861674.28145  24816480.7894                   24816480.4734
        38.0004         32.0004
 -32100802.14147 -24966912.23846  20997740.3524                   20997736.4184
        46.5004         37.0004
 -42458529.05147 -33039843.77746  22557727.2894                   22557721.5984
        45.2504         40.0004
 -33566764.62946 -26113061.09044  23687688.5314                   23687684.4344
        41.2504         25.0004
 -27551750.53947 -21419825.95747  21572724.6174                   21572722.6644
        46.5004         44.2504
  17094839.87146  13354511.51644  24840625.5394                   24840627.3094
        36.5004         29.0004
 -15027169.71147 -11183892.68745  21563928.7734                   21563923.4964
        45.2504         33.5004
 25  7 15  2  2 30.0000000  0 10G03G09G28G06G04G31G01G26G07G16
 -42229644.87548 -32864764.45748  20071650.8914                   20071647.7114
        49.0004         51.0004
   1436458.40647   1204920.44946  23174537.1954                   23174535.3204
        42.7504         37.2504
 -36696513.23847 -28554691.22743  25350313.1334                   25350310.0664
        42.5004         19.7504
  12510290.94146   9781550.28145  24796914.0394                   24796913.6174
        37.2504         32.0004
 -32209869.48847 -25051899.77046  20976985.2894                   20976981.0784
        45.7504         37.2504
 -42438220.87147 -33024019.27346  22561591.5944                   22561586.1174
        45.5004         40.0004
 -33547337.01646 -26097922.80544  23691385.2034                   23691381.3524
        41.2504         25.5004
 -27603594.23447 -21460223.63747  21562859.2894                   21562857.0704
        45.5004         44.0004
  16941916.04746  13235350.37145  24811526.8914                   24811526.6334
        41.2504         32.2504
 -15166867.94147 -11292748.40645  21537345.2194                   21537339.6644
        44.0004         34.0004
 25  7 15  2  3  0.0000000  0 10G03G09G28G06G04G31G01G26G07G16
 -42280443.07048 -32904347.46948  20061984.2194                   20061981.7304
        48.2504         51.0004
   1288384.48447   1089538.22746  23146359.7114                   23146357.7114
        42.0004         37.5004
 -36671033.23846 -28534836.74643  25355160.6804                   25355158.3954
        38.7504         19.5004
  12408124.02746   9701939.71945  24777471.7504                   24777471.4964
        37.5004         32.0004
 -32318636.30147 -25136653.12546  20956288.0084                   20956283.7304
        45.5004         37.7504
 -42417624.65247 -33007970.31646  22565510.8054                   22565505.5354
        44.5004         40.5004
 -33527694.12546 -26082616.77044  23695122.8284                   23695120.2624
        41.5004         25.5004
 -27654681.39547 -21500031.81247  21553137.3834                   21553135.0984
        46.5004         44.0004
  16789302.32846  13116430.85245  24782484.7894                   24782485.1454
        39.0004         30.5004
 -15305934.14547 -11401111.63345  21510881.6884                   21510875.7854
        45.2504         34.0004
 25  7 15  2  3 30.0000000  0 10G03G09G28G06G04G31G01G26G07G16
 -42330520.48448 -32943368.83248  20052455.1024                   20052451.9384
        49.0004         51.0004
   1140487.87547    974294.18446  23118216.4224                   23118213.7584
        42.5004         37.7504
 -36645457.53946 -28514907.76243  25360028.9614                   25360025.1764
        38.0004         18.2504
  12306619.75046   9622845.50845  24758156.9774                   24758155.6644
        38.2504         31.7504
 -32427098.89847 -25221169.43446  20935647.8914                   20935643.4774
        45.7504         37.0004
 -42396739.50847 -32991696.22746  22569485.1724                   22569480.2664
        45.0004         40.0004
 -33507835.88747 -26067142.92244  23698901.8364                   23698899.9384
        42.0004         26.2504
 -27705009.57047 -21539248.58247  21543560.1954                   21543558.0984
        46.5004         44.2504
  16637002.48046  12997755.84045  24753502.5084                   24753502.0314
        39.7504         30.0004
 -15444362.30547 -11508977.68745  21484539.6174                   21484534.5124
        44.5004         33.5004
 25  7 15  2  4  0.0000000  0 10G03G09G28G06G04G31G01G26G07G16
 -42379884.68048 -32981834.44948  20043061.6334                   20043058.4064
        49.0004         51.0004
    992761.55146    859182.81346  23090104.6954                   23090102.4454
        41.7504         38.2504
 -36619795.00446 -28494911.03543  25364911.9144                   25364909.0314
        38.2504         19.0004
  12205771.17646   9544262.21545  24738965.8984                   24738965.3834
        38.2504         32.2504
 -32535264.04747 -25305453.94546  20915064.9774                   20915060.7274
        46.2504         37.5004
 -42375575.46547 -32975204.81246  22573512.5234                   22573507.5274
        45.2504         39.5004
 -33487772.78946 -26051509.44944  23702719.3914                   23702717.8484
        41.0004         27.0004
 -27754586.94147 -21577880.29347  21534126.1884                   21534124.2464
        46.7504         44.0004
  16485009.89546  12879320.34444  24724580.3594                   24724578.7814
        40.7504         29.2504
 -15582156.96947 -11616350.10545  21458318.1174                   21458312.8134
        45.7504         34.2504
 25  7 15  2  4 30.0000000  0 10G03G09G28G06G04G31G01G26G07G16
 -42428533.31248 -33019742.49248  20033803.7344                   20033800.8014
        49.0004         51.0004
    845208.38347    744206.37546  23062025.8914                   23062024.0984
        42.0004         38.0004
 -36594044.42546 -28474845.73343  25369812.2584                   25369809.8244
        39.5004         18.5004
  12105581.34046   9466192.21945  24719900.4304                   24719899.7974
        38.5004         32.5004
 -32643128.67247 -25389504.30146  20894539.2504                   20894534.5664
        46.5004         37.0004
 -42354131.52047 -32958495.29746  22577593.3134                   22577588.3674
        44.5004         40.5004
 -33467505.37946 -26035716.77344  23706576.3984                   23706573.9844
        39.5004         24.5004
 -27803411.74247 -21615925.59847  21524835.3914                   21524832.8954
        47.0004         44.2504
  16333327.44946  12761126.41845  24695715.4224                   24695713.5234
        41.7504         30.0004
 -15719312.85547 -11723224.78545  21432218.1414                   21432212.9224
        45.5004         33.7504
 25  7 15  2  5  0.0000000  0 10G03G09G28G06G04G31G01G26G07G16
 -42476456.61348 -33057085.34448  20024684.4534                   20024681.4774
        48.5004         51.0004
    697838.88347    629373.06346  23033982.7344                   23033980.5204
        42.2504         37.5004
 -36568197.07446 -28454705.01642  25374731.9534                   25374728.1844
        39.2504         15.5004
  12006060.75446   9388643.71945  24700963.1414                   24700961.5164
        39.7504         33.2504
 -32750682.13347 -25473312.18746  20874071.9064                   20874067.9454
        46.5004         37.0004
 -42332400.80147 -32941562.31246  22581728.0234                   22581723.1254
        45.0004         40.0004
 -33447026.78946 -26019759.53544  23710472.6804                   23710470.6134
        39.0004         24.2504
 -27851474.77747 -21653377.31247  21515689.1564                   21515687.1884
        46.5004         44.2504
  16181965.80947  12643182.54345  24666912.7814                   24666910.6334
        42.0004         30.5004
 -15855817.11347 -11829591.69945  21406242.1174                   21406236.4844
        45.0004         34.5004
 25  7 15  2  5 30.0000000  0 10G03G09G28G06G04G31G01G26G07G16
 -42523654.44548 -33093862.89548  20015703.2194                   20015700.1454
        48.5004         51.0004
    550653.80947    514683.44546  23005973.8674                   23005971.8954
        42.2504         38.0004
 -36542253.65246 -28434489.37543  25379667.9384                   25379666.4534
        38.2504         18.5004
  11907210.19146   9311617.32045  24682151.6024                   24682151.0274
        37.5004         33.0004
 -32857923.52747 -25556876.89146  20853664.8594                   20853660.6954
        46.7504         37.5004
 -42310384.77347 -32924407.01246  22585917.9774                   22585912.9344
        45.2504         40.5004
 -33426339.73046 -26003639.89144  23714410.4224                   23714407.2384
        39.5004         24.0004
 -27898776.52747 -21690235.82047  21506687.8134                   21506685.9614
        46.5004         44.2504
  16030925.82046  12525489.19545  24638169.5164                   24638168.9654
        39.7504         30.5004
 -15991666.60547 -11935448.40645  21380390.9924                   21380385.4024
        45.0004         34.2504
 25  7 15  2  6  0.0000000  0 10G03G09G28G06G04G31G01G26G07G16
 -42570119.93048 -33130069.78948  20006860.7034                   20006857.7464
        48.2504         50.7504
    403660.74647    400143.46146  22978002.2664                   22978000.2384
        43.0004         38.0004
 -36516208.60246 -28414194.66843  25384625.3284                   25384622.3954
        38.5004         19.5004
  11809037.22746   9235118.94145  24663469.5784                   24663469.5864
        37.5004         32.0004
 -32964845.09447 -25640192.39546  20833318.1564                   20833314.1254
        47.0004         37.5004
 -42288078.27747 -32907025.37946  22590163.3754                   22590157.8954
        44.5004         39.5004
 -33405440.27046 -25987354.69544  23718387.5474                   23718385.3554
        38.7504         24.7504
 -27945310.72347 -21726496.24247  21497832.7894                   21497830.2154
        46.5004         44.5004
  15880215.38346  12408052.75445  24609491.0704                   24609489.5124
        41.5004         30.0004
 -16126851.45347 -12040787.20745  21354666.1334                   21354660.7114
        44.5004         34.2504
 25  7 15  2  6 30.0000000  0 10G03G09G28G06G04G31G01G26G07G16
 -42615836.71148 -33165693.28148  19998161.4064                   19998158.3954
        48.5004         50.7504
    256876.73847    285766.35946  22950070.0704                   22950067.7504
        42.5004         38.5004
 -36490046.52046 -28393808.67242  25389602.3754                   25389600.6454
        39.0004         17.7504
  11711558.87146   9159161.78545  24644920.2814                   24644919.9104
        38.0004         31.5004
 -33071429.59847 -25723245.24246  20813036.4224                   20813031.8134
        45.7504         37.2504
 -42265467.45747 -32889406.60946  22594465.8674                   22594460.2584
        45.0004         39.2504
 -33384314.78946 -25970893.39144  23722408.2734                   23722405.4694
        40.2504         25.2504
 -27991061.62147 -21762146.29347  21489126.5084                   21489124.4224
        45.5004         44.2504
  15729851.72346  12290886.48045  24580876.2584                   24580875.7814
        39.7504         30.2504
 -16261352.09047 -12145592.85545  21329070.9614                   21329065.8444
        44.5004         34.0004
 25  7 15  2  7  0.0000000  0  9G03G09G06G04G31G01G26G07G16
 -42660804.98448 -33200733.52048  19989603.7814                   19989601.2424
        48.2504         51.0004
    110302.40647    171552.63746  22922177.7814                   22922175.5664
        43.2504         38.0004
  11614775.73046   9083746.33245  24626502.1724                   24626502.2034
        39.5004         32.0004
 -33177676.28547 -25806034.85246  20792817.8754                   20792813.6844
        45.0004         37.7504
 -42242554.33247 -32871552.28146  22598825.9774                   22598820.9264
        46.0004         39.7504
 -33362966.21146 -25954258.25443  23726470.1804                   23726467.4304
        39.5004         22.7504
 -28036030.01647 -21797186.61347  21480569.5704                   21480566.8834
        45.0004         44.7504
  15579835.36346  12173990.85944  24552328.4064                   24552328.2624
        39.0004         27.7504
 -16395165.68447 -12249863.14845  21303607.7504                   21303602.1214
        45.0004         34.7504
 25  7 15  2  7 30.0000000  0  9G03G09G06G04G31G01G26G07G16
 -42705019.39548 -33235186.32848  19981190.4064                   19981187.4184
        48.2504         50.7504
    -36056.07047     57507.12946  22894326.8754                   22894324.3244
        43.0004         37.5004
  11518693.75046   9008877.27745  24608219.3674                   24608218.6724
        38.5004         31.7504
 -33283578.81247 -25888556.28546  20772665.2114                   20772660.6994
        45.2504         38.0004
 -42219335.26647 -32853459.54746  22603244.8134                   22603239.5474
        44.7504         39.7504
 -33341391.94546 -25937447.28143  23730575.8594                   23730573.8874
        39.5004         23.5004
 -28080211.11747 -21831613.45347  21472162.3984                   21472159.7974
        45.7504         44.5004
  15430172.68847  12057370.72745  24523850.4304                   24523847.8834
        42.0004         31.0004
 -16528283.98847 -12353591.64545  21278275.5864                   21278270.3754
        44.7504         33.7504
 25  7 15  2  8  0.0000000  0  9G03G09G06G04G31G01G26G07G16
 -42748479.53947 -33269051.39148  19972920.1484                   19972917.0744
        47.0004         50.7504
   -182197.52747    -56369.28546  22866516.8914                   22866514.7114
        42.5004         38.2504
  11423314.07846   8934555.44145  24590069.0084                   24590068.4344
        37.7504         30.7504
 -33389135.88747 -25970808.53546  20752578.2974                   20752574.2934
        45.0004         38.2504
 -42195811.77047 -32835129.59446  22607720.4614                   22607715.7704
        45.2504         39.5004
 -33319594.33646 -25920462.27344  23734723.8674                   23734722.5394
        39.7504         24.5004
 -28123605.17247 -21865427.02047  21463904.6564                   21463902.0354
        46.5004         44.5004
  15280864.57047  11941027.05945  24495437.1254                   24495435.2544
        42.0004         30.2504
 -16660703.38347 -12456775.55145  21253077.3524                   21253071.7974
        45.0004         34.5004
 25  7 15  2  8 30.0000000  0  9G03G09G06G04G31G01G26G07G16
 -42791178.37148 -33302323.21548  19964795.2504                   19964792.0394
        48.7504         50.7504
   -328114.07447   -170070.43746  22838750.2664                   22838747.4414
        43.0004         38.0004
  11328644.35246   8860786.84045  24572053.6564                   24572053.3054
        37.5004         31.5004
 -33494339.40647 -26052785.29746  20732558.7194                   20732554.8834
        45.5004         38.0004
 -42171978.71947 -32816558.43746  22612256.4774                   22612251.1214
        45.5004         39.0004
 -33297568.95346 -25903299.72344  23738915.5634                   23738913.4614
        39.5004         24.0004
 -28166205.74247 -21898622.27047  21455797.7274                   21455795.4844
        45.5004         44.2504
  15131919.31646  11824966.06344  24467093.6094                   24467092.8404
        39.5004         29.7504
 -16792413.71547 -12559406.92645  21228013.7274                   21228008.0044
        45.0004         34.2504
 25  7 15  2  9  0.0000000  0  9G03G09G06G04G31G01G26G07G16
 -42833116.99648 -33335002.66448  19956814.2734                   19956811.6174
        48.0004         50.7504
   -473805.90247   -283596.49246  22811025.4844                   22811023.6644
        43.0004         38.5004
  11234684.28146   8787571.19145  24554174.2814                   24554173.0204
        38.5004         30.7504
 -33599189.39547 -26134486.57446  20712606.2974                   20712602.3014
        45.7504         38.0004
 -42147838.85547 -32797748.20346  22616850.4384                   22616844.7344
        45.2504         39.2504
 -33275319.62546 -25885962.68443  23743148.7194                   23743145.9454
        39.7504         22.7504
 -28208014.52747 -21931200.55947  21447841.8674                   21447839.4694
        45.5004         44.2504
  14983336.86746  11709187.69944  24438818.5084                   24438816.0594
        40.0004         26.0004
 -16923412.87547 -12661484.16845  21203085.4774                   21203080.0634
        45.5004         34.2504
 25  7 15  2  9 30.0000000  0  9G03G09G06G04G31G01G26G07G16
 -42874308.26248 -33367099.75848  19948975.8674                   19948972.9264
        48.2504         50.7504
   -619284.92647   -396956.72346  22783341.8204                   22783339.7974
        43.2504         38.0004
  11141421.65246   8714899.02045  24536427.1024                   24536426.7664
        39.0004         31.0004
 -33703697.68047 -26215921.59446  20692719.4844                   20692714.9774
        46.0004         38.0004
 -42123406.82447 -32778710.30946  22621499.1094                   22621493.8754
        44.5004         39.7504
 -33252861.81646 -25868463.23043  23747422.7664                   23747420.2704
        39.0004         22.2504
 -28249045.03147 -21963172.38747  21440034.1254                   21440032.0204
        46.5004         44.0004
  14835105.10947  11593682.65245  24410611.5944                   24410610.8164
        43.0004         31.5004
 -17053711.02347 -12763015.15245  21178290.1024                   21178284.4844
        45.0004         34.0004
 25  7 15  2 10  0.0000000  0  9G03G09G06G04G31G01G26G07G16
 -42914757.70348 -33398618.81648  19941278.6954                   19941275.9104
        48.2504         50.7504
   -764555.74247   -510154.72746  22755697.8524                   22755695.2074
        42.7504         38.5004
  11048851.70346   8642766.58245  24518811.7504                   24518810.5784
        38.2504         31.2504
 -33807868.62147 -26297093.74646  20672895.7894                   20672892.3244
        46.5004         37.5004
 -42098689.79747 -32759450.33646  22626202.6414                   22626197.8594
        44.5004         39.0004
 -33230203.57446 -25850807.64544  23751734.7974                   23751732.8444
        40.2504         24.0004
 -28289303.33247 -21994542.50847  21432373.1174                   21432371.1914
        46.5004         44.0004
  14687219.52046  11478447.35544  24382469.0004                   24382467.6954
        40.5004         29.5004
 -17183310.25447 -12864001.53145  21153628.0944                   21153623.1334
        45.5004         34.5004
