     2.11           OBSERVATION DATA    G (GPS)             RINEX VERSION / TYPE
teqc  2019Feb25     K Baraggiotta       20250819 04:04:18UTCPGM / RUN BY / DATE
Linux 2.6.32-573.12.1.x86_64|x86_64|gcc -static|Linux 64|=+ COMMENT
teqc  2019Feb25                         20250819 03:47:05UTCCOMMENT
BIT 2 OF LLI FLAGS DATA COLLECTED UNDER A/S CONDITION       COMMENT
ATLL                                                        MARKER NAME
                                                            MARKER NUMBER
Gareth Funning, Li-CUniversity of California, Riverside     OBSERVER / AGENCY
0220263645          TRIMBLE 5700        2.32                REC # / TYPE / VERS
0220061489          TRM22020.00+GP                          ANT # / TYPE
 -2415091.3379 -4617799.7909  3666831.0382                  APPROX POSITION XYZ
        1.4139        0.0000        0.0000                  ANTENNA: DELTA H/E/N
     1     1                                                WAVELENGTH FACT L1/2
     7    L1    L2    C1    P1    P2    S1    S2            # / TYPES OF OBSERV
    18                                                      LEAP SECONDS
 SNR is mapped to RINEX snr flag value [0-9]                COMMENT
  L1 & L2: min(max(int(snr_dBHz/6), 0), 9)                  COMMENT
  2025     8     7     0    13   30.0000000     GPS         TIME OF FIRST OBS
                                                            END OF HEADER
 25  8  7  0 13 30.0000000  0  6G01G03G04G16G26G31
     47898.27757     20468.28555  23219916.7114                   23219919.7034
        43.0004         35.0004
      4175.19558      2007.10959  20050433.1884                   20050434.9804
        50.0004         54.2504
    -17716.03558     -7510.86757  21181731.4064                   21181732.6334
        48.7504         42.5004
    -39669.86757    -16868.25056  22079982.7894                   22079983.3794
        45.5004         37.0004
      4203.93857      1850.04758  21595069.9614                   21595073.7034
        47.2504         49.5004
     47189.61357     20165.69558  22078405.5234                   22078406.0474
        47.7504         49.0004
 25  8  7  0 14  0.0000000  0  6G01G03G04G16G26G31
    141216.23047     93183.40245  23237674.3284                   23237677.9844
        43.7504         33.0004
     12396.60948      8413.39549  20051997.2034                   20051999.9574
        51.0004         54.2504
    -52560.74648    -34662.57446  21175100.4224                   21175101.6954
        48.7504         41.2504
   -117210.14547    -77289.16446  22065227.1884                   22065228.1054
        46.2504         36.2504
     12517.40647      8328.07048  21596652.2974                   21596655.8204
        47.2504         49.5004
    139171.57047     91839.90247  22095909.2734                   22095909.4264
        47.7504         47.7504
 25  8  7  0 14 30.0000000  0  7G01G03G04G16G26G31G28
    234230.59447    165661.95345  23255374.4614                   23255378.1644
        42.0004         32.2504
     20716.17248     14896.15249  20053580.5164                   20053582.8164
        51.2504         54.0004
    -87724.18448    -62062.61746  21168409.1724                   21168410.3444
        48.7504         41.0004
   -194834.71547   -137775.75446  22050455.9454                   22050456.7234
        45.7504         36.2504
     20983.74647     14925.24248  21598263.3524                   21598267.1484
        47.0004         49.5004
    230905.15647    163320.56647  22113365.8284                   22113365.8754
        47.0004         47.2504
    180608.82856    116478.07454  24918231.7974                   24918235.8244
        38.5004         26.5004
 25  8  7  0 15  0.0000000  0  7G01G03G04G16G26G31G28
    327033.44547    237975.67245  23273034.7114                   23273038.1134
        43.0004         30.7504
     29229.78948     21530.11749  20055200.8444                   20055202.9024
        50.7504         54.0004
   -123110.61748    -89636.42646  21161675.5314                   21161676.1764
        48.0004         40.2504
   -272444.93447   -198251.16846  22035686.7664                   22035687.6294
        46.0004         36.0004
     29698.30547     21715.81648  21599921.6484                   21599925.4654
        47.0004         49.5004
    322483.60247    234680.34048  22130792.8674                   22130792.7934
        47.7504         48.0004
    283457.36746    196619.67644  24937805.5474                   24937807.4494
        39.2504         25.5004
 25  8  7  0 15 30.0000000  0  7G01G03G04G16G26G31G28
    419652.84446    310146.47344  23290659.0634                   23290663.1684
        40.5004         28.5004
     37969.26248     28340.08648  20056864.0314                   20056865.9144
        50.5004         53.7504
   -158688.47348   -117359.41046  21154905.1954                   21154905.7384
        48.7504         41.2504
   -350006.22747   -258688.43745  22020927.3914                   22020928.4224
        45.5004         35.0004
     38692.33247     28724.14548  21601633.4384                   21601636.9064
        47.7504         50.0004
    413935.19547    305941.25447  22148195.3594                   22148195.3834
        47.7504         47.7504
    385953.37545    276486.66843  24957306.2814                   24957311.3754
        33.2504         22.0004
 25  8  7  0 16  0.0000000  0  7G01G03G04G16G26G31G28
    512113.60247    382193.62545  23308253.7894                   23308258.5004
        43.0004         31.2504
     46963.00848     35348.18448  20058575.2734                   20058577.4844
        51.0004         53.7504
   -194429.46548   -145209.50446  21148103.8594                   21148104.5434
        49.2504         40.5004
   -427487.44947   -319063.35945  22006183.2734                   22006183.9344
        43.7504         32.5004
     47993.73048     35972.02748  21603403.3364                   21603406.6294
        48.0004         49.2504
    505285.46147    377123.29347  22165578.3524                   22165578.6214
        45.5004         46.7504
    488123.13745    356099.44143  24976749.4144                   24976753.5784
        34.0004         22.5004
 25  8  7  0 16 30.0000000  0  7G01G03G04G16G26G31G28
    604429.58247    454127.96545  23325821.2034                   23325825.6914
        44.0004         32.5004
     56228.65648     42568.15649  20060338.6954                   20060340.4184
        50.2504         54.0004
   -230316.00447   -173173.02346  21141274.7814                   21141275.7934
        47.2504         39.5004
   -504868.27347   -379360.01646  21991458.1024                   21991458.6414
        45.5004         36.0004
     57619.56648     43472.70348  21605234.9924                   21605238.4344
        48.7504         50.7504
    596549.14547    448237.76247  22182945.7584                   22182945.8324
        47.0004         47.2504
    589985.06655    421172.93853  24996133.3754                   24996136.7814
        34.7504         20.0004
 25  8  7  0 17  0.0000000  0  8G01G03G04G16G26G31G02G28
    696619.83246    525964.37944  23343364.6094                   23343368.9924
        40.2504         26.5004
     65788.94948     50017.70748  20062157.8364                   20062160.3054
        50.2504         53.7504
   -266325.40648   -201232.28546  21134422.8914                   21134423.1684
        48.0004         41.7504
   -582123.12547   -439558.53546  21976756.6484                   21976757.1454
        45.5004         36.0004
     67592.07447     51243.48848  21607132.6414                   21607136.2154
        47.5004         49.7504
    687745.90647    519300.10247  22200300.0164                   22200299.9534
        46.2504         47.0004
    136624.34455     84913.53152  25310237.9694                   25310247.8954
        34.2504         17.2504
    691554.00455    500317.45753  25015460.5634                   25015464.7544
        32.2504         19.5004
 25  8  7  0 17 30.0000000  0  8G01G03G04G16G26G31G02G28
    788696.27346    597712.07445  23360886.3674                   23360890.9654
        41.2504         30.2504
     75659.27048     57708.84049  20064036.3134                   20064038.3754
        51.5004         54.2504
   -302442.32448   -229375.31646  21127549.4614                   21127550.5474
        48.5004         40.7504
   -659233.98447   -499644.82846  21962082.9454                   21962083.9344
        45.2504         36.5004
     77926.09447     59296.01648  21609099.1884                   21609102.6024
        47.7504         49.7504
    778888.00847    590319.89147  22217643.5234                   22217643.7304
        47.2504         47.5004
    222193.84455    151590.79752  25326522.5474                   25326531.2894
        34.0004         16.2504
    792846.13345    579246.37943  25034736.8524                   25034740.7774
        35.5004         19.5004
 25  8  7  0 18  0.0000000  0  8G01G03G04G16G26G31G02G28
    880669.48847    669379.33645  23378388.2194                   23378392.6884
        42.2504         30.0004
     85853.90648     65652.69149  20065976.0864                   20065978.3984
        50.5004         54.5004
   -338652.50848   -257591.02746  21120658.7424                   21120660.0514
        48.5004         40.7504
   -736183.68747   -559605.56246  21947439.5554                   21947440.5864
        44.5004         36.0004
     88635.35248     67640.90648  21611136.7664                   21611140.7194
        48.7504         49.7504
    869987.27348    661306.28547  22234979.1564                   22234979.1764
        48.0004         47.5004
    307367.03145    217959.28143  25342731.1174                   25342739.2774
        32.7504         18.2504
    893874.07446    657969.35443  25053962.9774                   25053965.7664
        38.5004         21.5004
 25  8  7  0 18 30.0000000  0  9G01G03G04G16G26G31G02G28G06
    972546.89547    740971.93844  23395872.2114                   23395876.5274
        42.2504         29.2504
     96383.92248     73857.87149  20067980.0944                   20067981.7814
        50.7504         54.2504
   -374944.91848   -285870.80546  21113752.7034                   21113753.5204
        48.5004         40.7504
   -812958.34847   -619429.89846  21932830.0944                   21932831.0354
        44.5004         36.0004
     99730.36748     76286.39548  21613248.5394                   21613251.7274
        48.5004         49.7504
    961051.48847    732265.37547  22252308.2584                   22252308.3484
        47.5004         47.2504
    392152.27745    284025.48443  25358864.5944                   25358873.4024
        35.5004         19.0004
    994646.68646    736493.48443  25073138.5234                   25073141.9494
        38.7504         22.0004
    -88534.01256    -56398.15655  24916394.5944                   24916399.4844
        37.7504         33.2504
 25  8  7  0 19  0.0000000  0  9G01G03G04G16G26G31G02G28G06
   1064336.35946    812496.01244  23413339.0554                   23413343.4694
        41.7504         29.7504
    107260.62948     82333.20749  20070049.6724                   20070052.0394
        50.7504         54.2504
   -411308.10548   -314205.73846  21106833.0784                   21106834.1134
        48.5004         41.0004
   -889543.87147   -679106.85546  21918256.3444                   21918257.1524
        45.0004         36.2504
    111221.91847     85240.87948  21615435.1804                   21615438.7384
        47.5004         49.5004
   1052089.14847    803203.77747  22269632.2034                   22269632.4804
        47.7504         47.5004
    476558.21946    349796.25843  25374926.7114                   25374935.9184
        37.2504         19.2504
   1095173.31346    814825.84843  25092267.9924                   25092271.1334
        39.5004         22.2504
   -126227.82846    -85769.95345  24909222.0944                   24909226.7774
        38.0004         34.2504
 25  8  7  0 19 30.0000000  0 10G01G03G04G16G26G07G31G02G28G06
   1156049.61347    883960.68844  23430791.8284                   23430796.3204
        42.2504         29.0004
    118499.42248     91090.69149  20072188.3594                   20072190.7894
        50.0004         54.5004
   -447726.69148   -342583.84446  21099902.7974                   21099903.6884
        48.5004         41.2504
   -965922.12947   -738622.30546  21903721.6094                   21903722.6094
        45.0004         36.5004
    123124.71947     94515.81348  21617700.0164                   21617703.5784
        46.7504         49.7504
   -146957.81656    -94479.91455  25165878.8914                   25165887.3714
        36.0004         31.5004
   1143112.85547    874131.29747  22286953.2194                   22286953.4774
        47.2504         47.0004
    560597.45346    415281.19543  25390920.0234                   25390928.8484
        36.5004         19.5004
   1195467.55946    892977.16843  25111352.9614                   25111357.3364
        38.0004         21.2504
   -163627.41456   -114912.67255  24902105.1174                   24902109.9344
        36.2504         32.5004
 25  8  7  0 20  0.0000000  0 11G01G03G04G16G26G07G31G09G02G28G06
   1247696.52347    955373.66444  23448231.9384                   23448236.1914
        42.5004         29.2504
    130113.59848    100140.67649  20074398.5164                   20074400.5314
        50.0004         54.5004
   -484187.21148   -370994.61346  21092964.5944                   21092965.1334
        48.2504         41.2504
  -1042076.79747   -797963.52746  21889230.3204                   21889230.7424
        45.2504         36.7504
    135451.49647    104121.10948  21620045.7194                   21620049.2624
        46.5004         49.7504
   -229687.28156   -158944.00455  25150135.5084                   25150144.6374
        37.2504         31.2504
   1234132.92647    945055.98047  22304274.0784                   22304274.4494
        47.5004         47.0004
   -529509.20356   -391739.92655  23427606.5784                   23427610.2424
        37.7504         35.5004
    644280.92656    480488.86353  25406844.3054                   25406853.3484
        36.5004         19.5004
   1295540.87546    970956.28543  25130399.2664                   25130400.0004
        40.5004         21.0004
   -200716.76256   -143813.41055  24895046.8984                   24895052.5434
        36.0004         32.0004
 25  8  7  0 20 30.0000000  0 11G01G03G04G16G26G07G31G09G02G28G06
   1339281.65646   1026738.50444  23465660.1174                   23465664.2274
        41.5004         29.2504
    142111.21148    109489.44949  20076681.6644                   20076683.4804
        51.0004         54.5004
   -520681.44548   -399431.66046  21086020.0864                   21086020.7234
        49.5004         41.0004
  -1117997.00847   -857122.05946  21874782.7894                   21874783.4304
        45.7504         37.0004
    148209.80947    114062.66448  21622473.7734                   21622477.1134
        47.7504         49.5004
   -312453.24246   -223436.65245  25134385.6414                   25134394.2274
        38.5004         30.7504
   1325154.91447   1015982.16047  22321594.8284                   22321595.2384
        47.0004         46.5004
   -604876.19546   -450467.37946  23413264.1954                   23413268.6454
        37.5004         36.5004
    727613.70345    545423.54742  25422701.8674                   25422711.0664
        31.7504         16.7504
   1395399.35946   1048767.98043  25149399.6094                   25149404.6414
        37.5004         19.5004
   -237488.12145   -172466.39145  24888049.5474                   24888054.5084
        35.5004         32.0004
 25  8  7  0 21  0.0000000  0 11G01G03G04G16G26G07G31G09G02G28G06
   1430810.33646   1098059.35944  23483077.3674                   23483082.2154
        41.5004         28.5004
    154501.05148    119143.85249  20079039.1954                   20079040.9694
        52.0004         54.5004
   -557200.50448   -427888.05146  21079070.4534                   21079071.3834
        48.7504         41.7504
  -1193671.27747   -916088.94946  21860382.2974                   21860382.9104
        46.0004         36.5004
    161407.80148    124346.83248  21624985.0474                   21624988.2774
        49.0004         49.5004
   -395246.05546   -287950.03945  25118629.5004                   25118638.3794
        38.2504         31.2504
   1416184.62147   1086914.35547  22338917.1484                   22338917.4494
        47.7504         46.5004
   -680394.95346   -509313.07446  23398894.3984                   23398898.1094
        39.2504         38.0004
    810601.97345    610089.52743  25438493.8754                   25438503.4734
        30.7504         18.2504
   1495050.12946   1110891.94553  25168363.4064                   25168366.9734
        37.2504         18.2504
   -273932.36345   -200864.48045  24881113.6484                   24881119.4774
        34.2504         31.0004
 25  8  7  0 21 30.0000000  0 11G01G03G04G16G26G07G31G09G02G28G06
   1522289.35246   1169341.51645  23500485.0234                   23500489.5594
        41.0004         30.0004
    167293.39848    129111.89149  20081473.6174                   20081475.5354
        51.0004         54.5004
   -593733.84448   -456355.57046  21072118.5164                   21072118.9734
        49.0004         41.2504
  -1269086.05547   -974853.63346  21846031.4614                   21846032.1724
        45.2504         37.0004
    175055.18448    134981.18048  21627581.9694                   21627585.5744
        48.0004         49.7504
   -478055.57046   -352476.54345  25102871.7344                   25102879.7934
        39.0004         31.0004
   1507229.94947   1157858.72747  22356242.3914                   22356242.5314
        47.0004         46.2504
   -756055.09446   -568268.94946  23384496.2424                   23384499.9144
        39.2504         38.0004
    893251.60556    662463.22353  25454222.1804                   25454231.2934
        36.0004         22.2504
   1594501.72346   1188386.59042  25187287.7114                   25187291.2584
        37.2504         16.2504
   -310038.44146   -228999.04745  24874243.5474                   24874248.6414
        36.2504         31.5004
 25  8  7  0 22  0.0000000  0 11G01G03G04G16G26G07G31G09G02G28G06
   1613720.78146   1240586.57844  23517884.6804                   23517889.5864
        41.5004         29.0004
    180493.67648    139397.79749  20083985.6414                   20083987.9734
        51.7504         54.5004
   -630275.87548   -484829.86346  21065164.8364                   21065165.7274
        49.0004         41.5004
  -1344233.62147  -1033410.10946  21831731.1174                   21831732.0084
        45.7504         37.5004
    189156.77348    145969.43848  21630265.2584                   21630268.9654
        48.7504         49.7504
   -560875.63746   -417011.28144  25087110.8524                   25087119.7154
        37.2504         29.2504
   1598293.11747   1228817.00447  22373571.3834                   22373571.6334
        47.7504         46.0004
   -831851.24246   -627330.80146  23370073.1804                   23370076.3094
        39.5004         37.5004
    975569.25045    726606.75043  25469886.3284                   25469896.7504
        34.0004         21.0004
   1693757.79346   1265729.03543  25206175.2974                   25206179.0044
        38.2504         18.5004
   -345800.43046   -256865.50845  24867438.4614                   24867442.9144
        37.0004         31.5004
 25  8  7  0 22 30.0000000  0 11G01G03G04G16G26G07G31G09G02G28G06
   1705105.22747   1311795.02045  23535274.6644                   23535279.2114
        42.7504         30.7504
    194105.88348    150004.69549  20086575.8594                   20086578.3134
        51.2504         54.5004
   -666822.32448   -513307.58646  21058210.0944                   21058211.0784
        49.0004         41.7504
  -1419106.88747  -1091752.84046  21817483.4384                   21817484.5904
        45.7504         37.7504
    203716.00048    157314.30948  21633035.9454                   21633039.5164
        48.7504         49.7504
   -643701.66846   -481550.64144  25071350.1644                   25071357.7734
        38.5004         28.7504
   1689375.80147   1299790.48447  22390903.7504                   22390904.2384
        47.0004         46.0004
   -907779.22346   -686495.38746  23355624.0164                   23355627.7304
        39.5004         38.5004
   1057554.52745    790491.30143  25485485.3524                   25485497.3674
        31.0004         19.2504
   1792820.64146   1342920.77343  25225025.5944                   25225030.4614
        36.5004         19.2504
   -381213.61746   -284460.16445  24860699.1254                   24860704.1134
        37.0004         31.7504
 25  8  7  0 23  0.0000000  0 11G01G03G04G16G26G07G31G09G02G28G06
   1796452.00047   1382974.10944  23552657.6174                   23552662.4184
        42.0004         29.7504
    208142.71548    160942.46149  20089247.0784                   20089249.3284
        52.0004         54.2504
   -703360.17248   -541778.61346  21051257.1484                   21051258.2584
        48.2504         41.7504
  -1493690.05147  -1149869.51646  21803290.7034                   21803291.0474
        47.2504         38.0004
    218744.95348    169025.19148  21635895.7664                   21635899.3484
        48.7504         49.5004
   -726520.63746   -546084.48444  25055589.2274                   25055597.4224
        39.0004         29.0004
   1780487.90247   1370786.89547  22408242.1724                   22408241.8634
        47.2504         46.0004
   -983826.16846   -745752.64846  23341152.6564                   23341156.8444
        41.0004         39.5004
   1139217.87945    854124.97343  25501028.3204                   25501037.9144
        34.7504         18.2504
   1891701.26246   1419970.58243  25243842.6254                   25243845.6524
        38.0004         21.5004
   -416264.79346   -311772.73445  24854029.5864                   24854034.7664
        37.5004         32.5004
 25  8  7  0 23 30.0000000  0 11G01G03G04G16G26G07G31G09G02G28G06
   1887766.77047   1454128.27045  23570034.5864                   23570039.2234
        42.2504         31.0004
    222613.10248    172218.06649  20092000.9694                   20092002.7854
        50.7504         54.2504
   -739880.23048   -570235.78146  21044307.6254                   21044308.7074
        49.0004         41.5004
  -1567971.19547  -1207750.85246  21789155.6884                   21789155.7734
        46.2504         37.5004
    234251.90648    181108.53948  21638846.7344                   21638850.7274
        49.2504         49.5004
   -809323.06246   -610605.47344  25039832.7114                   25039840.0434
        38.0004         26.5004
   1871635.72348   1441811.13747  22425587.0784                   22425587.0084
        48.0004         46.0004
  -1059983.07046   -805095.61346  23326660.5084                   23326664.1644
        39.5004         39.5004
   1220565.59046    917512.73443  25516507.6174                   25516516.8324
        38.5004         22.5004
   1990407.01646   1496884.05943  25262624.8364                   25262629.4144
        36.7504         22.5004
   -450944.43046   -338795.81245  24847430.3444                   24847434.9184
        38.2504         34.2504
 25  8  7  0 24  0.0000000  0 11G01G03G04G16G26G07G31G09G02G28G06
   1979050.62947   1525258.33245  23587405.1724                   23587410.0394
        42.5004         30.5004
    237521.46548    183834.95349  20094837.6484                   20094840.0864
        51.0004         54.2504
   -776377.74648   -598675.36346  21037362.5164                   21037363.4924
        48.0004         41.5004
  -1641943.27047  -1265391.35546  21775079.1884                   21775079.2814
        46.0004         38.0004
    250240.73448    193567.38348  21641889.2734                   21641893.0234
        48.7504         49.7504
   -892103.72346   -675109.49244  25024078.9144                   25024087.2974
        37.0004         27.2504
   1962821.22747   1512864.72347  22442939.0554                   22442938.9884
        47.0004         46.2504
  -1136245.28946   -864520.63346  23312148.0704                   23312151.7734
        39.5004         39.2504
   1301599.62545    980656.07843  25531927.3914                   25531938.4964
        35.2504         21.5004
   2088940.77746   1573663.60943  25281375.1024                   25281379.3284
        36.2504         21.0004
   -485247.41046   -365525.41446  24840903.2974                   24840907.9104
        40.5004         36.0004
 25  8  7  0 24 30.0000000  0 11G01G03G04G16G26G07G31G09G02G28G06
   2070303.45347   1596364.21945  23604770.1024                   23604775.2344
        42.5004         30.0004
    252871.01648    195795.62149  20097758.6884                   20097760.9264
        51.0004         54.2504
   -812849.10948   -627094.58246  21030422.3054                   21030423.0744
        48.2504         41.7504
  -1715599.91847  -1322786.07446  21761062.4924                   21761062.8594
        46.7504         37.2504
    266713.98448    206403.69548  21645024.2504                   21645028.0984
        48.5004         50.0004
   -974858.73846   -739593.51644  25008331.1954                   25008339.2814
        38.7504         28.5004
   2054045.18047   1583948.28947  22460298.2114                   22460298.5784
        46.0004         45.7504
  -1212609.43746   -924025.08646  23297616.2894                   23297620.4924
        39.0004         38.5004
   1382320.98445   1043555.76643  25547287.8834                   25547298.3444
        35.7504         21.7504
   2187304.06346   1650310.25043  25300093.5864                   25300097.4654
        36.2504         21.0004
   -519169.96946   -391958.56645  24834447.2814                   24834452.3204
        38.2504         34.0004
 25  8  7  0 25  0.0000000  0 11G01G03G04G16G26G07G31G09G02G28G06
   2161530.18046   1667449.75845  23622130.2114                   23622135.2854
        41.5004         31.5004
    268669.87548    208106.39849  20100765.0634                   20100767.2384
        49.7504         54.2504
   -849285.81648   -655486.79346  21023488.6804                   21023489.0004
        48.7504         41.7504
  -1788929.88347  -1379926.23046  21747108.1174                   21747108.6414
        46.0004         37.5004
    283679.13347    219623.29748  21648252.7274                   21648255.8874
        47.0004         49.7504
  -1057579.55556   -804050.85954  24992588.9224                   24992597.5474
        38.0004         26.2504
   2145313.08247   1655066.09447  22477665.8444                   22477666.1954
        47.0004         45.5004
  -1289067.12546   -983602.42246  23283067.1884                   23283071.0704
        39.7504         39.7504
   1462735.18446   1106216.03943  25562591.2034                   25562601.9224
        39.0004         22.2504
   2285503.68045   1726829.30543  25318780.1024                   25318783.7274
        32.5004         19.5004
   -552701.46556   -413569.55555  24828066.1644                   24828071.2584
        38.0004         35.5004
 25  8  7  0 25 30.0000000  0 11G01G03G04G16G26G07G31G09G02G28G06
   2252734.37947   1738517.74645  23639486.2504                   23639491.0514
        42.5004         30.2504
    284924.84048    220772.58649  20103858.1564                   20103860.1214
        49.7504         54.2504
   -885680.59448   -683846.33647  21016562.6884                   21016563.8324
        48.2504         42.2504
  -1861923.63347  -1436804.41046  21733217.7814                   21733218.2234
        46.7504         37.7504
    301142.44547    233231.08648  21651575.6414                   21651578.9774
        46.5004         49.7504
  -1140258.60946   -868475.67644  24976855.8524                   24976863.9574
        39.7504         29.7504
   2236629.40247   1726221.61347  22495043.0164                   22495043.3134
        46.5004         45.5004
  -1365611.16846  -1043247.04346  23268501.4534                   23268504.8014
        40.2504         40.0004
   1542846.77346   1168640.67643  25577835.5394                   25577846.6054
        37.7504         20.5004
   2383544.84045   1803224.88342  25337440.1334                   25337440.8834
        35.2504         17.2504
   -585838.36746   -439390.49245  24821760.9304                   24821765.5084
        39.7504         34.5004
 25  8  7  0 26  0.0000000  0 11G01G03G04G16G26G07G31G09G02G28G06
   2343914.55947   1809567.02045  23656837.3364                   23656842.6454
        42.0004         30.0004
    301637.57448    233795.47349  20107038.7344                   20107040.7034
        51.5004         54.2504
   -922031.31248   -712171.53947  21009645.5234                   21009646.2384
        48.5004         42.2504
  -1934576.69547  -1493417.11346  21719392.5084                   21719393.2154
        46.5004         38.0004
    319104.88748    247227.80548  21654993.7584                   21654997.1524
        49.5004         49.7504
  -1222893.97346   -932866.44145  24961131.0234                   24961138.6684
        39.5004         31.0004
   2327993.19947   1797414.14147  22512429.2424                   22512429.1604
        46.2504         45.7504
  -1442239.70746  -1102957.52746  23253919.2344                   23253922.6334
        40.5004         39.7504
   1622655.18046   1230829.09443  25593022.9144                   25593032.8014
        38.7504         18.2504
   2481427.76646   1879497.18043  25356064.8444                   25356067.4924
        37.2504         18.2504
   -618576.36746   -464900.61745  24815530.7584                   24815535.4454
        39.2504         34.2504
 25  8  7  0 26 30.0000000  0 10G01G03G04G16G26G07G31G09G28G06
   2435080.55147   1880605.23845  23674186.2424                   23674190.7664
        42.0004         30.0004
    318821.14548    247185.24649  20110308.6954                   20110310.5434
        51.5004         54.2504
   -958324.40248   -740451.84047  21002739.1334                   21002739.9304
        48.0004         42.0004
  -2006872.79747  -1549751.67246  21705634.8364                   21705635.3794
        47.0004         38.0004
    337578.93447    261623.16848  21658509.1024                   21658512.5664
        47.7504         49.7504
  -1305471.66846   -997212.28945  24945416.4774                   24945423.8834
        40.0004         30.5004
   2419415.52047   1868652.26647  22529826.3054                   22529826.5164
        46.0004         45.7504
  -1518939.33246  -1162723.36746  23239323.2034                   23239327.8014
        38.0004         37.2504
   2579164.07855   1955655.39853  25374662.1644                   25374665.8754
        35.5004         19.2504
   -650900.92256   -490088.35255  24809379.2894                   24809383.7424
        38.7504         34.2504
 25  8  7  0 27  0.0000000  0 10G01G03G04G16G26G07G31G09G28G06
   2526236.27347   1951635.46145  23691532.0784                   23691537.1914
        42.5004         30.5004
    336482.65648    260947.44149  20113669.5554                   20113671.4654
        51.2504         54.2504
   -994552.32848   -768681.37147  20995845.1414                   20995845.8754
        48.5004         42.0004
  -2078801.78147  -1605800.16446  21691947.2274                   21691947.6604
        46.5004         38.0004
    356570.96147    276422.16448  21662122.9844                   21662126.9414
        47.7504         49.7504
  -1387983.96946  -1061507.20745  24929714.2504                   24929721.8054
        39.0004         30.5004
   2510900.31647   1939939.07447  22547235.1724                   22547235.3634
        46.7504         45.7504
  -1595702.61346  -1222538.78546  23224716.1414                   23224719.8484
        40.5004         38.5004
   2676759.29746   2031703.52743  25393234.3444                   25393237.9344
        38.5004         20.0004
   -682799.21156   -514944.61755  24803308.4844                   24803312.6254
        39.2504         33.7504
 25  8  7  0 27 30.0000000  0 10G01G03G04G16G26G07G31G09G28G06
   2617395.14547   2022668.11745  23708879.0944                   23708884.3674
        42.5004         31.5004
    354638.52748    275094.85549  20117124.4924                   20117126.8554
        51.0004         54.5004
  -1030698.09448   -796846.87947  20988966.5554                   20988967.0824
        48.7504         42.2504
  -2150344.24647  -1661547.46946  21678333.0394                   21678333.4494
        47.7504         38.0004
    376096.77347    291637.08648  21665838.8834                   21665842.0744
        47.5004         50.0004
  -1470413.75446  -1125737.79745  24914028.4844                   24914035.8714
        38.2504         31.5004
   2602462.14547   2011285.90247  22564658.9144                   22564659.3284
        47.0004         45.2504
  -1672512.55547  -1282390.61746  23210099.9384                   23210102.8324
        42.0004         38.7504
   2774228.65246   2107653.67643  25411782.1334                   25411785.1524
        39.5004         18.2504
   -714267.29746   -539465.18045  24797319.6334                   24797324.5784
        39.5004         34.7504
 25  8  7  0 28  0.0000000  0 10G01G03G04G16G26G07G31G09G28G06
   2708563.53547   2093708.19144  23726228.4224                   23726233.3444
        42.2504         29.5004
    373298.29348    289634.91449  20120675.2274                   20120677.7114
        49.7504         54.5004
  -1066751.58248   -824940.48447  20982105.6024                   20982106.8794
        48.0004         42.0004
  -2221487.57847  -1716983.76646  21664794.5164                   21664795.2234
        46.7504         38.5004
    396165.37547    307274.96948  21669657.9224                   21669661.3204
        46.5004         49.7504
  -1552750.64546  -1189896.02045  24898360.4304                   24898367.2234
        37.5004         30.5004
   2694108.18047   2082698.35247  22582098.5864                   22582098.7114
        46.5004         45.5004
  -1749359.33246  -1342271.17646  23195476.1564                   23195479.2424
        41.5004         37.7504
   2871580.27346   2183512.09042  25430307.8444                   25430310.2504
        39.5004         17.7504
   -745287.89546   -563637.05945  24791416.7504                   24791421.4104
        40.0004         34.5004
 25  8  7  0 28 30.0000000  0 10G01G03G04G16G26G07G31G09G28G06
   2799740.62147   2164755.04344  23743579.1414                   23743584.1054
        42.2504         29.2504
    392464.21148    304569.37549  20124322.5864                   20124324.4304
        50.2504         54.5004
  -1102709.87147   -852959.91047  20975263.3594                   20975264.1804
        47.0004         42.0004
  -2292226.69947  -1772105.07846  21651333.5634                   21651333.8444
        46.5004         38.5004
    416778.22347    323336.94948  21673580.1804                   21673584.0634
        46.5004         49.5004
  -1634991.79346  -1253979.62145  24882709.3594                   24882716.8874
        37.2504         31.5004
   2785838.45347   2154176.43447  22599554.2584                   22599554.4304
        46.7504         45.5004
  -1826240.31646  -1402178.37146  23180845.5474                   23180849.9614
        39.7504         37.5004
   2968815.21546   2259279.51642  25448810.5084                   25448813.7344
        40.5004         17.7504
   -775859.21956   -587459.09455  24785599.3054                   24785603.8834
        40.2504         33.0004
 25  8  7  0 29  0.0000000  0 10G01G03G04G16G26G07G31G09G28G06
   2890923.49246   2235806.41044  23760931.1564                   23760936.1254
        41.0004         29.7504
    412136.36748    319898.30549  20128065.8754                   20128068.2934
        50.5004         54.5004
  -1138572.27047   -880904.61747  20968438.9534                   20968439.8874
        47.0004         42.0004
  -2362558.35247  -1826908.89846  21637949.6024                   21637949.6564
        46.2504         38.2504
    437934.85247    339822.63748  21677606.1484                   21677609.8244
        47.0004         49.5004
  -1717136.45346  -1317988.05145  24867077.9534                   24867084.4574
        38.0004         31.5004
   2877650.80547   2225718.47747  22617025.8524                   22617026.1254
        47.5004         45.5004
  -1903154.77746  -1462111.59846  23166208.4844                   23166213.4694
        37.7504         36.5004
   3065932.31646   2334955.23442  25467291.7194                   25467294.6414
        39.2504         16.7504
   -805978.63346   -610928.75445  24779868.0234                   24779871.7384
        40.0004         32.2504
 25  8  7  0 29 30.0000000  0 10G01G03G04G16G26G07G31G09G28G06
   2982111.43046   2306861.72744  23778282.4534                   23778288.5314
        41.0004         28.0004
    432317.06348    335623.50049  20131906.4614                   20131908.6954
        50.5004         54.5004
  -1174335.78947   -908772.27347  20961633.2194                   20961634.2624
        47.0004         42.0004
  -2432477.30147  -1881391.12546  21624644.7974                   21624645.2814
        46.7504         38.0004
    459636.90247    356733.33248  21681736.0944                   21681739.5824
        47.2504         49.5004
  -1799181.51246  -1381918.85545  24851464.4534                   24851471.5634
        37.0004         30.7504
   2969545.11747   2297324.39547  22634512.7034                   22634512.4574
        47.2504         45.5004
  -1980099.90646  -1522068.70746  23151566.9924                   23151571.2814
        40.2504         38.0004
   3162932.65246   2410539.97343  25485750.2344                   25485752.9884
        40.0004         18.5004
   -835643.98046   -634044.60245  24774222.9774                   24774227.0664
        39.7504         31.7504
 25  8  7  0 30  0.0000000  0 10G01G03G04G16G26G07G31G09G28G06
   3073302.75046   2377919.66044  23795636.2504                   23795641.8984
        41.2504         28.7504
    453007.57848    351745.95749  20135843.6254                   20135845.6764
        50.5004         54.5004
  -1209998.43047   -936561.33247  20954847.1644                   20954847.6214
        46.5004         42.0004
  -2501979.14147  -1935548.32846  21611419.0164                   21611419.1564
        46.5004         38.5004
    481884.98847    374069.50448  21685969.6024                   21685972.9694
        47.2504         49.5004
  -1881124.96546  -1445770.49645  24835870.6804                   24835877.7894
        37.7504         32.5004
   3061520.64147   2368993.58247  22652015.2274                   22652015.0434
        46.5004         44.7504
  -2057073.84846  -1582048.34046  23136919.5864                   23136923.1844
        41.7504         38.5004
   3259816.36346   2486033.71943  25504187.0784                   25504190.2854
        40.0004         19.7504
   -864853.57046   -656805.31245  24768663.9534                   24768667.8954
        38.2504         30.2504
 25  8  7  0 30 30.0000000  0 10G01G03G04G16G26G07G31G09G28G06
   3164486.16046   2448971.44144  23812987.6724                   23812993.7774
        40.2504         26.5004
    474199.53948    368259.14849  20139876.2034                   20139878.5044
        50.0004         54.5004
  -1245567.91847   -964277.80547  20948078.1884                   20948079.1054
        46.7504         42.2504
  -2571069.02747  -1989384.53546  21598271.3284                   21598271.5164
        46.5004         38.0004
    504670.00847    391824.07048  21690305.7194                   21690309.1094
        46.5004         49.5004
  -1962974.43446  -1509548.89145  24820295.1414                   24820302.1604
        37.0004         32.5004
   3153566.80147   2440717.82047  22669530.7894                   22669530.9964
        46.2504         44.5004
  -2134084.46946  -1642056.54746  23122264.4844                   23122267.5944
        40.2504         37.2504
   3356573.73846   2561429.02343  25522600.1484                   25522602.0354
        39.5004         20.2504
   -893615.07446   -679216.87145  24763191.3134                   24763195.7464
        39.0004         30.5004
 25  8  7  0 31  0.0000000  0 10G01G03G04G16G26G07G31G09G28G06
   3255665.89846   2520020.36344  23830339.1024                   23830344.8634
        40.2504         26.7504
    495900.07048    385168.64149  20144005.5704                   20144007.6994
        49.7504         54.5004
  -1281036.26247   -991915.46947  20941328.7194                   20941329.9654
        47.0004         42.2504
  -2639736.84847  -2042891.85946  21585204.6644                   21585204.7274
        46.2504         39.2504
    527998.55147    410002.15648  21694744.7504                   21694748.4064
        47.0004         49.5004
  -2044721.74246  -1573247.68745  24804739.3134                   24804745.2894
        39.0004         34.0004
   3245688.67647   2512501.04347  22687060.9614                   22687061.0634
        46.0004         44.5004
  -2211123.91446  -1702087.21146  23107604.2114                   23107607.7344
        41.0004         37.0004
   3453210.88346   2636730.72343  25540988.4304                   25540991.9534
        36.0004         18.2504
   -921920.72346   -701273.24244  24757805.0004                   24757809.1174
        38.2504         29.0004
 25  8  7  0 31 30.0000000  0 10G01G03G04G16G26G07G31G09G28G06
   3346840.94946   2591065.62944  23847688.9534                   23847695.2854
        39.2504         27.5004
    518111.10548    402475.91449  20148232.3984                   20148234.4774
        50.2504         54.2504
  -1316400.74647  -1019472.20347  20934599.2584                   20934599.7034
        46.5004         42.0004
  -2707977.89547  -2096066.62546  21572218.4224                   21572218.7424
        46.5004         39.0004
    551871.80147    428604.69148  21699287.9924                   21699291.0634
        47.0004         49.5004
  -2126364.31646  -1636864.88745  24789203.0704                   24789209.4264
        40.0004         33.5004
   3337886.14147   2584343.17247  22704606.0084                   22704605.8984
        46.0004         45.0004
  -2288189.69546  -1762138.40646  23092939.5704                   23092942.2854
        41.5004         37.2504
   3549728.78946   2711939.51643  25559355.0084                   25559358.5044
        36.0004         18.5004
   -949767.97746   -722972.41044  24752505.7974                   24752508.9964
        37.0004         28.7504
 25  8  7  0 32  0.0000000  0  9G01G03G04G16G26G07G31G09G06
   3438014.76246   2662109.93444  23865038.8054                   23865045.0634
        39.2504         26.7504
    540839.02048    420185.95349  20152557.2734                   20152559.1914
        49.5004         54.2504
  -1351654.31247  -1046942.50447  20927890.8284                   20927891.5044
        46.7504         42.2504
  -2775782.14847  -2148901.03546  21559316.0314                   21559315.8364
        46.0004         39.0004
    576295.47747    447636.12948  21703935.4064                   21703938.4694
        46.5004         49.5004
  -2207895.25046  -1700395.05945  24773687.4614                   24773693.8594
        40.5004         34.7504
   3430163.83647   2656247.81647  22722165.7034                   22722165.8834
        47.0004         44.5004
  -2365274.77346  -1822204.62946  23078270.8594                   23078273.9064
        41.7504         39.0004
   -977149.93455   -744308.98454  24747294.2584                   24747299.6214
        35.0004         27.7504
 25  8  7  0 32 30.0000000  0  9G01G03G04G16G26G07G31G09G06
   3529184.03946   2733150.70344  23882387.8524                   23882394.3794
        39.7504         26.7504
    564083.26648    438298.32449  20156980.5164                   20156982.7854
        50.7504         54.2504
  -1386796.54347  -1074326.05947  20921203.3364                   20921204.0314
        46.7504         42.0004
  -2843147.43047  -2201393.39146  21546496.0004                   21546496.7114
        46.5004         38.7504
    601268.34447    467095.50048  21708687.6804                   21708691.3324
        47.2504         49.7504
  -2289313.69946  -1763837.57445  24758194.4304                   24758200.3874
        41.5004         35.0004
   3522518.32447   2728212.30147  22739740.0704                   22739740.1454
        46.5004         44.5004
  -2442378.87947  -1882285.66846  23063598.5704                   23063601.2854
        42.7504         39.7504
  -1004066.31246   -765282.75044  24742172.8364                   24742177.5824
        37.0004         28.0004
 25  8  7  0 33  0.0000000  0  9G01G03G04G16G26G07G31G09G06
   3620349.89146   2804188.79744  23899737.1884                   23899742.8324
        39.0004         27.2504
    587847.77048    456816.09449  20161503.0394                   20161505.3014
        50.7504         54.2504
  -1421822.57847  -1101619.07047  20914537.9534                   20914538.9804
        47.0004         42.0004
  -2910066.62147  -2253538.13346  21533761.7734                   21533762.1994
        46.5004         39.0004
    626793.73847    486985.41448  21713544.9534                   21713548.2774
        47.2504         49.5004
  -2370615.05147  -1827188.84045  24742722.7034                   24742728.9844
        42.2504         35.0004
   3614952.00447   2800238.48047  22757329.3674                   22757329.8164
        46.5004         44.7504
  -2519497.43747  -1942377.98846  23048922.8834                   23048926.1294
        43.0004         39.5004
  -1030512.58245   -785890.22344  24737140.2894                   24737143.8634
        35.7504         26.0004
 25  8  7  0 33 30.0000000  0  9G01G03G04G16G26G07G31G09G06
   3711517.62146   2875228.35944  23917085.0004                   23917091.7384
        39.0004         25.7504
    612140.61348    475745.55549  20166125.7034                   20166127.9734
        49.5004         54.2504
  -1456723.50847  -1128814.59447  20907896.7734                   20907897.1414
        47.5004         42.0004
  -2976528.39847  -2305326.45746  21521114.5634                   21521114.9384
        46.0004         38.5004
    652878.97347    507311.57048  21718508.6884                   21718512.1054
        46.5004         49.5004
  -2451790.52747  -1890442.01245  24727275.0164                   24727281.3244
        42.5004         35.0004
   3707471.02047   2872331.16847  22774935.8054                   22774935.9414
        46.5004         44.5004
  -2596621.69547  -2002474.75846  23034246.4224                   23034249.6134
        42.0004         39.0004
  -1056480.16056   -806124.71954  24732199.0394                   24732203.0664
        36.5004         27.5004
 25  8  7  0 34  0.0000000  0  9G01G03G04G16G26G07G31G09G06
   3802681.75046   2946265.10244  23934433.6254                   23934440.3674
        38.7504         25.7504
    636959.12948    495084.62949  20170848.4144                   20170850.7384
        49.5004         54.2504
  -1491501.08647  -1155914.01247  20901278.8444                   20901279.4344
        46.5004         42.0004
  -3042532.54747  -2356758.18446  21508554.1804                   21508554.9694
        46.5004         39.5004
    679520.77047    528071.40248  21723578.6484                   21723581.7934
        46.2504         49.5004
  -2532841.82047  -1953598.43445  24711850.9064                   24711856.7464
        42.5004         34.5004
   3800071.12147   2944487.03147  22792556.5164                   22792557.2074
        46.5004         44.2504
  -2673753.38346  -2062577.30146  23019568.6024                   23019571.8714
        41.7504         38.7504
  -1081971.03145   -825987.69544  24727347.6174                   24727352.5514
        35.5004         28.2504
 25  8  7  0 34 30.0000000  0  9G01G03G04G16G26G07G31G09G06
   3893841.56646   3017298.47744  23951781.2424                   23951787.4384
        38.2504         26.2504
    662305.19148    514834.77749  20175671.5554                   20175674.0044
        50.5004         54.2504
  -1526152.31247  -1182914.96547  20894684.4304                   20894685.1484
        46.7504         42.0004
  -3108074.16447  -2407829.49246  21496082.2814                   21496082.3834
        46.5004         38.7504
    706720.27747    549265.81648  21728754.2344                   21728757.8284
        46.5004         49.5004
  -2613765.95747  -2016655.74645  24696451.7584                   24696457.0514
        42.0004         34.0004
   3892751.82047   3016705.71147  22810193.3204                   22810193.4534
        46.2504         44.0004
  -2750889.75047  -2122683.49246  23004890.5004                   23004893.6054
        43.2504         40.5004
  -1106982.67246   -845477.28544  24722588.0314                   24722592.8874
        36.5004         29.2504
 25  8  7  0 35  0.0000000  0  9G01G03G04G16G26G07G31G09G06
   3984995.16846   3088327.00844  23969127.3594                   23969133.5164
        38.5004         26.2504
    688179.69148    534996.69549  20180595.3834                   20180597.6094
        49.5004         54.2504
  -1560675.43047  -1209816.09447  20888115.4384                   20888116.2114
        46.7504         42.2504
  -3173148.79347  -2458536.91846  21483699.0164                   21483699.1844
        47.0004         38.5004
    734477.74247    570895.00848  21734036.4774                   21734040.0664
        46.5004         49.5004
  -2694561.49246  -2079612.84845  24681076.1334                   24681081.6454
        41.5004         32.7504
   3985512.19147   3088986.48047  22827845.1414                   22827845.3714
        46.7504         44.0004
  -2828029.15647  -2182792.04746  22990211.3674                   22990214.4344
        43.0004         40.5004
  -1131513.60946   -864592.29344  24717919.7974                   24717924.7384
        36.2504         28.5004
 25  8  7  0 35 30.0000000  0  9G01G03G04G16G26G07G31G09G06
   4076137.78146   3159346.98044  23986471.8134                   23986477.6414
        39.5004         27.0004
    714580.48048    555568.70349  20185619.2194                   20185621.4414
        50.0004         54.2504
  -1595071.60547  -1236618.30547  20881570.0314                   20881570.8134
        46.5004         42.0004
  -3237755.68747  -2508879.87546  21471404.3444                   21471404.5274
        46.2504         39.2504
    762790.29347    592956.73848  21739423.8984                   21739427.5594
        46.5004         49.2504
  -2775229.39146  -2142470.50045  24665725.3204                   24665730.7274
        41.2504         33.5004
   4078348.44547   3161326.35947  22845511.4774                   22845511.5824
        45.7504         43.7504
  -2905172.76247  -2242903.88746  22975531.3594                   22975534.3914
        43.2504         41.0004
  -1155565.25856   -883333.82055  24713343.0704                   24713348.0124
        37.2504         30.5004
 25  8  7  0 36  0.0000000  0  9G01G03G04G16G26G07G31G09G06
   4167269.14546   3230358.16844  24003813.3444                   24003819.7974
        39.5004         27.5004
    741509.98448    576552.69949  20190743.6484                   20190745.8284
        49.2504         54.0004
  -1629337.27047  -1263318.81247  20875049.4064                   20875050.3754
        46.5004         42.0004
  -3301889.27347  -2558854.02346  21459200.6484                   21459200.6724
        46.5004         39.0004
    791659.67647    615452.35948  21744917.9614                   21744921.3484
        46.7504         49.5004
  -2855766.65646  -2205226.36345  24650399.4534                   24650404.3404
        41.0004         31.5004
   4171261.18047   3233725.84047  22863191.9774                   22863192.9454
        45.5004         43.7504
  -2982317.28946  -2303016.43746  22960850.5634                   22960853.8244
        41.5004         40.5004
  -1179134.77046   -901699.69145  24708858.5944                   24708863.3834
        38.2504         31.7504
 25  8  7  0 36 30.0000000  0  9G01G03G04G16G26G07G31G09G06
   4258381.78146   3301354.77344  24021151.9224                   24021158.0124
        39.5004         27.0004
    768963.28548    597944.85249  20195968.0084                   20195970.5634
        49.7504         54.0004
  -1663476.19147  -1289920.57047  20868553.2344                   20868553.7114
        47.2504         42.2504
  -3365551.30547  -2608460.73446  21447085.6724                   21447085.7894
        46.5004         39.0004
    821080.32047    638377.53148  21750516.2114                   21750519.9574
        46.5004         49.7504
  -2936176.90646  -2267883.25445  24635096.9844                   24635102.5474
        39.5004         30.2504
   4264243.81347   3306179.79347  22880885.9064                   22880886.7034
        46.0004         43.5004
  -3059466.64846  -2363132.76646  22946169.2114                   22946172.9574
        40.7504         39.7504
  -1202226.19146   -919692.99645  24704464.5084                   24704468.8364
        37.5004         32.0004
 25  8  7  0 37  0.0000000  0  9G01G03G04G16G26G07G31G09G06
   4349474.34846   3372335.74644  24038486.3524                   24038492.3794
        39.7504         27.7504
    796941.64848    619746.14149  20201292.3834                   20201294.5704
        49.2504         54.2504
  -1697486.05547  -1316421.76647  20862081.0864                   20862081.9064
        46.7504         42.0004
  -3428737.32847  -2657696.53546  21435061.6414                   21435062.0004
        46.5004         39.5004
    851052.77747    661732.68848  21756220.1024                   21756223.1214
        46.5004         49.5004
  -3016457.80546  -2330439.37144  24619820.1334                   24619824.9694
        39.5004         29.5004
   4357295.50847   3378687.55547  22898593.5314                   22898593.9844
        44.7504         43.5004
  -3136618.71147  -2423251.17646  22931487.4224                   22931491.0704
        42.0004         40.7504
  -1224837.66846   -937312.32445  24700161.0314                   24700165.8984
        37.0004         31.5004
 25  8  7  0 37 30.0000000  0  9G01G03G04G16G26G07G31G09G06
   4440548.36746   3443302.25844  24055817.4384                   24055823.1884
        39.7504         27.7504
    825449.09448    641959.70349  20206716.6804                   20206719.2774
        49.7504         54.2504
  -1731361.68047  -1342818.35547  20855634.7034                   20855635.5044
        47.0004         42.0004
  -3491440.13747  -2706555.78946  21423129.6884                   21423129.7854
        46.5004         39.2504
    881580.46547    685520.49248  21762029.5704                   21762032.5004
        47.0004         49.5004
  -3096604.23846  -2392890.73644  24604568.2894                   24604572.5664
        38.5004         26.5004
   4450419.06647   3451251.33247  22916313.8984                   22916314.6764
        44.5004         43.0004
  -3213768.21947  -2483367.63346  22916807.2814                   22916810.0784
        42.5004         41.2504
  -1246964.57856   -954554.08655  24695950.9304                   24695955.0204
        36.5004         30.7504
 25  8  7  0 38  0.0000000  0  9G01G03G04G16G26G07G31G09G06
   4531600.57846   3514251.76244  24073144.7274                   24073150.4694
        40.0004         27.0004
    854484.86748    664584.94949  20212242.5314                   20212244.6764
        49.2504         54.2504
  -1765102.64547  -1369110.00847  20849214.2344                   20849214.9304
        47.0004         42.2504
  -3553657.24647  -2755036.59046  21411290.3984                   21411290.3164
        46.5004         39.5004
    912661.87547    709739.75848  21767943.6804                   21767947.3444
        46.7504         49.5004
  -3176616.35246  -2455237.42644  24589341.7424                   24589346.6884
        37.7504         24.5004
   4543611.96547   3523869.13347  22934048.1884                   22934048.6604
        45.0004         43.2504
  -3290915.04746  -2543481.98046  22902126.2814                   22902129.9064
        41.5004         40.7504
  -1268606.08656   -968488.37555  24691831.6174                   24691836.4304
        37.0004         31.5004
 25  8  7  0 38 30.0000000  0  9G01G03G04G16G26G07G31G09G06
   4622625.78946   3585180.23444  24090465.9384                   24090472.2114
        40.2504         27.5004
    884046.25848    687619.77049  20217867.6954                   20217870.3244
        49.2504         54.0004
  -1798710.44547  -1395297.90647  20842818.6884                   20842819.4964
        47.0004         42.0004
  -3615388.37947  -2803138.70346  21399543.0784                   21399543.1334
        46.5004         39.2504
    944293.57847    734387.83648  21773963.2814                   21773966.6644
        46.5004         49.2504
  -3256495.82846  -2517480.80944  24574141.1724                   24574145.7304
        38.5004         27.0004
   4636869.57847   3596537.36347  22951794.3594                   22951794.9804
        43.7504         42.7504
  -3368060.77046  -2603595.45746  22887445.7894                   22887449.2384
        41.2504         41.5004
  -1289766.21146   -984976.75845  24687805.3364                   24687810.0354
        37.5004         30.7504
 25  8  7  0 39  0.0000000  0  9G01G03G04G16G26G07G31G09G06
   4713626.32846   3656089.48444  24107782.8754                   24107789.0904
        40.5004         27.0004
    914138.15648    711067.96549  20223594.0944                   20223596.5314
        49.0004         54.0004
  -1832178.98447  -1421377.28147  20836449.8594                   20836450.5274
        47.0004         42.0004
  -3676625.35247  -2850855.75446  21387890.0004                   21387889.5824
        46.5004         39.5004
    976479.80547    759468.00448  21780087.9534                   21780091.3634
        46.7504         49.0004
  -3336236.03946  -2579615.68044  24558966.7974                   24558971.3054
        38.7504         27.0004
   4730195.48047   3669258.79747  22969554.0004                   22969554.4844
        44.5004         42.5004
  -3445199.36747  -2663703.38347  22872766.9144                   22872770.2464
        43.0004         42.0004
  -1310438.49646  -1001085.04345  24683871.0084                   24683876.1174
        37.0004         30.0004
 25  8  7  0 39 30.0000000  0  9G01G03G04G16G26G07G31G09G06
   4804593.51246   3726972.73044  24125093.8754                   24125100.1334
        40.5004         26.5004
    944754.20748    734924.59849  20229419.8834                   20229422.3594
        49.0004         54.0004
  -1865513.31247  -1447352.07047  20830106.5314                   20830107.2304
        47.0004         42.2504
  -3737371.25847  -2898190.16446  21376330.4774                   21376330.2624
        46.5004         39.2504
   1009213.50447    784974.77748  21786316.9844                   21786320.1804
        47.0004         49.0004
  -3415843.10245  -2641646.79744  24543817.4384                   24543822.8834
        35.5004         25.7504
   4823581.61747   3742027.17247  22987324.4304                   22987325.5314
        44.5004         43.0004
  -3522336.07047  -2723809.85946  22858088.8594                   22858091.2234
        42.5004         41.5004
  -1330628.55146  -1016817.55945  24680029.6024                   24680034.5634
        38.2504         31.0004
 25  8  7  0 40  0.0000000  0  9G01G03G04G16G26G07G31G09G06
   4895527.42646   3797830.04344  24142398.5004                   24142404.0824
        40.2504         27.5004
    975896.91048    759191.61349  20235346.3914                   20235348.8984
        49.0004         54.0004
  -1898709.58647  -1473219.28946  20823789.5864                   20823790.3594
        47.2504         41.7504
  -3797620.69147  -2945137.70746  21364865.2584                   21364865.2344
        46.5004         39.2504
   1042496.50447    810909.57448  21792650.5944                   21792653.7584
        47.2504         49.0004
  -3495313.36345  -2703571.33644  24528693.8834                   24528699.9344
        35.5004         27.5004
   4917029.00447   3814843.27047  23005107.2664                   23005108.2154
        44.2504         43.5004
  -3599467.16847  -2783911.95746  22843410.9774                   22843413.8324
        42.7504         41.7504
  -1350333.24646  -1032171.88745  24676280.1884                   24676284.4344
        38.0004         31.7504
 25  8  7  0 40 30.0000000  0  9G01G03G04G16G26G07G31G09G06
   4986427.69546   3868661.13744  24159696.2344                   24159702.5824
        40.0004         25.7504
   1007568.34048    783870.61749  20241373.1254                   20241375.3404
        49.0004         54.0004
  -1931764.49247  -1498976.35247  20817499.0864                   20817499.8634
        47.5004         42.0004
  -3857368.28547  -2991694.21146  21353495.3754                   21353495.3714
        46.7504         39.0004
   1076330.11747    837273.41848  21799089.0944                   21799092.4224
        46.5004         49.0004
  -3574643.31646  -2765386.52744  24513598.1954                   24513603.4454
        37.0004         28.5004
   5010538.32447   3887707.62947  23022900.9454                   23022902.2154
        44.7504         42.7504
  -3676589.49247  -2844007.20347  22828734.9844                   22828737.7704
        42.0004         42.0004
  -1369549.93746  -1047145.91045  24672623.6564                   24672628.0204
        37.2504         32.2504
 25  8  7  0 41  0.0000000  0  9G01G03G04G16G26G07G31G09G06
   5077289.81446   3939462.51244  24176986.8984                   24176993.2974
        39.2504         26.7504
   1039766.20748    808959.83249  20247500.3134                   20247502.5474
        49.5004         54.0004
  -1964678.89847  -1524623.92646  20811235.7894                   20811236.5744
        47.2504         41.7504
  -3916612.95747  -3037858.82046  21342221.8984                   21342221.4924
        46.5004         39.5004
   1110711.50047    864064.09048  21805631.2344                   21805634.9924
        47.2504         48.7504
  -3653834.32046  -2827093.49244  24498528.2424                   24498533.2854
        37.5004         28.7504
   5104105.85247   3960617.33247  23040706.8914                   23040707.6884
        43.7504         42.5004
  -3753703.86347  -2904096.27347  22814060.6644                   22814063.9574
        44.0004         42.7504
  -1388280.21946  -1061740.93445  24669059.1564                   24669063.8914
        37.2504         30.5004
 25  8  7  0 41 30.0000000  0  9G01G03G04G16G26G07G31G09G06
   5168112.00846   4010232.74644  24194269.3674                   24194276.6094
        39.0004         26.5004
   1072491.02748    834459.66049  20253727.4454                   20253730.0944
        49.0004         54.0004
  -1997450.94948  -1550160.57447  20804999.5704                   20805000.4224
        48.0004         42.0004
  -3975351.06247  -3083628.71146  21331044.3754                   21331044.2584
        46.5004         39.7504
   1145640.34047    891281.35548  21812278.1174                   21812281.8554
        46.0004         48.7504
  -3732884.58646  -2888690.77045  24483486.1254                   24483490.3834
        37.5004         31.0004
   5197730.34847   4033571.43046  23058522.3914                   23058523.1724
        43.5004         41.5004
  -3830808.72747  -2964177.93747  22799387.9224                   22799391.0354
        43.5004         42.7504
  -1406522.92646  -1075956.06245  24665586.9844                   24665591.7154
        37.5004         32.0004
 25  8  7  0 42  0.0000000  0  9G01G03G04G16G26G07G31G09G06
   5258891.57046   4080969.78544  24211544.6644                   24211551.6054
        38.5004         25.2504
   1105742.54748    860369.89849  20260055.0084                   20260057.6214
        49.7504         54.0004
  -2030079.45348  -1575585.37147  20798790.2734                   20798791.4574
        48.5004         42.0004
  -4033579.63747  -3129001.56246  21319963.9144                   21319963.5234
        46.7504         39.5004
   1181115.73847    918924.51248  21819028.8984                   21819032.5434
        47.5004         49.0004
  -3811793.04346  -2950177.58645  24468469.8984                   24468474.4144
        38.5004         33.5004
   5291410.61747   4106568.98847  23076349.7504                   23076350.6134
        43.7504         42.0004
  -3907902.93447  -3024251.28146  22784716.8914                   22784720.6604
        42.2504         41.7504
  -1424277.75446  -1089791.01645  24662208.3444                   24662214.1454
        37.0004         32.0004
 25  8  7  0 42 30.0000000  0  9G01G03G04G16G26G07G31G09G06
   5349625.39546   4151671.15644  24228811.2344                   24228818.2194
        38.7504         26.7504
   1139519.70348    886689.73449  20266482.8834                   20266485.8364
        50.0004         54.0004
  -2062563.94947  -1600897.95346  20792608.8444                   20792609.7854
        47.5004         41.7504
  -4091296.37947  -3173975.57446  21308980.5164                   21308980.1254
        47.0004         39.7504
   1217136.02047    946992.24648  21825883.3444                   21825887.0784
        46.5004         49.0004
  -3890560.05546  -3011554.16445  24453480.5004                   24453485.6844
        40.5004         35.5004
   5385144.17247   4179608.07046  23094186.4384                   23094187.5164
        43.7504         41.7504
  -3984986.13347  -3084316.05947  22770048.7114                   22770051.2704
        42.7504         42.0004
  -1441545.02746  -1103246.07445  24658924.0394                   24658927.9064
        38.5004         33.7504
 25  8  7  0 43  0.0000000  0  9G01G03G04G16G26G07G31G09G06
   5440312.55946   4222336.17644  24246069.0234                   24246075.6174
        39.5004         26.0004
   1173823.93448    913420.27749  20273010.5634                   20273012.8324
        49.0004         54.0004
  -2094901.69148  -1626096.18447  20786455.1174                   20786456.0514
        48.0004         42.0004
  -4148496.93747  -3218547.37546  21298095.4384                   21298095.5004
        47.0004         39.7504
   1253701.82047    975485.06348  21832841.4384                   21832844.4494
        46.2504         48.7504
  -3969182.66446  -3072818.27046  24438520.0164                   24438523.8794
        41.2504         36.7504
   5478930.86747   4252688.55946  23112034.2034                   23112034.6024
        44.2504         41.7504
  -4062055.69947  -3144370.21547  22755383.0004                   22755386.1724
        43.0004         42.5004
  -1458322.79746  -1116319.67245  24655730.6644                   24655735.0824
        37.2504         31.5004
 25  8  7  0 43 30.0000000  0  9G01G03G04G16G26G07G31G09G06
   5530948.96546   4292961.62944  24263316.0944                   24263323.4144
        38.5004         26.0004
   1208653.36348    940560.05549  20279638.8444                   20279641.0594
        48.7504         54.0004
  -2127092.97347  -1651180.28546  20780329.4694                   20780329.9844
        47.5004         41.7504
  -4205179.94947  -3262715.89546  21287308.8134                   21287308.8094
        47.0004         40.0004
   1290810.55147   1004400.94148  21839903.1334                   21839906.6484
        46.5004         48.7504
  -4047661.85947  -3133970.62546  24423585.4144                   24423589.0744
        42.0004         38.0004
   5572767.84447   4325808.23447  23129890.4844                   23129890.9384
        44.0004         42.2504
  -4139112.04347  -3204414.02747  22740719.9924                   22740722.5354
        43.2504         43.0004
  -1474612.22746  -1129012.75045  24652630.8444                   24652635.5744
        37.7504         32.5004
 25  8  7  0 44  0.0000000  0  9G01G03G04G16G26G07G31G09G06
   5621531.89546   4363545.43844  24280554.1174                   24280560.9574
        38.2504         24.2504
   1244007.32848    968108.57449  20286366.2504                   20286368.6684
        49.2504         54.0004
  -2159136.87947  -1676149.54347  20774231.8754                   20774232.4844
        47.2504         42.0004
  -4261342.83647  -3306479.11346  21276621.5704                   21276621.5904
        47.0004         40.2504
   1328460.91447   1033738.87548  21847067.8754                   21847070.9654
        46.7504         48.7504
  -4125997.02047  -3195010.73046  24408678.0864                   24408682.1454
        42.0004         37.7504
   5666652.87547   4398965.34447  23147756.4224                   23147756.6884
        44.0004         42.0004
  -4216154.36747  -3264446.95746  22726058.7034                   22726061.7154
        42.7504         41.7504
  -1490413.30946  -1141325.29345  24649623.7194                   24649628.6684
        37.0004         32.2504
 25  8  7  0 44 30.0000000  0  9G01G03G04G16G26G07G31G09G06
   5712065.82446   4434091.03143  24297782.1644                   24297789.7814
        37.2504         22.7504
   1279892.49248    996071.00049  20293195.0784                   20293197.4804
        50.5004         54.0004
  -2191025.28548  -1700997.64846  20768163.6724                   20768164.3914
        48.5004         41.7504
  -4316975.57447  -3349829.24246  21266034.8364                   21266034.6604
        47.5004         39.7504
   1366658.88347   1063503.50448  21854336.2734                   21854340.1844
        47.0004         48.7504
  -4204180.25046  -3255932.46546  24393800.3444                   24393804.7774
        41.2504         39.0004
   5760591.46547   4472164.18047  23165631.6024                   23165632.8284
        43.5004         42.0004
  -4293174.60546  -3324462.65247  22711402.0944                   22711405.3524
        41.5004         42.0004
  -1505718.80946  -1153251.65245  24646710.6644                   24646715.8954
        37.0004         33.0004
 25  8  7  0 45  0.0000000  0  9G01G03G04G16G26G07G31G09G06
   5802541.69146   4504591.41444  24314999.6024                   24315006.4184
        38.5004         24.7504
   1316301.83248   1024441.87549  20300123.4774                   20300125.8794
        49.0004         54.2504
  -2222763.57848  -1725728.77046  20762123.6484                   20762124.3524
        48.5004         41.7504
  -4372082.01647  -3392769.26646  21255548.4384                   21255548.3794
        47.0004         40.0004
   1405396.74247   1093688.84448  21861708.4454                   21861711.7814
        46.5004         48.7504
  -4282217.22346  -3316740.27346  24378950.4224                   24378954.0434
        41.7504         37.2504
   5854575.76247   4545398.62546  23183517.0784                   23183517.3874
        43.7504         41.7504
  -4370178.23447  -3384465.39847  22696748.7894                   22696751.7464
        42.5004         42.5004
  -1520535.03146  -1164796.77345  24643892.0164                   24643896.7974
        36.2504         33.5004
 25  8  7  0 45 30.0000000  0  9G01G03G04G16G26G07G31G09G06
   5892957.88346   4575045.26644  24332204.9144                   24332212.5984
        38.2504         24.5004
   1353235.84048   1053221.59449  20307151.9384                   20307153.9454
        49.2504         54.0004
  -2254349.66047  -1750341.29347  20756113.3754                   20756114.4344
        47.2504         42.0004
  -4426658.64547  -3435296.45346  21245162.6884                   21245162.1254
        47.7504         39.7504
   1444674.26648   1124294.69948  21869182.4144                   21869186.0354
        48.7504         49.0004
  -4360106.15246  -3377432.71146  24364128.5784                   24364132.2664
        41.0004         37.5004
   5948604.64147   4618667.83247  23201410.2194                   23201410.4064
        44.2504         42.0004
  -4447163.32447  -3444453.71547  22682098.8444                   22682102.1334
        43.2504         43.2504
  -1534860.93746  -1175959.82445  24641165.0314                   24641170.4384
        37.0004         33.2504
 25  8  7  0 46  0.0000000  0  9G01G03G04G16G26G07G31G09G06
   5983310.34446   4645449.48044  24349398.6724                   24349406.2774
        38.0004         24.5004
   1390692.52348   1082408.58249  20314279.5234                   20314282.2854
        49.5004         54.2504
  -2285783.82447  -1774835.43747  20750131.6644                   20750132.0164
        47.5004         42.0004
  -4480704.16847  -3477409.78946  21234878.6334                   21234878.1214
        46.5004         40.0004
   1484488.84447   1155319.04348  21876758.9774                   21876762.2344
        47.0004         48.7504
  -4437847.89846  -3438010.46546  24349334.2974                   24349338.3364
        41.2504         38.5004
   6042674.89847   4691969.27747  23219311.3914                   23219311.7154
        44.0004         42.0004
  -4524130.22347  -3504427.84847  22667452.7974                   22667455.5944
        42.2504         43.2504
  -1548697.78546  -1186741.80945  24638533.1334                   24638537.2894
        38.5004         33.2504
 25  8  7  0 46 30.0000000  0  9G01G03G04G16G26G07G31G09G06
   6073601.66046   4715806.02744  24366581.0634                   24366588.2814
        38.7504         25.0004
   1428676.46548   1112006.41849  20321507.8674                   20321510.4924
        50.0004         54.2504
  -2317059.85248  -1799206.35946  20744179.8284                   20744180.5514
        48.0004         41.7504
  -4534210.61347  -3519103.06246  21224696.1334                   21224695.8714
        46.7504         40.0004
   1524844.30148   1186764.84048  21884438.4064                   21884441.8324
        48.0004         48.7504
  -4515436.66447  -3498469.03546  24334569.8914                   24334573.2774
        42.0004         38.7504
   6136790.50047   4765306.05547  23237220.8284                   23237221.4614
        45.2504         42.0004
  -4601072.82847  -3564383.02747  22652810.7734                   22652814.3094
        42.0004         42.2504
  -1562041.46156  -1197139.72755  24635993.4614                   24635999.3594
        38.7504         33.0004
 25  8  7  0 47  0.0000000  0  9G01G03G04G16G26G07G31G09G06
   6163825.41046   4786109.92244  24383750.0084                   24383757.4064
        39.2504         25.5004
   1467183.16448   1142011.60549  20328835.4774                   20328837.9144
        50.5004         54.0004
  -2348180.53547  -1823456.23447  20738257.9844                   20738258.6374
        47.7504         42.0004
  -4587179.31247  -3560377.32446  21214616.5474                   21214616.6644
        47.0004         40.0004
   1565735.41847   1218628.03948  21892219.3834                   21892223.2304
        47.2504         48.7504
  -4592875.76646  -3558810.98846  24319833.1804                   24319836.7894
        40.7504         37.5004
   6230945.71147   4838673.71146  23255137.8134                   23255138.4454
        45.5004         41.5004
  -4677994.00847  -3624321.52347  22638173.5944                   22638176.1484
        42.5004         43.5004
  -1574893.74246  -1207154.47745  24633548.2814                   24633553.1484
        37.7504         33.5004
 25  8  7  0 47 30.0000000  0  9G01G03G04G16G26G07G31G09G06
   6253979.79746   4856359.74643  24400906.2504                   24400914.0044
        38.7504         23.7504
   1506212.85948   1172424.31349  20336262.6884                   20336265.0044
        49.0004         54.0004
  -2379143.88747  -1847583.51247  20732365.7584                   20732366.6684
        47.0004         42.0004
  -4639606.66847  -3601229.76246  21204639.8364                   21204639.5514
        47.5004         39.7504
   1607161.83247   1250908.35548  21900103.0004                   21900106.5164
        46.2504         48.5004
  -4670163.08246  -3619034.64146  24305125.6414                   24305128.9964
        40.0004         37.2504
   6325139.74647   4912071.61346  23273062.5004                   23273063.0784
        44.2504         41.7504
  -4754891.84447  -3684241.84447  22623539.8674                   22623542.8914
        42.2504         43.5004
  -1587254.69546  -1216786.39545  24631195.9064                   24631200.2424
        38.2504         33.0004
 25  8  7  0 48  0.0000000  0  9G01G03G04G16G26G07G31G09G06
   6344063.64846   4926554.64544  24418048.9924                   24418057.1094
        39.0004         25.5004
   1545766.25048   1203245.09849  20343789.3594                   20343791.9384
        50.0004         54.2504
  -2409947.47747  -1871586.30147  20726503.8364                   20726504.7114
        47.7504         42.0004
  -4691489.19947  -3641657.64846  21194766.8284                   21194766.9384
        47.5004         40.5004
   1649123.52348   1283605.77348  21908087.8984                   21908091.6564
        48.7504         48.5004
  -4747297.16846  -3679138.91446  24290447.5314                   24290451.1954
        40.7504         37.7504
   6419372.43847   4985499.63746  23290994.1484                   23290994.5744
        44.5004         40.7504
  -4831764.03947  -3744142.18447  22608911.7424                   22608914.2704
        42.2504         43.2504
  -1599123.21156  -1226034.61355  24628937.4454                   24628942.1454
        37.7504         33.5004
 25  8  7  0 48 30.0000000  0  9G01G03G04G16G26G07G31G09G06
   6434070.59846   4996689.58243  24435177.1254                   24435184.8874
        39.0004         23.2504
   1585838.81348   1234470.43849  20351415.1024                   20351417.2734
        49.0004         54.2504
  -2440593.95347  -1895466.67247  20720672.4224                   20720673.1724
        47.5004         42.2504
  -4742827.82847  -3681661.73046  21184997.4534                   21184997.1994
        47.7504         40.0004
   1691615.25847   1316716.21148  21916173.9924                   21916177.2504
        46.5004         48.2504
  -4824281.27746  -3739126.34846  24275797.5084                   24275801.3324
        40.7504         37.2504
   6513638.13347   5058953.37946  23308932.4924                   23308933.1604
        44.7504         40.0004
  -4908613.38347  -3804024.69947  22594287.7274                   22594290.6844
        42.0004         43.5004
  -1610502.99646  -1234901.97345  24626771.2114                   24626777.2854
        37.0004         33.7504
 25  8  7  0 49  0.0000000  0  9G01G03G04G16G26G07G31G09G06
   6524008.14546   5066770.46543  24452291.6724                   24452299.4924
        39.5004         23.7504
   1626440.09848   1266107.76249  20359141.3204                   20359143.7774
        49.0004         54.2504
  -2471072.09047  -1919215.85947  20714872.7194                   20714873.1884
        47.7504         42.2504
  -4793610.21947  -3721232.37946  21175333.7344                   21175333.4844
        47.5004         40.2504
   1734645.88747   1350246.57448  21924362.3054                   21924365.8524
        46.0004         48.2504
  -4901104.14146  -3798988.12146  24261178.1094                   24261181.8284
        40.5004         36.5004
   6607945.20347   5132439.35246  23326878.6254                   23326879.3794
        44.5004         40.7504
  -4985428.62147  -3863880.66047  22579670.4304                   22579673.1174
        42.2504         43.7504
  -1621383.95746  -1243380.63345  24624700.8834                   24624706.2704
        36.5004         32.7504
 25  8  7  0 49 30.0000000  0  9G01G03G04G16G26G07G31G09G06
   6613867.73446   5136790.58644  24469392.2974                   24469399.6994
        40.2504         24.7504
   1667563.15648   1298151.67649  20366966.6254                   20366968.9454
        50.0004         54.2504
  -2501386.88747  -1942837.77047  20709103.6564                   20709104.3754
        47.0004         42.2504
  -4843839.75848  -3760372.23046  21165775.6724                   21165775.7234
        48.0004         40.2504
   1778207.78947   1384190.90648  21932651.6724                   21932655.7974
        47.2504         48.0004
  -4977771.29746  -3858728.57046  24246589.1564                   24246592.6644
        40.5004         37.0004
   6702286.31347   5205951.84846  23344831.5164                   23344831.9384
        44.5004         40.5004
  -5062214.89847  -3923714.06247  22565058.2344                   22565060.6054
        42.2504         43.2504
  -1631772.37546  -1251475.51645  24622724.4844                   24622729.0274
        37.0004         32.5004
 25  8  7  0 50  0.0000000  0  9G01G03G04G16G26G07G31G09G06
   6703647.46746   5206748.43743  24486476.5004                   24486484.6414
        38.0004         23.0004
   1709207.99248   1330602.16449  20374891.4064                   20374894.0514
        50.2504         54.0004
  -2531536.52047  -1966330.98047  20703366.0084                   20703366.9184
        47.2504         42.5004
  -4893513.03948  -3799078.63746  21156323.0004                   21156322.6914
        48.0004         40.5004
   1822300.33247   1418548.71948  21941042.4454                   21941046.0704
        47.0004         48.0004
  -5054281.56646  -3918346.75445  24232029.9534                   24232032.9064
        40.0004         35.5004
   6796660.29747   5279489.96946  23362790.1644                   23362790.5004
        45.5004         41.0004
  -5138970.39847  -3983523.48447  22550452.0634                   22550454.6724
        42.5004         44.0004
  -1641667.56645  -1259186.05145  24620840.9774                   24620846.6214
        35.2504         31.7504
 25  8  7  0 50 30.0000000  0  9G01G03G04G16G26G07G31G09G06
   6793342.34446   5276640.20344  24503544.4924                   24503553.4344
        37.0004         24.2504
   1751371.38348   1363456.71149  20382914.5634                   20382917.1374
        50.5004         54.2504
  -2561522.25847  -1989696.47747  20697660.5164                   20697661.1134
        47.0004         42.2504
  -4942630.30147  -3837351.77746  21146976.2894                   21146976.0984
        47.7504         40.2504
   1866919.59447   1453316.97747  21949532.9844                   21949537.0314
        47.5004         47.7504
  -5130636.88746  -3977844.22745  24217499.3134                   24217502.3754
        40.5004         34.7504
   6891063.53147   5353050.87946  23380754.2344                   23380755.5474
        45.7504         41.2504
  -5215696.53547  -4043310.01647  22535851.9384                   22535854.6134
        43.2504         44.5004
  -1651072.24645  -1266514.38345  24619052.0314                   24619056.1764
        35.7504         33.2504
 25  8  7  0 51  0.0000000  0  9G01G03G04G16G26G07G31G09G06
   6882954.15646   5346467.23844  24520597.7814                   24520606.5514
        37.7504         24.5004
   1794056.86748   1396718.09849  20391037.7274                   20391039.9694
        49.7504         54.2504
  -2591338.66847  -2012930.03147  20691986.3914                   20691987.1174
        46.7504         42.2504
  -4991184.71147  -3875186.33246  21137736.3364                   21137736.2344
        47.0004         40.2504
   1912068.35947   1488497.82048  21958124.3914                   21958128.3364
        47.2504         48.2504
  -5206832.28546  -4037217.08245  24202999.6024                   24203002.7734
        39.5004         34.5004
   6985498.08247   5426636.19546  23398724.8054                   23398725.4614
        45.0004         41.0004
  -5292387.92247  -4103069.47347  22521257.3204                   22521260.0164
        42.5004         44.2504
  -1659981.13355  -1273456.09055  24617356.8594                   24617361.5084
        35.5004         31.5004
 25  8  7  0 51 30.0000000  0  9G01G03G04G16G26G07G31G09G06
   6972478.65246   5416226.22344  24537634.5164                   24537642.4264
        37.7504         24.0004
   1837261.86748   1430384.29749  20399259.5314                   20399262.0594
        49.0004         54.2504
  -2620986.35547  -2036032.10547  20686344.5784                   20686345.2894
        47.0004         42.5004
  -5039175.80547  -3912581.93746  21128604.5704                   21128604.3874
        47.5004         40.5004
   1957743.49247   1524088.82848  21966816.1884                   21966819.9774
        46.0004         48.0004
  -5282868.69146  -4096466.04745  24188530.3204                   24188533.4344
        40.0004         34.7504
   7079960.89847   5500243.54746  23416700.1804                   23416701.5124
        44.5004         40.0004
  -5369045.26247  -4162802.38747  22506669.7344                   22506672.7544
        42.2504         43.7504
  -1668398.25846  -1280014.94145  24615754.0084                   24615759.2424
        36.0004         31.0004
 25  8  7  0 52  0.0000000  0  9G01G03G04G16G26G07G31G09G06
   7061915.47746   5485916.88344  24554653.4614                   24554662.0204
        38.0004         24.5004
   1880987.72348   1464456.35949  20407580.2974                   20407582.6334
        50.5004         54.2504
  -2650462.00847  -2059000.13347  20680735.4304                   20680736.2704
        47.5004         42.7504
  -5086599.02347  -3949535.04346  21119579.8134                   21119579.4774
        47.5004         40.7504
   2003945.59047   1560090.45347  21975608.2664                   21975611.9454
        47.0004         47.7504
  -5358743.34846  -4155588.98445  24174091.9614                   24174095.0394
        41.0004         35.5004
   7174452.84047   5573873.58246  23434681.4304                   23434682.4614
        44.0004         39.0004
  -5445665.28147  -4222506.24647  22492089.9614                   22492092.7934
        43.2504         44.0004
  -1676320.49645  -1286188.11745  24614246.3594                   24614251.6644
        34.7504         30.7504
 25  8  7  0 52 30.0000000  0  9G01G03G04G16G26G07G31G09G06
   7151260.19946   5555535.77043  24571655.4614                   24571664.2854
        36.5004         22.2504
   1925231.67248   1498932.13349  20415999.5704                   20416002.0234
        50.0004         54.2504
  -2679766.40248  -2081834.70747  20675159.2814                   20675159.9344
        48.0004         42.5004
  -5133453.84048  -3986045.23446  21110663.7034                   21110663.1724
        48.0004         40.7504
   2050671.26647   1596500.06347  21984499.8754                   21984503.4774
        47.0004         47.7504
  -5434457.68446  -4214586.97346  24159683.6954                   24159687.1724
        41.7504         36.2504
   7268970.21547   5647523.43046  23452667.4534                   23452668.4344
        42.5004         38.5004
  -5522248.78147  -4282181.63747  22477516.5864                   22477518.7814
        43.7504         44.0004
  -1683750.19945  -1291977.49645  24612833.2194                   24612838.3554
        35.7504         31.5004
 25  8  7  0 53  0.0000000  0  9G01G03G04G16G26G07G31G09G06
   7240508.48846   5625079.50444  24588639.4224                   24588647.9144
        38.5004         24.0004
   1969990.99648   1533809.50449  20424517.0474                   20424519.6174
        50.5004         54.2504
  -2708900.13348  -2104536.30147  20669615.0164                   20669615.9144
        48.7504         42.7504
  -5179739.70748  -4022112.09446  21101855.7114                   21101855.3754
        48.7504         41.0004
   2097917.05947   1633314.96147  21993490.5234                   21993493.9804
        47.2504         47.2504
  -5510012.89847  -4273461.01246  24145305.7734                   24145309.4184
        42.2504         37.7504
   7363509.71147   5721190.52346  23470657.1094                   23470658.4534
        43.5004         38.5004
  -5598796.48047  -4341829.12947  22462949.5634                   22462952.6094
        42.0004         44.0004
  -1690689.37146  -1297384.63745  24611512.9844                   24611517.1844
        36.0004         32.2504
 25  8  7  0 53 30.0000000  0  9G01G03G04G16G26G07G31G09G06
   7329659.14946   5694547.22144  24605604.6174                   24605613.8094
        38.5004         25.5004
   2015265.94548   1569088.65249  20433132.6804                   20433135.0904
        49.5004         54.2504
  -2737860.94547  -2127103.14547  20664104.0704                   20664104.4494
        47.7504         42.5004
  -5225453.18048  -4057732.92246  21093156.8754                   21093156.3554
        48.5004         40.5004
   2145682.66847   1670534.90247  22002580.1884                   22002583.2504
        45.7504         47.2504
  -5585407.27046  -4332209.68046  24130958.7194                   24130961.8364
        41.0004         36.7504
   7458070.87147   5794874.47346  23488653.4924                   23488653.4344
        43.7504         39.5004
  -5675306.16847  -4401446.98447  22448390.1254                   22448392.7894
        42.2504         43.0004
  -1697137.12155  -1302408.79355  24610285.5944                   24610290.5984
        34.0004         31.5004
 25  8  7  0 54  0.0000000  0  9G01G03G04G16G26G07G31G09G06
   7418710.69546   5763937.66844  24622550.5234                   24622559.8014
        38.0004         26.0004
   2061056.80148   1604769.80949  20441846.4144                   20441848.6254
        50.0004         54.5004
  -2766646.56247  -2149533.46947  20658626.3594                   20658626.7854
        47.5004         42.7504
  -5270590.94148  -4092905.14546  21084567.4224                   21084566.8524
        48.0004         40.5004
   2193967.55947   1708159.48447  22011768.4224                   22011772.0904
        46.5004         47.2504
  -5660639.07047  -4390831.70746  24116642.7504                   24116645.7194
        42.0004         36.7504
   7552653.44947   5868575.11346  23506651.1644                   23506652.4304
        42.7504         39.7504
  -5751775.55147  -4461033.44947  22433838.6954                   22433840.7774
        43.2504         44.0004
  -1703092.56645  -1307049.45345  24609152.3204                   24609157.4694
        34.2504         31.0004
 25  8  7  0 54 30.0000000  0  9G01G03G04G16G26G07G31G09G06
   7507662.45346   5833250.35544  24639477.4224                   24639486.9574
        37.5004         24.7504
   2107364.46148   1640853.66849  20450658.3364                   20450660.5554
        49.2504         54.5004
  -2795253.87147  -2171824.85947  20653182.4384                   20653182.8634
        47.5004         42.7504
  -5315148.78548  -4127625.48846  21076088.4534                   21076087.6884
        48.2504         41.0004
   2242772.03547   1746188.93447  22021055.6094                   22021059.0044
        45.7504         47.2504
  -5735706.05546  -4449325.28145  24102357.1954                   24102360.6684
        40.2504         35.5004
   7647257.74247   5942292.67646  23524653.4224                   23524654.9224
        43.5004         40.0004
  -5828201.59847  -4520586.15647  22419295.5554                   22419298.2304
        43.5004         44.0004
  -1708554.21945  -1311305.27745  24608111.7424                   24608117.3164
        32.2504         30.0004
 25  8  7  0 55  0.0000000  0  9G01G03G04G16G26G07G31G09G06
   7596512.53946   5902483.81644  24656386.7664                   24656394.8364
        38.2504         24.5004
   2154188.30948   1677339.75849  20459568.7584                   20459571.1844
        49.7504         54.5004
  -2823681.29347  -2193976.07847  20647773.0554                   20647773.7424
        47.5004         42.7504
  -5359123.94948  -4161891.79346  21067719.7344                   21067719.5704
        48.0004         40.5004
   2292094.85247   1784622.28947  22030441.5314                   22030444.9964
        46.0004         47.0004
  -5810607.22746  -4507689.63746  24088104.2424                   24088107.6844
        40.0004         37.5004
   7741882.85247   6016026.46146  23542659.7344                   23542661.3014
        43.2504         40.5004
  -5904582.83647  -4580103.92247  22404760.0314                   22404763.0514
        42.5004         44.2504
  -1713522.02745  -1315176.29745  24607166.9064                   24607172.1564
        32.5004         30.0004
 25  8  7  0 55 30.0000000  0  9G01G03G04G16G26G07G31G09G06
   7685257.21946   5971635.13343  24673273.7814                   24673283.0704
        37.5004         22.7504
   2201526.18048   1714226.37949  20468576.7424                   20468579.5234
        50.2504         54.2504
  -2851928.85248  -2215987.14847  20642397.4774                   20642397.7934
        49.0004         42.5004
  -5402515.80548  -4195703.57446  21059462.6644                   21059462.1294
        48.2504         40.5004
   2341933.18047   1823457.34047  22039925.4694                   22039929.0204
        46.0004         47.0004
  -5885342.87146  -4565925.01646  24073882.0944                   24073885.3794
        40.0004         36.7504
   7836525.84047   6089774.16846  23560670.2974                   23560671.4414
        43.2504         39.7504
  -5980919.30147  -4639586.81247  22390234.1884                   22390236.2704
        43.7504         44.2504
  -1717997.54745  -1318663.71145  24606315.2344                   24606320.5554
        33.7504         30.5004
 25  8  7  0 56  0.0000000  0  9G01G03G04G16G26G07G31G09G06
   7773893.82046   6040702.23443  24690141.0944                   24690150.4304
        37.0004         22.7504
   2249376.93848   1751512.65649  20477682.8054                   20477684.9694
        49.7504         54.5004
  -2879995.56248  -2237857.28947  20637056.6564                   20637057.1414
        48.7504         42.2504
  -5445322.07848  -4229059.05146  21051317.2114                   21051316.5314
        48.5004         40.5004
   2392285.17647   1862692.64547  22049507.1334                   22049510.6054
        46.0004         47.0004
  -5959913.00046  -4624031.41846  24059692.0004                   24059695.3794
        40.5004         37.0004
   7931185.05947   6163534.52746  23578683.5864                   23578684.1954
        44.0004         39.0004
  -6057210.01247  -4699034.06647  22375716.2504                   22375718.6844
        44.0004         45.0004
  -1721981.37145  -1321767.97345  24605557.0314                   24605563.1524
        34.2504         30.0004
 25  8  7  0 56 30.0000000  0  9G01G03G04G16G26G07G31G09G06
   7862419.54746   6109682.98043  24706986.9384                   24706996.0864
        37.0004         23.2504
   2297739.06348   1789197.38749  20486885.6644                   20486887.7704
        49.2504         54.5004
  -2907880.64847  -2259585.91047  20631750.1954                   20631751.0044
        47.7504         42.5004
  -5487541.12148  -4261956.95346  21043282.6804                   21043282.1804
        48.2504         40.5004
   2443148.73447   1902326.57447  22059185.9534                   22059189.5514
        45.7504         47.0004
  -6034317.41046  -4682008.67245  24045533.5784                   24045536.1994
        39.7504         35.5004
   8025858.66447   6237306.10546  23596698.8834                   23596700.6414
        42.7504         38.5004
  -6133454.28947  -4758445.13347  22361207.0164                   22361209.9654
        44.5004         45.0004
  -1725474.29345  -1324489.73845  24604892.9224                   24604898.4384
        35.7504         31.2504
 25  8  7  0 57  0.0000000  0  9G01G03G04G16G26G07G31G09G06
   7950832.44146   6178575.80543  24723812.6174                   24723820.9184
        37.5004         21.7504
   2346612.10248   1827280.24249  20496185.8754                   20496188.2544
        50.7504         54.5004
  -2935582.34048  -2281171.62547  20626478.9924                   20626479.6644
        48.0004         42.5004
  -5529170.24648  -4294395.17646  21035360.6954                   21035360.3794
        49.0004         40.5004
   2494522.70347   1942358.22347  22068962.1254                   22068965.3874
        46.5004         46.7504
  -6108554.96146  -4739855.93745  24031405.8674                   24031408.4654
        40.2504         34.7504
   8120546.07047   6311088.43046  23614717.7114                   23614718.7894
        43.5004         38.2504
  -6209650.37547  -4817818.65247  22346707.6884                   22346710.2274
        44.2504         45.2504
  -1728476.18046  -1326828.85945  24604322.4064                   24604326.9384
        36.2504         32.0004
 25  8  7  0 57 30.0000000  0  9G01G03G04G16G26G07G31G09G06
   8039136.90246   6247384.09043  24740616.4534                   24740625.0004
        36.7504         22.2504
   2396001.78548   1865765.68049  20505584.1414                   20505586.3324
        49.0004         54.2504
  -2963092.61348  -2302608.17647  20621243.8674                   20621244.2584
        48.0004         42.5004
  -5570200.37948  -4326366.64846  21027553.1024                   21027552.5274
        48.2504         40.7504
   2546412.13347   1982791.52347  22078836.4614                   22078839.8364
        45.5004         46.5004
  -6182618.30546  -4797567.43045  24017311.8914                   24017315.0474
        38.7504         34.5004
   8215252.16447   6384885.32846  23632740.0704                   23632740.7154
        43.7504         37.5004
  -6285790.21947  -4877148.34447  22332219.0314                   22332220.6684
        45.0004         45.5004
  -1730980.71146  -1328780.43745  24603844.1954                   24603849.9064
        36.0004         31.7504
 25  8  7  0 58  0.0000000  0  9G01G03G04G16G26G07G31G09G06
   8127324.28146   6316101.16043  24757397.6174                   24757406.6564
        36.7504         22.5004
   2445900.66448   1904647.88349  20515079.7814                   20515082.2464
        49.0004         54.2504
  -2990416.59048  -2323899.56247  20616044.4224                   20616044.8094
        48.0004         42.5004
  -5610636.18048  -4357875.01246  21019858.5944                   21019857.6604
        48.7504         40.7504
   2598809.00847   2023620.25447  22088807.0084                   22088810.5944
        45.5004         46.5004
  -6256513.41046  -4855147.81645  24003249.6254                   24003252.4344
        39.5004         33.5004
   8309969.20347   6458690.77046  23650764.5314                   23650764.4654
        44.2504         38.2504
  -6361879.06247  -4936438.30547  22317739.7734                   22317741.9844
        45.0004         45.2504
  -1732994.77045  -1330349.83645  24603462.1484                   24603466.9694
        35.5004         33.0004
 25  8  7  0 58 30.0000000  0  9G01G03G04G16G26G07G31G09G06
   8215391.77346   6384724.81343  24774157.1884                   24774166.2304
        38.0004         22.0004
   2496307.39848   1943925.82449  20524671.9224                   20524674.3484
        50.5004         54.2504
  -3017553.35948  -2345045.08647  20610880.3594                   20610880.7114
        48.5004         42.2504
  -5650475.85548  -4388918.86746  21012277.0234                   21012276.5904
        48.2504         40.7504
   2651711.35547   2064842.84447  22098874.3524                   22098877.4344
        45.5004         46.5004
  -6330239.91446  -4912596.82446  23989220.1334                   23989223.2114
        40.0004         36.2504
   8404695.73447   6532503.61346  23668789.2584                   23668790.7814
        44.5004         39.5004
  -6437915.91447  -4995687.76247  22303269.7814                   22303272.7234
        44.5004         45.2504
  -1734519.06255  -1331537.60255  24603172.3914                   24603176.7854
        33.5004         31.5004
 25  8  7  0 59  0.0000000  0  9G01G03G04G16G26G07G31G09G06
   8303334.56646   6453251.32043  24790892.7974                   24790901.7304
        39.0004         21.2504
   2547218.32448   1983596.63349  20534359.9144                   20534362.7384
        50.5004         54.0004
  -3044504.18448  -2366045.71547  20605751.6884                   20605752.3954
        49.0004         42.5004
  -5689719.48048  -4419498.25846  21004808.9844                   21004808.3524
        49.0004         41.0004
   2705114.84847   2106455.92647  22109036.5084                   22109039.8204
        45.7504         46.5004
  -6403799.83246  -4969916.03145  23975221.9694                   23975224.6214
        39.5004         33.5004
   8499427.95347   6606320.87546  23686816.5554                   23686818.2544
        43.2504         39.0004
  -6513902.12547  -5054897.75447  22288810.6174                   22288813.2034
        45.2504         45.7504
  -1735556.59845  -1332346.05945  24602973.4224                   24602978.8634
        33.5004         30.7504
 25  8  7  0 59 30.0000000  0  9G01G03G04G16G26G07G31G09G06
   8391153.35246   6521681.14543  24807603.8054                   24807613.1334
        37.5004         22.0004
   2598635.52748   2023661.95349  20544144.5084                   20544147.0514
        50.2504         54.0004
  -3071264.59848  -2386897.96147  20600659.4384                   20600659.5664
        48.2504         42.5004
  -5728362.13348  -4449609.36346  20997455.2034                   20997455.0744
        49.0004         41.0004
   2759020.97347   2148460.68047  22119294.6954                   22119298.3094
        46.5004         46.7504
  -6477189.65646  -5027102.70345  23961255.6644                   23961258.9774
        40.7504         34.7504
   8594167.48847   6680143.83246  23704844.7504                   23704846.8634
        43.2504         39.0004
  -6589833.21547  -5114064.79747  22274361.1884                   22274363.5204
        45.0004         45.2504
  -1736104.80555  -1332773.20755  24602869.4924                   24602874.6054
        33.2504         31.5004
 25  8  7  1  0  0.0000000  0  9G01G03G04G16G26G07G31G09G06
   8478849.33246   6590015.33643  24824291.9924                   24824300.6994
        36.5004         21.2504
   2650561.17648   2064123.45349  20554025.4614                   20554027.8984
        50.7504         54.0004
  -3097830.02048  -2407598.27747  20595604.2114                   20595604.7274
        48.7504         42.5004
  -5766398.47348  -4479248.02046  20990217.8284                   20990217.5944
        48.7504         41.0004
   2813431.23847   2190858.28147  22129648.7894                   22129651.9414
        45.7504         46.5004
  -6550405.18047  -5084153.55945  23947323.5554                   23947325.6454
        42.0004         35.5004
   8688916.16847   6753973.89846  23722874.7734                   23722876.2734
        42.7504         39.5004
  -6665704.61347  -5173185.34047  22259923.2034                   22259925.6414
        45.0004         45.5004
  -1736160.77745  -1332816.80945  24602859.6174                   24602864.5784
        34.2504         32.2504
 25  8  7  1  0 30.0000000  0  9G01G03G04G16G26G07G31G09G06
   8566417.71546   6658250.02343  24840955.9694                   24840965.3674
        38.5004         23.0004
   2702991.96948   2104978.58248  20564002.9224                   20564005.3244
        48.5004         53.7504
  -3124201.41848  -2428147.39547  20590585.6024                   20590586.0944
        49.0004         42.5004
  -5803828.66047  -4508414.34446  20983094.7894                   20983094.3794
        47.5004         41.0004
   2868341.62147   2233645.56647  22140097.6954                   22140101.4384
        45.5004         46.5004
  -6623448.39146  -5141070.18445  23933423.8754                   23933426.2504
        41.7504         35.0004
   8783670.84047   6827808.63746  23740906.1174                   23740908.0634
        42.2504         39.2504
  -6741517.28147  -5232260.11347  22245496.7194                   22245499.1684
        45.2504         45.7504
  -1735727.32846  -1332479.03145  24602941.8134                   24602947.6094
        36.0004         32.7504
 25  8  7  1  1  0.0000000  0  9G01G03G04G16G26G07G31G09G06
   8653852.11746   6726380.35243  24857594.8284                   24857604.1724
        36.7504         21.7504
   2755922.32848   2146222.98448  20574075.0004                   20574077.3204
        49.7504         53.7504
  -3150381.82448  -2448547.70347  20585603.6254                   20585604.2894
        49.2504         42.2504
  -5840655.06248  -4537110.19146  20976087.0474                   20976086.1644
        48.2504         41.2504
   2923746.04747   2276817.83647  22150641.0234                   22150644.2584
        45.5004         46.5004
  -6696323.15247  -5197855.50046  23919556.1804                   23919558.3284
        42.0004         36.2504
   8878425.62546   6901643.45346  23758937.8834                   23758939.3444
        41.5004         38.5004
  -6817274.27747  -5291291.50047  22231080.5314                   22231083.2584
        44.7504         45.5004
  -1734809.36745  -1331763.71545  24603116.2664                   24603121.4964
        34.5004         32.5004
 25  8  7  1  1 30.0000000  0  9G01G03G04G16G26G07G31G09G06
   8741151.32046   6794405.37143  24874206.6414                   24874217.2934
        36.5004         20.7504
   2809352.41448   2187856.78148  20584242.4454                   20584245.0234
        49.5004         53.7504
  -3176368.61748  -2468797.13347  20580658.8284                   20580659.1844
        48.5004         42.2504
  -5876874.28548  -4565332.90646  20969194.9384                   20969194.2344
        48.0004         40.7504
   2979644.00447   2320374.66447  22161277.7194                   22161281.2774
        45.5004         46.5004
  -6769027.33246  -5254507.91445  23905720.3594                   23905722.9414
        40.0004         35.5004
   8973180.55547   6975478.39146  23776969.5784                   23776970.1684
        42.0004         38.0004
  -6892972.93047  -5350277.42247  22216675.5944                   22216678.1054
        44.0004         45.5004
  -1733406.21545  -1330670.35545  24603383.2114                   24603388.7274
        35.5004         32.5004
 25  8  7  1  2  0.0000000  0  9G01G03G04G16G26G07G31G09G06
   8828314.28946   6862324.17643  24890793.9454                   24890804.2194
        37.5004         19.0004
   2863282.09448   2229879.86349  20594505.2734                   20594507.6484
        49.5004         54.0004
  -3202159.39548  -2488893.82847  20575750.5864                   20575751.5904
        49.0004         42.2504
  -5912483.62547  -4593080.39846  20962418.5084                   20962417.7274
        47.5004         40.7504
   3036034.82047   2364315.53947  22172008.9534                   22172012.4654
        46.2504         46.5004
  -6841559.11747  -5311025.99246  23891918.4694                   23891920.7624
        43.2504         37.5004
   9067935.37147   7049313.23446  23795000.2504                   23795002.0234
        42.0004         38.7504
  -6968610.87947  -5409216.06247  22202282.3134                   22202284.4144
        45.5004         46.0004
  -1731517.39845  -1329198.51645  24603742.4774                   24603747.9614
        33.5004         32.0004
 25  8  7  1  2 30.0000000  0  9G01G03G04G16G26G07G31G09G06
   8915340.26246   6930136.26643  24907355.3674                   24907364.9024
        38.0004         21.5004
   2917711.91448   2272292.66849  20604862.7114                   20604864.9924
        49.2504         54.0004
  -3227751.23048  -2508835.50847  20570880.8524                   20570881.8284
        48.0004         42.5004
  -5947479.44147  -4620349.81246  20955758.8914                   20955758.3134
        47.5004         41.0004
   3092918.29747   2408640.32047  22182833.4614                   22182836.7464
        45.5004         46.5004
  -6913917.30147  -5367408.80946  23878149.1484                   23878150.6334
        44.0004         38.0004
   9162690.29747   7123148.17646  23813032.1724                   23813032.9104
        43.0004         39.7504
  -7044185.13747  -5468105.05147  22187900.9454                   22187902.8014
        45.5004         46.0004
  -1729141.75045  -1327347.36745  24604194.8754                   24604199.9614
        33.0004         30.2504
 25  8  7  1  3  0.0000000  0  9G01G03G04G16G26G07G31G09G06
   9002227.88746   6997840.57443  24923889.2424                   24923899.5314
        36.5004         20.5004
   2972641.35248   2315094.78949  20615315.3054                   20615318.3524
        49.0004         54.0004
  -3253141.92248  -2528620.45347  20566049.3054                   20566049.5124
        48.7504         42.0004
  -5981859.16048  -4647139.14846  20949216.5474                   20949215.8484
        48.2504         41.0004
   3150293.45747   2453348.21947  22193751.2584                   22193755.0554
        46.0004         45.7504
  -6986100.02747  -5423654.94546  23864412.8834                   23864414.8524
        45.0004         38.7504
   9257445.21147   7196983.10946  23831063.3754                   23831064.1254
        44.5004         40.0004
  -7119693.57847  -5526942.74647  22173532.0704                   22173534.4734
        45.7504         46.0004
  -1726279.22745  -1325116.80545  24604739.2584                   24604744.6174
        33.2504         30.0004
 25  8  7  1  3 30.0000000  0  9G01G03G04G16G26G07G31G09G06
   9088973.17645   7065433.99243  24940396.6414                   24940406.7344
        35.7504         20.7504
   3028067.51248   2358283.96949  20625862.9304                   20625865.5004
        48.2504         54.0004
  -3278331.90248  -2548249.00047  20561255.6564                   20561256.0904
        48.5004         42.5004
  -6015622.54348  -4673448.22746  20942791.4384                   20942791.2934
        48.0004         40.7504
   3208156.68447   2498436.43447  22204762.3834                   22204766.0514
        45.5004         46.0004
  -7058108.49647  -5479765.29346  23850710.1334                   23850712.1374
        43.0004         39.2504
   9352197.10247   7270815.69946  23849093.3984                   23849095.1954
        43.7504         39.7504
  -7195136.49647  -5585729.38747  22159175.9614                   22159177.9494
        44.7504         46.0004
  -1722932.05945  -1322508.62145  24605377.1564                   24605381.3954
        34.7504         30.7504
 25  8  7  1  4  0.0000000  0  9G01G03G04G16G26G07G31G09G06
   9175574.82846   7132915.46143  24956877.0004                   24956886.6884
        37.5004         21.2504
   3083989.89548   2401859.80949  20636504.5704                   20636507.0164
        48.5004         54.0004
  -3303318.97748  -2567719.43747  20556500.8594                   20556501.5164
        49.0004         42.5004
  -6048767.10248  -4699275.09846  20936484.4694                   20936483.3284
        48.0004         41.0004
   3266506.95747   2543904.17647  22215866.1644                   22215869.6684
        45.7504         46.0004
  -7129941.16447  -5535738.63746  23837040.3284                   23837042.8754
        43.7504         39.0004
   9446945.50447   7344645.57046  23867124.6094                   23867125.0634
        44.2504         40.0004
  -7270511.76647  -5644463.32047  22144831.8284                   22144833.8404
        45.7504         45.7504
  -1719100.28546  -1319522.81645  24606106.4614                   24606110.6254
        36.0004         32.0004
 25  8  7  1  4 30.0000000  0  9G01G03G04G16G26G07G31G09G06
   9262031.29746   7200283.79743  24973328.9774                   24973339.0434
        38.0004         19.7504
   3140408.12948   2445822.02748  20647240.5394                   20647243.5434
        49.0004         53.7504
  -3328100.99248  -2587030.08647  20551784.8914                   20551785.1724
        48.0004         42.2504
  -6081290.14848  -4724617.68046  20930295.5004                   20930294.6564
        48.0004         41.0004
   3325343.28147   2589750.65247  22227061.7734                   22227065.4304
        44.7504         45.5004
  -7201597.25047  -5591574.36346  23823404.8364                   23823406.8054
        44.5004         39.5004
   9541690.25847   7418472.60546  23885153.6334                   23885154.5084
        44.5004         40.2504
  -7345817.10547  -5703142.74647  22130501.6644                   22130504.0864
        45.5004         46.0004
  -1714783.64845  -1316159.20345  24606927.3594                   24606932.2934
        34.5004         31.0004
 25  8  7  1  5  0.0000000  0  9G01G03G04G16G26G07G31G09G06
   9348339.32846   7267536.44143  24989753.1334                   24989763.8404
        36.2504         21.5004
   3197319.95348   2490168.85948  20658070.6094                   20658072.9924
        48.2504         53.7504
  -3352677.54348  -2606180.63347  20547107.9924                   20547108.5394
        48.2504         42.2504
  -6113190.89547  -4749475.34846  20924224.8134                   20924224.4264
        47.7504         41.2504
   3384662.77747   2635973.62147  22238350.3984                   22238353.8874
        46.0004         45.7504
  -7273076.95347  -5647272.69146  23809802.2274                   23809804.1954
        44.0004         38.7504
   9636428.80547   7492294.81346  23903181.0234                   23903183.1214
        44.0004         39.0004
  -7421052.16447  -5761767.41047  22116185.1724                   22116187.5354
        45.5004         46.5004
  -1709983.85545  -1312419.11345  24607840.9614                   24607846.0744
        35.2504         30.7504
 25  8  7  1  5 30.0000000  0  9G01G03G04G16G26G07G31G09G06
   9434497.64545   7334672.35543  25006147.8444                   25006159.1094
        34.2504         20.0004
   3254724.89848   2534899.94149  20668994.2344                   20668996.7934
        48.5004         54.0004
  -3377046.37948  -2625169.32847  20542471.1564                   20542471.5824
        48.7504         42.2504
  -6144466.52747  -4773845.92246  20918273.2034                   20918272.5044
        47.7504         41.5004
   3444464.41447   2682572.29747  22249730.4774                   22249733.7464
        45.7504         45.7504
  -7344378.82047  -5702832.44946  23796234.2034                   23796235.8594
        44.2504         39.5004
   9731160.98447   7566112.03946  23921208.7424                   23921209.6414
        44.7504         38.5004
  -7496214.62147  -5820335.49247  22101882.3444                   22101884.3954
        45.2504         46.0004
  -1704700.76645  -1308302.44145  24608846.3364                   24608851.5394
        35.0004         31.7504
 25  8  7  1  6  0.0000000  0  9G01G03G04G16G26G07G31G09G06
   9520499.84045   7401686.61343  25022514.6724                   25022525.5904
        32.2504         20.7504
   3312617.35248   2580010.90649  20680010.8984                   20680013.7304
        49.0004         54.0004
  -3401210.48848  -2643998.48447  20537872.3364                   20537873.0394
        48.0004         42.5004
  -6175119.66447  -4797731.43746  20912440.1174                   20912439.1914
        47.7504         41.2504
   3504742.02047   2729541.85247  22261200.1334                   22261204.5124
        45.2504         45.5004
  -7415506.92247  -5758256.78946  23782699.1024                   23782700.9534
        44.5004         40.5004
   9825881.40647   7639920.13346  23939232.7504                   23939234.1334
        44.0004         37.7504
  -7571307.40247  -5878849.28147  22087592.1564                   22087594.6174
        45.2504         46.2504
  -1698939.48445  -1303813.10945  24609942.3594                   24609947.0664
        35.0004         31.5004
 25  8  7  1  6 30.0000000  0  9G01G03G04G16G26G07G31G09G06
   9606348.65645   7468581.57042  25038851.1484                   25038862.1884
        34.2504         17.7504
   3371000.44948   2625504.18049  20691121.0314                   20691123.6564
        49.0004         54.0004
  -3425163.99248  -2662663.54347  20533314.2274                   20533315.0164
        48.5004         42.2504
  -6205144.33648  -4821127.23446  20906726.6254                   20906725.6764
        48.0004         41.2504
   3565498.10947   2776884.24647  22272761.8834                   22272765.9064
        45.2504         45.2504
  -7486456.02747  -5813541.66846  23769197.1804                   23769199.4454
        44.0004         40.5004
   9920593.48847   7713721.71946  23957256.1094                   23957257.0664
        43.2504         37.0004
  -7646324.61747  -5937304.19547  22073317.3594                   22073319.2544
        46.0004         47.0004
  -1692696.24245  -1298948.22345  24611130.3284                   24611135.1844
        35.0004         30.5004
 25  8  7  1  7  0.0000000  0  9G01G03G04G16G26G07G31G09G06
   9692042.49645   7535355.81643  25055158.7034                   25055169.4774
        34.5004         18.5004
   3429873.62548   2671379.33649  20702324.3914                   20702326.9304
        48.7504         54.0004
  -3448904.71148  -2681162.79747  20528796.4774                   20528796.8954
        48.2504         42.2504
  -6234538.12148  -4844031.43746  20901133.2344                   20901132.7154
        48.2504         41.0004
   3626731.54347   2824598.60247  22284414.4774                   22284417.9884
        45.5004         45.5004
  -7557224.62947  -5868685.87146  23755730.6024                   23755732.8484
        42.5004         40.0004
  10015296.60246   7787516.32045  23975276.7424                   23975278.5234
        40.2504         35.2504
  -7721264.03547  -5995698.48447  22059056.6644                   22059059.0004
        45.0004         46.7504
  -1685972.05555  -1293708.81255  24612409.8524                   24612414.7854
        34.5004         31.2504
 25  8  7  1  7 30.0000000  0  9G01G03G04G16G26G07G31G09G06
   9777579.48445   7602007.73443  25071436.0784                   25071446.9414
        35.7504         21.0004
   3489236.42248   2717636.01649  20713620.8134                   20713623.2974
        48.5004         54.0004
  -3472430.39548  -2699494.48447  20524320.0394                   20524320.1454
        48.5004         42.5004
  -6263298.39848  -4866441.99246  20895660.2344                   20895659.5634
        48.0004         41.2504
   3688441.34447   2872684.15247  22296157.5004                   22296161.1994
        46.0004         45.2504
  -7627812.10947  -5923688.96946  23742297.6484                   23742300.3634
        43.5004         39.7504
  10109990.71146   7861303.87145  23993297.3284                   23993298.6524
        40.0004         34.2504
  -7796123.33247  -6054030.32447  22044811.1174                   22044813.4774
        46.5004         46.2504
  -1678764.93045  -1288092.90645  24613781.5634                   24613786.5164
        34.7504         31.5004
 25  8  7  1  8  0.0000000  0  9G01G03G04G16G26G07G31G09G06
   9862953.89545   7668533.00043  25087682.1174                   25087693.5124
        35.2504         19.2504
   3549083.36348   2764269.95349  20725009.2274                   20725011.7854
        48.2504         54.0004
  -3495743.66848  -2717660.66447  20519883.4774                   20519883.9924
        48.7504         42.5004
  -6291427.64547  -4888360.84446  20890307.1094                   20890306.9884
        47.7504         41.0004
   3750621.46147   2921136.18047  22307989.6174                   22307993.3524
        45.2504         45.5004
  -7698221.64147  -5978553.40646  23728899.5704                   23728901.7814
        44.0004         40.2504
  10204670.76246   7935080.47345  24011314.2114                   24011315.0234
        39.5004         33.5004
  -7870905.06647  -6112301.75447  22030581.0784                   22030582.7114
        46.2504         47.0004
  -1671080.61745  -1282105.12145  24615243.4454                   24615248.6884
        33.5004         30.2504
 25  8  7  1  8 30.0000000  0  9G01G03G04G16G26G07G31G09G06
   9948165.53145   7734931.38743  25103897.4304                   25103908.9144
        34.5004         18.2504
   3609415.07848   2811281.64149  20736489.7194                   20736492.6884
        48.5004         54.0004
  -3518841.15247  -2735658.68747  20515488.0394                   20515488.4924
        47.7504         42.7504
  -6318922.30547  -4909785.20346  20885074.9454                   20885074.3874
        47.5004         41.2504
   3813271.98047   2969954.75847  22319912.1804                   22319915.9384
        46.0004         45.5004
  -7768450.84847  -6033277.33646  23715535.7584                   23715537.6414
        43.5004         40.0004
  10299337.30546   8008846.55945  24029327.8754                   24029329.6414
        39.0004         33.5004
  -7945605.78947  -6170510.04347  22016365.8134                   22016367.6174
        45.2504         46.5004
  -1662918.02345  -1275744.64545  24616796.3914                   24616802.3244
        34.5004         30.2504
 25  8  7  1  9  0.0000000  0  9G01G03G04G16G26G07G31G09G06
  10033213.71945   7801202.38743  25120082.3834                   25120093.6954
        34.7504         19.2504
   3670231.58248   2858671.07849  20748063.2814                   20748065.9024
        48.2504         54.0004
  -3541720.02048  -2753486.37547  20511134.3914                   20511134.6134
        48.2504         42.7504
  -6345779.35547  -4930712.73046  20879964.5084                   20879963.8244
        47.5004         41.2504
   3876392.28947   3019139.39847  22331923.1724                   22331926.7704
        45.0004         45.2504
  -7838497.75447  -6087859.20746  23702206.1564                   23702208.0434
        43.2504         40.2504
  10393990.73046   8082602.40645  24047340.2664                   24047341.9264
        38.5004         33.0004
  -8020222.62547  -6228652.95347  22002166.6174                   22002168.2624
        45.5004         46.7504
  -1654276.61346  -1269011.06645  24618441.6484                   24618446.8134
        36.2504         32.5004
 25  8  7  1  9 30.0000000  0  9G01G03G04G16G26G07G31G09G06
  10118091.99245   7867341.04743  25136233.6804                   25136245.9804
        35.2504         18.5004
   3731527.07448   2906433.75049  20759727.2424                   20759729.8954
        48.5004         54.0004
  -3564383.18748  -2771145.97747  20506821.7664                   20506822.1484
        49.0004         42.2504
  -6372001.64548  -4951145.63746  20874974.5944                   20874973.6764
        48.0004         41.7504
   3939976.09047   3068685.20747  22344022.7584                   22344026.4964
        44.5004         45.2504
  -7908366.44947  -6142302.22746  23688909.8914                   23688911.8324
        43.2504         40.2504
  10488625.68446   8156343.87945  24065349.4774                   24065350.1954
        39.2504         32.2504
  -8094758.42647  -6286732.75047  21987982.8834                   21987984.4494
        46.7504         47.0004
  -1645161.48045  -1261908.38745  24620175.9614                   24620180.8134
        35.7504         33.2504
 25  8  7  1 10  0.0000000  0  9G01G03G04G16G26G07G31G09G06
  10202798.81645   7933346.05143  25152352.7664                   25152365.1454
        34.2504         18.5004
   3793300.54748   2954568.88748  20771482.0864                   20771484.7584
        49.0004         53.7504
  -3586828.78147  -2788636.03947  20502550.3364                   20502550.6214
        46.7504         42.5004
  -6397587.27347  -4971082.44146  20870105.6334                   20870104.9884
        47.2504         41.5004
   4004021.86747   3118590.99247  22356210.0704                   22356214.4694
        46.0004         45.5004
  -7978055.96147  -6196605.62146  23675648.4924                   23675650.5744
        43.2504         40.0004
  10583241.52046   8230070.46145  24083354.6254                   24083354.9774
        40.2504         32.2504
  -8169211.24247  -6344747.88347  21973814.3984                   21973816.8324
        45.7504         46.7504
  -1635573.30545  -1254437.09445  24622000.2584                   24622005.6214
        35.5004         32.2504
 25  8  7  1 10 30.0000000  0  9G01G03G04G16G26G07G31G09G06
  10287334.30545   7999217.52743  25168440.5164                   25168452.1804
        33.5004         18.5004
   3855552.98048   3003077.23048  20783328.7814                   20783331.3204
        48.2504         53.7504
  -3609052.97348  -2805953.58247  20498321.1334                   20498321.7624
        48.0004         42.5004
  -6422532.10547  -4990519.93746  20865358.6724                   20865358.5634
        47.5004         41.2504
   4068530.00847   3168857.05547  22368486.0004                   22368489.9414
        45.2504         45.5004
  -8047563.43447  -6250767.16846  23662421.8674                   23662423.2734
        42.7504         40.0004
  10677840.11346   8303783.61345  24101355.3834                   24101356.9774
        38.0004         31.7504
  -8243577.12147  -6402695.24647  21959663.4534                   21959665.8954
        46.0004         47.7504
  -1625510.44545  -1246595.89545  24623915.3674                   24623920.7584
        35.5004         31.7504
 25  8  7  1 11  0.0000000  0  9G01G03G04G16G26G07G31G09G06
  10371695.23445   8064952.99243  25184494.4534                   25184505.5274
        33.5004         18.5004
   3918281.47348   3051956.52748  20795265.3134                   20795268.3754
        48.7504         53.7504
  -3631055.72748  -2823098.57847  20494134.2734                   20494134.7704
        48.5004         42.5004
  -6446836.45347  -5009458.34047  20860733.6884                   20860733.3674
        47.5004         42.0004
   4133497.12947   3219480.77747  22380848.7114                   22380852.4844
        44.5004         45.2504
  -8116889.71947  -6304787.52746  23649228.7344                   23649230.9534
        43.5004         40.5004
  10772418.42246   8377480.91445  24119352.6334                   24119354.1644
        38.5004         32.5004
  -8317855.92247  -6460574.77747  21945528.5314                   21945530.4844
        47.0004         47.7504
  -1614975.23045  -1238386.67645  24625921.5234                   24625925.5704
        35.5004         31.5004
 25  8  7  1 11 30.0000000  0  9G01G03G04G16G26G07G31G09G06
  10455880.98445   8130551.97743  25200513.7814                   25200525.8444
        33.7504         20.2504
   3981486.04748   3101206.79748  20807292.6024                   20807295.3244
        48.0004         53.5004
  -3652834.13348  -2840068.76247  20489989.8674                   20489990.3204
        48.0004         42.2504
  -6470497.37148  -5027895.37547  20856231.3134                   20856230.7274
        48.5004         42.0004
   4198922.66447   3270461.69947  22393298.7974                   22393302.7074
        44.5004         45.0004
  -8186032.72347  -6358665.08246  23636072.0474                   23636073.3524
        44.2504         40.5004
  10866977.14546   8451162.96145  24137347.4304                   24137348.8164
        39.0004         33.0004
  -8392044.70347  -6518384.15647  21931410.3524                   21931412.8634
        46.2504         47.0004
  -1603967.17645  -1229808.96545  24628015.3984                   24628020.5124
        35.0004         30.5004
 25  8  7  1 12  0.0000000  0  9G01G03G04G16G26G07G31G09G06
  10539889.50446   8196013.00843  25216501.4144                   25216512.7194
        36.5004         19.2504
   4045164.96548   3150826.69148  20819410.3674                   20819413.1294
        48.7504         53.5004
  -3674386.92648  -2856863.13747  20485888.6024                   20485888.8794
        48.0004         42.5004
  -6493513.70348  -5045830.14146  20851851.5474                   20851850.7934
        48.7504         41.7504
   4264804.41847   3321798.10947  22405835.9384                   22405839.5354
        45.2504         44.7504
  -8254992.86747  -6412400.16446  23622948.7734                   23622950.3364
        43.2504         40.0004
  10961514.88346   8524828.65645  24155337.2974                   24155338.8014
        41.0004         35.0004
  -8466142.03947  -6576122.28948  21917310.5704                   21917312.9414
        47.5004         48.5004
  -1592487.48046  -1220863.75045  24630199.7274                   24630204.3594
        36.2504         32.0004
 25  8  7  1 12 30.0000000  0  8G03G04G16G26G07G31G09G06
   4109316.80948   3200815.09848  20831618.3594                   20831620.9774
        48.2504         53.2504
  -3695712.59048  -2873480.52747  20481830.3444                   20481830.9654
        48.2504         42.2504
  -6515884.14548  -5063261.60946  20847594.7274                   20847593.7624
        49.0004         41.7504
   4331140.39147   3373488.45747  22418458.8594                   22418463.1374
        45.0004         44.5004
  -8323769.23847  -6465992.05546  23609861.2894                   23609862.8714
        43.5004         39.7504
  11056030.79746   8598477.37545  24173323.0784                   24173324.1604
        40.7504         34.7504
  -8540146.34847  -6633787.93748  21903227.9224                   21903230.0824
        46.0004         48.0004
  -1580537.07845  -1211551.75445  24632473.2504                   24632478.9224
        35.0004         32.2504
 25  8  7  1 13  0.0000000  0  8G03G04G16G26G07G31G09G06
   4173942.83248   3251172.99248  20843916.1724                   20843918.6844
        49.0004         53.2504
  -3716806.85548  -2889917.60547  20477816.2504                   20477816.5904
        48.5004         42.5004
  -6537603.83648  -5080185.99246  20843461.2034                   20843460.4694
        48.5004         41.7504
   4397931.41047   3425533.38347  22431169.2664                   22431172.8984
        44.2504         44.5004
  -8392358.62547  -6519438.23046  23596808.4454                   23596811.0354
        42.5004         40.0004
  11150526.78946   8672110.56645  24191304.4454                   24191306.2544
        41.5004         35.0004
  -8614053.22347  -6691377.65247  21889163.9534                   21889165.6054
        47.2504         47.7504
  -1568114.04345  -1201871.49245  24634838.0864                   24634842.3284
        35.2504         31.2504
 25  8  7  1 13 30.0000000  0  8G03G04G16G26G07G31G09G06
   4239050.44148   3301906.14848  20856305.8984                   20856308.5824
        48.5004         53.2504
  -3737659.35248  -2906166.28947  20473848.2034                   20473848.4414
        48.0004         42.2504
  -6558663.13348  -5096595.79347  20839453.7344                   20839453.1414
        49.0004         42.0004
   4465184.32047   3477938.23047  22443967.0944                   22443970.3834
        44.0004         44.5004
  -8460751.50047  -6572731.28946  23583793.7034                   23583795.7344
        42.7504         39.7504
  11245010.85946   8745734.46145  24209284.9534                   24209286.3834
        41.0004         35.0004
  -8687852.09047  -6748883.21948  21875120.7114                   21875122.3054
        47.7504         48.5004
  -1555210.57856  -1191816.86755  24637293.0704                   24637298.3874
        36.5004         30.7504
 25  8  7  1 14  0.0000000  0  8G03G04G16G26G07G31G09G06
   4304644.41048   3353018.29348  20868787.7894                   20868790.6954
        48.0004         53.2504
  -3758262.23048  -2922220.46947  20469927.5784                   20469928.1604
        48.2504         42.5004
  -6579054.50448  -5112485.13346  20835573.6024                   20835572.5124
        48.5004         41.7504
   4532903.36747   3530706.30147  22456853.5634                   22456857.6254
        44.2504         44.2504
  -8528941.22347  -6625866.05146  23570817.6564                   23570819.3284
        43.0004         39.0004
  11339488.37146   8819353.25046  24227263.2274                   24227264.3404
        41.5004         36.0004
  -8761535.13347  -6806298.50848  21861098.9144                   21861100.9804
        46.5004         48.2504
  -1541821.28555  -1181383.65255  24639841.3754                   24639846.4384
        34.5004         32.0004
 25  8  7  1 14 30.0000000  0  8G03G04G16G26G07G31G09G06
   4370719.95748   3404505.68848  20881362.0004                   20881364.3754
        48.2504         53.2504
  -3778617.24248  -2938081.50447  20466054.2194                   20466054.2734
        48.0004         42.5004
  -6598779.78548  -5127855.44546  20831819.9534                   20831818.7074
        49.2504         41.5004
   4601083.34447   3583833.54347  22469827.5084                   22469831.2194
        44.5004         44.5004
  -8596930.96147  -6678844.98046  23557879.6024                   23557881.5004
        42.7504         39.2504
  11433955.08246   8892963.60945  24245239.9774                   24245241.2304
        40.2504         35.5004
  -8835103.89547  -6863624.76248  21847099.0864                   21847101.0744
        46.2504         48.2504
  -1527950.58645  -1170575.32445  24642481.3284                   24642485.9064
        34.7504         32.0004
 25  8  7  1 15  0.0000000  0  8G03G04G16G26G07G31G09G06
   4437271.59848   3456364.06648  20894026.2424                   20894028.9494
        49.2504         53.5004
  -3798726.84448  -2953751.30947  20462227.9144                   20462227.8054
        48.2504         42.5004
  -6617841.10548  -5142708.37146  20828192.6094                   20828191.4224
        50.0004         41.5004
   4669718.22347   3637315.25047  22482888.5084                   22482892.2584
        44.2504         44.0004
  -8664723.78947  -6731670.47346  23544979.0944                   23544980.2544
        43.2504         39.5004
  11528406.41047   8966562.00446  24263213.7734                   24263214.2774
        42.7504         36.0004
  -8908560.65647  -6920863.76248  21833120.8914                   21833122.7854
        47.0004         48.5004
  -1513603.31246  -1159395.64145  24645211.5084                   24645215.5784
        36.0004         31.2504
 25  8  7  1 15 30.0000000  0  8G03G04G16G26G07G31G09G06
   4504299.83248   3508593.82048  20906781.3674                   20906784.2304
        48.2504         53.2504
  -3818587.35948  -2969227.01647  20458448.6174                   20458448.4694
        48.7504         42.7504
  -6636236.07048  -5157042.08247  20824692.1564                   20824690.6884
        49.2504         42.0004
   4738808.08647   3691151.50047  22496035.8984                   22496039.5124
        44.2504         44.0004
  -8732317.52047  -6784340.82846  23532116.3754                   23532117.5824
        42.7504         39.0004
  11622843.57846   9040149.36346  24281184.2664                   24281185.6054
        41.2504         37.0004
  -8981901.64847  -6978012.51248  21819163.9454                   21819166.3054
        46.0004         48.7504
  -1498778.48445  -1147843.82445  24648031.7814                   24648036.7544
        34.5004         30.5004
 25  8  7  1 16  0.0000000  0  8G03G04G16G26G07G31G09G06
   4571798.09448   3561189.82048  20919626.0004                   20919628.7344
        49.0004         53.2504
  -3838202.37548  -2984511.42247  20454715.6334                   20454716.1024
        49.0004         42.5004
  -6653968.24248  -5170859.31246  20821317.7274                   20821316.5084
        48.5004         41.7504
   4808345.85947   3745336.76247  22509268.2424                   22509272.4344
        45.5004         44.2504
  -8799716.54347  -6836859.45346  23519290.6334                   23519291.7194
        42.5004         39.2504
  11717260.52747   9113720.96146  24299151.6954                   24299152.6804
        42.0004         36.7504
  -9055130.22347  -7035073.68048  21805229.6484                   21805231.4144
        46.5004         49.5004
  -1483482.19945  -1135924.65644  24650942.8284                   24650947.6804
        32.5004         29.5004
 25  8  7  1 16 30.0000000  0  8G03G04G16G26G07G31G09G06
   4639759.10948   3614146.40648  20932558.5314                   20932561.5084
        48.2504         53.2504
  -3857575.88347  -2999607.64547  20451028.7034                   20451029.1414
        47.5004         42.5004
  -6671041.78548  -5184163.33647  20818068.6804                   20818067.8014
        48.0004         42.0004
   4878323.76647   3799864.98847  22522585.1804                   22522588.7424
        44.5004         44.0004
  -8866926.10546  -6889230.45746  23506501.1884                   23506502.5004
        41.7504         39.2504
  11811650.57047   9187271.59846  24317113.1954                   24317115.0904
        42.7504         38.0004
  -9128250.36347  -7092050.36748  21791314.9224                   21791317.2274
        46.5004         49.2504
  -1467721.26645  -1123643.44544  24653941.9224                   24653946.7304
        33.7504         29.7504
 25  8  7  1 17  0.0000000  0  8G03G04G16G26G07G31G09G06
   4708186.09048   3667466.09848  20945579.5004                   20945582.1054
        48.2504         53.0004
  -3876701.61347  -3014510.78947  20447389.4224                   20447389.6684
        47.0004         42.5004
  -6687450.70347  -5196949.46546  20814945.9224                   20814945.1524
        47.5004         41.5004
   4948744.57847   3854738.34047  22535985.7584                   22535989.2034
        45.7504         44.0004
  -8933940.96546  -6941449.72746  23493748.4384                   23493749.6684
        41.5004         39.0004
  11906017.85947   9260804.48446  24335070.5944                   24335072.0784
        42.0004         37.5004
  -9201255.57047  -7148937.47748  21777422.3364                   21777424.4414
        45.7504         49.5004
  -1451491.94945  -1110997.23045  24657030.8834                   24657035.0554
        34.7504         30.0004
 25  8  7  1 17 30.0000000  0  8G03G04G16G26G07G31G09G06
   4777073.48848   3721144.53948  20958688.3674                   20958691.1174
        48.2504         53.0004
  -3895581.93747  -3029222.71547  20443796.4694                   20443796.9184
        47.7504         42.5004
  -6703198.28948  -5209220.27346  20811949.1724                   20811948.4844
        48.0004         41.7504
   5019602.32847   3909952.15647  22549469.3834                   22549472.8594
        44.2504         43.7504
  -9000764.47347  -6993519.88746  23481032.1254                   23481033.5044
        42.5004         39.5004
  12000357.68847   9334315.99246  24353023.2894                   24353024.8754
        42.5004         36.5004
  -9274148.01647  -7205736.73048  21763551.7114                   21763553.4614
        47.2504         50.2504
  -1434799.28145  -1097989.94944  24660207.1174                   24660211.7854
        34.5004         29.5004
 25  8  7  1 18  0.0000000  0  8G03G04G16G26G07G31G09G06
   4846420.30548   3775180.97348  20971885.0234                   20971887.3954
        48.5004         53.2504
  -3914214.66847  -3043741.69947  20440250.7034                   20440251.2194
        46.7504         42.2504
  -6718282.57448  -5220974.22746  20809078.7734                   20809077.9264
        48.0004         41.7504
   5090895.53147   3965505.29347  22563036.0634                   22563039.7814
        44.0004         43.7504
  -9067395.81647  -7045440.32446  23468352.9144                   23468353.9494
        42.5004         40.0004
  12094669.82446   9407805.92646  24370970.3674                   24370971.9024
        41.7504         36.0004
  -9346925.42647  -7262446.34848  21749702.6884                   21749704.1914
        47.5004         50.0004
  -1417642.65255  -1084620.92255  24663470.5314                   24663476.5164
        34.7504         30.0004
 25  8  7  1 18 30.0000000  0  8G03G04G16G26G07G31G09G06
   4916224.64148   3829573.92648  20985168.3284                   20985170.9534
        48.7504         53.2504
  -3932598.54347  -3058066.78547  20436752.1484                   20436752.7074
        47.2504         42.2504
  -6732702.55147  -5232210.53546  20806334.9844                   20806333.9884
        47.5004         41.5004
   5162621.86347   4021395.93047  22576684.9304                   22576688.5784
        43.7504         43.5004
  -9133834.74247  -7097210.81246  23455710.3834                   23455711.4344
        43.5004         40.5004
  12188953.46546   9481273.64545  24388910.9144                   24388913.6414
        40.5004         34.5004
  -9419586.24647  -7319065.11748  21735875.6334                   21735877.5904
        47.5004         50.5004
  -1400025.64545  -1070893.39845  24666824.0944                   24666828.8914
        35.5004         30.7504
 25  8  7  1 19  0.0000000  0  8G03G04G16G26G07G31G09G06
   4986492.16848   3884327.78948  20998539.7424                   20998542.3244
        49.0004         53.2504
  -3950724.64147  -3072191.00047  20433302.9774                   20433303.5124
        47.7504         42.5004
  -6746450.24648  -5242922.98846  20803718.5864                   20803718.0664
        49.5004         41.7504
   5234786.47747   4077628.07447  22590416.9144                   22590421.2934
        45.7504         43.2504
  -9200073.59847  -7148825.40246  23443104.6484                   23443106.5824
        43.5004         40.5004
  12283214.76646   9554723.94145  24406848.9844                   24406850.9024
        40.0004         33.5004
  -9492121.49247  -7375586.03548  21722072.3594                   21722074.4224
        47.5004         50.2504
  -1381941.10245  -1056801.53545  24670264.8134                   24670270.4574
        35.0004         30.7504
 25  8  7  1 19 30.0000000  0  7G03G04G16G26G07G31G09
   5057214.71548   3939436.22748  21011997.6954                   21012000.5514
        48.2504         53.5004
  -3968597.94148  -3086118.23047  20429901.7584                   20429902.4494
        48.7504         42.2504
  -6759530.93048  -5253115.68746  20801229.2664                   20801228.4574
        48.5004         41.5004
   5307380.89147   4134195.14147  22604231.8674                   22604235.6174
        44.2504         43.7504
  -9266118.28147  -7200288.68746  23430537.1024                   23430538.2934
        43.5004         40.2504
  12377446.63346   9628151.30945  24424780.6174                   24424782.3874
        39.7504         32.0004
  -9564535.83248  -7432012.74248  21708292.4064                   21708294.3364
        48.0004         50.5004
 25  8  7  1 20  0.0000000  0  8G03G04G16G26G07G31G09G06
   5128386.07048   3994894.38348  21025541.1414                   21025544.2034
        49.2504         53.2504
  -3986221.34048  -3099850.73447  20426548.4614                   20426548.4924
        49.2504         42.2504
  -6771948.23848  -5262791.47746  20798866.5474                   20798865.6804
        48.7504         41.5004
   5380398.35547   4191091.85547  22618126.5234                   22618130.3634
        44.0004         43.7504
  -9331973.11347  -7251604.04746  23418004.6254                   23418006.5084
        44.5004         40.0004
  12471643.85546   9701551.69145  24442706.4304                   24442707.7544
        40.5004         32.2504
  -9636832.07047  -7488347.43448  21694535.2504                   21694536.5354
        47.5004         50.7504
  -1344398.02756  -1027547.24655  24677410.1724                   24677414.6094
        36.2504         30.0004
 25  8  7  1 20 30.0000000  0  9G27G03G04G16G26G07G31G09G06
   -231355.45756   -159248.34054  25096066.4694                   25096074.2854
        38.2504         29.2504
   5199996.50448   4050694.68048  21039168.2584                   21039171.2774
        49.5004         53.2504
  -4003601.39848  -3113393.62547  20423241.1414                   20423241.5434
        48.5004         42.5004
  -6783709.28948  -5271955.89146  20796628.4064                   20796627.3554
        48.7504         41.7504
   5453828.76647   4248310.34447  22632099.8364                   22632103.6994
        44.7504         43.5004
  -9397645.62547  -7302777.32846  23405508.1644                   23405509.3674
        43.7504         40.7504
  12565797.70346   9774918.27345  24460622.6024                   24460624.0004
        40.2504         32.2504
  -9709016.46147  -7544594.95748  21680798.4844                   21680800.4804
        47.2504         51.0004
  -1324954.64145  -1012396.57444  24681110.4224                   24681113.5354
        35.5004         29.2504
 25  8  7  1 21  0.0000000  0  9G27G03G04G16G26G07G31G09G06
   -316088.44946   -225273.79745  25079941.8054                   25079950.1484
        38.2504         31.2504
   5272038.94148   4106831.59448  21052877.5634                   21052880.6684
        49.7504         53.2504
  -4020741.83648  -3126749.80147  20419979.5234                   20419979.9614
        48.5004         42.7504
  -6794818.58248  -5280612.45347  20794514.2814                   20794513.7154
        48.5004         42.0004
   5527664.66047   4305844.78947  22646150.5314                   22646154.3914
        45.0004         43.5004
  -9463140.52047  -7353812.19546  23393044.3984                   23393045.8204
        43.5004         41.0004
  12659901.91046   9848246.17645  24478531.1414                   24478532.2814
        41.5004         32.2504
  -9781092.54347  -7600758.09048  21667082.8754                   21667084.5664
        47.0004         50.7504
  -1305072.90645   -996904.32845  24684892.4384                   24684897.4264
        34.7504         30.5004
 25  8  7  1 21 30.0000000  0  9G27G03G04G16G26G07G31G09G06
   -400843.73846   -291316.67245  25063813.2664                   25063821.4454
        40.0004         32.5004
   5344516.24248   4163307.37148  21066669.7194                   21066672.5204
        49.0004         53.2504
  -4037636.52048  -3139914.48447  20416764.6024                   20416764.5314
        49.0004         42.5004
  -6805270.42248  -5288756.71946  20792525.3204                   20792524.5474
        48.0004         41.7504
   5601908.42247   4363697.06647  22660278.2974                   22660282.4104
        43.2504         43.0004
  -9528453.50047  -7404705.31246  23380615.8914                   23380617.2894
        44.5004         41.5004
  12753960.54346   9921538.57045  24496428.7114                   24496431.1454
        40.0004         32.5004
  -9853054.02047  -7656831.93748  21653389.0474                   21653391.3634
        47.0004         51.0004
  -1284749.70345   -981068.09844  24688759.8594                   24688765.1054
        34.5004         29.2504
 25  8  7  1 22  0.0000000  0  9G27G03G04G16G26G07G31G09G06
   -485621.49246   -357377.05945  25047681.1484                   25047689.1804
        40.0004         34.0004
   5417423.09448   4220117.85948  21080543.4144                   21080546.2074
        49.5004         53.2504
  -4054287.45748  -3152889.23447  20413596.0944                   20413595.9494
        48.0004         42.5004
  -6815067.64848  -5296390.88746  20790661.3834                   20790660.1374
        48.0004         41.7504
   5676554.41847   4421862.76647  22674482.8834                   22674486.8284
        44.5004         43.0004
  -9593587.49247  -7455458.96146  23368220.8284                   23368222.4694
        45.2504         41.7504
  12847969.14846   9994791.98445  24514317.8364                   24514320.5744
        40.2504         33.0004
  -9924902.62947  -7712817.81248  21639716.9774                   21639719.0124
        47.0004         51.7504
  -1263990.66455   -964892.45755  24692710.7584                   24692715.6954
        35.0004         30.7504
 25  8  7  1 22 30.0000000  0  9G27G03G04G16G26G07G31G09G06
   -570416.22346   -423450.68445  25031544.9454                   25031552.6174
        39.0004         33.0004
   5490759.55548   4277263.10548  21094498.7734                   21094501.7814
        49.7504         53.0004
  -4070691.19548  -3165671.36347  20410474.3984                   20410474.3484
        49.0004         42.7504
  -6824207.54748  -5303512.85246  20788921.9534                   20788921.1684
        48.5004         41.5004
   5751602.27747   4480341.59447  22688764.0704                   22688768.2544
        44.7504         43.2504
  -9658540.41047  -7506071.51247  23355860.7114                   23355862.1414
        44.5004         42.0004
  12941928.80546  10068007.24245  24532198.6414                   24532200.3014
        41.2504         33.5004
  -9996634.71547  -7768712.91448  21626066.7734                   21626068.7034
        47.5004         51.5004
  -1242793.44146   -948375.17245  24696743.9694                   24696750.1644
        36.0004         31.2504
 25  8  7  1 23  0.0000000  0  9G27G03G04G16G26G07G31G09G06
   -655219.10246   -489530.64545  25015406.7734                   25015415.5944
        38.7504         32.5004
   5564529.07448   4334745.80148  21108536.8834                   21108539.5744
        49.7504         53.0004
  -4086840.96948  -3178255.60247  20407401.4304                   20407401.2114
        48.7504         43.0004
  -6832684.39848  -5310118.16846  20787308.7734                   20787307.7074
        48.2504         41.5004
   5827055.05947   4539135.95747  22703122.5474                   22703126.2814
        43.7504         43.2504
  -9723306.29347  -7556538.32846  23343536.6254                   23343537.5314
        44.5004         41.5004
  13035844.12547  10141187.97745  24550069.6954                   24550072.0314
        42.0004         34.2504
 -10068243.28547  -7824511.76248  21612439.5634                   21612441.7814
        47.5004         51.7504
  -1221154.07455   -931513.15654  24700862.4224                   24700867.3134
        34.5004         29.2504
 25  8  7  1 23 30.0000000  0  9G27G03G04G16G26G07G31G09G06
   -740030.19546   -555617.02045  24999267.6644                   24999276.0234
        37.2504         30.7504
   5638726.39848   4392561.85948  21122656.0944                   21122658.9304
        48.7504         52.5004
  -4102738.75448  -3190643.48447  20404375.9304                   20404376.0864
        49.0004         42.5004
  -6840500.92648  -5316208.93447  20785821.0704                   20785820.2704
        48.2504         42.0004
   5902907.07047   4598241.40247  22717557.0554                   22717560.5554
        43.5004         43.0004
  -9787888.53147  -7606862.05146  23331247.4534                   23331247.9344
        44.5004         41.2504
  13129711.00847  10214331.00045  24567932.8284                   24567933.8284
        42.2504         34.0004
 -10139729.98847  -7880215.64848  21598836.7194                   21598838.6174
        47.7504         52.5004
  -1199079.34845   -914312.09845  24705062.6884                   24705067.7274
        35.2504         30.0004
 25  8  7  1 24  0.0000000  0  9G27G03G04G16G26G07G31G09G06
   -824842.13746   -621704.04344  24983129.0554                   24983136.6844
        37.2504         28.7504
   5713353.29748   4450712.64148  21136857.0394                   21136859.9614
        48.7504         52.5004
  -4118379.32448  -3202830.94147  20401399.5784                   20401399.8794
        48.5004         42.7504
  -6847652.62547  -5321781.66846  20784460.2424                   20784459.4384
        47.7504         41.5004
   5979159.79347   4657659.08247  22732066.7664                   22732071.0744
        43.5004         43.0004
  -9852283.01647  -7657039.46947  23318993.0944                   23318994.0084
        44.5004         42.0004
  13223532.24647  10287438.44545  24585787.0004                   24585787.4734
        43.0004         34.7504
 -10211089.46147  -7935820.39148  21585256.9304                   21585258.6644
        47.2504         51.7504
  -1176566.08655   -896769.29355  24709347.0554                   24709351.9144
        35.2504         30.0004
 25  8  7  1 24 30.0000000  0  9G27G03G04G16G26G07G31G09G06
   -909649.49645   -687787.45744  24966988.8754                   24966997.8834
        34.0004         24.0004
   5788410.19148   4509198.49648  21151140.1414                   21151143.0434
        48.5004         52.5004
  -4133758.82848  -3214814.97347  20398473.0944                   20398473.2894
        48.5004         43.0004
  -6854136.69147  -5326834.16046  20783226.0864                   20783225.4414
        47.5004         41.2504
   6055813.25447   4717389.04747  22746653.8754                   22746657.7504
        43.7504         43.0004
  -9916487.34447  -7707068.71547  23306774.9774                   23306776.0944
        44.5004         42.2504
  13317309.46146  10360511.57445  24603630.4924                   24603632.7074
        41.2504         33.2504
 -10282317.57048  -7991322.77048  21571703.0474                   21571704.1294
        48.0004         52.7504
  -1153613.49646   -878884.23045  24713714.9454                   24713719.9964
        36.7504         31.2504
 25  8  7  1 25  0.0000000  0  9G27G03G04G16G26G07G31G09G06
   -994447.87545   -753863.89843  24950852.0704                   24950861.0204
        31.5004         22.0004
   5863895.85948   4568018.45348  21165504.4224                   21165507.3244
        48.2504         52.5004
  -4148875.18448  -3226593.94547  20395596.2424                   20395596.6804
        48.2504         43.0004
  -6859951.74248  -5331365.34046  20782120.1174                   20782119.0004
        49.0004         41.5004
   6132865.81347   4777429.98447  22761316.1414                   22761320.2344
        43.5004         42.7504
  -9980500.65647  -7756949.11347  23294594.0234                   23294595.0514
        44.5004         42.2504
  13411042.66846  10433550.40245  24621468.1954                   24621469.7934
        39.5004         32.7504
 -10353411.87147  -8046720.89548  21558174.0234                   21558176.1484
        46.7504         52.5004
  -1130222.28946   -860657.35545  24718166.4694                   24718170.4414
        37.0004         31.7504
 25  8  7  1 25 30.0000000  0  9G27G03G04G16G26G07G31G09G06
  -1079239.97345   -819935.41044  24934717.0394                   24934725.7624
        33.2504         24.5004
   5939802.18847   4627166.18848  21179948.9534                   21179952.0514
        47.7504         52.5004
  -4163732.98448  -3238171.45747  20392768.9774                   20392769.4494
        48.7504         42.7504
  -6865103.42648  -5335379.61346  20781139.4924                   20781138.7114
        49.0004         41.7504
   6210309.05947   4837775.34847  22776053.1094                   22776057.1414
        43.5004         42.5004
 -10044328.83247  -7806685.25447  23282447.5474                   23282448.8984
        44.0004         42.0004
  13504724.71546  10506549.32845  24639294.6174                   24639297.3634
        38.0004         31.0004
 -10424376.83647  -8102018.21948  21544670.0784                   21544671.6524
        47.7504         52.7504
  -1106400.14146   -842094.65245  24722699.2974                   24722703.8984
        37.0004         30.0004
 25  8  7  1 26  0.0000000  0  9G27G03G04G16G26G07G31G09G06
  -1164015.15646   -885993.82044  24918584.3594                   24918592.4844
        37.0004         27.0004
   6016134.19547   4686645.62148  21194474.5004                   21194477.4064
        47.7504         52.2504
  -4178323.82847  -3249540.94547  20389992.6094                   20389992.7234
        47.0004         42.7504
  -6869584.41447  -5338871.27346  20780286.6884                   20780285.3284
        47.7504         41.7504
   6288147.68447   4898428.79347  22790865.4614                   22790869.4264
        42.5004         42.0004
 -10107964.56647  -7856271.43047  23270337.8284                   23270339.1294
        45.2504         42.2504
  13598362.03146  10579513.41845  24657114.7194                   24657115.7464
        38.2504         31.7504
 -10495203.65647  -8157207.92248  21531191.6954                   21531193.7704
        47.5004         52.7504
  -1082141.62546   -823191.97345  24727315.1254                   24727320.3834
        37.0004         30.7504
 25  8  7  1 26 30.0000000  0  9G27G03G04G16G26G07G31G09G06
  -1248773.52346   -952039.11344  24902456.2274                   24902463.5234
        37.7504         28.5004
   6092886.42247   4746452.50848  21209080.0634                   21209082.7584
        47.5004         52.0004
  -4192649.77748  -3260704.00847  20387266.4774                   20387266.3984
        48.0004         43.0004
  -6873397.92248  -5341842.80946  20779561.0314                   20779560.1684
        48.5004         41.5004
   6366375.83247   4959385.76646  22805751.7814                   22805755.5394
        42.2504         41.2504
 -10171411.17247  -7905710.23446  23258263.9844                   23258265.6644
        44.7504         41.7504
  13691950.48046  10652439.41445  24674924.3754                   24674924.9344
        39.5004         33.5004
 -10565894.16048  -8212291.38748  21517739.8834                   21517741.7934
        48.0004         53.0004
  -1057451.80546   -803953.19145  24732013.9534                   24732018.7074
        36.5004         31.0004
 25  8  7  1 27  0.0000000  0  9G27G03G04G16G26G07G31G09G06
  -1333507.96546  -1018065.77044  24886331.4924                   24886338.5784
        37.7504         29.7504
   6170060.52047   4806588.11348  21223765.8054                   21223768.9024
        47.7504         52.0004
  -4206705.64147  -3271656.62547  20384591.6724                   20384591.9884
        47.2504         42.7504
  -6876539.66848  -5344290.90647  20778963.0944                   20778961.9844
        49.7504         42.0004
   6444994.84847   5020647.30946  22820712.5704                   22820716.6484
        42.5004         41.5004
 -10234664.78147  -7954998.64847  23246227.1644                   23246228.4344
        45.0004         42.5004
  13785493.01246  10725329.62545  24692724.4064                   24692725.4494
        39.7504         33.0004
 -10636442.87548  -8267264.37148  21504315.0944                   21504316.6214
        48.0004         53.5004
  -1032328.62956   -784376.71155  24736795.3914                   24736799.4064
        37.2504         30.7504
 25  8  7  1 27 30.0000000  0  9G27G03G04G16G26G07G31G09G06
  -1418216.18046  -1084071.94145  24870211.6564                   24870219.3284
        38.2504         31.2504
   6247653.35948   4867050.02048  21238531.2584                   21238534.4414
        48.0004         52.0004
  -4220491.03947  -3282398.49247  20381968.6094                   20381968.6724
        47.7504         43.0004
  -6879010.31648  -5346216.05947  20778493.3524                   20778492.0354
        49.5004         42.0004
   6524001.31647   5082210.76246  22835747.1094                   22835751.1254
        42.7504         41.5004
 -10297726.45747  -8004137.55547  23234227.2424                   23234228.1764
        44.2504         42.7504
  13878987.42246  10798182.37545  24710515.1644                   24710517.3834
        40.7504         34.0004
 -10706849.15247  -8322126.36748  21490916.9844                   21490918.5824
        47.7504         53.0004
  -1006774.84056   -764464.69554  24741658.1484                   24741662.7664
        37.2504         29.5004
 25  8  7  1 28  0.0000000  0  9G27G03G04G16G26G07G31G09G06
  -1502895.60246  -1150055.68745  24854098.3914                   24854105.1884
        37.2504         32.2504
   6325661.77747   4927835.75448  21253375.7974                   21253378.6294
        47.0004         51.7504
  -4234005.74247  -3292929.41847  20379396.7114                   20379396.6884
        47.0004         43.0004
  -6880810.89547  -5347619.08246  20778150.5234                   20778149.3674
        47.7504         41.5004
   6603391.67647   5144073.35546  22850854.5944                   22850858.5664
        43.0004         41.2504
 -10360597.16447  -8053127.61747  23222263.3834                   23222264.0004
        44.7504         43.0004
  13972432.22747  10870996.45345  24728297.9774                   24728299.2464
        42.0004         33.7504
 -10777112.33247  -8376876.85948  21477546.5234                   21477547.8324
        47.7504         53.5004
   -980793.19546   -744219.25844  24746601.5864                   24746606.1564
        36.5004         28.5004
 25  8  7  1 28 30.0000000  0  9G27G03G04G16G26G07G31G09G06
  -1587542.36346  -1216013.96545  24837989.6804                   24837997.1294
        38.2504         32.7504
   6404084.25847   4988944.13748  21268299.4224                   21268302.3714
        47.0004         51.7504
  -4247247.70347  -3303247.82447  20376876.6334                   20376876.8364
        47.0004         43.0004
  -6881940.41848  -5348499.19547  20777935.5004                   20777934.4964
        49.5004         42.0004
   6683164.10547   5206233.66446  22866034.0864                   22866038.5704
        42.7504         41.0004
 -10423275.67647  -8101967.92247  23210335.7584                   23210336.5984
        44.5004         42.7504
  14065827.12946  10943771.71945  24746068.5234                   24746071.3444
        38.0004         30.0004
 -10847230.21148  -8431514.12948  21464203.2504                   21464205.1684
        48.7504         53.5004
   -954386.70355   -727345.24254  24751626.4144                   24751631.4734
        34.5004         27.7504
 25  8  7  1 29  0.0000000  0  9G27G03G04G16G26G07G31G09G06
  -1672149.76246  -1281941.60545  24821889.3204                   24821896.8554
        38.0004         32.0004
   6482921.93447   5050376.04348  21283301.5634                   21283304.7894
        47.7504         51.7504
  -4260212.28147  -3313350.07447  20374409.8054                   20374410.1054
        47.0004         42.7504
  -6882395.50048  -5348853.78146  20777848.8674                   20777847.9574
        48.2504         41.5004
   6763319.45347   5268692.34846  22881287.4304                   22881291.8954
        43.5004         41.5004
 -10485759.43047  -8150656.46147  23198445.5314                   23198446.4454
        43.5004         43.0004
  14159174.52746  11016509.93044  24763833.0314                   24763834.7274
        37.7504         28.2504
 -10917197.70747  -8486034.20349  21450888.7344                   21450890.4534
        47.7504         54.0004
   -927549.91445   -706433.49244  24756733.0004                   24756739.0554
        33.5004         27.0004
 25  8  7  1 29 30.0000000  0  9G27G03G04G16G26G07G31G09G06
  -1756717.76245  -1347838.51245  24805797.1564                   24805803.4024
        35.5004         31.2504
   6562169.28547   5112127.17248  21298381.7504                   21298385.0634
        47.0004         51.7504
  -4272901.55147  -3323237.80547  20371994.9064                   20371995.0394
        47.0004         43.2504
  -6882179.27748  -5348685.27746  20777889.9614                   20777888.6994
        48.0004         41.5004
   6843851.86347   5331444.84046  22896612.3134                   22896616.7624
        43.0004         41.7504
 -10548051.52347  -8199195.66447  23186591.2814                   23186592.1684
        43.5004         42.7504
  14252470.45746  11089207.99644  24781587.6484                   24781588.1604
        37.2504         25.2504
 -10987016.60948  -8540438.49249  21437602.5474                   21437604.6564
        48.2504         54.0004
   -900292.91055   -688897.02754  24761922.1094                   24761926.0904
        35.0004         29.0004
 25  8  7  1 30  0.0000000  0  9G27G03G04G16G26G07G31G09G06
  -1841239.99645  -1413699.75444  24789711.4534                   24789719.2424
        31.7504         29.7504
   6641826.93848   5174198.02048  21313540.5314                   21313543.2464
        48.5004         51.7504
  -4285311.21547  -3332907.65647  20369633.5004                   20369633.8444
        47.0004         42.7504
  -6881288.86748  -5347991.41846  20778059.1094                   20778058.2934
        48.5004         41.5004
   6924761.77347   5394491.48846  22912009.4534                   22912013.2894
        43.5004         41.5004
 -10610148.85947  -8247583.08247  23174775.0394                   23174775.8094
        43.7504         42.5004
  14345716.92646  11161867.54344  24799331.3984                   24799332.7234
        37.0004         28.2504
 -11056682.32448  -8594723.42649  21424345.9924                   21424347.5514
        48.2504         54.0004
   -872608.80956   -667325.03554  24767190.2194                   24767193.2704
        36.0004         27.0004
 25  8  7  1 30 30.0000000  0  9G27G03G04G16G26G07G31G09G06
  -1925712.79345  -1479522.46544  24773637.3364                   24773644.6884
        32.7504         28.0004
   6721893.22347   5236587.28948  21328775.9924                   21328779.2704
        47.2504         51.5004
  -4297439.46147  -3342358.21547  20367325.2194                   20367325.7154
        47.7504         43.0004
  -6879723.94148  -5346771.97346  20778357.1804                   20778356.0354
        48.2504         41.7504
   7006047.14847   5457830.71546  22927477.3984                   22927481.6804
        42.5004         41.7504
 -10672050.89547  -8295818.34047  23162995.1024                   23162996.2934
        44.0004         43.2504
  14438913.62946  11234488.35244  24817066.4304                   24817067.0594
        39.2504         28.7504
 -11126192.64848  -8648887.26249  21411118.0704                   21411120.8324
        48.0004         54.0004
   -844501.81646   -645423.49644  24772538.5634                   24772543.2544
        37.5004         28.5004
 25  8  7  1 31  0.0000000  0  9G27G03G04G16G26G07G31G09G06
  -2010132.56245  -1545303.88344  24757571.6724                   24757580.1054
        32.2504         29.0004
   6802365.82448   5299293.16848  21344089.7344                   21344092.8134
        48.0004         51.5004
  -4309285.01248  -3351588.49647  20365071.1954                   20365071.2774
        48.0004         43.0004
  -6877484.06648  -5345026.58247  20778783.3754                   20778782.0004
        50.0004         42.0004
   7087705.40247   5521460.49646  22943016.5864                   22943020.1214
        42.7504         41.2504
 -10733757.86747  -8343901.60947  23151252.8754                   23151253.7814
        44.0004         43.5004
  14532059.45346  11307069.46545  24834790.3054                   24834793.2974
        40.5004         31.7504
 -11195546.00848  -8702928.79349  21397921.4144                   21397922.5004
        49.0004         54.0004
   -815973.82046   -623193.91844  24777967.0394                   24777971.0434
        36.7504         28.0004
 25  8  7  1 31 30.0000000  0  9G27G03G04G16G26G07G31G09G06
  -2094497.40645  -1611042.49244  24741517.7194                   24741525.6454
        34.2504         29.7504
   6883241.07048   5362312.78948  21359480.1484                   21359482.9574
        48.2504         51.5004
  -4320848.00048  -3360598.59447  20362870.9304                   20362871.1994
        48.0004         43.0004
  -6874570.91848  -5342756.58246  20779337.6254                   20779336.4964
        49.2504         41.5004
   7169732.58647   5585377.76246  22958625.4694                   22958630.0204
        42.2504         41.0004
 -10795271.10947  -8391833.92247  23139546.8364                   23139547.9224
        44.7504         44.0004
  14625152.59446  11379609.55945  24852505.9694                   24852507.1644
        41.7504         32.2504
 -11264742.09048  -8756847.77749  21384753.1024                   21384755.0634
        48.5004         54.0004
   -787028.15645   -600638.91444  24783474.3284                   24783479.3954
        35.0004         27.5004
 25  8  7  1 32  0.0000000  0  9G27G03G04G16G26G07G31G09G06
  -2178803.34046  -1676735.27045  24725474.7974                   24725482.3094
        37.2504         30.0004
   6964517.32847   5425644.88348  21374946.1644                   21374949.3594
        47.5004         51.2504
  -4332126.48447  -3369387.00847  20360724.3204                   20360724.8984
        47.7504         43.0004
  -6870984.22748  -5339961.73046  20780020.0944                   20780019.0594
        49.0004         41.7504
   7252126.83247   5649581.03946  22974305.1334                   22974308.9534
        42.2504         40.5004
 -10856589.49647  -8439614.37547  23127878.7664                   23127879.3914
        45.0004         44.0004
  14718192.75046  11452108.34845  24870210.7814                   24870212.8164
        41.5004         33.5004
 -11333778.62148  -8810642.42249  21371615.8834                   21371617.6804
        49.2504         54.2504
   -757666.04346   -577759.40245  24789062.6024                   24789067.7584
        37.0004         30.2504
 25  8  7  1 32 30.0000000  0  9G27G03G04G16G26G07G31G09G06
  -2263047.18446  -1742379.66445  24709444.4844                   24709451.3444
        38.5004         31.7504
   7046191.95347   5489287.40248  21390488.7974                   21390492.1884
        47.0004         51.5004
  -4343119.50847  -3377952.97747  20358632.7504                   20358633.1094
        47.2504         42.5004
  -6866724.07448  -5336642.11746  20780830.8594                   20780829.7154
        49.2504         41.2504
   7334885.21147   5714068.07046  22990052.8594                   22990057.0204
        42.0004         40.2504
 -10917714.27047  -8487244.00847  23116246.8054                   23116247.2774
        45.2504         44.2504
  14811178.78946  11524564.98845  24887905.4774                   24887907.0044
        41.5004         32.7504
 -11402654.26248  -8864311.71548  21358509.2274                   21358510.8364
        48.0004         53.7504
   -727889.88746   -554557.29345  24794729.0634                   24794734.0204
        37.2504         30.2504
 25  8  7  1 33  0.0000000  0  9G27G03G04G16G26G07G31G09G06
  -2347219.84846  -1807968.62545  24693426.7584                   24693433.0394
        39.0004         31.7504
   7128268.44147   5553243.05948  21406107.0634                   21406109.9844
        47.5004         51.5004
  -4353819.94147  -3386290.94947  20356596.6804                   20356596.5274
        47.0004         42.5004
  -6861784.80548  -5332793.31646  20781770.5944                   20781769.2504
        49.7504         41.7504
   7418010.98847   5778841.37946  23005871.7894                   23005875.5044
        42.2504         40.0004
 -10978639.53547  -8534718.15247  23104652.7274                   23104653.6374
        44.0004         43.7504
  14904115.72346  11596983.34445  24905590.6884                   24905592.7704
        40.2504         31.2504
 -11471361.58648  -8917849.83649  21345434.6254                   21345436.7734
        48.0004         54.2504
   -697695.75846   -531029.41845  24800475.3204                   24800479.1764
        39.0004         30.7504
 25  8  7  1 33 30.0000000  0  9G27G03G04G16G26G07G31G09G06
  -2431321.85246  -1873502.48445  24677421.3834                   24677428.5904
        39.2504         32.2504
   7210740.49247   5617506.94948  21421801.1804                   21421804.3484
        47.0004         51.5004
  -4364230.45747  -3394403.02347  20354615.2974                   20354615.5004
        47.2504         42.5004
  -6856170.68748  -5328418.64846  20782838.8594                   20782837.9264
        49.5004         41.5004
   7501497.62147   5843895.87946  23021758.3054                   23021762.4304
        42.0004         39.7504
 -11039369.14147  -8582039.83647  23093096.4224                   23093096.9454
        43.0004         42.7504
  14996998.76246  11669359.72344  24923265.2344                   24923266.9924
        39.5004         28.5004
 -11539902.77047  -8971258.50849  21332391.7584                   21332393.2464
        47.5004         54.0004
   -667089.59846   -507180.52045  24806299.4304                   24806304.1024
        37.5004         31.5004
 25  8  7  1 34  0.0000000  0  9G27G03G04G16G26G07G31G09G06
  -2515348.69146  -1938977.79345  24661432.3134                   24661439.2424
        37.2504         31.2504
   7293606.94947   5682078.16448  21437570.3134                   21437573.3094
        46.5004         51.2504
  -4374348.65647  -3402287.30947  20352690.1644                   20352690.0744
        47.0004         42.7504
  -6849880.78948  -5323517.41446  20784036.0634                   20784035.0744
        49.5004         41.7504
   7585343.65247   5909230.43446  23037713.7584                   23037717.9224
        42.2504         40.0004
 -11099901.84447  -8629208.10247  23081576.8364                   23081577.8674
        43.0004         42.7504
  15089828.32046  11741694.43044  24940929.1564                   24940933.1564
        37.0004         26.7504
 -11608275.04747  -9024535.56249  21319380.7814                   21319382.5044
        47.5004         54.0004
   -636072.23456   -483011.23455  24812201.4224                   24812206.4264
        38.5004         31.2504
 25  8  7  1 34 30.0000000  0  9G27G03G04G16G26G07G31G09G06
  -2599294.83646  -2004390.18745  24645457.8594                   24645464.9454
        36.7504         31.0004
   7376867.50047   5746956.46948  21453413.7734                   21453416.9494
        46.7504         51.2504
  -4384171.14547  -3409941.18447  20350820.6174                   20350821.0164
        47.0004         42.5004
  -6842913.27748  -5318088.16046  20785361.7814                   20785360.5004
        49.7504         41.5004
   7669548.59447   5974844.65646  23053737.5084                   23053741.3324
        42.2504         40.5004
 -11160235.73047  -8676221.43047  23070096.3594                   23070097.2234
        43.7504         43.7504
  15182605.64146  11813988.46144  24958584.3834                   24958588.6724
        36.2504         27.5004
 -11676474.64547  -9077678.07449  21306403.1564                   21306404.6054
        47.7504         54.2504
   -604643.66046   -458521.46545  24818182.7194                   24818186.8284
        38.7504         31.0004
 25  8  7  1 35  0.0000000  0  9G27G03G04G16G26G07G31G09G06
  -2683161.18045  -2069740.42645  24629497.7194                   24629505.5554
        35.5004         32.5004
   7460515.53147   5812136.69948  21469331.8754                   21469335.2194
        46.5004         51.0004
  -4393700.87547  -3417366.93047  20349007.3204                   20349007.5314
        47.0004         42.5004
  -6835272.51248  -5312134.28946  20786815.8364                   20786814.5824
        49.5004         41.5004
   7754105.66447   6040733.26246  23069828.2974                   23069832.4924
        42.5004         40.7504
 -11220375.23847  -8723083.31247  23058652.2584                   23058653.0274
        44.7504         44.5004
  15275326.05146  11886238.17644  24976229.4384                   24976231.4734
        39.0004         25.2504
 -11744504.09847  -9130687.98849  21293457.0864                   21293458.5944
        47.5004         54.0004
   -572810.03146   -433716.07845  24824239.7584                   24824244.5944
        38.0004         32.0004
 25  8  7  1 35 30.0000000  0  9G27G03G04G16G26G07G31G09G06
  -2766944.13346  -2135025.63345  24613554.5864                   24613561.9734
        37.0004         32.5004
   7544548.91047   5877617.20348  21485323.2274                   21485326.3164
        46.7504         51.2504
  -4402936.42648  -3424563.45347  20347249.9614                   20347250.1334
        48.5004         42.5004
  -6826958.75448  -5305656.01246  20788397.7114                   20788396.7544
        49.7504         41.5004
   7839012.39547   6106894.32046  23085985.7584                   23085989.7774
        42.2504         40.2504
 -11280320.37947  -8769793.75047  23047244.8134                   23047245.2464
        44.5004         44.0004
  15367989.04346  11958442.96543  24993864.1644                   24993863.5944
        40.2504         22.7504
 -11812361.51647  -9183563.88749  21280544.6024                   21280546.2734
        47.7504         54.0004
   -540573.27746   -408596.60545  24830374.3524                   24830379.7424
        37.5004         33.5004
 25  8  7  1 36  0.0000000  0  9G27G03G04G16G26G07G31G09G06
  -2850638.12146  -2200241.53545  24597627.7194                   24597635.7664
        36.5004         32.5004
   7628967.29747   5943397.71948  21501387.3364                   21501390.6024
        46.5004         51.0004
  -4411874.39847  -3431528.09847  20345549.5004                   20345549.3634
        47.7504         42.5004
  -6817970.40648  -5298652.08646  20790108.2814                   20790107.0664
        50.0004         41.2504
   7924268.31347   6173327.46946  23102208.9694                   23102212.9224
        42.2504         40.2504
 -11340068.70747  -8816350.82847  23035875.0554                   23035875.7424
        45.0004         44.0004
  15460595.45346  12030603.76244  25011484.5704                   25011486.7194
        38.0004         24.0004
 -11880043.13347  -9236302.75849  21267664.8984                   21267666.7774
        47.5004         54.0004
   -507933.39546   -383163.02045  24836586.0234                   24836590.6884
        37.5004         32.2504
 25  8  7  1 36 30.0000000  0  9G27G03G04G16G26G07G31G09G06
  -2934244.38346  -2265389.08245  24581718.4304                   24581725.2344
        36.7504         31.7504
   7713763.69147   6009472.78148  21517523.6804                   21517526.5664
        46.2504         50.7504
  -4420518.07847  -3438263.42647  20343904.6254                   20343904.5664
        47.5004         42.5004
  -6808312.26648  -5291126.23846  20791945.9304                   20791944.8714
        49.7504         41.5004
   8009866.26647   6240027.14846  23118498.2974                   23118502.2424
        42.0004         40.0004
 -11399625.27047  -8862758.46547  23024541.6334                   23024542.6294
        44.7504         44.0004
  15553140.05546  12102716.52344  25029095.9774                   25029097.2304
        41.2504         28.2504
 -11947551.75447  -9288906.85249  21254818.6334                   21254819.6954
        47.7504         54.0004
   -474896.99246   -357420.41445  24842872.4144                   24842877.0824
        39.0004         33.5004
 25  8  7  1 37  0.0000000  0  9G27G03G04G16G26G07G31G09G06
  -3017760.16446  -2330466.13345  24565825.5864                   24565832.6604
        38.0004         31.5004
   7798934.94547   6075839.93848  21533731.0634                   21533734.3324
        46.2504         50.7504
  -4428866.98847  -3444769.07447  20342315.5394                   20342315.6524
        47.7504         42.5004
  -6797985.66048  -5283079.50846  20793911.3054                   20793909.9224
        49.5004         41.5004
   8095802.82047   6306990.67646  23134851.6094                   23134855.5554
        43.0004         40.2504
 -11458990.69147  -8909017.15647  23013244.6644                   23013245.2234
        44.7504         44.0004
  15645621.63746  12174780.05145  25046693.6174                   25046697.1174
        37.7504         30.5004
 -12014886.49248  -9341375.44549  21242004.9774                   21242007.1134
        48.0004         54.0004
   -441466.93646   -331371.05545  24849233.3444                   24849238.8554
        38.5004         34.0004
 25  8  7  1 37 30.0000000  0  9G27G03G04G16G26G07G31G09G06
  -3101175.34046  -2395464.81645  24549951.9614                   24549958.6414
        37.5004         31.7504
   7884485.43447   6142502.60548  21550010.9614                   21550014.2504
        46.2504         50.5004
  -4436913.03147  -3451038.71947  20340784.3594                   20340784.7234
        47.0004         42.5004
  -6786983.91848  -5274506.69546  20796004.5234                   20796003.4804
        49.5004         41.7504
   8182082.25847   6374221.38346  23151270.0394                   23151274.3324
        43.2504         40.5004
 -11518158.48847  -8955121.85547  23001985.2114                   23001985.9654
        45.2504         44.0004
  15738046.32046  12246799.25444  25064281.1024                   25064284.9924
        36.5004         28.5004
 -12082038.76248  -9393701.85549  21229226.6484                   21229228.1374
        48.2504         54.0004
   -407638.52746   -305011.35545  24855671.2734                   24855676.6724
        38.7504         34.5004
 25  8  7  1 38  0.0000000  0  9G27G03G04G16G26G07G31G09G06
  -3184491.92646  -2460386.67645  24534096.7974                   24534103.7154
        38.7504         31.7504
   7970407.25447   6209454.62148  21566361.2974                   21566364.5124
        47.2504         50.7504
  -4444660.46148  -3457075.68447  20339310.0944                   20339310.4304
        48.7504         42.7504
  -6775313.15248  -5265412.56646  20798225.6804                   20798224.7034
        50.0004         41.2504
   8268696.36347   6441712.87946  23167751.8524                   23167756.0354
        42.0004         40.0004
 -11577134.09047  -9001076.79347  22990762.6024                   22990762.7234
        45.5004         44.5004
  15830407.93446  12318769.29344  25081858.5474                   25081860.7034
        37.0004         28.7504
 -12149012.36347  -9445889.04748  21216481.8524                   21216483.2974
        47.7504         53.7504
   -373429.32856   -283354.05956  24862183.1174                   24862187.8404
        39.5004         36.2504
 25  8  7  1 38 30.0000000  0  9G27G03G04G16G26G07G31G09G06
  -3267704.87146  -2525227.75445  24518262.8204                   24518269.4224
        38.0004         32.2504
   8056699.57847   6276695.34048  21582781.9844                   21582785.3134
        46.5004         50.5004
  -4452106.33647  -3462877.67247  20337893.0234                   20337893.5044
        47.0004         42.5004
  -6762972.45748  -5255796.41446  20800573.7034                   20800572.4224
        50.0004         41.2504
   8355644.27346   6509464.47346  23184297.8444                   23184301.8984
        41.5004         39.2504
 -11635916.06647  -9046880.86747  22979576.8524                   22979577.0354
        46.5004         44.7504
  15922707.10546  12390690.75044  25099422.1174                   25099424.4454
        37.2504         28.5004
 -12215803.87147  -9497934.35549  21203771.8594                   21203773.8324
        47.7504         54.2504
   -338819.93046   -256385.73845  24868768.3364                   24868773.6564
        37.7504         32.7504
 25  8  7  1 39  0.0000000  0  9G27G03G04G16G26G07G31G09G06
  -3350811.34846  -2589985.85945  24502447.1564                   24502454.3914
        38.2504         31.5004
   8143359.34047   6344222.37548  21599273.0554                   21599276.3714
        46.5004         50.5004
  -4459250.06248  -3468444.21947  20336533.6414                   20336534.1334
        48.0004         42.5004
  -6749962.65248  -5245658.88746  20803049.7194                   20803048.2624
        49.5004         41.5004
   8442922.66446   6577473.57046  23200905.6254                   23200910.5394
        41.2504         39.0004
 -11694505.42247  -9092534.84447  22968427.6254                   22968428.3674
        46.0004         45.0004
  16014942.78546  12462562.68444  25116974.0704                   25116976.4414
        36.2504         28.0004
 -12282412.24647  -9549836.94948  21191096.6884                   21191098.0664
        47.7504         53.7504
   -303823.01256   -229115.50055  24875428.1024                   24875433.6334
        36.5004         31.2504
 25  8  7  1 39 30.0000000  0  9G27G03G04G16G26G07G31G09G06
  -3433804.18046  -2654655.43445  24486654.3444                   24486661.2424
        38.7504         31.2504
   8230387.85547   6412036.74648  21615833.8754                   21615837.8954
        46.5004         50.2504
  -4466086.54348  -3473771.35247  20335232.6564                   20335232.8594
        48.7504         42.5004
  -6736280.72348  -5234997.61346  20805653.3444                   20805651.9494
        50.2504         41.7504
   8530532.79746   6645741.17246  23217577.7734                   23217581.9224
        41.7504         39.0004
 -11752898.14547  -9138035.57047  22957315.3834                   22957316.4694
        45.0004         45.0004
  16107117.96945  12534387.46144  25134514.4774                   25134516.7624
        32.5004         25.5004
 -12348831.92647  -9601592.52749  21178457.3984                   21178459.0944
        47.7504         54.0004
   -268436.97346   -201542.03145  24882162.8594                   24882168.0554
        36.7504         33.0004
 25  8  7  1 40  0.0000000  0  9G27G03G04G16G26G07G31G09G06
  -3516685.33646  -2719237.98445  24470882.9144                   24470888.9184
        38.5004         31.5004
   8317777.27047   6480132.34448  21632463.9304                   21632467.1954
        47.5004         50.2504
  -4472619.92648  -3478862.31647  20333989.6884                   20333989.7774
        48.5004         42.5004
  -6721932.53948  -5223817.18046  20808383.4924                   20808381.9384
        50.0004         41.7504
   8618466.59046   6714260.97346  23234311.2894                   23234315.1604
        41.5004         39.0004
 -11811099.63347  -9183387.28147  22946240.0554                   22946240.9534
        46.0004         45.2504
  16199226.83255  12606160.61354  25152042.3834                   25152044.4774
        32.5004         25.2504
 -12415066.53947  -9653203.88348  21165853.2664                   21165854.5824
        47.5004         53.5004
   -232669.43056   -173671.23855  24888968.5314                   24888974.2814
        37.0004         30.0004
 25  8  7  1 40 30.0000000  0  9G27G03G04G16G26G07G31G09G06
  -3599450.39546  -2783730.07445  24455132.6024                   24455138.8914
        38.5004         30.7504
   8405525.95347   6548507.87948  21649162.0004                   21649165.0474
        46.7504         50.2504
  -4478848.12148  -3483715.45747  20332804.4774                   20332804.8554
        49.2504         42.7504
  -6706918.04348  -5212117.55146  20811240.3754                   20811239.1954
        49.7504         41.5004
   8706722.33646   6783031.64146  23251105.5004                   23251109.2154
        41.5004         38.5004
 -11869109.63747  -9228589.80147  22935201.0394                   22935201.4414
        46.5004         45.2504
  16291269.25055  12677881.97354  25169555.6484                   25169560.3954
        33.0004         24.0004
 -12481113.42247  -9704668.96548  21153285.2814                   21153286.4964
        47.5004         53.5004
   -196521.69545   -145504.27345  24895847.3054                   24895852.8054
        34.2504         30.2504
 25  8  7  1 41  0.0000000  0  9G27G03G04G16G26G07G31G09G06
  -3682091.40246  -2848125.50845  24439407.1094                   24439413.8594
        38.5004         32.0004
   8493636.02347   6617165.01648  21665928.6804                   21665932.0864
        46.7504         50.2504
  -4484765.23447  -3488326.20347  20331678.2734                   20331678.4574
        47.0004         42.5004
  -6691233.06248  -5199895.46146  20814225.2664                   20814224.3444
        49.7504         41.7504
   8795301.92647   6852054.68046  23267962.0634                   23267965.5204
        42.2504         39.0004
 -11926923.56247  -9273639.52047  22924198.9534                   22924199.8634
        45.7504         45.0004
  16383249.50855  12749554.90653  25187059.8674                   25187062.8834
        33.7504         23.7504
 -12546966.25048  -9755982.82448  21140753.2734                   21140755.0274
        48.0004         53.5004
   -159991.33245   -117039.14545  24902799.5634                   24902804.5944
        35.5004         32.2504
 25  8  7  1 41 30.0000000  0  9G27G03G04G16G26G07G31G09G06
  -3764611.59046  -2912426.73845  24423702.4924                   24423709.9844
        36.5004         30.2504
   8582098.40247   6686096.68448  21682762.7814                   21682766.0354
        47.5004         50.2504
  -4490376.61347  -3492698.70747  20330610.3754                   20330610.8794
        47.0004         42.5004
  -6674885.08248  -5187156.75046  20817336.1954                   20817335.2274
        49.0004         41.0004
   8884196.22347   6921322.93846  23284878.2814                   23284882.0394
        42.0004         39.5004
 -11984548.11347  -9318541.68747  22913233.9384                   22913234.2504
        46.2504         45.0004
  16475158.96955  12821172.45754  25204550.6884                   25204553.1214
        35.5004         27.0004
 -12612629.86748  -9807149.25848  21128258.0084                   21128259.6054
        48.0004         53.2504
   -123083.20355    -88279.78155  24909821.5084                   24909826.7304
        35.0004         30.0004
 25  8  7  1 42  0.0000000  0 10G27G03G04G16G26G07G31G09G08G06
  -3847005.53146  -2976629.62545  24408023.6024                   24408030.2854
        37.7504         31.5004
   8670912.40647   6755302.33248  21699663.4454                   21699666.6374
        46.5004         50.2504
  -4495679.14547  -3496830.55147  20329601.6724                   20329602.1684
        47.5004         43.0004
  -6657872.86348  -5173900.45346  20820573.4224                   20820572.0204
        49.5004         41.2504
   8973404.42247   6990835.79346  23301853.6804                   23301857.2624
        43.0004         38.7504
 -12041981.44947  -9363294.84047  22902304.9774                   22902305.1024
        46.2504         45.5004
  16567000.89546  12892737.56344  25222027.4924                   25222029.9224
        39.0004         26.5004
 -12678100.65247  -9858165.43048  21115799.5004                   21115800.9344
        47.5004         53.2504
   -165331.45756   -110115.65254  24900170.6254                   24900180.8834
        36.7504         27.7504
    -85804.73856    -59231.45355  24916915.6094                   24916920.5864
        37.2504         31.2504
 25  8  7  1 42 30.0000000  0 10G27G03G04G16G26G07G31G09G08G06
  -3929275.13746  -3040735.60245  24392369.1174                   24392375.1254
        38.7504         31.7504
   8760070.16447   6824775.85548  21716629.7194                   21716632.4734
        46.5004         50.0004
  -4500676.94547  -3500724.93747  20328650.8364                   20328650.8014
        47.2504         43.0004
  -6640202.54748  -5160131.34846  20823936.1334                   20823934.8284
        49.7504         41.5004
   9062918.55146   7060587.03146  23318887.5234                   23318891.2424
        41.7504         38.0004
 -12099229.29747  -9407903.47347  22891410.8834                   22891411.0474
        46.7504         45.5004
  16658768.71546  12964245.07444  25239490.3834                   25239492.6994
        39.7504         27.7504
 -12743382.06248  -9909034.03148  21103376.4694                   21103378.2464
        48.5004         53.2504
   -255647.16446   -180491.14145  24882983.8364                   24882995.0234
        37.5004         31.0004
    -48161.50056    -29899.12555  24924079.6414                   24924084.2504
        37.0004         32.5004
 25  8  7  1 43  0.0000000  0 10G27G03G04G16G26G07G31G09G08G06
  -4011420.24646  -3104744.57845  24376736.9144                   24376742.8754
        38.5004         31.5004
   8849565.90647   6894512.73448  21733659.7274                   21733663.3634
        46.2504         49.7504
  -4505372.07447  -3504383.47747  20327757.0634                   20327757.3094
        47.7504         42.7504
  -6621878.10948  -5145852.53946  20827422.9304                   20827421.7424
        49.2504         41.0004
   9152732.72747   7130572.08246  23335979.2274                   23335982.6604
        42.2504         38.7504
 -12156294.96947  -9452370.15647  22880551.0474                   22880551.8364
        46.2504         46.0004
  16750458.36746  13035691.60244  25256938.3444                   25256940.2544
        40.2504         28.2504
 -12808475.66447  -9959756.29348  21090989.9534                   21090991.2934
        47.5004         53.2504
   -346088.85545   -250964.80944  24865771.1414                   24865783.2504
        34.7504         29.5004
    -10158.08646      -286.10245  24931310.6414                   24931315.3524
        37.0004         31.5004
 25  8  7  1 43 30.0000000  0 10G27G03G04G16G26G07G31G09G08G06
  -4093439.99246  -3168655.89145  24361128.7114                   24361135.3674
        39.5004         31.5004
   8939394.51647   6964508.98848  21750754.3834                   21750757.3164
        47.0004         49.7504
  -4509765.81248  -3507807.16047  20326920.8204                   20326921.0664
        48.5004         42.5004
  -6602903.00048  -5131066.72346  20831033.7504                   20831032.3914
        48.7504         41.5004
   9242841.69947   7200786.82846  23353125.7974                   23353129.9304
        42.0004         39.0004
 -12213181.52047  -9496697.26647  22869726.2034                   22869726.5634
        47.0004         46.0004
  16842066.30946  13107074.50044  25274370.1954                   25274372.6914
        38.5004         28.2504
 -12873382.24248 -10010332.82448  21078638.3524                   21078639.5554
        48.2504         53.2504
   -436656.20346   -321536.43745  24848538.5944                   24848549.0594
        37.0004         30.0004
     28200.87155     24819.87955  24938610.1174                   24938615.0314
        35.5004         31.0004
 25  8  7  1 44  0.0000000  0 10G27G03G04G16G26G07G31G09G08G06
  -4175336.62546  -3232471.29545  24345545.2734                   24345550.8364
        39.5004         33.2504
   9029547.68447   7034758.14848  21767909.7734                   21767913.2034
        47.0004         50.0004
  -4513862.69948  -3510999.52347  20326141.2894                   20326141.3404
        48.2504         43.0004
  -6583283.87548  -5115779.07046  20834766.8204                   20834766.0044
        48.5004         41.5004
   9333237.08647   7271224.77046  23370327.0784                   23370331.5704
        42.5004         38.5004
 -12269894.52047  -9540889.13347  22858934.0004                   22858934.1994
        47.0004         45.7504
  16933586.68846  13178389.17244  25291786.7034                   25291787.4104
        37.7504         28.2504
 -12938105.75848 -10060766.70348  21066322.1094                   21066323.4384
        48.5004         53.2504
   -527352.14545   -392208.23044  24831279.0474                   24831289.5514
        35.7504         29.2504
     66907.08646     54980.51245  24945975.1024                   24945980.4924
        36.0004         30.7504
 25  8  7  1 44 30.0000000  0 10G27G03G04G16G26G07G31G09G08G06
  -4257093.21546  -3296177.53545  24329986.7034                   24329992.6374
        40.0004         33.5004
   9120036.32847   7105268.71148  21785129.2034                   21785132.7304
        46.5004         49.7504
  -4517648.05147  -3513949.12547  20325420.9924                   20325421.1564
        47.7504         42.5004
  -6563008.21948  -5099979.84046  20838625.8524                   20838624.3634
        48.5004         41.2504
   9423929.78947   7341894.39546  23387586.0234                   23387589.9614
        42.5004         39.0004
 -12326420.59047  -9584935.34047  22848177.2034                   22848177.4304
        45.7504         45.5004
  17025032.21946  13249645.39144  25309187.6954                   25309189.5554
        38.0004         27.2504
 -13002630.91047 -10111046.00848  21054043.4304                   21054045.1334
        47.5004         53.0004
   -618160.32446   -462967.49244  24813998.4774                   24814008.7424
        36.0004         27.5004
    105971.94146     85420.59845  24953409.3204                   24953414.9104
        38.2504         32.0004
 25  8  7  1 45  0.0000000  0  9G27G03G04G16G26G07G09G08G06
  -4338708.67646  -3359773.78145  24314455.6094                   24314461.2304
        38.7504         32.7504
   9210855.58247   7176036.89848  21802411.3134                   21802415.0944
        46.5004         49.5004
  -4521122.88747  -3516656.77347  20324759.4924                   20324759.5944
        47.0004         43.0004
  -6542079.00048  -5083671.34846  20842608.1334                   20842607.0314
        49.0004         41.5004
   9514914.80147   7412791.77346  23404899.5784                   23404903.9844
        42.2504         38.7504
 -12382762.57047  -9628838.10247  22837455.7894                   22837456.2114
        47.5004         46.0004
 -13066958.15247 -10161171.09848  21041802.1804                   21041803.3054
        47.7504         53.0004
   -709080.12545   -533813.73844  24796696.3444                   24796707.3014
        32.7504         26.7504
    145390.68046    116136.40645  24960910.6564                   24960916.2194
        36.5004         32.5004
 25  8  7  1 45 30.0000000  0  9G27G03G04G16G26G07G09G08G06
  -4420176.87946  -3423255.30145  24298952.6024                   24298958.3594
        39.2504         33.0004
   9302005.49247   7247062.72748  21819756.9844                   21819760.2504
        46.2504         49.5004
  -4524283.50847  -3519119.56647  20324158.1334                   20324158.4884
        46.7504         42.5004
  -6520494.57848  -5066852.29746  20846715.3984                   20846714.0634
        49.0004         41.0004
   9606192.11347   7483916.93046  23422269.5554                   23422273.4264
        42.0004         38.5004
 -12438918.03147  -9672595.52047  22826769.3984                   22826770.0004
        47.0004         46.0004
 -13131083.21548 -10211138.64548  21029599.3284                   21029600.6684
        48.0004         53.0004
   -800106.22345   -604742.76243  24779375.4304                   24779384.4384
        34.5004         23.5004
    185163.49645    147128.12145  24968479.0234                   24968484.9494
        35.7504         31.7504
 25  8  7  1 46  0.0000000  0  9G27G03G04G16G26G07G09G08G06
  -4501484.12146  -3486611.41445  24283479.8754                   24283485.5434
        38.5004         33.5004
   9393493.69547   7318352.17648  21837166.1644                   21837170.0784
        46.5004         49.2504
  -4527118.34047  -3521328.50447  20323618.8594                   20323619.0784
        47.5004         42.5004
  -6498245.58647  -5049515.40246  20850949.1804                   20850948.3914
        47.5004         41.0004
   9697769.33246   7555275.77346  23439696.6094                   23439700.2814
        41.5004         38.0004
 -12494876.89547  -9716199.75047  22816121.0004                   22816121.1454
        47.0004         46.0004
 -13194993.87147 -10260939.12948  21017437.7424                   21017438.7274
        47.0004         53.0004
   -891225.37945   -675744.30143  24762035.2194                   24762044.6024
        31.2504         22.2504
    225298.43046    178401.99245  24976115.7734                   24976122.2194
        36.0004         30.5004
 25  8  7  1 46 30.0000000  0  9G27G03G04G16G26G07G09G08G06
  -4582619.64546  -3549833.71545  24268039.9224                   24268045.0084
        38.2504         31.5004
   9485324.97747   7389908.94548  21854641.3594                   21854644.9224
        47.0004         49.2504
  -4529618.89147  -3523276.97347  20323143.1564                   20323143.0944
        46.7504         42.7504
  -6475325.88348  -5031655.88346  20855310.7194                   20855309.7344
        48.0004         40.7504
   9789651.16846   7626871.98046  23457181.2194                   23457184.5124
        41.0004         38.0004
 -12550631.89847  -9759645.12947  22805510.8594                   22805511.3324
        47.0004         46.0004
 -13258681.06647 -10310565.47348  21005318.4224                   21005320.0594
        47.5004         53.5004
   -982427.53955   -746810.51653  24744677.1484                   24744689.4774
        30.5004         21.7504
    265800.45746    209961.98045  24983825.2114                   24983829.2274
        37.7504         33.0004
 25  8  7  1 47  0.0000000  0 10G27G03G04G16G26G07G30G09G08G06
  -4663590.69146  -3612927.84045  24252631.6414                   24252637.5314
        39.0004         32.2504
   9577486.03947   7461722.68848  21872178.9454                   21872182.7074
        46.5004         49.0004
  -4531794.59047  -3524972.29747  20322728.8914                   20322729.2584
        46.7504         42.7504
  -6451747.34447  -5013282.98046  20859797.6414                   20859796.4104
        47.5004         41.0004
   9881824.30146   7698695.16046  23474719.8754                   23474724.3014
        40.7504         38.0004
 -12606194.00047  -9802940.20347  22794938.1804                   22794938.3834
        47.2504         46.0004
   -153075.99255    -99796.17654  25376544.0474                   25376551.4494
        34.5004         27.5004
 -13322153.60547 -10360024.56248  20993239.7974                   20993241.5274
        47.5004         53.2504
  -1073719.98855   -817947.08654  24727307.0234                   24727316.7704
        34.5004         26.5004
    306656.46546    241797.77045  24991599.1414                   24991605.0044
        38.2504         33.0004
 25  8  7  1 47 30.0000000  0 10G27G03G04G16G26G07G30G09G08G06
  -4744398.80946  -3675895.01245  24237254.6564                   24237260.0434
        39.0004         33.5004
   9669969.16847   7533787.39548  21889777.8524                   21889781.8594
        45.7504         49.0004
  -4533649.34447  -3526417.54347  20322376.2734                   20322376.2194
        47.5004         42.5004
  -6427516.02747  -4994401.42246  20864409.0784                   20864408.0164
        47.0004         41.0004
   9974280.95746   7770739.30546  23492315.1414                   23492318.4454
        41.7504         38.7504
 -12661568.52347  -9846089.09447  22784400.3674                   22784400.8984
        47.2504         46.0004
                                  25360735.031
        35.750
 -13385414.75847 -10409318.93748  20981201.9694                   20981203.3834
        47.7504         53.5004
  -1165105.32846   -889156.12544  24709917.3524                   24709926.8554
        36.2504         28.0004
    347859.05956    273903.60255  24999439.6644                   24999445.1214
        37.5004         31.5004
 25  8  7  1 48  0.0000000  0 10G27G03G04G16G26G07G30G09G08G06
  -4825050.33646  -3738740.15645  24221906.5004                   24221912.3714
        40.7504         34.0004
   9762762.00447   7606093.42648  21907436.0634                   21907439.9104
        46.5004         48.7504
  -4535191.78147  -3527619.41447  20322082.4304                   20322082.6374
        47.5004         42.7504
  -6402642.60547  -4975019.52346  20869141.8834                   20869140.5234
        47.0004         40.5004
  10067008.76246   7842994.70746  23509959.5864                   23509963.5904
        41.5004         38.7504
 -12716765.53947  -9889099.67247  22773896.7344                   22773897.1764
        47.5004         45.5004
   -319149.84055   -200312.52354  25344942.4384                   25344949.7704
        35.0004         28.2504
 -13448472.52347 -10458454.81248  20969202.0634                   20969203.2114
        47.7504         53.7504
  -1256590.28546   -960442.74644  24692508.1024                   24692516.0434
        36.5004         27.7504
    389394.93056    300658.93055  25007344.3054                   25007348.8914
        39.0004         33.2504
 25  8  7  1 48 30.0000000  0 10G27G03G04G16G26G07G30G09G08G06
  -4905537.43446  -3801457.20745  24206590.2424                   24206595.7464
        40.0004         34.5004
   9855866.30147   7678642.15248  21925152.9844                   21925156.6604
        46.0004         48.7504
  -4536416.24247  -3528573.52747  20321848.9924                   20321849.3404
        47.0004         42.5004
  -6377123.65247  -4955134.61746  20873998.1174                   20873996.5594
        47.7504         40.7504
  10160009.37546   7915462.69546  23527656.7504                   23527661.5514
        41.7504         39.0004
 -12771781.00847  -9931968.79747  22763427.4844                   22763427.7624
        47.0004         45.5004
   -402041.75445   -264903.28944  25329168.3364                   25329175.7274
        34.0004         24.5004
 -13511320.59448 -10507427.30549  20957243.0164                   20957244.3364
        48.0004         54.0004
  -1348167.56246  -1031801.27045  24675080.9694                   24675090.8404
        36.2504         30.7504
    431268.18846    333287.37945  25015312.0084                   25015316.9774
        40.0004         34.0004
 25  8  7  1 49  0.0000000  0  8G27G03G04G16G26G07G09G08
  -4985851.78546  -3864039.63745  24191306.9924                   24191312.6564
        39.7504         34.2504
   9949284.30147   7751435.32848  21942930.3674                   21942933.7774
        46.5004         48.5004
  -4537316.68447  -3529275.16847  20321678.2344                   20321678.1134
        47.0004         42.7504
  -6350955.62147  -4934743.93746  20878977.6414                   20878976.6254
        47.2504         41.0004
  10253285.12546   7988145.07846  23545407.3984                   23545411.4024
        41.7504         37.5004
 -12826610.06247  -9974692.67247  22752994.0864                   22752994.0164
        47.0004         45.5004
 -13573952.32848 -10556231.21149  20945324.3754                   20945325.5474
        48.0004         54.0004
  -1439829.55546  -1103225.85945  24657638.0004                   24657646.7424
        36.0004         31.0004
 25  8  7  1 49 30.0000000  0 10G27G03G04G16G26G07G30G09G08G06
  -5065985.71146  -3926481.45745  24176057.8914                   24176063.4344
        40.2504         34.5004
  10043017.60547   7824474.18848  21960767.2344                   21960770.5434
        45.7504         48.2504
  -4537887.69947  -3529720.09847  20321569.3914                   20321569.5474
        46.7504         42.7504
  -6324135.52047  -4913845.15246  20884081.3594                   20884080.0744
        47.7504         41.0004
  10346837.62546   8061043.09846  23563209.3054                   23563213.7034
        40.7504         37.2504
 -12881248.64847 -10017268.11347  22742596.1804                   22742596.9964
        47.0004         45.7504
   -567523.59855   -393849.58254  25297677.9924                   25297685.0044
        35.7504         24.5004
 -13636361.59448 -10604861.77749  20933448.1094                   20933449.6334
        48.0004         54.0004
  -1531568.80945  -1174710.61344  24640180.8054                   24640189.5984
        33.0004         27.0004
    516030.00856    390075.75055  25031442.6804                   25031447.9494
        38.7504         33.7504
 25  8  7  1 50  0.0000000  0 10G27G03G04G16G26G07G30G09G08G06
  -5145945.84046  -3988787.88745  24160842.1174                   24160846.8834
        39.7504         34.7504
  10137053.42647   7897748.77748  21978661.7034                   21978665.3204
        46.0004         48.2504
  -4538138.27347  -3529915.34847  20321521.5784                   20321521.5234
        47.0004         42.5004
  -6296674.64847  -4892447.05946  20889306.8284                   20889306.0434
        47.2504         40.5004
  10440654.01646   8134146.75446  23581062.0554                   23581066.6994
        40.5004         36.7504
 -12935707.27347 -10059703.33247  22732233.1094                   22732233.3914
        46.5004         45.7504
   -650118.91045   -458209.30544  25281959.8914                   25281966.5664
        35.0004         24.7504
 -13698556.71148 -10653325.46949  20921612.6644                   20921614.3674
        48.5004         54.2504
                                  24622706.3834                   24622715.8834
        31.7504         26.7504
    558910.62546    423489.15645  25039602.9774                   25039607.9024
        39.5004         34.5004
 25  8  7  1 50 30.0000000  0 10G27G03G04G16G26G07G30G09G08G06
  -5225724.44946  -4050952.85545  24145660.1884                   24145665.5004
        40.5004         34.5004
  10231393.42647   7971260.39848  21996613.5704                   21996617.5474
        46.2504         48.2504
  -4538062.89147  -3529856.60947  20321536.0634                   20321536.2234
        47.5004         42.7504
  -6268569.95748  -4870547.28946  20894655.3754                   20894653.7774
        48.0004         41.0004
  10534735.96546   8207457.34446  23598965.3524                   23598969.5864
        41.7504         36.2504
 -12989982.05547 -10101995.28947  22721905.0944                   22721905.2584
        46.5004         45.5004
   -732616.72355   -522493.29353  25266261.3674                   25266267.5944
        34.7504         22.2504
 -13760531.52348 -10701617.48849  20909819.2584                   20909820.5274
        49.0004         54.2504
  -1715295.04755  -1317873.37154  24605216.0944                   24605227.1604
        31.0004         26.7504
    602121.14856    457159.65256  25047825.0634                   25047830.6024
        40.2504         36.0004
 25  8  7  1 51  0.0000000  0 10G27G03G04G16G26G07G30G09G08G06
  -5305315.05146  -4112971.33245  24130514.7274                   24130519.9694
        39.5004         34.2504
  10326037.92647   8045009.28548  22014623.7814                   22014628.0634
        46.5004         48.0004
  -4537657.47347  -3529540.68747  20321613.2344                   20321613.5274
        47.0004         42.7504
  -6239819.67247  -4848144.47346  20900126.0004                   20900124.9104
        47.5004         41.5004
  10629083.80547   8280975.13346  23616919.3984                   23616923.2974
        42.0004         37.2504
 -13044070.23447 -10144141.86747  22711612.6094                   22711612.7154
        47.0004         45.5004
   -815011.70345   -586696.87143  25250581.7664                   25250588.2814
        35.2504         22.7504
 -13822281.16848 -10749734.05949  20898068.5394                   20898069.6884
        48.5004         54.5004
  -1807267.62155  -1389539.94154  24587713.8524                   24587724.9614
        31.0004         26.7504
    645662.00846    491087.53146  25056110.4844                   25056116.4574
        38.2504         36.0004
 25  8  7  1 51 30.0000000  0 10G27G03G04G16G26G07G30G09G08G06
  -5384715.74246  -4174841.82445  24115404.1414                   24115410.6214
        39.2504         33.0004
  10420982.70347   8118992.14548  22032691.6724                   22032695.3634
        47.0004         48.0004
  -4536922.27347  -3528967.80947  20321753.2114                   20321753.4224
        47.0004         43.0004
  -6210426.69547  -4825240.84846  20905718.9844                   20905718.1914
        47.2504         40.7504
  10723693.41447   8354696.89546  23634922.8674                   23634927.1374
        42.0004         36.7504
 -13097973.41847 -10186144.25047  22701355.1484                   22701355.1414
        46.7504         45.5004
   -897305.98446   -650822.02344  25234921.8204                   25234927.9184
        37.0004         24.0004
 -13883805.34448 -10797674.93049  20886361.1954                   20886362.4304
        48.7504         54.5004
  -1899310.08255  -1461261.00054  24570200.2664                   24570209.1724
        34.2504         27.7504
    689529.19546    525269.68845  25064458.3444                   25064464.3524
        38.2504         35.5004
 25  8  7  1 52  0.0000000  0 10G27G03G04G16G26G07G30G09G08G06
  -5463925.89146  -4236563.84445  24100331.5554                   24100336.8204
        39.5004         33.5004
  10516222.23447   8193204.69548  22050815.2424                   22050818.7854
        46.0004         48.0004
  -4535859.07847  -3528139.34847  20321955.4384                   20321955.3984
        47.2504         42.7504
  -6180395.17247  -4801839.65646  20911434.4064                   20911432.9534
        47.2504         40.7504
  10818559.32046   8428618.37146  23652975.0554                   23652979.4454
        41.5004         36.5004
 -13151694.60547 -10228004.84447  22691131.9384                   22691132.2934
        47.7504         45.5004
   -979502.31256   -714870.90254  25219279.4454                   25219285.9844
        37.0004         25.7504
 -13945105.03148 -10845440.87949  20874696.3524                   20874697.4884
        49.2504         54.5004
  -1991422.21146  -1533036.38344  24552671.8834                   24552680.3164
        36.0004         29.2504
    733717.43456    559702.01655  25072868.0004                   25072872.5394
        37.7504         35.0004
 25  8  7  1 52 30.0000000  0 10G27G03G04G16G26G07G30G09G08G06
  -5542940.25846  -4298133.30945  24085295.8754                   24085300.4264
        39.7504         33.5004
  10611755.70747   8267646.27748  22068994.6724                   22068998.1334
        46.5004         48.0004
  -4534464.88347  -3527052.96147  20322220.7584                   20322220.8794
        47.0004         42.7504
  -6149724.57047  -4777940.48046  20917270.4774                   20917269.6724
        47.2504         40.7504
  10913680.58246   8502738.80946  23671076.4144                   23671080.4344
        40.7504         37.0004
 -13205232.75047 -10269722.80947  22680944.1094                   22680944.3834
        47.2504         45.7504
  -1061598.45746   -778841.66844  25203657.8984                   25203664.8054
        36.7504         28.7504
 -14006176.54748 -10893029.02349  20863074.7344                   20863075.8794
        48.7504         54.7504
  -2083599.37145  -1604862.46144  24535130.6884                   24535139.1294
        35.5004         29.0004
    778226.05146    594384.02045  25081336.8204                   25081342.1294
        37.2504         33.0004
 25  8  7  1 53  0.0000000  0 10G27G03G04G16G26G07G30G09G08G06
  -5621747.68746  -4359541.53545  24070299.2664                   24070303.6844
        40.0004         33.5004
  10707588.06347   8342320.75048  22087231.4224                   22087234.9344
        46.0004         48.0004
  -4532730.87947  -3525701.78547  20322550.7584                   20322551.0044
        47.2504         42.7504
  -6118408.68048  -4753538.47746  20923229.9384                   20923228.2704
        48.0004         41.0004
  11009062.30546   8577062.19946  23689227.5084                   23689231.1524
        40.7504         37.5004
 -13258580.24647 -10311292.21147  22670792.2034                   22670792.2544
        47.2504         45.2504
  -1143586.54345   -842728.22344  25188055.6804                   25188062.3594
        35.7504         26.7504
 -14067010.36348 -10940431.96149  20851498.3594                   20851499.2584
        48.7504         54.7504
  -2175830.84446  -1676730.84445  24517579.4924                   24517587.5664
        37.0004         31.5004
    823060.02746    629319.49645  25089869.1414                   25089874.5864
        36.0004         33.2504
 25  8  7  1 53 30.0000000  0 10G27G03G04G16G26G07G30G09G08G06
  -5700348.32446  -4420788.62145  24055341.1724                   24055346.9614
        39.2504         33.5004
  10803713.00847   8417223.22747  22105523.0394                   22105526.4144
        46.5004         47.7504
  -4530659.51647  -3524087.74247  20322944.6644                   20322944.7504
        47.5004         42.7504
  -6086452.21947  -4728637.33246  20929310.9224                   20929309.8164
        47.5004         41.0004
  11104698.23846   8651583.68046  23707426.3054                   23707429.7114
        40.5004         36.7504
 -13311740.92247 -10352716.03947  22660675.8284                   22660675.9844
        46.7504         45.2504
                                  25172473.5554                   25172480.3554
        31.0004         23.5004
 -14127608.19948 -10987651.00849  20839966.6094                   20839967.7074
        48.7504         54.7504
  -2268117.17246  -1748642.00045  24500018.4224                   24500026.3134
        37.5004         31.5004
                                  25098460.9774                   25098467.1414
        32.0004         30.5004
 25  8  7  1 54  0.0000000  0  8G27G03G04G16G26G07G09G08
  -5778743.05946  -4481875.24245  24040423.0474                   24040428.4804
        39.0004         34.5004
  10900123.54747   8492348.23047  22123869.4924                   22123872.8054
        46.2504         47.5004
  -4528254.03947  -3522213.34447  20323402.5314                   20323403.1844
        47.2504         42.7504
  -6053861.32847  -4703241.82046  20935512.7974                   20935511.1954
        47.5004         41.0004
  11200581.40246   8726297.80946  23725671.6564                   23725675.7384
        40.0004         36.7504
 -13364719.26647 -10393997.79747  22650594.7344                   22650594.7274
        47.0004         45.7504
 -14187972.52348 -11034688.10549  20828479.9924                   20828481.3204
        49.0004         55.0004
  -2360459.83646  -1820597.02045  24482445.1644                   24482453.5664
        37.5004         31.5004
 25  8  7  1 54 30.0000000  0 10G27G03G04G16G26G07G30G09G08G06
  -5856928.71946  -4542798.97745  24025545.4064                   24025549.4654
        40.2504         33.5004
  10996816.64847   8567693.41847  22142269.6484                   22142273.2304
        46.0004         47.0004
  -4525513.55947  -3520077.90647  20323923.9384                   20323924.3524
        47.0004         43.0004
  -6020637.53948  -4677353.13746  20941834.8204                   20941833.8164
        48.0004         40.7504
  11296708.96946   8801202.36746  23743964.8524                   23743968.3094
        40.5004         36.5004
 -13417516.13347 -10435138.13347  22640547.6804                   22640547.5084
        47.0004         45.7504
  -1388932.96955  -1033906.25454  25141367.0784                   25141373.0314
        34.7504         27.7504
 -14248101.71948 -11081541.98049  20817037.5394                   20817038.6884
        49.0004         54.7504
  -2452855.81246  -1892593.58245  24464862.1644                   24464871.3164
        36.0004         30.7504
    959453.66055    726112.79355  25115823.6484                   25115829.3054
        35.5004         30.0004
 25  8  7  1 55  0.0000000  0 10G27G03G04G16G26G07G30G09G08G06
  -5934894.62946  -4603551.45745  24010708.9144                   24010713.7624
        40.0004         33.5004
  11093796.84847   8643262.32047  22160724.7034                   22160727.8754
        46.0004         47.2504
  -4522429.75847  -3517674.94147  20324510.8444                   20324511.3204
        47.7504         43.0004
  -5986775.17248  -4650966.85946  20948278.6954                   20948277.6564
        48.0004         40.7504
  11393085.37546   8876300.83646  23762304.5084                   23762308.0434
        40.5004         37.0004
 -13470124.36747 -10476131.48047  22630536.6094                   22630536.5984
        46.5004         45.5004
  -1470506.46156  -1087304.76255  25125843.9774                   25125850.2894
        36.5004         32.0004
 -14307986.71148 -11128205.57849  20805641.8444                   20805643.4024
        49.7504         55.0004
  -2545295.12145  -1964623.89845  24447271.6254                   24447280.7274
        35.7504         31.2504
   1005543.46955    762026.85955  25124594.0944                   25124599.9804
        35.5004         31.7504
 25  8  7  1 55 30.0000000  0 10G27G03G04G16G26G07G30G09G08G06
  -6012635.26246  -4664128.42245  23995915.0704                   23995919.7974
        40.7504         34.7504
  11191063.50047   8719054.42647  22179233.8674                   22179237.6804
        45.0004         47.0004
  -4518999.43447  -3515001.96947  20325163.7814                   20325164.0594
        47.0004         42.7504
  -5952273.62947  -4624082.52746  20954844.1094                   20954842.7584
        47.2504         40.5004
  11489710.12946   8951592.83646  23780691.2584                   23780695.6214
        40.7504         36.7504
 -13522542.18747 -10516976.46147  22620561.8054                   22620561.3284
        46.0004         45.5004
  -1551969.35245  -1150782.05144  25110341.8204                   25110348.3364
        35.0004         29.7504
 -14367623.46548 -11174675.73849  20794293.2814                   20794294.5004
        49.5004         55.0004
  -2637772.46145  -2036683.85545  24429673.7974                   24429682.1604
        35.7504         31.2504
   1051947.00856    798185.40655  25133424.7974                   25133430.3364
        36.7504         32.7504
 25  8  7  1 56  0.0000000  0 10G27G03G04G16G26G07G30G09G08G06
  -6090154.75846  -4724533.05145  23981163.0554                   23981167.9654
        39.7504         34.0004
  11288606.32447   8795061.72747  22197795.3594                   22197799.4224
        45.5004         46.7504
  -4515229.01647  -3512063.97747  20325881.5944                   20325881.3134
        47.0004         43.0004
  -5917141.89847  -4596707.13746  20961529.6564                   20961528.4964
        47.2504         40.7504
  11586573.10246   9027070.45746  23799123.8204                   23799127.9964
        40.7504         36.5004
 -13574777.73047 -10557679.40647  22610621.2894                   22610621.4494
        45.7504         45.7504
  -1633329.07045  -1214178.93744  25094859.2424                   25094865.1374
        35.0004         27.7504
 -14427017.76248 -11220956.98449  20782990.9384                   20782991.7504
        49.7504         55.0004
  -2730292.41446  -2108777.01645  24412067.7274                   24412076.3404
        36.7504         33.0004
   1098654.25446    834580.56345  25142311.9924                   25142318.7664
        36.7504         33.0004
 25  8  7  1 56 30.0000000  0 10G27G03G04G16G26G07G30G09G08G06
  -6167445.19146  -4784759.16445  23966454.7424                   23966460.5084
        39.2504         33.5004
  11386427.14847   8871285.66447  22216410.2974                   22216414.1454
        45.5004         46.5004
  -4511112.88747  -3508856.60247  20326664.3444                   20326664.8554
        47.5004         42.5004
  -5881377.24647  -4568838.55946  20968335.2814                   20968334.2304
        47.7504         40.7504
  11683676.04746   9102735.07046  23817601.1174                   23817605.9304
        41.2504         36.5004
 -13626826.35947 -10598236.70347  22600717.0234                   22600717.0004
        45.5004         46.0004
  -1714580.62145  -1277491.57044  25079397.0234                   25079403.6564
        33.5004         27.0004
 -14486163.14848 -11267044.27349  20771735.9384                   20771737.3364
        49.5004         55.0004
  -2822847.43046  -2180897.52345  24394454.9384                   24394462.4574
        37.5004         31.7504
   1145667.07846    871213.85245  25151259.2034                   25151265.0124
        38.5004         32.0004
 25  8  7  1 57  0.0000000  0 10G27G03G04G16G26G07G30G09G08G06
  -6244507.68046  -4844807.68745  23951790.2424                   23951794.8984
        39.5004         34.0004
  11484518.47347   8947720.36747  22235076.4694                   22235080.1914
        44.7504         46.5004
  -4506654.66447  -3505382.66447  20327512.7894                   20327512.8714
        47.2504         42.5004
  -5844985.71948  -4540481.51646  20975260.2504                   20975259.4304
        48.5004         40.5004
  11781011.80146   9178581.09445  23836124.3834                   23836128.1294
        41.2504         35.7504
 -13678693.43747 -10638652.52747  22590846.7194                   22590846.4304
        45.5004         45.7504
  -1795728.62945  -1340723.50444  25063955.4064                   25063961.4654
        34.7504         28.0004
 -14545062.39848 -11312939.77049  20760527.5474                   20760528.6094
        50.5004         55.0004
  -2915439.10546  -2253046.59445  24376834.5554                   24376843.0514
        36.0004         30.5004
   1192978.19146    908079.62145  25160262.8834                   25160267.6604
        39.0004         32.2504
 25  8  7  1 57 30.0000000  0 10G27G03G04G16G26G07G30G09G08G06
  -6321333.03546  -4904671.45745  23937171.4454                   23937176.0314
        40.0004         34.0004
  11582883.46947   9024368.34047  22253794.7114                   22253798.6334
        45.2504         46.5004
  -4501847.41847  -3501636.75447  20328427.6644                   20328427.8484
        47.0004         42.5004
  -5807963.34447  -4511632.89846  20982305.3284                   20982303.6764
        47.5004         40.5004
  11878583.44146   9254610.92645  23854691.2034                   23854695.3014
        40.7504         34.2504
 -13730373.41847 -10678922.57847  22581012.3364                   22581012.2934
        45.7504         45.7504
  -1876766.87945  -1403869.96144  25048533.9304                   25048540.0124
        35.0004         26.2504
 -14603707.79348 -11358637.45349  20749367.8524                   20749368.9804
        50.2504         55.0004
  -3008058.59446  -2325217.36744  24359209.9304                   24359217.6454
        36.5004         29.5004
   1240590.80946    945180.29745  25169323.1094                   25169328.2464
        38.5004         32.7504
 25  8  7  1 58  0.0000000  0 10G27G03G04G16G26G07G30G09G08G06
  -6397920.43046  -4964349.78545  23922596.5554                   23922601.9614
        39.7504         34.2504
  11681516.75447   9101225.36347  22272563.7584                   22272568.0634
        45.0004         46.5004
  -4496692.60247  -3497620.00847  20329408.6174                   20329408.8554
        46.7504         42.5004
  -5770314.13348  -4482295.83646  20989469.9384                   20989468.5704
        48.0004         40.7504
  11976385.86746   9330820.59845  23873302.6564                   23873306.6764
        41.5004         33.5004
 -13781869.27347 -10719049.14547  22571212.8984                   22571213.1024
        45.5004         46.0004
  -1957697.85546  -1466932.76645  25033133.1174                   25033138.8364
        37.0004         30.0004
 -14662099.98448 -11404137.84449  20738256.3134                   20738257.2934
        50.7504         54.7504
  -3100705.43746  -2397409.45745  24341578.7584                   24341587.4844
        36.7504         31.0004
   1288499.84446    982511.93445  25178439.6954                   25178445.6914
        37.2504         32.5004
 25  8  7  1 58 30.0000000  0 10G27G03G04G16G26G07G30G09G08G06
  -6474268.67646  -5023841.75845  23908068.1024                   23908072.7854
        39.5004         34.5004
  11780413.33247   9178287.55147  22291383.4224                   22291387.4614
        45.5004         46.5004
  -4491191.46947  -3493333.40247  20330455.0944                   20330455.6644
        46.7504         42.5004
  -5732042.07848  -4452473.45346  20996752.8834                   20996751.9534
        49.0004         41.0004
  12074414.12146   9407206.22345  23891956.8364                   23891961.0944
        39.7504         33.0004
 -13833183.57447 -10759034.23447  22561447.8204                   22561448.2814
        46.0004         46.5004
  -2038523.55945  -1529913.60244  25017752.7974                   25017758.0554
        35.0004         28.7504
 -14720239.41848 -11449441.27749  20727192.4304                   20727193.8094
        49.7504         55.0004
  -3193378.69946  -2469622.12945  24323944.1954                   24323951.8594
        38.2504         31.7504
   1336700.30546   1020070.59845  25187612.2274                   25187618.0514
        37.5004         30.2504
 25  8  7  1 59  0.0000000  0 10G27G03G04G16G26G07G30G09G08G06
  -6550366.50446  -5083138.60945  23893587.2894                   23893591.7734
        40.5004         34.0004
  11879578.20347   9255558.79747  22310253.9534                   22310257.9774
        44.2504         46.0004
  -4485335.15647  -3488770.03947  20331569.6334                   20331570.1764
        46.7504         42.5004
  -5693141.20348  -4422161.06646  21004155.5314                   21004153.9264
        48.5004         41.0004
  12172673.35946   9483771.81645  23910654.6954                   23910659.0824
        39.5004         33.5004
 -13884308.88747 -10798872.05547  22551719.6094                   22551719.2624
        46.7504         46.5004
  -2119235.88746  -1592806.06245  25002392.6954                   25002399.1094
        36.7504         30.0004
 -14778116.32448 -11494540.14849  20716178.7974                   20716180.2544
        51.0004         55.0004
  -3286067.54746  -2541846.94945  24306304.8524                   24306313.9104
        36.5004         30.0004
   1385197.39146   1057860.52744  25196840.9924                   25196845.5984
        38.0004         29.5004
 25  8  7  1 59 30.0000000  0 10G27G03G04G16G26G07G30G09G08G06
  -6626215.80146  -5142241.80545  23879153.9064                   23879157.5594
        41.0004         34.5004
  11979003.39147   9333032.87147  22329174.2894                   22329178.2504
        45.0004         46.0004
  -4479127.86747  -3483933.18447  20332751.1644                   20332750.9774
        47.0004         42.5004
  -5653618.38748  -4391364.05546  21011676.3524                   21011674.9654
        48.5004         41.0004
  12271155.71146   9560511.28945  23929395.5474                   23929399.6644
        40.0004         33.2504
 -13935250.46547 -10838566.71547  22542025.5634                   22542025.2074
        45.5004         46.5004
  -2199840.05955  -1644728.27354  24987053.8594                   24987060.1134
        34.2504         29.7504
 -14835734.09848 -11539437.09849  20705214.5944                   20705215.7734
        49.7504         55.0004
  -3378774.21546  -2614085.65245  24288663.4774                   24288672.0044
        37.0004         31.2504
   1433977.13756   1088514.37155  25206124.1564                   25206129.8554
        37.0004         30.5004
 25  8  7  2  0  0.0000000  0 10G27G03G04G16G26G07G30G09G08G06
  -6701810.80546  -5201146.87945  23864768.2814                   23864771.7274
        41.2504         34.5004
  12078688.50047   9410709.48847  22348143.6804                   22348147.5744
        45.0004         46.0004
  -4472566.19947  -3478820.19947  20333999.8364                   20333999.7624
        46.7504         42.5004
  -5613473.09048  -4360081.99646  21019315.6804                   21019314.4534
        48.2504         40.5004
  12369861.00046   9637424.47745  23948178.7504                   23948182.9454
        39.2504         33.7504
 -13986006.62947 -10878116.89547  22532367.2584                   22532366.7544
        46.5004         47.0004
  -2280333.41445  -1707450.16444  24971736.0474                   24971742.7154
        33.5004         28.5004
 -14893088.44548 -11584128.78549  20694300.2894                   20694301.5704
        50.0004         55.0004
  -3471493.18746  -2686333.94145  24271020.1484                   24271028.3794
        37.2504         31.5004
   1483051.22745   1126753.82444  25215463.0554                   25215469.2384
        35.5004         28.0004
 25  8  7  2  0 30.0000000  0 10G27G03G04G16G26G07G30G09G08G06
  -6777152.02046  -5259854.18745  23850431.3444                   23850435.1564
        40.7504         34.2504
  12178626.76247   9488583.36347  22367161.3204                   22367165.3554
        44.5004         46.0004
  -4465653.04347  -3473433.30547  20335315.2734                   20335315.3014
        47.0004         42.2504
  -5572710.91848  -4328319.25846  21027072.5554                   21027071.5084
        48.0004         41.0004
  12468782.53146   9714506.13745  23967001.9534                   23967006.8554
        38.2504         33.5004
 -14036581.70347 -10917525.96147  22522742.7114                   22522743.0354
        46.0004         47.2504
  -2360719.78945  -1770088.62944  24956439.4844                   24956445.3134
        32.5004         28.0004
 -14950181.45748 -11628616.82849  20683436.2194                   20683437.1994
        50.7504         54.7504
  -3564225.43046  -2758592.58245  24253373.9064                   24253381.5164
        36.0004         30.7504
   1532407.16046   1165212.87944  25224855.2274                   25224861.3094
        36.0004         29.5004
 25  8  7  2  1  0.0000000  0 10G27G03G04G16G26G07G30G09G08G06
  -6852232.38746  -5318358.23045  23836143.2814                   23836148.2424
        39.5004         34.5004
  12278819.04747   9566655.17647  22386227.6724                   22386231.5084
        45.5004         46.0004
  -4458383.68447  -3467768.87147  20336698.6884                   20336698.6374
        47.0004         42.5004
  -5531329.88347  -4296074.28546  21034947.1334                   21034945.8794
        47.5004         40.5004
  12567921.41846   9791757.15645  23985868.4924                   23985872.9264
        39.0004         35.0004
 -14086972.14147 -10956791.18047  22513153.3594                   22513153.4304
        46.0004         47.2504
  -2440995.24645  -1832640.68444  24941162.4774                   24941169.3754
        31.5004         27.2504
 -15007007.53548 -11672896.86749  20672622.1724                   20672623.2504
        49.7504         54.7504
  -3656963.94945  -2830856.09845  24235725.3754                   24235733.3714
        35.2504         30.0004
   1582049.78155   1197721.25854  25234301.2034                   25234306.4884
        35.2504         29.0004
 25  8  7  2  1 30.0000000  0 10G27G03G04G16G26G07G30G09G08G06
  -6927048.99646  -5376656.74245  23821906.6094                   23821910.7424
        39.0004         34.5004
  12379262.14147   9644922.43047  22405341.2194                   22405344.9884
        44.2504         46.0004
  -4450757.60547  -3461826.46547  20338149.4924                   20338149.6134
        47.5004         42.5004
  -5489332.53548  -4263349.07846  21042939.0234                   21042937.7504
        48.0004         40.5004
  12667274.56346   9869175.15246  24004774.2664                   24004778.7584
        39.5004         36.0004
 -14137178.95747 -10995913.29747  22503599.6644                   22503599.3444
        46.5004         47.2504
  -2521160.00845  -1895106.48844  24925908.4144                   24925914.6054
        31.0004         28.5004
 -15063565.22748 -11716967.78149  20661859.5944                   20661860.9964
        50.0004         54.7504
  -3749706.34446  -2903122.61745  24218076.4774                   24218084.9774
        36.7504         31.2504
   1631968.08246   1236618.61344  25243800.8054                   25243805.5234
        36.5004         28.5004
 25  8  7  2  2  0.0000000  0 10G27G03G04G16G26G07G30G09G08G06
  -7001599.00046  -5434747.52045  23807720.1564                   23807724.5744
        38.7504         34.5004
  12479952.67647   9723382.48847  22424501.8834                   22424506.1294
        44.5004         45.5004
  -4442774.35548  -3455605.74247  20339668.4774                   20339669.0944
        48.0004         42.5004
  -5446721.21147  -4230145.43046  21051047.3754                   21051046.5944
        47.5004         40.5004
  12766838.73446   9946757.58246  24023721.3754                   24023725.4064
        40.2504         36.0004
 -14187203.04347 -11034893.03947  22494080.6564                   22494080.1294
        46.7504         47.5004
  -2601214.64845  -1957486.52345  24910673.9304                   24910680.5204
        35.0004         30.5004
 -15119853.22748 -11760828.53549  20651148.3364                   20651149.5434
        50.2504         54.7504
  -3842449.90646  -2975390.06245  24200428.0704                   24200436.1844
        37.0004         31.5004
   1682162.75045   1275731.28544  25253353.4224                   25253357.6484
        34.5004         27.5004
 25  8  7  2  2 30.0000000  0 10G27G03G04G16G26G07G30G09G08G06
  -7075882.31646  -5492630.46145  23793583.9454                   23793588.7504
        39.5004         35.5004
  12580884.59447   9802030.64147  22443708.8204                   22443712.9614
        44.2504         45.5004
  -4434436.16847  -3449108.44947  20341255.8134                   20341255.7074
        47.5004         42.5004
  -5403501.17248  -4196467.47746  21059271.8984                   21059270.8954
        48.0004         40.7504
  12866608.17246  10024499.97746  24042706.0704                   24042710.6844
        41.2504         36.5004
 -14237047.90247 -11073733.12947  22484594.9304                   22484594.3984
        47.2504         47.7504
  -2681162.07846  -2019783.03145  24895460.6804                   24895467.2544
        37.0004         31.5004
 -15175872.88348 -11804480.18749  20640488.2504                   20640489.4384
        50.2504         54.7504
  -3935194.74646  -3047658.48845  24182779.3204                   24182787.5164
        37.5004         32.0004
   1732627.69545   1315054.53144  25262956.0164                   25262961.2274
        34.0004         26.0004
 25  8  7  2  3  0.0000000  0 10G27G03G04G16G26G07G30G09G08G06
  -7149892.64546  -5550300.69546  23779500.1564                   23779504.0234
        39.7504         36.0004
  12682057.89147   9880866.87547  22462961.3284                   22462965.2234
        44.2504         45.5004
  -4425739.28148  -3442331.64547  20342910.4534                   20342910.8914
        48.0004         42.5004
  -5359671.28548  -4162314.30946  21067612.7194                   21067611.3244
        48.5004         40.2504
  12966582.94546  10102402.36346  24061731.4384                   24061735.5044
        41.5004         36.2504
 -14286711.45347 -11112431.91047  22475143.8674                   22475143.6484
        47.0004         47.5004
  -2760999.36046  -2081993.76445  24880267.7344                   24880274.0204
        38.2504         32.0004
 -15231619.46548 -11847919.06249  20629879.8284                   20629881.4064
        50.5004         55.0004
  -4027935.12946  -3119923.43745  24165131.2194                   24165138.9654
        38.0004         32.5004
   1783362.93845   1354588.40644  25272609.6174                   25272615.3364
        34.0004         27.5004
 25  8  7  2  3 30.0000000  0 10G27G03G04G16G26G07G30G09G08G06
  -7223621.74646  -5607751.80946  23765470.6094                   23765474.3204
        40.7504         36.5004
  12783474.64847   9959892.81647  22482260.1414                   22482264.8204
        44.5004         45.5004
  -4416677.79748  -3435270.74247  20344634.6884                   20344634.7464
        49.0004         42.5004
  -5315228.65248  -4127683.68446  21076069.7504                   21076068.5554
        48.7504         40.0004
  13066765.46546  10180466.63346  24080794.8914                   24080800.0434
        41.5004         36.5004
 -14336188.99247 -11150985.77348  22465729.1174                   22465728.8914
        47.0004         48.0004
  -2840721.60646  -2144114.85645  24865097.3204                   24865103.1604
        38.7504         30.7504
 -15287086.17248 -11891139.83649  20619325.1024                   20619325.8364
        50.0004         54.7504
  -4120662.77046  -3192178.48445  24147485.9454                   24147493.5044
        37.0004         32.2504
   1834370.95345   1394334.86744  25282316.3364                   25282322.3484
        33.2504         27.7504
 25  8  7  2  4  0.0000000  0  9G27G03G04G16G26G07G30G09G08
  -7297072.15246  -5664985.76246  23751493.2114                   23751496.8094
        40.7504         36.0004
  12885126.21147  10039101.73047  22501604.3524                   22501608.4454
        44.5004         45.5004
  -4407256.56247  -3427929.51647  20346427.7664                   20346427.7774
        47.5004         42.5004
  -5270181.03148  -4092581.63346  21084642.0634                   21084640.5634
        48.5004         39.7504
  13167147.22347  10258686.14146  24099897.1094                   24099901.8524
        42.5004         37.5004
 -14385486.42247 -11189399.28548  22456347.8444                   22456347.6684
        47.2504         48.0004
                                  24849947.6334                   24849952.8554
        38.5004         30.0004
 -15342276.99248 -11934145.64149  20608822.5234                   20608823.9494
        50.0004         55.0004
  -4213380.64145  -3264425.90245  24129841.4844                   24129849.7814
        35.2504         31.0004
 25  8  7  2  4 30.0000000  0 10G27G03G04G16G26G07G30G09G08G06
  -7370238.50846  -5721998.37946  23737569.6564                   23737573.5004
        41.0004         36.7504
  12987011.73847  10118492.94547  22520992.6724                   22520996.8754
        44.0004         45.5004
  -4397472.68747  -3420305.70747  20348289.4924                   20348289.6024
        47.7504         42.5004
  -5224528.57448  -4057008.28546  21093329.0314                   21093328.0824
        49.0004         39.7504
  13267727.54747  10337060.38746  24119037.8834                   24119041.5234
        42.2504         37.2504
 -14434602.69547 -11227671.65247  22447001.6334                   22447000.8364
        47.5004         47.7504
  -2999835.39546  -2268099.39844  24834819.3444                   24834824.3674
        38.0004         29.2504
 -15397188.01248 -11976933.41449  20598373.1804                   20598374.8094
        49.7504         54.7504
  -4306083.55946  -3336661.64145  24112200.2114                   24112208.1994
        37.0004         31.0004
   1937178.20755   1460005.22754  25301879.8834                   25301885.2854
        34.0004         28.0004
 25  8  7  2  5  0.0000000  0 10G27G03G04G16G26G07G30G09G08G06
  -7443117.00046  -5778786.68446  23723700.8204                   23723705.2274
        41.2504         37.5004
  13089128.85947  10198064.62147  22540425.0944                   22540429.2854
        43.7504         45.2504
  -4387324.71547  -3412398.19547  20350220.5474                   20350220.4344
        47.5004         42.7504
  -5178272.77048  -4020964.79746  21102131.6954                   21102130.2974
        49.0004         39.5004
  13368504.30546  10415587.70346  24138214.1644                   24138219.0944
        40.0004         37.0004
 -14483537.66847 -11265802.75847  22437689.4694                   22437689.0474
        47.5004         47.7504
  -3079224.32046  -2329960.80544  24819710.9304                   24819716.7384
        38.0004         29.0004
 -15451816.90248 -12019501.35949  20587977.6174                   20587978.8134
        50.0004         55.0004
  -4398767.80946  -3408882.85945  24094562.5314                   24094570.7344
        36.7504         31.0004
   1988974.34445   1500365.82844  25311737.2344                   25311742.4574
        34.2504         26.0004
 25  8  7  2  5 30.0000000  0 10G27G03G04G16G26G07G30G09G08G06
  -7515705.59447  -5835349.07446  23709888.3444                   23709891.9064
        42.0004         37.0004
  13191473.38747  10277813.49647  22559900.2894                   22559904.7734
        43.5004         45.0004
  -4376813.04348  -3404207.27047  20352220.7584                   20352220.8554
        48.5004         42.7504
  -5131417.16448  -3984453.92646  21111047.6804                   21111046.6414
        48.7504         39.5004
  13469473.60246  10494265.02046  24157428.6724                   24157432.8444
        41.2504         36.7504
 -14532292.89148 -11303793.78548  22428411.3204                   22428410.9264
        48.2504         48.0004
  -3158502.27046  -2391735.72344  24804625.3444                   24804631.0204
        38.0004         28.7504
 -15506163.02348 -12061848.94549  20577636.0234                   20577637.4144
        50.5004         54.7504
  -4491431.63746  -3481088.16845  24076929.2344                   24076936.8284
        36.7504         31.7504
   2041025.32455   1522281.51254  25321641.6564                   25321647.9384
        32.7504         28.0004
 25  8  7  2  6  0.0000000  0 10G27G03G04G16G26G07G30G09G08G06
  -7587994.66046  -5891678.07846  23696131.5784                   23696135.8204
        41.0004         36.7504
  13294048.82047  10357742.30547  22579419.9304                   22579424.1994
        43.5004         44.7504
  -4365930.46148  -3395727.32847  20354291.6724                   20354291.9964
        48.0004         42.5004
  -5083957.11348  -3947472.05946  21120078.8674                   21120077.9304
        49.0004         40.0004
  13570639.10246  10573095.24646  24176679.9614                   24176684.1254
        41.2504         36.2504
 -14580862.63748 -11341640.28548  22419168.8524                   22419168.6844
        48.5004         48.5004
  -3237662.78146  -2453419.11744  24789561.7194                   24789566.8444
        36.7504         29.0004
 -15560218.21948 -12103969.84449  20567349.4774                   20567350.6214
        50.5004         55.0004
  -4584065.69146  -3553270.27045  24059301.6024                   24059308.7034
        37.5004         33.0004
   2093338.70355   1563045.00054  25331596.7034                   25331603.4964
        32.7504         26.5004
 25  8  7  2  6 30.0000000  0 10G27G03G04G16G26G07G30G09G08G06
  -7659987.05946  -5947775.92246  23682432.1484                   23682436.0864
        41.5004         37.5004
  13396846.13747  10437844.00047  22598981.4454                   22598986.0124
        43.7504         44.5004
  -4354682.24248  -3386962.47747  20356431.7034                   20356432.1414
        48.5004         42.0004
  -5035900.98448  -3910025.71946  21129224.0164                   21129222.7034
        49.5004         40.2504
  13671992.00446  10652071.48846  24195966.4774                   24195970.4494
        41.0004         36.0004
 -14629253.52748 -11379347.43048  22409960.6954                   22409960.0124
        48.2504         48.2504
  -3316711.87146  -2515015.68444  24774519.0164                   24774523.5594
        36.7504         27.7504
 -15613986.81248 -12145867.42249  20557117.7734                   20557118.9734
        50.2504         55.0004
  -4676672.93446  -3625431.46945  24041678.5944                   24041686.2424
        37.7504         33.2504
   2145903.55145   1604004.59844  25341599.4534                   25341606.4064
        35.2504         27.0004
 25  8  7  2  7  0.0000000  0 10G27G03G04G16G26G07G30G09G08G06
  -7731680.61746  -6003640.89546  23668788.8134                   23668793.2304
        41.2504         37.0004
  13499861.29347  10518115.43047  22618584.6954                   22618589.3404
        43.7504         44.2504
  -4343068.63748  -3377912.91847  20358642.1954                   20358642.3284
        48.2504         42.5004
  -4987252.23048  -3872117.59046  21138481.5944                   21138479.8754
        49.2504         40.0004
  13773528.56646  10731190.87145  24215287.2424                   24215292.3404
        39.0004         34.2504
 -14677467.11747 -11416916.41848  22400784.9304                   22400784.6644
        47.7504         48.0004
  -3395649.82056  -2576525.40254  24759497.6804                   24759501.9024
        37.2504         29.5004
 -15667468.05548 -12187541.07849  20546940.8674                   20546941.7664
        50.5004         55.0004
  -4769251.36346  -3697570.23045  24024061.8134                   24024068.9534
        37.5004         33.5004
   2198718.74655   1638027.94154  25351649.3674                   25351655.4224
        34.2504         25.7504
 25  8  7  2  7 30.0000000  0 10G27G03G04G16G26G07G30G09G08G06
  -7803068.79746  -6059267.89146  23655204.2974                   23655208.6884
        41.5004         37.0004
  13603094.71947  10598556.96147  22638229.8134                   22638234.2504
        43.2504         44.0004
  -4331085.41048  -3368575.34047  20360922.5314                   20360922.3524
        48.5004         42.5004
  -4938009.44548  -3833746.57846  21147852.2274                   21147850.8794
        49.0004         39.7504
  13875249.47746  10810453.86345  24234643.6644                   24234649.4184
        37.2504         32.7504
 -14725500.27048 -11454344.80548  22391645.2034                   22391644.7304
        49.0004         48.5004
  -3474475.00846  -2637947.44144  24744497.7814                   24744502.4264
        37.5004         29.5004
 -15720656.71948 -12228986.75449  20536818.9924                   20536820.5474
        50.2504         54.7504
  -4861794.59446  -3769681.57045  24006451.0474                   24006458.6844
        38.0004         34.0004
   2251778.81345   1679373.41844  25361747.1884                   25361752.6174
        35.2504         25.7504
 25  8  7  2  8  0.0000000  0 10G27G03G04G16G26G07G30G09G08G06
  -7874145.10246  -6114651.89546  23641679.6024                   23641683.1254
        41.5004         37.0004
  13706546.68847  10679168.76247  22657916.1644                   22657920.3244
        44.0004         43.7504
  -4318728.61748  -3358946.66847  20363273.6724                   20363273.9144
        49.0004         42.5004
  -4888171.69548  -3794911.96146  21157335.9694                   21157334.6024
        49.0004         39.7504
  13977155.28946  10889860.93845  24254037.9694                   24254041.5434
        37.7504         30.7504
 -14773350.46948 -11491630.62548  22382539.4064                   22382539.1954
        48.2504         48.5004
  -3553183.31646  -2699278.44545  24729519.0784                   24729525.1134
        36.5004         31.2504
 -15773547.83648 -12270200.58249  20526754.1024                   20526755.2424
        51.0004         54.7504
  -4954296.35546  -3841760.60545  23988848.8444                   23988856.0784
        37.5004         33.0004
   2305087.20745   1720912.37944  25371890.6174                   25371897.0204
        32.2504         27.0004
 25  8  7  2  8 30.0000000  0 10G27G03G04G16G26G07G30G09G08G06
  -7944913.97346  -6169796.33646  23628211.6094                   23628215.8834
        40.7504         37.2504
  13810206.62547  10759942.63747  22677641.9614                   22677646.4884
        43.5004         44.0004
  -4306005.05548  -3349032.19947  20365695.1334                   20365695.0984
        48.5004         42.2504
  -4837749.38748  -3755621.84446  21166931.2894                   21166929.3164
        48.5004         40.0004
  14079235.70746  10969404.04344  24273462.8284                   24273465.9494
        36.2504         26.7504
 -14821025.69147 -11528780.09848  22373467.2114                   22373466.7074
        47.5004         48.5004
  -3631782.33646  -2760524.26645  24714562.2894                   24714567.6254
        36.5004         32.2504
 -15826147.24648 -12311187.10249  20516744.8984                   20516745.8874
        50.7504         55.0004
  -5046761.12146  -3913810.82445  23971253.1174                   23971259.4264
        37.0004         33.0004
   2358633.25845   1762636.45745  25382081.1174                   25382087.0004
        34.5004         30.0004
 25  8  7  2  9  0.0000000  0 10G27G03G04G16G26G07G30G09G08G06
  -8015371.85546  -6224698.43446  23614804.2274                   23614807.8204
        41.2504         37.7504
  13914071.97747  10840876.57447  22697406.6884                   22697411.5354
        43.5004         43.5004
  -4292913.52348  -3338831.01247  20368186.3054                   20368186.4384
        48.0004         42.0004
  -4786743.69148  -3715877.14146  21176636.9384                   21176635.7504
        48.5004         40.0004
  14181488.39546  11049081.43444  24292920.9614                   24292924.1374
        36.5004         26.5004
 -14868526.57848 -11565793.74248  22364428.2664                   22364427.3054
        48.0004         48.5004
  -3710271.79755  -2821684.68755  24699626.6884                   24699631.5274
        35.7504         32.2504
 -15878452.69548 -12351944.56249  20506791.3674                   20506792.4654
        50.5004         54.7504
  -5139185.50046  -3985829.59845  23953665.2504                   23953671.7274
        38.2504         32.5004
     29785.47355   1792804.83654  25392315.1884                   25392320.5744
        34.2504         28.5004
 25  8  7  2  9 30.0000000  0 10G27G03G04G16G26G07G30G09G08G06
  -8085510.93746  -6279352.13346  23601456.8754                   23601461.0824
        41.7504         38.0004
  14018144.33647  10921971.80147  22717211.4774                   22717215.6374
        43.2504         43.2504
  -4279448.74248  -3328338.97747  20370748.8364                   20370748.6174
        48.7504         42.0004
  -4735152.70348  -3675676.36346  21186454.8834                   21186453.5864
        48.5004         40.2504
  14283915.26246  11128894.55144  24312412.7814                   24312415.2304
        38.5004         28.0004
 -14915849.00048 -11602668.31648  22355423.1954                   22355422.5554
        48.0004         48.5004
  -3788647.12146  -2882756.18045  24684711.2664                   24684716.5274
        36.5004         31.5004
 -15930457.87148 -12392468.03949  20496895.0164                   20496896.4024
        50.7504         54.7504
  -5231561.81246  -4057810.91045  23936086.2194                   23936093.1844
        36.7504         32.0004
     83803.40245   1834896.72344  25402594.6414                   25402599.8794
        34.0004         27.0004
 25  8  7  2 10  0.0000000  0 10G27G03G04G16G26G07G30G09G08G06
  -8155323.34446  -6333751.28146  23588171.7974                   23588175.4494
        41.0004         38.2504
  14122425.43847  11003229.69547  22737055.0234                   22737059.9924
        43.0004         42.5004
  -4265605.23848  -3317551.83647  20373382.7114                   20373383.2194
        48.0004         42.7504
  -4682973.94548  -3635017.57446  21196383.9694                   21196382.8834
        48.0004         40.0004
  14386518.27746  11208844.95345  24331936.1804                   24331940.6174
        38.7504         30.5004
 -14962988.73047 -11639400.52748  22346452.1644                   22346452.0704
        47.0004         49.0004
  -3866903.59045  -2943735.04744  24669819.3914                   24669824.6724
        34.7504         29.7504
 -15982156.22348 -12432752.43749  20487057.3444                   20487058.5164
        50.0004         54.7504
  -5323882.21546  -4129748.64545  23918517.9224                   23918524.7584
        38.2504         33.2504
    138059.98445   1877174.51644  25412918.9774                   25412925.3094
        33.7504         27.0004
 25  8  7  2 10 30.0000000  0 10G27G03G04G16G26G07G30G09G08G06
  -8224814.57446  -6387900.15246  23574947.6174                   23574951.5554
        40.2504         37.5004
  14226903.75447  11084641.25847  22756936.6174                   22756941.6414
        43.2504         42.5004
  -4251390.89148  -3306475.71947  20376087.9384                   20376088.0784
        49.0004         42.5004
  -4630218.34847  -3593909.31246  21206422.7584                   21206421.7344
        47.7504         39.7504
  14489286.18046  11288923.80545  24351492.3204                   24351496.3834
        39.5004         31.7504
 -15009954.88347 -11675997.47748  22337515.0944                   22337514.8324
        47.5004         49.0004
  -3945049.82845  -3004628.07444  24654948.5944                   24654953.8444
        34.0004         28.7504
 -16033554.62948 -12472803.10949  20477276.5704                   20477277.8244
        50.5004         54.7504
  -5416152.26646  -4201647.16445  23900959.2734                   23900966.4614
        37.5004         33.5004
    192544.64555   1919630.27754  25423286.9614                   25423293.1994
        33.5004         27.0004
 25  8  7  2 11  0.0000000  0 10G27G03G04G16G26G07G30G09G08G06
  -8293976.17646  -6441792.18046  23561786.9304                   23561790.8054
        41.5004         37.5004
  14331581.50447  11166208.22747  22776856.5234                   22776861.0314
        43.7504         42.5004
  -4236799.68448  -3295105.95747  20378864.8524                   20378864.7194
        48.0004         42.5004
  -4576883.25847  -3552349.49246  21216571.7274                   21216570.8954
        47.5004         39.5004
  14592221.52046  11369133.11345  24371080.3204                   24371084.6174
        40.2504         32.5004
 -15056742.55148 -11712455.34848  22328611.4304                   22328611.5514
        48.0004         49.0004
  -4023080.71145  -3065431.18745  24640100.4304                   24640104.6374
        34.0004         30.0004
 -16084646.00848 -12512614.54349  20467554.3134                   20467554.9884
        51.0004         54.7504
  -5508363.67646  -4273499.97745  23883411.2194                   23883418.5904
        38.5004         34.0004
    247257.50046   1962263.57444  25433698.6564                   25433704.8244
        36.2504         29.7504
 25  8  7  2 11 30.0000000  0 10G27G03G04G16G26G07G30G09G08G06
  -8362803.62546  -6495423.83646  23548688.6644                   23548693.3674
        40.2504         37.7504
  14436457.10247  11247929.36347  22796813.5164                   22796818.1844
        43.0004         42.5004
  -4221829.54748  -3283440.91447  20381713.3204                   20381713.1994
        48.5004         42.0004
  -4522969.54747  -3510338.79746  21226831.4844                   21226830.2234
        47.2504         39.5004
  14695323.06346  11449471.94145  24390700.8134                   24390704.4454
        40.7504         33.5004
 -15103351.12148 -11748773.67248  22319742.4844                   22319742.1254
        48.2504         49.0004
  -4100994.92645  -3126143.41044  24625273.0474                   24625277.9694
        33.0004         29.2504
 -16135427.22348 -12552184.29749  20457890.8984                   20457891.8754
        51.2504         54.7504
  -5600511.90246  -4345303.56245  23865876.4924                   23865883.5164
        38.7504         34.7504
    302202.14856   1994506.41455  25444153.8444                   25444158.4844
        37.7504         31.7504
 25  8  7  2 12  0.0000000  0  9G27G03G04G16G26G07G30G09G08
  -8431294.02746  -6548792.85546  23535656.0164                   23535660.4414
        40.7504         38.0004
  14541527.35247  11329802.16447  22816808.0474                   22816812.5354
        42.5004         42.5004
  -4206479.97748  -3271480.20747  20384634.0164                   20384634.3134
        48.0004         42.2504
  -4468480.28147  -3467879.62546  21237200.5864                   21237199.3134
        47.7504         39.0004
  14798587.93046  11529938.04745  24410350.3754                   24410354.9694
        40.2504         34.7504
 -15149781.26648 -11784952.95748  22310906.9144                   22310906.5434
        48.0004         49.0004
  -4178792.70345  -3186764.87945  24610468.5944                   24610473.7234
        34.0004         30.0004
 -16185896.69148 -12591511.12149  20448286.7814                   20448287.6844
        50.7504         54.7504
  -5692594.14846  -4417055.72345  23848353.7114                   23848360.5634
        37.7504         34.2504
 25  8  7  2 12 30.0000000  0  9G27G03G04G16G26G07G30G09G08
  -8499441.37946  -6601894.56646  23522687.7974                   23522692.2384
        39.5004         37.5004
  14646792.01647  11411826.45747  22836839.2504                   22836844.0234
        43.0004         42.5004
  -4190747.46947  -3259221.11347  20387628.1174                   20387627.9844
        47.2504         42.2504
  -4413414.39148  -3424971.12546  21247679.0394                   21247678.0704
        48.0004         39.2504
  14902016.21546  11610531.48045  24430032.4614                   24430036.4264
        40.5004         34.7504
 -15196031.02347 -11820991.67248  22302105.6024                   22302105.1454
        47.5004         49.5004
  -4256471.36345  -3247293.56245  24595687.0394                   24595692.2734
        33.7504         30.0004
 -16236049.80548 -12630591.45349  20438742.6884                   20438743.8284
        51.5004         54.7504
  -5784604.44946  -4488751.84445  23830844.2664                   23830851.1684
        37.7504         34.5004
 25  8  7  2 13  0.0000000  0  9G27G03G04G16G26G07G30G09G08
  -8567237.85546  -6654722.85946  23509786.5944                   23509790.4064
        41.0004         37.5004
  14752252.94547  11494003.68447  22856908.3284                   22856912.8094
        43.2504         42.5004
  -4174626.62147  -3246659.41047  20390695.2664                   20390695.8714
        47.0004         42.0004
  -4357769.98848  -3381611.85246  21258268.1094                   21258267.0004
        48.2504         39.5004
  15005610.05546  11691253.92645  24449745.4454                   24449749.8554
        39.5004         34.2504
 -15242095.93447 -11856886.34848  22293339.9224                   22293339.5744
        47.5004         49.5004
  -4334026.12545  -3307725.67245  24580928.9454                   24580933.3674
        35.2504         32.7504
 -16285880.06248 -12669420.19949  20429260.5314                   20429261.1294
        51.5004         54.7504
  -5876535.01246  -4560385.81645  23813350.2584                   23813357.0784
        37.0004         34.5004
 25  8  7  2 13 30.0000000  0  9G27G03G04G16G26G07G30G09G08
  -8634673.32446  -6707269.85946  23496953.7424                   23496957.6954
        40.5004         38.0004
  14857914.06347  11576336.90247  22877014.5634                   22877019.2464
        44.0004         42.2504
  -4158109.70747  -3233789.09047  20393839.0554                   20393839.0084
        47.5004         42.2504
  -4301542.19548  -3337797.98846  21268968.2664                   21268966.9384
        48.5004         40.0004
  15109373.78146  11772108.75045  24469491.2664                   24469495.3594
        40.7504         34.2504
 -15287969.71147 -11892632.11348  22284610.5314                   22284609.6994
        47.5004         49.0004
  -4411450.09045  -3368055.88745  24566195.3984                   24566200.3204
        35.0004         33.7504
 -16335378.69948 -12707990.54349  20419841.2664                   20419841.8484
        50.7504         55.0004
  -5968375.70746  -4631949.80145  23795873.4304                   23795880.1684
        37.5004         34.0004
 25  8  7  2 14  0.0000000  0  9G27G03G04G16G26G07G30G09G08
  -8701743.03146  -6759531.85546  23484190.1484                   23484194.7464
        40.0004         38.0004
  14963774.14547  11658825.15247  22897159.3914                   22897163.7584
        43.0004         42.0004
  -4141194.39147  -3220608.32447  20397057.4534                   20397057.6374
        47.7504         42.2504
  -4244731.91848  -3293530.23046  21279778.4844                   21279777.1764
        48.0004         40.0004
  15213306.47746  11853095.23845  24489268.0944                   24489273.3554
        38.2504         33.5004
 -15333651.15648 -11928227.98848  22275917.1644                   22275916.7624
        48.2504         49.2504
  -4488741.75845  -3428283.01645  24551487.0084                   24551491.8054
        35.0004         33.2504
 -16384542.22748 -12746299.76649  20410485.6414                   20410486.7854
        51.2504         55.0004
  -6060121.74646  -4703440.00445  23778415.3444                   23778421.4924
        38.0004         35.5004
 25  8  7  2 14 30.0000000  0  9G27G03G04G16G26G07G30G09G08
  -8768447.77046  -6811509.44146  23471496.6724                   23471501.0314
        41.0004         38.2504
  15069826.25047  11741463.03147  22917340.5084                   22917345.3204
        42.5004         42.0004
  -4123883.89547  -3207119.62147  20400351.7344                   20400351.9064
        47.5004         42.0004
  -4187345.90647  -3248813.86746  21290698.6724                   21290697.0044
        47.7504         38.7504
  15317401.46546  11934208.13345  24509079.1724                   24509082.3324
        40.2504         34.0004
 -15379144.66047 -11963677.41448  22267260.5314                   22267259.5744
        47.0004         49.5004
  -4565904.96545  -3488410.04745  24536803.0314                   24536807.8524
        34.5004         31.7504
 -16433372.72748 -12784349.48449  20401193.3054                   20401194.5204
        50.5004         54.7504
  -6151773.87946  -4774857.03545  23760973.9694                   23760980.4224
        38.2504         34.5004
 25  8  7  2 15  0.0000000  0  9G27G03G04G16G26G07G30G09G08
  -8834787.78146  -6863202.81246  23458872.8054                   23458876.8594
        40.2504         38.2504
  15176064.03147  11824245.57846  22937557.2734                   22937562.0394
        42.2504         41.7504
  -4106180.96148  -3193325.12947  20403720.5314                   20403720.4304
        48.0004         42.0004
  -4129389.98047  -3203653.41446  21301727.2504                   21301726.1564
        46.7504         39.0004
  15421652.96546  12015443.02345  24528915.8054                   24528920.1914
        37.5004         34.0004
 -15424454.49648 -11998983.72348  22258638.0234                   22258637.3284
        48.2504         49.0004
  -4642943.21545  -3548439.73045  24522143.6884                   24522147.3404
        34.7504         32.5004
 -16481871.80548 -12822140.95349  20391964.5474                   20391965.3444
        51.2504         54.7504
  -6243332.36346  -4846201.09845  23743551.2114                   23743557.7624
        38.7504         34.2504
 25  8  7  2 15 30.0000000  0  9G27G03G04G16G26G07G30G09G08
  -8900761.64846  -6914610.88746  23446318.4694                   23446322.0274
        40.5004         38.0004
  15282482.90647  11907169.21946  22957807.5084                   22957812.9224
        42.0004         41.7504
  -4088086.53947  -3179225.57847  20407163.6174                   20407163.7814
        47.7504         42.0004
  -4070868.23847  -3158052.06246  21312863.7664                   21312862.3634
        47.0004         39.0004
  15526056.55946  12096796.38745  24548783.5314                   24548788.2934
        36.7504         33.0004
 -15469582.59448 -12034148.41448  22250050.4614                   22250049.8134
        48.0004         49.0004
  -4719858.25446  -3608373.37145  24507506.5554                   24507511.4804
        36.5004         32.5004
 -16530039.27748 -12859674.03949  20382798.2424                   20382799.1994
        51.0004         55.0004
  -6334795.70746  -4917471.01645  23726146.0394                   23726151.9534
        38.7504         35.0004
 25  8  7  2 16  0.0000000  0  9G27G03G04G16G26G07G30G09G08
  -8966368.19546  -6965732.75046  23433834.2034                   23433837.5704
        40.7504         38.0004
  15389077.99646  11990230.18446  22978092.7584                   22978096.9964
        41.5004         41.7504
  -4069601.91847  -3164821.98047  20410681.1174                   20410681.2544
        47.5004         42.2504
  -4011785.03947  -3112013.21146  21324106.5164                   21324105.1134
        47.0004         39.5004
  15630607.78146  12178264.79745  24568680.8834                   24568683.1094
        38.2504         31.2504
 -15514531.19548 -12069173.25448  22241497.0234                   22241496.3444
        48.0004         49.2504
  -4796652.02045  -3668212.57045  24492893.4774                   24492897.1374
        35.0004         32.2504
 -16577875.28148 -12896948.84049  20373695.5084                   20373696.2734
        51.0004         55.0004
  -6426162.67246  -4988665.84845  23708759.0314                   23708765.6334
        39.2504         34.7504
 25  8  7  2 16 30.0000000  0  9G27G03G04G16G26G07G30G09G08
  -9031604.36746  -7016565.98446  23421420.1884                   23421423.3094
        40.5004         39.0004
  15495846.18046  12073426.03146  22998410.4224                   22998414.5864
        41.7504         41.2504
  -4050726.55547  -3150113.90647  20414273.0704                   20414273.1134
        47.7504         42.5004
  -3952143.09847  -3065538.98046  21335456.3204                   21335455.2504
        47.2504         38.7504
  15735304.09045  12259846.32044  24588601.3524                   24588606.9844
        34.5004         29.0004
 -15559301.47348 -12104059.13348  22232977.1954                   22232976.7304
        48.5004         49.5004
  -4873324.74246  -3727957.44145  24478302.5474                   24478307.2344
        36.5004         33.0004
 -16625378.15248 -12933964.05149  20364655.8524                   20364656.9224
        51.2504         54.7504
  -6517430.21146  -5059783.21145  23691390.7584                   23691397.1294
        38.2504         35.5004
 25  8  7  2 17  0.0000000  0  9G27G03G04G16G26G07G30G09G08
  -9096465.48447  -7067106.98446  23409077.0394                   23409080.9414
        42.0004         39.0004
  15602786.18447  12156755.76246  23018760.3914                   23018765.0394
        42.2504         41.0004
  -4031458.17647  -3135099.57847  20417939.7274                   20417940.0744
        47.7504         42.5004
  -3891943.43748  -3018630.15646  21346911.8834                   21346910.5004
        48.0004         39.0004
  15840144.30146  12341539.92244  24608554.1724                   24608556.6214
        37.0004         27.7504
 -15603892.45348 -12138805.29348  22224491.4694                   22224491.2194
        48.2504         49.2504
  -4949869.78156  -3787602.72755  24463735.8984                   24463740.0744
        37.0004         33.5004
 -16672544.35548 -12970716.93049  20355680.7344                   20355681.3244
        51.7504         55.0004
  -6608593.48846  -5130819.30545  23674043.1254                   23674048.9264
        38.5004         35.0004
 25  8  7  2 17 30.0000000  0  9G27G03G04G16G26G07G30G09G08
  -9160949.78546  -7117354.35946  23396806.1024                   23396809.2074
        40.7504         38.0004
  15709893.73047  12240216.04746  23039142.2194                   23039146.8634
        42.0004         41.5004
  -4011797.37948  -3119779.48447  20421680.9924                   20421681.2814
        48.5004         42.2504
  -3831189.76248  -2971289.63346  21358472.7664                   21358471.4574
        48.2504         39.2504
  15945124.57054  12423342.71954  24628527.7584                   24628534.1954
        29.2504         25.5004
 -15648305.62948 -12173412.92248  22216040.5864                   22216039.7584
        49.0004         49.5004
  -5026298.53546  -3847157.49245  24449191.6484                   24449196.1724
        38.5004         34.5004
 -16719373.47348 -13007207.13749  20346769.4304                   20346770.2424
        51.2504         55.0004
  -6699650.62946  -5201772.73446  23656715.1254                   23656721.3054
        38.5004         36.0004
 25  8  7  2 18  0.0000000  0 10G27G03G04G16G26G07G30G09G08G21
  -9225067.74646  -7167316.27746  23384604.5704                   23384608.3794
        41.7504         39.5004
  15817152.32047  12323794.02046  23059553.4534                   23059558.0434
        42.2504         41.0004
  -3991757.11748  -3104163.69147  20425494.6804                   20425494.9224
        48.5004         42.5004
  -3769898.26648  -2923530.02746  21370136.0944                   21370134.7624
        48.0004         38.7504
  16050229.09446  12505242.23844  24648531.0784                   24648534.6294
        36.5004         25.2504
 -15692555.05948 -12207892.94948  22207619.5554                   22207619.3054
        49.0004         49.5004
  -5102619.65246  -3906628.38745  24434668.8134                   24434673.4064
        39.0004         35.5004
 -16765877.11748 -13043443.73449  20337919.9304                   20337920.8674
        51.5004         55.0004
  -6790612.00446  -5272651.51245  23639405.9384                   23639411.9924
        38.5004         35.0004
   -280328.28955   -181910.63353  25116986.5474                   25116987.8594
        34.5004         18.5004
 25  8  7  2 18 30.0000000  0 10G27G03G04G16G26G07G30G09G08G21
  -9288817.15246  -7216991.00446  23372473.0234                   23372476.8554
        41.5004         38.7504
  15924558.20746  12407486.79746  23079991.8984                   23079996.4024
        41.2504         40.7504
  -3971337.61348  -3088252.39547  20429380.1884                   20429380.2704
        48.7504         42.5004
  -3708072.80948  -2875354.35946  21381901.3754                   21381899.8714
        48.0004         38.7504
  16155454.10946  12587235.72744  24668554.6254                   24668559.1094
        36.0004         28.0004
 -15736641.97348 -12242246.32448  22199230.5554                   22199230.1214
        48.5004         49.7504
  -5178833.94146  -3966016.04345  24420165.5314                   24420170.0474
        40.5004         35.2504
 -16812054.41848 -13079426.03549  20329132.5474                   20329133.5744
        51.5004         55.0004
  -6881475.18446  -5343453.78145  23622115.4614                   23622120.9614
        39.5004         35.5004
   -378249.53545   -258212.79342  25098352.2034                   25098353.7504
        31.7504         17.2504
 25  8  7  2 19  0.0000000  0 10G27G03G04G16G26G07G30G09G08G21
  -9352195.65247  -7266376.72346  23360413.1174                   23360416.0234
        42.0004         39.0004
  16032107.73446  12491291.45346  23100458.2734                   23100462.8524
        41.0004         40.7504
  -3950538.97748  -3072045.66847  20433338.1484                   20433338.1134
        48.5004         42.0004
  -3645716.02048  -2826764.65246  21393767.4774                   21393766.1054
        48.5004         39.0004
  16260796.59846  12669320.80544  24688598.0704                   24688604.4654
        36.0004         27.5004
 -15780568.07448 -12276474.39548  22190871.8204                   22190871.0554
        48.5004         49.7504
  -5254942.26646  -4025321.14846  24405682.4224                   24405686.9614
        40.2504         36.0004
 -16857904.22748 -13115153.15249  20320408.0784                   20320408.3094
        51.2504         55.0004
  -6972237.84846  -5414177.73446  23604843.7664                   23604848.7034
        40.5004         36.0004
   -475919.92645   -334319.66042  25079766.8984                   25079767.4534
        32.0004         15.5004
 25  8  7  2 19 30.0000000  0 10G27G03G04G16G26G07G30G09G08G21
  -9415198.64547  -7315469.83646  23348423.6254                   23348426.8634
        42.5004         38.7504
  16139799.38346  12575206.87546  23120950.8594                   23120955.9774
        41.0004         40.7504
  -3929359.06648  -3055541.84047  20437368.5944                   20437368.6804
        48.5004         42.5004
  -3582829.28948  -2777762.00846  21405734.4454                   21405732.6994
        48.5004         39.0004
  16366255.42246  12751496.46944  24708668.5164                   24708672.2584
        39.0004         26.2504
 -15824332.30548 -12310576.30148  22182543.3984                   22182542.7664
        49.0004         49.5004
  -5330943.17646  -4084542.53546  24391219.4144                   24391223.8364
        40.0004         36.0004
 -16903423.22348 -13150622.48849  20311745.7894                   20311746.5784
        51.2504         55.0004
  -7062895.18046  -5484819.60245  23587591.9384                   23587597.2034
        40.5004         35.7504
   -573335.44955   -410227.77352  25061227.5164                   25061229.6884
        34.5004         16.7504
 25  8  7  2 20  0.0000000  0 10G27G03G04G16G26G07G30G09G08G21
  -9477824.61747  -7364269.18746  23336506.2194                   23336509.3554
        42.0004         38.5004
  16247628.81346  12659229.65646  23141470.1564                   23141475.3134
        40.7504         40.5004
  -3907798.71548  -3038741.56247  20441471.2274                   20441471.2624
        49.0004         42.2504
  -3519416.65248  -2728349.57046  21417801.6724                   21417800.1604
        48.5004         38.5004
  16471826.59146  12833759.74944  24728758.6644                   24728761.4964
        39.0004         25.5004
 -15867936.39548 -12344553.45748  22174245.5864                   22174245.3324
        49.5004         50.0004
  -5406838.21946  -4143681.43745  24376776.8284                   24376781.4734
        39.5004         35.0004
 -16948611.00048 -13185833.72749  20303146.7344                   20303147.8094
        51.0004         55.0004
  -7153445.39546  -5555378.00846  23570360.6564                   23570365.4884
        41.0004         36.0004
   -670494.89845   -485936.44142  25042739.5634                   25042740.5984
        35.2504         17.7504
 25  8  7  2 20 30.0000000  0 10G27G03G04G16G26G07G30G09G08G21
  -9540062.66846  -7412766.25446  23324662.1804                   23324665.7384
        41.5004         39.5004
  16355600.91846  12743363.60946  23162017.0394                   23162021.5354
        41.0004         41.0004
  -3885849.55147  -3021638.31647  20445647.8364                   20445648.2304
        47.7504         42.0004
  -3455473.14848  -2678523.45746  21429969.4774                   21429968.1254
        48.5004         38.0004
  16577515.57246  12916114.81145  24748870.5634                   24748874.6454
        38.7504         30.0004
 -15911373.13348 -12378400.20348  22165980.1804                   22165979.8524
        50.0004         50.2504
  -5482619.59446  -4202731.75445  24362355.9534                   24362360.3244
        39.7504         35.2504
 -16993457.97348 -13220779.41049  20294612.8984                   20294613.8484
        51.5004         54.7504
  -7243877.55946  -5625844.43046  23553151.8594                   23553157.5124
        41.0004         36.7504
   -767388.08245   -561437.59843  25024301.5864                   25024302.0634
        35.5004         18.5004
 25  8  7  2 21  0.0000000  0 10G27G03G04G16G26G07G30G09G08G21
  -9601907.81647  -7460957.17246  23312894.0084                   23312897.1884
        42.0004         39.5004
  16463714.70746  12827607.98046  23182590.2584                   23182595.4224
        41.0004         40.7504
  -3863508.98847  -3004230.09446  20449899.1954                   20449899.6724
        47.7504         41.7504
  -3390999.47748  -2628284.22746  21442238.6334                   21442236.9844
        48.5004         38.5004
  16683321.75046  12998561.18044  24769003.6564                   24769008.1644
        37.5004         28.0004
 -15954641.23848 -12412115.53948  22157746.2814                   22157745.6684
        49.5004         50.0004
  -5558285.50846  -4261692.09445  24347957.3054                   24347962.0044
        37.5004         34.7504
 -17037960.30148 -13255456.53549  20286144.4614                   20286145.0204
        51.0004         54.7504
  -7334186.41446  -5696214.75446  23535966.4224                   23535971.7114
        39.2504         36.7504
   -864010.34046   -636727.68743  25005914.5554                   25005916.2894
        36.7504         18.5004
 25  8  7  2 21 30.0000000  0 10G27G03G04G16G26G07G30G09G08G21
  -9663360.41447  -7508842.20746  23301200.2584                   23301203.3134
        42.5004         39.5004
  16571963.89546  12911957.85946  23203189.8444                   23203194.5704
        41.0004         40.0004
  -3840779.85248  -2986519.07847  20454224.6724                   20454224.5594
        48.0004         42.0004
  -3326001.81248  -2577636.70746  21454607.2114                   21454605.7304
        48.5004         38.5004
  16789239.19546  13081094.30544  24789159.7034                   24789164.8444
        37.2504         29.7504
 -15997744.61748 -12445702.53148  22149543.7034                   22149543.2344
        49.2504         49.7504
  -5633839.41446  -4320565.13345  24333579.8054                   24333584.7234
        36.5004         34.2504
 -17082119.57448 -13289866.33649  20277740.8134                   20277741.5784
        50.5004         55.0004
  -7424372.10946  -5766489.12945  23518803.9144                   23518809.7234
        39.7504         35.5004
                                  24987579.023
        35.000
 25  8  7  2 22  0.0000000  0 10G27G03G04G16G26G07G30G09G08G21
  -9724420.85547  -7556421.68446  23289580.6644                   23289583.0744
        42.0004         39.2504
  16680342.15646  12996408.31346  23223813.7114                   23223818.2424
        41.2504         40.2504
  -3817664.93447  -2968507.44947  20458622.8594                   20458623.5474
        47.5004         42.0004
  -3260486.06248  -2526585.46546  21467074.0864                   21467073.1024
        48.0004         38.5004
  16895262.23246  13163709.56245  24809336.7504                   24809340.0474
        39.5004         30.5004
 -16040686.82847 -12479163.93048  22141372.2274                   22141371.4844
        47.5004         50.0004
  -5709284.66846  -4379353.50045  24319223.1174                   24319227.5204
        36.7504         33.5004
 -17125937.36348 -13324010.03949  20269402.7584                   20269403.6604
        49.5004         55.0004
  -7514434.85246  -5836667.69946  23501666.0474                   23501671.3284
        40.2504         36.5004
  -1056441.68445   -773679.20752  24969294.8984                   24969297.7814
        30.7504         17.7504
 25  8  7  2 22 30.0000000  0 10G27G03G04G16G26G07G30G09G08G21
  -9785081.69146  -7603689.75846  23278036.7274                   23278039.5984
        41.5004         39.7504
  16788851.01646  13080960.53546  23244461.5554                   23244467.2934
        40.5004         39.7504
  -3794159.29748  -2950191.37547  20463096.0314                   20463096.2544
        48.5004         42.0004
  -3194450.60247  -2475129.26646  21479639.9844                   21479638.5984
        47.7504         38.0004
  17001392.45746  13246408.39844  24829532.5474                   24829535.7854
        39.2504         28.2504
 -16083464.49647 -12512497.14148  22133231.8594                   22133231.3134
        47.5004         50.0004
  -5784616.99246  -4438053.90245  24304887.8134                   24304891.8914
        37.5004         33.5004
 -17169407.38748 -13357882.76649  20261130.6414                   20261131.4184
        49.5004         54.7504
  -7604366.89846  -5906744.41446  23484552.5784                   23484557.6254
        41.0004         36.5004
  -1152248.57845   -848333.86343  24951063.7274                   24951066.1954
        31.0004         18.2504
 25  8  7  2 23  0.0000000  0 10G27G03G04G16G26G07G30G09G08G21
  -9845341.08247  -7650645.03146  23266570.0784                   23266571.9884
        42.2504         38.7504
  16897486.37146  13165611.31646  23265134.3834                   23265139.7704
        40.2504         40.0004
  -3770263.43447  -2931571.22746  20467643.1414                   20467643.5354
        47.0004         41.7504
  -3127898.64848  -2423270.60546  21492304.8444                   21492303.3914
        48.2504         38.2504
  17107626.61346  13329188.30144  24849747.7974                   24849751.7504
        37.5004         28.5004
 -16126079.09048 -12545703.24248  22125122.2584                   22125122.2974
        48.0004         50.0004
  -5859837.55546  -4496667.22345  24290573.0704                   24290577.5824
        36.7504         31.5004
 -17212528.92648 -13391483.93449  20252924.7814                   20252925.3754
        50.5004         54.7504
  -7694166.14846  -5976717.65646  23467464.6804                   23467469.5634
        41.2504         37.0004
  -1247778.61755   -922773.07053  24932886.0634                   24932887.4384
        33.5004         18.5004
 25  8  7  2 23 30.0000000  0 10G27G03G04G16G26G07G30G09G08G21
  -9905191.83247  -7697281.88746  23255180.4774                   23255183.3674
        42.5004         39.2504
  17006249.58646  13250361.70746  23285831.3674                   23285836.8324
        39.5004         39.2504
  -3745972.65648  -2912643.34846  20472265.6954                   20472265.6214
        48.0004         41.7504
  -3060829.22748  -2371008.72746  21505068.0474                   21505066.6914
        48.7504         38.7504
  17213966.28145  13412050.35944  24869981.2974                   24869987.6334
        34.2504         27.5004
 -16168527.13748 -12578779.57048  22117045.1024                   22117044.1054
        49.0004         50.2504
  -5934942.25446  -4555190.26645  24276281.7424                   24276285.5124
        38.2504         31.7504
 -17255296.01248 -13424808.90649  20244786.3914                   20244787.2734
        50.7504         54.7504
  -7783825.16446  -6046581.63346  23450401.9534                   23450407.1604
        39.7504         36.5004
  -1343023.35245   -996989.76642  24914761.3984                   24914763.9224
        32.7504         17.2504
 25  8  7  2 24  0.0000000  0 10G27G03G04G16G26G07G30G09G08G21
  -9964633.03947  -7743599.60546  23243869.1174                   23243871.8364
        42.0004         40.0004
  17115135.63346  13335207.82446  23306552.5164                   23306557.8284
        40.2504         40.0004
  -3721288.48847  -2893408.93446  20476962.8364                   20476963.1174
        46.7504         41.7504
  -2993247.19148  -2318347.39546  21517927.8834                   21517926.7894
        49.0004         38.7504
  17320407.17645  13494991.34044  24890236.2424                   24890242.5314
        34.7504         29.2504
 -16210810.85248 -12611727.89548  22108998.3984                   22108997.7424
        48.7504         50.5004
  -6009933.26246  -4613624.73445  24262011.4844                   24262015.4184
        38.7504         33.2504
 -17297708.89548 -13457857.87949  20236715.3984                   20236716.1564
        50.7504         54.7504
  -7873342.82846  -6116335.44946  23433368.0944                   23433372.7074
        40.7504         36.7504
  -1437983.11745  -1070984.28542  24896692.0314                   24896693.7934
        32.7504         16.2504
 25  8  7  2 24 30.0000000  0 10G27G03G04G16G26G07G30G09G08G21
 -10023664.87147  -7789598.33646  23232635.5234                   23232638.3794
        43.0004         39.7504
  17224138.50846  13420144.97746  23327294.6564                   23327300.3444
        40.7504         40.0004
  -3696213.45348  -2873869.94946  20481734.4064                   20481734.4614
        48.0004         41.7504
  -2925158.39548  -2265291.18446  21530884.8364                   21530883.6174
        48.5004         37.7504
  17426943.50446  13578006.62545  24910511.7274                   24910515.4534
        37.0004         30.0004
 -16252933.95748 -12644551.03548  22100982.7504                   22100981.7664
        49.5004         50.0004
  -6084813.65646  -4671972.99645  24247762.1024                   24247765.6254
        40.2504         34.0004
 -17339768.82048 -13490631.81249  20228712.2664                   20228712.4414
        50.7504         54.7504
  -7962718.83246  -6185978.90646  23416359.8364                   23416365.4184
        40.2504         37.2504
  -1532658.39555  -1144757.08252  24878675.7734                   24878677.3284
        33.7504         17.2504
 25  8  7  2 25  0.0000000  0 10G27G03G04G16G26G07G30G09G08G21
 -10082277.48847  -7835270.40246  23221481.4384                   23221484.9494
        42.2504         39.0004
  17333262.10946  13505176.19546  23348060.5554                   23348066.0474
        40.2504         40.5004
  -3670740.23447  -2854020.68746  20486582.0864                   20486582.1484
        47.7504         41.7504
  -2856558.84847  -2211837.00046  21543938.9924                   21543937.7854
        47.5004         38.2504
  17533579.77345  13661099.74244  24930802.8754                   24930807.9534
        35.7504         28.5004
 -16294890.23048 -12677244.19548  22092998.6334                   22092997.9344
        49.0004         50.0004
  -6159576.77346  -4730229.86345  24233534.8594                   24233538.8914
        39.2504         34.5004
 -17381467.10948 -13523123.96149  20220776.9144                   20220777.5514
        50.5004         54.7504
  -8051943.16046  -6255504.17246  23399381.3914                   23399386.0084
        41.0004         37.0004
  -1627039.87956  -1218301.07453  24860714.2034                   24860716.3054
        36.0004         18.5004
 25  8  7  2 25 30.0000000  0 10G27G03G04G16G26G07G30G09G08G21
 -10140468.51247  -7880613.96146  23210408.2034                   23210411.6684
        42.0004         39.5004
  17442503.06646  13590298.86346  23368848.5634                   23368854.4224
        41.5004         40.5004
  -3644868.83647  -2833861.16046  20491505.3284                   20491505.1564
        47.5004         41.5004
  -2787451.59048  -2157987.18746  21557089.4064                   21557088.4574
        48.0004         37.7504
  17640313.02745  13744268.51644  24951112.6174                   24951118.1414
        33.5004         27.7504
 -16336680.52748 -12709808.01648  22085046.1484                   22085045.4184
        48.0004         50.0004
  -6234223.26646  -4788395.86345  24219329.5554                   24219333.5784
        38.7504         33.5004
 -17422802.53948 -13555333.35549  20212910.8984                   20212911.8554
        50.5004         54.7504
  -8141013.08246  -6324909.14546  23382430.9844                   23382436.1844
        41.0004         38.0004
  -1721126.52355  -1291615.48853  24842810.4924                   24842813.2974
        35.0004         18.2504
 25  8  7  2 26  0.0000000  0 10G27G03G04G16G26G07G30G09G08G21
 -10198236.28547  -7925627.70746  23199415.4064                   23199418.1564
        42.5004         39.7504
  17551857.19946  13675509.71146  23389657.6484                   23389663.7424
        41.2504         39.5004
  -3618600.03548  -2813391.97346  20496503.5704                   20496504.0354
        48.2504         41.5004
  -2717840.71548  -2103744.95746  21570336.3914                   21570334.9734
        48.0004         38.0004
  17747139.69545  13827510.04744  24971442.7664                   24971446.5784
        34.7504         27.5004
 -16378306.80147 -12742244.02748  22077124.8834                   22077124.2974
        47.5004         50.0004
  -6308754.33646  -4846471.89145  24205146.4614                   24205151.3634
        37.5004         33.5004
 -17463774.47348 -13587259.50449  20205113.9774                   20205114.9184
        49.5004         54.7504
  -8229926.55546  -6394192.19546  23365510.9224                   23365516.5274
        41.0004         37.2504
  -1814912.04756  -1352025.45352  24824963.3594                   24824964.4884
        37.0004         17.7504
 25  8  7  2 26 30.0000000  0 10G27G03G04G16G26G07G30G09G08G21
 -10255572.32846  -7970305.05946  23188504.4774                   23188508.2074
        41.5004         39.7504
  17661327.14146  13760810.79346  23410489.7194                   23410495.6254
        41.0004         39.0004
  -3591927.82048  -2792608.43747  20501579.4534                   20501579.4534
        48.0004         42.0004
  -2647723.59847  -2049108.25046  21583678.7424                   21583677.8674
        47.5004         37.2504
  17854062.85946  13910826.82844  24991789.1094                   24991793.2424
        36.0004         28.2504
 -16419764.29347 -12774548.53548  22069235.8134                   22069235.2464
        47.7504         50.0004
  -6383164.72746  -4904453.85245  24190986.9384                   24190991.7544
        38.2504         35.0004
 -17504375.67648 -13618896.78549  20197388.2344                   20197388.7664
        51.0004         55.0004
  -8318674.82846  -6463346.53146  23348623.1094                   23348627.6254
        41.2504         37.5004
  -1908392.28556  -1411270.62553  24807174.1484                   24807175.9654
        37.5004         18.2504
 25  8  7  2 27  0.0000000  0 10G27G03G04G16G26G07G30G09G08G21
 -10312478.47747  -8014647.41046  23177675.6954                   23177678.6604
        43.0004         40.0004
  17770905.34446  13846196.23846  23431341.8594                   23431347.6724
        41.0004         39.0004
  -3564856.34848  -2771513.78947  20506730.8524                   20506731.3244
        48.2504         42.0004
  -2577107.66047  -1994082.84446  21597116.4064                   21597115.5004
        47.7504         37.5004
  17961075.49246  13994213.26244  25012153.0944                   25012156.8754
        36.2504         28.0004
 -16461057.50848 -12806725.03548  22061377.9774                   22061377.1374
        49.7504         50.0004
  -6457459.08646  -4962345.40645  24176848.8054                   24176854.2154
        37.2504         35.0004
 -17544608.89848 -13650247.32049  20189731.8134                   20189732.8714
        50.5004         54.7504
  -8407259.19146  -6532373.14146  23331765.8914                   23331770.9924
        41.2504         38.0004
  -2001572.47346  -1483878.44942  24789441.5234                   24789444.1484
        37.5004         17.2504
 25  8  7  2 27 30.0000000  0 10G27G03G04G16G26G07G30G09G08G21
 -10368952.78947  -8058653.28146  23166929.0164                   23166931.9694
        42.5004         40.0004
  17880587.82846  13931662.93846  23452213.2274                   23452219.6414
        39.2504         38.2504
  -3537386.21547  -2750108.49647  20511958.3204                   20511958.7664
        47.5004         42.0004
  -2505996.56648  -1938671.60246  21610648.6954                   21610647.8204
        48.5004         37.7504
  18068174.08245  14077666.77743  25032533.0164                   25032536.9694
        35.2504         22.7504
 -16502188.81648 -12838775.37148  22053550.5944                   22053550.2814
        49.0004         49.7504
  -6531638.58246  -5020147.48046  24162732.9774                   24162737.5274
        38.5004         36.0004
 -17584473.40648 -13681310.55149  20182146.1724                   20182146.6374
        51.0004         54.7504
  -8495677.47346  -6601270.34446  23314940.2194                   23314945.1804
        41.5004         37.7504
                                  24771768.664
        37.500
 25  8  7  2 28  0.0000000  0 10G27G03G04G16G26G07G30G09G08G21
 -10424996.72747  -8102323.79346  23156264.2974                   23156267.0824
        43.0004         39.7504
  17990367.48446  14017205.34046  23473104.1564                   23473109.9534
        40.0004         38.5004
  -3509521.23847  -2728395.52347  20517260.9534                   20517261.2344
        47.5004         42.0004
  -2434397.68748  -1882880.28146  21624273.7734                   21624272.8054
        48.0004         36.7504
  18175352.02346  14161182.05544  25052928.4384                   25052932.1644
        36.7504         24.5004
 -16543162.57848 -12870702.94948  22045753.8204                   22045753.0124
        49.0004         50.0004
  -6605707.56246  -5077863.44946  24148638.9144                   24148642.6764
        38.5004         36.0004
 -17623971.69148 -13712088.41449  20174629.6884                   20174630.3634
        51.2504         54.7504
  -8583930.60946  -6670038.85946  23298145.8594                   23298150.9344
        41.5004         38.0004
  -2187017.64156  -1614890.47353  24754152.7894                   24754154.1684
        37.5004         19.2504
 25  8  7  2 28 30.0000000  0 10G27G03G04G16G26G07G30G09G08G21
 -10480600.32447  -8145651.17646  23145682.9614                   23145686.1024
        42.2504         39.7504
  18100248.54346  14102826.78546  23494014.6644                   23494020.0664
        41.0004         38.5004
  -3481253.78947  -2706368.95747  20522639.9304                   20522640.3244
        47.0004         42.0004
  -2362306.57848  -1826705.40246  21637992.5084                   21637991.1374
        48.0004         37.0004
  18282614.13746  14244763.03544  25073339.6484                   25073343.4884
        37.7504         27.7504
 -16583972.10248 -12902502.54348  22037988.2274                   22037986.8754
        48.5004         50.0004
  -6679659.02746  -5135487.85546  24134565.6254                   24134570.1644
        39.5004         36.2504
 -17663094.83648 -13742573.96549  20167184.6334                   20167185.4494
        51.0004         54.7504
  -8672008.21946  -6738670.59446  23281385.0704                   23281390.4304
        41.5004         38.0004
  -2279277.80146  -1686781.49243  24736596.8444                   24736596.8554
        40.0004         21.5004
