     2.11           OBSERVATION DATA    G (GPS)             RINEX VERSION / TYPE
teqc  2019Feb25     K Rivera            20250821 01:46:48UTCPGM / RUN BY / DATE
Linux 2.6.32-573.12.1.x86_64|x86_64|gcc -static|Linux 64|=+ COMMENT
teqc  2019Feb25                         20250821 01:46:24UTCCOMMENT
BIT 2 OF LLI FLAGS DATA COLLECTED UNDER A/S CONDITION       COMMENT
0705                                                        MARKER NAME
                                                            MARKER NUMBER
KMR & KMB           University of California, Riverside     OBSERVER / AGENCY
0220340422          TRIMBLE 5700        2.32                REC # / TYPE / VERS
1441040465          TRM57971.00                             ANT # / TYPE
 -2451919.9833 -4657354.5235  3592212.3356                  APPROX POSITION XYZ
        1.4868        0.0000        0.0000                  ANTENNA: DELTA H/E/N
     1     1                                                WAVELENGTH FACT L1/2
     7    L1    L2    C1    P1    P2    S1    S2            # / TYPES OF OBSERV
    18                                                      LEAP SECONDS
 SNR is mapped to RINEX snr flag value [0-9]                COMMENT
  L1 & L2: min(max(int(snr_dBHz/6), 0), 9)                  COMMENT
  2025     7     1     0     0   30.0000000     GPS         TIME OF FIRST OBS
                                                            END OF HEADER
 25  7  1  0  0 30.0000000  0 10G10G04G31G01G03G32G02G25G28G08
   4881356.92657   3805275.08257  22583942.4694                   22583942.6094
        45.5004         42.5004
   -586286.76256   -380430.29753  25018417.6024                   25018421.2974
        38.5004         19.5004
 -22860594.36358 -17755116.37957  21121738.9614                   21121734.7584
        49.2504         46.2504
 -18570418.67657 -14447512.71555  21916294.4614                   21916291.6214
        44.7504         35.0004
  -7711255.82456  -5989506.16055  23542222.7894                   23542222.7234
        39.5004         32.5004
   2352813.47358   1856005.50857  22064815.0554                   22064813.4384
        48.2504         47.0004
 -23179379.45358 -18023804.48856  21307716.5164                   21307710.5044
        48.2504         39.0004
  -1027086.35556   -917953.90254  24578615.8594                   24578619.0904
        37.0004         26.5004
 -26183108.12157 -20105114.04356  20849502.5704                   20849498.6564
        47.5004         39.2504
   7688771.57056   6008745.22354  24954528.2814                   24954533.8834
        36.5004         26.7504
 25  7  1  0  1  0.0000000  0 10G10G04G31G01G03G32G02G25G28G08
   4928233.66447   3841802.37547  22592863.1644                   22592862.7274
        44.5004         42.7504
   -679031.22346   -452698.48043  25000768.8984                   25000772.0864
        37.5004         20.0004
 -22945634.46548 -17821381.34847  21105556.3054                   21105552.5204
        49.0004         46.5004
 -18646345.78947 -14506676.67245  21901846.2734                   21901842.9924
        44.5004         35.5004
  -7805449.26246  -6062903.56645  23524298.2734                   23524298.0394
        39.5004         33.0004
   2406179.40647   1897589.33247  22074970.2894                   22074968.5164
        47.5004         47.0004
 -23193111.16848 -18034504.52746  21305103.5164                   21305097.0234
        48.5004         38.5004
  -1068142.31646   -949945.53544  24570802.8674                   24570806.0204
        37.5004         26.7504
 -26202711.36347 -20120389.29346  20845772.1024                   20845768.3634
        47.5004         39.5004
   7753852.31346   6059457.28944  24966914.4064                   24966917.7774
        37.0004         26.5004
 25  7  1  0  1 30.0000000  0 10G10G04G31G01G03G32G02G25G28G08
   4975369.44947   3878531.52047  22601832.7504                   22601832.1914
        45.2504         42.5004
   -771640.08246   -524861.05942  24983145.4454                   24983148.7704
        37.0004         17.7504
 -23030193.87948 -17887271.75847  21089465.4774                   21089461.0394
        49.0004         46.2504
 -18721835.52347 -14565499.82045  21887481.0004                   21887477.7584
        45.0004         34.7504
  -7899633.32846  -6136293.70345  23506375.6484                   23506375.0664
        40.5004         31.0004
   2459668.01647   1939268.74247  22085148.7894                   22085147.3094
        47.2504         47.2504
 -23206313.91847 -18044792.38746  21302590.8984                   21302584.6414
        47.2504         38.5004
  -1108760.87146   -981596.33644  24563073.2344                   24563075.7584
        37.5004         25.2504
 -26221708.40647 -20135192.17246  20842157.5784                   20842153.4964
        47.0004         39.0004
   7818906.97346   6110149.04344  24979293.0164                   24979296.6294
        37.0004         26.0004
 25  7  1  0  2  0.0000000  0 10G10G04G31G01G03G32G02G25G28G08
   5022761.81347   3915460.59447  22610851.3364                   22610850.4494
        45.7504         42.5004
   -864115.67246   -596919.76243  24965548.2424                   24965550.4024
        37.0004         19.0004
 -23114272.69148 -17952787.67247  21073465.7034                   21073461.1174
        49.2504         46.0004
 -18796888.30947 -14623982.49245  21873199.1564                   21873195.4184
        46.0004         34.5004
  -7993809.84046  -6209677.96945  23488453.7734                   23488453.8094
        40.2504         31.2504
   2513275.24248   1981040.57847  22095350.0864                   22095348.2034
        48.2504         46.7504
 -23218989.98847 -18054669.84446  21300178.9694                   21300172.5664
        47.2504         38.5004
  -1148942.43446  -1012906.64543  24555426.6414                   24555429.1994
        37.0004         23.2504
 -26240101.77047 -20149524.65246  20838656.6644                   20838653.3244
        47.2504         39.5004
   7883930.10246   6160816.24244  24991667.6564                   24991670.4654
        38.7504         28.0004
 25  7  1  0  2 30.0000000  0 10G10G04G31G01G03G32G02G25G28G08
   5070413.13347   3952591.45347  22619919.0164                   22619918.0044
        44.5004         42.2504
   -956456.38356   -668873.60952  24947975.7034                   24947978.4844
        37.5004         17.7504
 -23197866.05148 -18017925.32047  21057558.4844                   21057553.6054
        49.5004         46.5004
 -18871499.64547 -14682121.17645  21859000.6254                   21858997.1254
        45.2504         33.2504
  -8087975.73446  -6283053.94545  23470535.1334                   23470535.0314
        41.2504         32.2504
   2567001.99248   2022905.55547  22105573.8134                   22105571.9804
        48.5004         46.2504
 -23231137.13347 -18064135.15646  21297867.3984                   21297861.1724
        47.2504         39.0004
  -1188682.66046  -1043873.05143  24547864.7274                   24547865.9774
        37.7504         23.0004
 -26257889.09047 -20163384.89546  20835272.3754                   20835268.2934
        47.0004         39.0004
   7948921.19946   6211458.46144  25004034.4454                   25004038.9964
        38.0004         28.5004
 25  7  1  0  3  0.0000000  0 10G10G04G31G01G03G32G02G25G28G08
   5118323.87547   3989924.46547  22629036.0474                   22629034.7664
        43.5004         42.2504
  -1048659.56645   -740720.16042  24930430.5314                   24930432.5234
        35.5004         16.7504
 -23280971.06248 -18082682.43047  21041743.7504                   21041739.4384
        49.2504         46.7504
 -18945666.99247 -14739913.90645  21844887.2194                   21844883.8834
        44.7504         34.7504
  -8182130.05947  -6356420.91045  23452618.9454                   23452618.2194
        42.0004         33.5004
   2620847.15647   2064862.79747  22115820.3284                   22115818.8204
        47.5004         46.0004
 -23242754.67648 -18073187.78946  21295656.3674                   21295649.8794
        48.0004         38.7504
  -1227979.32046  -1074493.78543  24540386.5394                   24540386.0274
        38.7504         22.5004
 -26275070.04347 -20176772.64846  20832002.6644                   20831998.7854
        47.0004         39.2504
   8013877.72346   6262073.69144  25016395.4534                   25016399.9454
        36.7504         27.5004
 25  7  1  0  3 30.0000000  0 10G10G04G31G01G03G32G02G25G28G08
   5166497.96947   4027462.67647  22638203.6954                   22638202.5634
        43.7504         42.2504
  -1140722.09846   -812457.05942  24912911.4454                   24912912.9804
        36.7504         16.7504
 -23363581.54748 -18147054.21547  21026023.6094                   21026019.0474
        49.0004         46.5004
 -19019384.45347 -14797356.05945  21830859.0864                   21830855.9344
        45.0004         34.2504
  -8276268.19946  -6429775.25045  23434704.1254                   23434704.0984
        41.0004         34.2504
   2674813.14848   2106914.19147  22126089.4844                   22126088.4064
        48.0004         46.7504
 -23253838.73047 -18081824.72346  21293547.5474                   21293540.9384
        47.0004         39.5004
  -1266826.62546  -1104764.34843  24532994.6174                   24532992.6094
        38.0004         22.7504
 -26291640.91447 -20189685.00446  20828849.3204                   20828845.6994
        47.0004         39.2504
   8078800.59046   6312662.70744  25028749.7034                   25028754.3524
        36.7504         27.0004
 25  7  1  0  4  0.0000000  0 10G10G04G31G01G03G32G02G25G28G08
   5214934.34847   4065205.28147  22647420.7194                   22647419.3984
        44.0004         42.5004
  -1232644.89846   -884085.07442  24895418.3284                   24895421.5744
        36.5004         17.7504
 -23445696.80148 -18211040.08647  21010397.5944                   21010393.5354
        49.2504         46.5004
 -19092650.94147 -14854446.80945  21816917.1174                   21816913.8014
        44.0004         34.0004
  -8370390.57846  -6503117.29745  23416793.2424                   23416793.6174
        41.5004         35.0004
   2728897.47347   2149057.78947  22136381.6724                   22136380.1484
        47.5004         46.2504
 -23264390.52047 -18090046.89846  21291539.5784                   21291532.9964
        47.5004         38.7504
  -1305223.61346  -1134684.05943  24525687.7734                   24525686.6094
        37.0004         23.2504
 -26307602.84847 -20202122.87146  20825811.8524                   20825808.4144
        46.5004         39.2504
   8143685.84846   6363222.48444  25041097.3984                   25041100.7154
        37.2504         26.5004
 25  7  1  0  4 30.0000000  0 10G10G04G31G01G03G32G02G25G28G08
   5263637.40647   4103155.68847  22656688.2424                   22656687.6094
        44.2504         42.2504
  -1324423.47346   -955600.68743  24877953.9304                   24877957.0234
        36.7504         19.2504
 -23527309.60948 -18274634.44947  20994867.0864                   20994862.7464
        49.0004         46.2504
 -19165459.93747 -14911181.06645  21803062.0234                   21803058.9224
        44.5004         34.0004
  -8464492.08646  -6576443.08245  23398886.6094                   23398886.5864
        40.5004         35.0004
   2783102.93047   2191295.78947  22146696.6334                   22146695.3984
        46.0004         46.0004
 -23274405.82847 -18097851.03946  21289633.6804                   21289627.3914
        47.2504         39.2504
  -1343164.17646  -1164248.17243  24518467.9144                   24518466.4344
        37.5004         22.5004
 -26322951.69547 -20214083.00446  20822890.8204                   20822887.5664
        47.2504         39.2504
   8208534.99646   6413754.14144  25053438.2344                   25053441.1954
        37.7504         25.5004
 25  7  1  0  5  0.0000000  0 10G10G04G31G01G03G32G02G25G28G08
   5312602.80147   4141310.49247  22666006.0944                   22666005.5864
        43.7504         42.5004
  -1416061.91446  -1027007.08243  24860515.0314                   24860518.3634
        36.0004         19.5004
 -23608422.43048 -18337839.19547  20979432.1024                   20979427.5634
        49.5004         46.7504
 -19237813.80547 -14967560.68045  21789293.7974                   21789290.2664
        44.5004         34.2504
  -8558576.45346  -6649755.48445  23380982.6334                   23380983.1254
        39.7504         35.5004
   2837423.80547   2233623.71947  22157033.5474                   22157031.9924
        47.0004         46.2504
 -23283888.69147 -18105240.28946  21287829.2664                   21287822.9844
        47.0004         39.2504
  -1380650.76246  -1193458.47344  24511334.0944                   24511334.2704
        38.2504         24.0004
 -26337691.96547 -20225568.91446  20820086.3754                   20820082.6914
        46.5004         39.0004
   8273340.74246   6464251.92244  25065770.2274                   25065775.3674
        37.7504         26.5004
 25  7  1  0  5 30.0000000  0 10G10G04G31G01G03G32G02G25G28G08
   5361831.58647   4179670.53146  22675374.6334                   22675373.1024
        44.0004         41.7504
  -1507558.92646  -1098303.29343  24843103.8364                   24843107.0594
        36.5004         19.7504
 -23689031.85948 -18400651.70747  20964092.4144                   20964087.6334
        48.5004         46.5004
 -19309709.47747 -15023583.25845  21775612.5784                   21775609.0594
        44.7504         34.7504
  -8652641.82446  -6723053.08645  23363082.1024                   23363082.7274
        39.5004         35.2504
   2891859.68047   2276041.24647  22167392.2274                   22167390.6914
        47.5004         46.2504
 -23292838.37147 -18112214.07846  21286125.9694                   21286119.7584
        47.0004         38.7504
  -1417680.43746  -1222312.75444  24504288.0474                   24504288.7504
        38.0004         24.7504
 -26351822.77347 -20236579.93446  20817397.2814                   20817393.1884
        47.0004         39.5004
   8338101.32846   6514714.52344  25078094.0944                   25078100.0634
        37.5004         26.0004
 25  7  1  0  6  0.0000000  0 10G10G04G31G01G03G32G02G25G28G08
   5411322.86347   4218235.11747  22684792.2424                   22684791.4924
        43.2504         42.2504
  -1598915.35946  -1169489.95343  24825719.7814                   24825722.3794
        36.5004         18.5004
 -23769136.44148 -18463070.82047  20948848.9064                   20948844.9694
        48.0004         46.7504
 -19381145.67247 -15079247.79745  21762019.1484                   21762015.1604
        45.0004         34.5004
  -8746688.41446  -6796336.04746  23345185.7424                   23345185.9884
        40.0004         36.0004
   2946408.23447   2318546.59447  22177772.4614                   22177770.9534
        47.0004         46.0004
 -23301255.83647 -18118773.15646  21284524.2424                   21284518.1214
        47.0004         38.7504
  -1454252.29746  -1250810.31643  24497328.5314                   24497330.5784
        37.5004         22.2504
 -26365345.30547 -20247116.95746  20814824.2114                   20814820.0824
        46.2504         39.0004
   8402812.89146   6565138.87944  25090408.5004                   25090413.2664
        37.2504         26.0004
 25  7  1  0  6 30.0000000  0 10G10G04G31G01G03G32G02G25G28G08
   5461078.84447   4257005.98847  22694260.3284                   22694259.8674
        43.5004         42.2504
  -1690128.78145  -1240565.16442  24808361.9224                   24808364.6094
        35.5004         17.7504
 -23848731.81648 -18525093.16047  20933702.0314                   20933697.9064
        49.0004         47.0004
 -19452118.20747 -15134551.04745  21748512.8054                   21748509.0394
        45.0004         33.5004
  -8840713.27046  -6869602.07846  23327293.2034                   23327293.8594
        40.5004         36.7504
   3001070.24247   2361140.33647  22188175.0164                   22188173.2194
        46.7504         46.5004
 -23309138.82447 -18124915.75446  21283024.2194                   21283018.0394
        46.5004         39.0004
  -1490362.33646  -1278948.00043  24490457.6024                   24490457.8014
        39.2504         22.5004
 -26378257.59847 -20257178.48046  20812367.0084                   20812363.2034
        45.7504         39.0004
   8467474.80546   6615524.60544  25102713.0234                   25102717.1174
        37.0004         25.0004
 25  7  1  0  7  0.0000000  0 10G10G04G31G01G03G32G02G25G28G08
   5511097.54747   4295981.55146  22703778.7894                   22703777.8444
        43.2504         41.7504
  -1781201.06245  -1311530.43442  24791030.7894                   24791033.4734
        35.5004         16.7504
 -23927817.75448 -18586718.52047  20918652.6954                   20918648.9414
        49.0004         47.0004
 -19522627.04747 -15189492.98045  21735095.6954                   21735091.6564
        45.0004         33.7504
  -8934717.69546  -6942852.22746  23309405.5944                   23309405.1914
        41.2504         37.0004
   3055842.25447   2403819.80147  22198597.8204                   22198596.0204
        47.7504         46.2504
 -23316489.57447 -18130643.62546  21281625.2344                   21281619.0084
        46.2504         39.5004
  -1526010.69546  -1306725.85943  24483673.0784                   24483673.4614
        37.7504         22.7504
 -26390561.91447 -20266766.25046  20810025.7344                   20810021.5234
        46.2504         39.2504
   8532082.19145   6665867.79344  25115007.7194                   25115011.1454
        35.5004         25.0004
 25  7  1  0  7 30.0000000  0 10G10G04G31G01G03G32G02G25G28G08
   5561381.37947   4335163.70747  22713347.3984                   22713346.2234
        43.2504         42.0004
  -1872129.52046  -1382383.63342  24773728.5164                   24773729.9884
        36.0004         16.2504
 -24006389.55148 -18647943.27347  20903700.8674                   20903696.9384
        48.5004         47.0004
 -19592667.63747 -15244070.03945  21721767.0784                   21721763.4924
        44.7504         34.5004
  -9028698.38346  -7016083.87946  23291521.0004                   23291521.3244
        40.7504         36.7504
   3110725.41047   2446585.86347  22209041.8284                   22209040.3324
        47.5004         46.0004
 -23323305.87947 -18135955.05146  21280328.2034                   21280322.0124
        47.2504         39.0004
  -1561193.17246  -1334140.78943  24476978.2584                   24476978.3444
        37.2504         22.7504
 -26402256.10947 -20275878.60246  20807799.8594                   20807796.0434
        46.7504         39.5004
   8596634.71946   6716168.23044  25127291.5394                   25127295.3874
        36.2504         26.5004
 25  7  1  0  8  0.0000000  0 10G10G04G31G01G03G32G02G25G28G08
   5611927.00047   4374549.87946  22722966.1564                   22722964.7774
        43.7504         41.7504
  -1962917.37145  -1453127.28942  24756451.5084                   24756453.7974
        35.5004         16.2504
 -24084448.23848 -18708768.17647  20888846.8984                   20888842.6094
        48.5004         47.2504
 -19662241.25847 -15298283.23445  21708527.6724                   21708524.2504
        45.0004         34.5004
  -9122657.95346  -7089299.08646  23273641.4774                   23273641.4964
        41.0004         36.0004
   3165714.93847   2489434.82447  22219505.6254                   22219503.5864
        47.2504         46.0004
 -23329591.16047 -18140852.68046  21279132.1254                   21279126.2704
        47.0004         38.5004
  -1595911.31646  -1361193.82843  24470372.3364                   24470371.4734
        38.2504         23.0004
 -26413343.82047 -20284518.37546  20805690.0944                   20805686.2664
        47.0004         39.2504
   8661126.16846   6766421.07444  25139564.1484                   25139568.9694
        37.2504         26.5004
 25  7  1  0  8 30.0000000  0 10G10G04G31G01G03G32G02G25G28G08
   5662741.05547   4414145.20746  22732635.7424                   22732634.3634
        44.5004         41.7504
  -2053557.69946  -1523755.93042  24739203.0634                   24739206.2304
        36.7504         16.2504
 -24161985.10948 -18769186.48447  20874092.0234                   20874087.4064
        48.0004         47.0004
 -19731339.30947 -15352125.85545  21695378.4384                   21695375.3754
        44.5004         34.2504
  -9216588.97746  -7162492.02745  23255766.0164                   23255766.4144
        40.5004         35.0004
   3220816.17247   2532370.82447  22229991.0394                   22229989.1724
        46.7504         46.0004
 -23335338.49247 -18145331.14846  21278038.5634                   21278032.6954
        46.7504         39.0004
  -1630156.62146  -1387878.46943  24463855.2814                   24463852.8094
        38.7504         22.0004
 -26423818.73447 -20292680.64146  20803696.8204                   20803692.8094
        46.0004         39.7504
   8725560.46146   6816629.35944  25151826.7424                   25151831.3094
        37.7504         28.0004
 25  7  1  0  9  0.0000000  0 10G10G04G31G01G03G32G02G25G28G08
   5713817.72347   4453945.15246  22742355.6884                   22742354.5944
        44.7504         41.7504
  -2144056.23846  -1594274.15242  24721982.1094                   24721985.1564
        37.2504         17.2504
 -24239003.66448 -18829200.91047  20859436.0164                   20859431.6134
        48.5004         47.2504
 -19799965.60247 -15405600.86745  21682319.3754                   21682316.4534
        45.2504         34.7504
  -9310496.39146  -7235666.58645  23237896.6804                   23237896.2304
        39.5004         34.2504
   3276021.87547   2575388.22747  22240495.9534                   22240494.1174
        47.5004         45.5004
 -23340554.24247 -18149395.38746  21277046.0704                   21277039.7624
        47.2504         39.2504
  -1663933.31646  -1414197.91443  24457427.5864                   24457425.7934
        37.7504         23.0004
 -26433687.03147 -20300370.21146  20801818.7584                   20801815.4454
        47.2504         39.5004
   8789928.89846   6866786.35944  25164074.7424                   25164080.2034
        37.2504         27.0004
 25  7  1  0  9 30.0000000  0 10G10G04G31G01G03G32G02G25G28G08
   5765161.41047   4493953.17247  22752125.6254                   22752124.6524
        44.5004         42.0004
  -2234408.23846  -1664678.16443  24704788.8204                   24704790.9064
        37.5004         19.0004
 -24315497.41848 -18888806.39147  20844879.7424                   20844875.0784
        49.0004         47.2504
 -19868113.69547 -15458703.26245  21669351.3594                   21669348.2424
        45.0004         34.2504
  -9404375.02346  -7308818.71545  23220031.7424                   23220031.6724
        39.2504         34.2504
   3331335.18047   2618489.48447  22251021.8364                   22251020.3134
        47.0004         45.5004
 -23345234.46548 -18153042.33246  21276155.5944                   21276149.3554
        48.0004         38.7504
  -1697235.09046  -1440147.34444  24451090.3834                   24451090.2424
        37.2504         25.0004
 -26442944.69147 -20307583.97746  20800057.3914                   20800053.2584
        47.0004         39.2504
   8854233.10246   6916893.34044  25176311.8524                   25176316.7664
        37.0004         28.7504
 25  7  1  0 10  0.0000000  0 10G10G04G31G01G03G32G02G25G28G08
   5816770.75447   4534168.20346  22761946.8834                   22761945.5904
        44.0004         41.7504
  -2324615.09845  -1734969.10543  24687622.1804                   24687624.8754
        35.7504         18.2504
 -24391465.78148 -18948002.48447  20830423.2664                   20830418.7384
        48.2504         47.0004
 -19935782.85247 -15511432.44545  21656474.3204                   21656470.9344
        44.5004         34.5004
  -9498225.28546  -7381948.73045  23202172.8444                   23202173.4224
        39.0004         35.5004
   3386753.38747   2661672.47347  22261567.7894                   22261565.9844
        47.5004         45.5004
 -23349380.39148 -18156272.93746  21275367.0314                   21275360.7814
        48.2504         39.0004
  -1730061.62145  -1465726.45343  24444843.6804                   24444845.6414
        35.5004         21.5004
 -26451593.43047 -20314323.23846  20798411.7274                   20798407.2624
        47.5004         39.0004
   8918468.98846   6966947.05944  25188536.1414                   25188540.3954
        38.0004         28.2504
 25  7  1  0 10 30.0000000  0 10G10G04G31G01G03G32G02G25G28G08
   5868633.04347   4574580.34446  22771815.7814                   22771814.7974
        43.7504         41.7504
  -2414689.23445  -1805156.54343  24670481.7894                   24670484.2234
        35.5004         18.5004
 -24466918.99248 -19006797.16847  20816064.9694                   20816060.8484
        48.0004         47.5004
 -20002983.80947 -15563796.81245  21643686.1484                   21643683.0124
        44.7504         34.5004
  -9592059.05946  -7455065.88345  23184316.5554                   23184317.3594
        40.5004         35.7504
   3442262.50447   2704926.30147  22272130.6954                   22272128.9844
        46.2504         45.5004
 -23353004.92647 -18159097.27046  21274676.7504                   21274670.6094
        47.2504         38.7504
  -1762423.82445  -1490943.73043  24438685.3834                   24438687.8674
        35.0004         22.0004
 -26459646.37147 -20320598.25046  20796879.1564                   20796875.1764
        46.7504         39.2504
   8982621.05546   7016935.46944  25200743.4384                   25200748.6254
        38.0004         27.7504
 25  7  1  0 11  0.0000000  0 10G10G04G31G01G03G32G02G25G28G08
   5920743.25447   4615185.65646  22781731.7504                   22781730.6684
        44.2504         41.5004
  -2504635.46146  -1875244.33643  24653365.7664                   24653367.8554
        36.5004         20.7504
 -24541860.00048 -19065192.71547  20801804.1484                   20801799.6644
        49.0004         47.7504
 -20069719.53947 -15615798.66845  21630986.8594                   21630983.6094
        44.5004         34.7504
  -9685880.42646  -7528173.39146  23166463.0474                   23166463.5274
        40.0004         36.0004
   3497856.21547   2748246.04747  22282709.9224                   22282708.6294
        47.0004         45.5004
 -23356113.27047 -18161519.36746  21274085.6254                   21274079.4964
        47.5004         38.5004
  -1794325.06646  -1515801.84043  24432614.2274                   24432616.6644
        36.0004         22.0004
 -26467108.94547 -20326413.25046  20795458.9384                   20795454.7664
        46.2504         39.2504
   9046681.49646   7066852.45344  25212934.0234                   25212939.4614
        36.7504         26.0004
 25  7  1  0 11 30.0000000  0 10G10G04G31G01G03G32G02G25G28G08
   5973104.60547   4655986.67247  22791696.3204                   22791695.2504
        44.0004         42.0004
  -2594450.38346  -1945229.83643  24636274.5234                   24636275.8754
        38.2504         20.5004
 -24616283.59848 -19123185.09447  20787641.9454                   20787637.7704
        48.5004         47.7504
 -20135984.87947 -15667433.98445  21618377.4064                   21618373.4384
        45.0004         35.0004
  -9779685.33646  -7601268.09046  23148612.8364                   23148612.6954
        40.0004         36.2504
   3553536.50447   2791633.26247  22293305.8674                   22293304.0514
        46.5004         45.5004
 -23358702.56647 -18163537.02746  21273592.6414                   21273586.8284
        46.2504         39.2504
  -1825760.40646  -1540296.86343  24426632.3674                   24426632.3594
        37.2504         22.2504
 -26473978.35547 -20331766.02746  20794151.8134                   20794148.0744
        45.7504         39.0004
   9110650.87545   7116698.50044  25225107.1724                   25225112.5984
        35.5004         26.7504
 25  7  1  0 12  0.0000000  0 10G10G04G31G01G03G32G02G25G28G08
   6025720.99647   4696986.41046  22801708.6954                   22801707.9804
        43.7504         41.5004
  -2684129.84846  -2015109.80543  24619209.2424                   24619210.6374
        38.0004         19.5004
 -24690183.53148 -19180769.42247  20773579.1094                   20773574.6524
        49.0004         47.7504
 -20201773.84847 -15718698.09845  21605857.5474                   21605854.5554
        45.0004         34.7504
  -9873468.92646  -7674346.15646  23130765.9534                   23130765.5864
        39.5004         36.2504
   3609305.98447   2835089.97747  22303918.4144                   22303916.4924
        46.0004         45.2504
 -23360769.21547 -18165147.41446  21273199.4304                   21273193.3714
        46.7504         38.5004
  -1856724.19546  -1564424.40643  24420741.2894                   24420739.7544
        36.7504         22.5004
 -26480251.17647 -20336653.93446  20792958.2814                   20792953.9774
        46.5004         39.2504
   9174530.40246   7166474.53144  25237262.8524                   25237268.3244
        37.7504         26.7504
 25  7  1  0 12 30.0000000  0 10G10G04G31G01G03G32G02G25G28G08
   6078598.18847   4738189.37546  22811771.0784                   22811770.1724
        43.7504         41.5004
  -2773668.03146  -2084879.67643  24602170.1954                   24602171.4264
        37.7504         18.2504
 -24763552.21948 -19237939.79747  20759617.7584                   20759613.2664
        48.7504         47.7504
 -20267078.79747 -15769585.05545  21593430.7894                   21593427.2814
        45.5004         34.7504
  -9967224.55546  -7747402.42245  23112925.1884                   23112925.3444
        39.0004         35.5004
   3665169.18847   2878619.72747  22314548.5234                   22314546.6454
        46.0004         45.0004
 -23362307.66847 -18166346.22746  21272906.5394                   21272900.5824
        47.0004         39.5004
  -1887209.07046  -1588178.79343  24414938.8444                   24414939.0744
        37.2504         22.7504
 -26485922.12947 -20341072.85546  20791879.1254                   20791875.0784
        46.2504         39.7504
   9238323.08646   7216182.87944  25249402.7584                   25249407.8094
        36.7504         25.5004
 25  7  1  0 13  0.0000000  0 10G10G04G31G01G03G32G02G25G28G08
   6131738.28147   4779597.19946  22821883.1644                   22821882.0204
        44.2504         41.0004
  -2863062.53546  -2154537.56642  24585158.8134                   24585159.9654
        38.2504         17.2504
 -24836385.23447 -19294692.75847  20745757.8914                   20745753.2664
        47.5004         47.5004
 -20331895.59447 -15820091.63345  21581096.4454                   21581092.8914
        45.0004         34.5004
 -10060949.10546  -7820434.46945  23095089.0314                   23095090.0514
        39.0004         35.5004
   3721127.00047   2922223.18447  22325197.0784                   22325195.4264
        46.2504         44.7504
 -23363316.02347 -18167131.97746  21272714.2664                   21272708.5164
        46.2504         38.7504
  -1917211.20346  -1611557.11343  24409229.4304                   24409229.5594
        36.0004         22.5004
 -26490989.64847 -20345021.58246  20790914.7504                   20790910.5084
        46.0004         39.0004
   9302028.37546   7265823.17244  25261526.5784                   25261530.5554
        37.0004         24.5004
 25  7  1  0 13 30.0000000  0 11G10G04G31G01G03G32G02G25G26G28G08
   6185144.44147   4821212.34046  22832046.4304                   22832044.6644
        43.7504         40.7504
  -2952310.04746  -2224080.94543  24568174.8594                   24568176.6094
        38.0004         19.0004
 -24908677.18048 -19351024.12547  20732001.0784                   20731996.6484
        48.0004         47.2504
 -20396219.01647 -15870213.76245  21568855.9614                   21568853.0044
        45.7504         34.7504
 -10154638.41046  -7893439.04746  23077261.4924                   23077261.4574
        40.0004         36.0004
   3777181.43447   2965901.92647  22335863.9454                   22335862.4654
        47.2504         44.7504
 -23363791.34447 -18167502.37946  21272624.0234                   21272618.6524
        46.2504         39.0004
  -1946725.77046  -1634555.49243  24403613.0004                   24403613.8594
        37.5004         23.5004
   -264535.96155   -104336.21154  25035243.0084                   25035247.1094
        35.0004         25.0004
 -26495450.96147 -20348497.93046  20790065.5084                   20790061.5704
        45.7504         39.0004
   9365646.82446   7315395.71944  25273631.6414                   25273637.7074
        36.2504         25.0004
 25  7  1  0 14  0.0000000  0 11G10G04G31G01G03G32G02G25G26G28G08
   6238814.10947   4863032.82046  22842258.6094                   22842258.0204
        42.7504         40.2504
  -3041412.89146  -2293511.58243  24551219.4144                   24551221.4964
        38.5004         19.5004
 -24980429.09047 -19406934.66847  20718347.0784                   20718342.5784
        47.7504         47.5004
 -20460049.69947 -15919951.94545  21556709.7344                   21556706.2154
        45.5004         34.5004
 -10248293.99646  -7966417.35946  23059438.5314                   23059439.1134
        40.7504         36.5004
   3833328.72747   3009653.04747  22346548.1954                   22346546.8634
        47.0004         44.7504
 -23363736.70348 -18167459.81646  21272634.6954                   21272628.8284
        48.0004         39.5004
  -1975753.73446  -1657174.62544  24398090.0634                   24398090.3794
        38.0004         26.2504
   -358940.28945   -177897.87943  25017277.5784                   25017280.7854
        33.7504         22.7504
 -26499309.22347 -20351504.36346  20789331.7894                   20789327.1484
        45.7504         39.0004
   9429173.23445   7364896.51643  25285721.8204                   25285727.2624
        34.0004         22.5004
 25  7  1  0 14 30.0000000  0 11G10G04G31G01G03G32G02G25G26G28G08
   6292746.61346   4905058.09046  22852521.8674                   22852520.6024
        41.7504         40.2504
  -3130371.53146  -2362829.84843  24534291.1884                   24534293.1484
        38.2504         19.5004
 -25051639.09047 -19462422.95347  20704796.5234                   20704791.8874
        47.5004         47.7504
 -20523386.24247 -15969305.07445  21544656.7814                   21544653.6414
        46.0004         35.0004
 -10341915.52347  -8039369.14146  23041623.5084                   23041623.6094
        42.2504         37.5004
   3889567.03147   3053475.09047  22357250.2894                   22357248.6524
        47.0004         44.7504
 -23363153.19148 -18167005.14846  21272746.0394                   21272740.0354
        48.0004         39.2504
  -2004294.04746  -1679413.80544  24392659.4924                   24392660.1884
        38.7504         28.0004
   -453476.93045   -251562.61744  24999288.1334                   24999292.1334
        33.2504         24.0004
 -26502565.62147 -20354041.81246  20788711.9614                   20788708.0634
        46.7504         39.5004
   9492604.27045   7414323.06343  25297791.1884                   25297797.0664
        31.5004         21.0004
 25  7  1  0 15  0.0000000  0 10G10G04G31G01G03G32G02G25G26G28
   6346943.43447   4947289.31646  22862834.9534                   22862834.2424
        43.2504         39.7504
  -3219184.24646  -2432034.44943  24517391.1484                   24517392.8914
        39.5004         22.0004
 -25122303.69948 -19517486.25047  20691349.4454                   20691344.6644
        48.2504         47.5004
 -20586225.24647 -16018270.52345  21532699.3134                   21532695.6134
        46.0004         35.0004
 -10435500.49247  -8112292.43446  23023814.8364                   23023814.9924
        42.5004         38.2504
   3945896.71947   3097368.32447  22367969.6484                   22367967.5004
        47.2504         44.7504
 -23362039.35947 -18166137.24646  21272957.7504                   21272952.1684
        46.7504         39.2504
  -2032343.46946  -1701270.46144  24387321.3364                   24387322.4774
        38.0004         26.5004
   -548141.82445   -325327.28144  24981273.6564                   24981277.8714
        35.0004         25.7504
 -26505219.21947 -20356109.55546  20788206.9534                   20788203.0744
        45.2504         39.2504
 25  7  1  0 15 30.0000000  0 10G10G04G31G01G03G32G02G25G26G28
   6401411.68847   4989732.04746  22873200.5704                   22873200.2584
        42.7504         40.2504
  -3307843.78146  -2501119.68043  24500519.6484                   24500521.2194
        38.7504         21.7504
 -25192413.88748 -19572117.54347  20678008.1724                   20678003.2704
        48.2504         47.7504
 -20648557.67247 -16066841.22345  21520837.7584                   21520834.3164
        46.0004         35.5004
 -10529040.79347  -8185180.92246  23006015.1724                   23006015.1294
        42.2504         38.5004
   4002323.71947   3141337.37947  22378707.0004                   22378704.6724
        47.2504         44.5004
 -23360388.56248 -18164850.92246  21273272.0314                   21273265.8554
        48.7504         39.2504
  -2059893.49246  -1722737.96144  24382078.0864                   24382079.0164
        37.5004         27.5004
   -642925.51645   -399184.51643  24963236.8984                   24963239.5004
        33.2504         22.7504
 -26507263.47347 -20357702.48046  20787817.8754                   20787813.4804
        46.2504         38.7504
 25  7  1  0 16  0.0000000  0 10G10G04G31G01G03G32G02G25G26G28
   6456165.84047   5032397.58246  22883620.1024                   22883618.7734
        42.7504         39.7504
  -3396335.45346  -2570074.09043  24483679.9454                   24483680.8834
        39.0004         20.7504
 -25261953.02048 -19626303.85248  20664774.8674                   20664770.1994
        48.0004         48.0004
 -20710367.10547 -16115004.39145  21509075.7034                   21509072.0984
        46.0004         35.5004
 -10622520.89846  -8258022.49246  22988226.3914                   22988225.7624
        41.5004         38.5004
   4058861.39847   3185392.69947  22389465.7114                   22389463.9574
        46.5004         44.2504
 -23358186.59848 -18163135.11746  21273690.8594                   21273685.0864
        48.0004         39.2504
  -2086927.94946  -1743803.70344  24376933.9694                   24376934.1214
        38.5004         27.7504
   -737811.13746   -473121.23044  24945180.5314                   24945182.7154
        36.7504         26.0004
 -26508684.57047 -20358809.82046  20787547.4924                   20787543.4614
        45.5004         39.0004
 25  7  1  0 16 30.0000000  0 10G10G04G31G01G03G32G02G25G26G28
   6511206.22747   5075286.16846  22894093.7344                   22894093.3324
        42.5004         39.7504
  -3484658.65646  -2638897.25443  24466872.1724                   24466873.1094
        38.5004         19.7504
 -25330918.75048 -19680043.35947  20651651.1414                   20651646.7194
        48.5004         47.7504
 -20771651.21947 -16162758.22345  21497413.6174                   21497410.2734
        45.7504         35.2504
 -10715939.43446  -8330816.06646  22970448.9304                   22970449.0394
        40.7504         38.2504
   4115508.98447   3229533.64847  22400245.6804                   22400244.0514
        46.7504         44.7504
 -23355433.69948 -18160990.00446  21274215.0004                   21274209.3834
        49.0004         39.5004
  -2113445.03546  -1764466.32845  24371887.9224                   24371889.7854
        38.5004         30.0004
   -832795.69546   -547135.03144  24927105.8054                   24927110.1684
        37.2504         27.7504
 -26509482.73447 -20359431.77046  20787395.3364                   20787391.4614
        46.5004         38.7504
 25  7  1  0 17  0.0000000  0 10G10G04G31G01G03G32G02G25G26G28
   6566527.49647   5118393.61346  22904620.4924                   22904620.6254
        42.0004         39.0004
  -3572818.60546  -2707593.20343  24450095.3914                   24450097.4264
        38.2504         20.2504
 -25399314.56647 -19733338.77047  20638635.9144                   20638631.4924
        47.7504         47.7504
 -20832413.43747 -16210105.38345  21485850.9384                   21485847.6914
        45.2504         35.2504
 -10809300.51246  -8403564.89146  22952682.5394                   22952682.7344
        41.2504         38.0004
   4172260.07047   3273755.24647  22411045.4454                   22411043.2774
        47.0004         44.5004
 -23352135.49647 -18158419.99246  21274842.4224                   21274836.5204
        47.7504         39.0004
  -2139448.41046  -1784728.65644  24366939.2274                   24366941.2894
        37.7504         27.5004
   -927882.21145   -621228.21944  24909010.5234                   24909015.8404
        35.0004         27.5004
 -26509663.94947 -20359572.98046  20787361.1644                   20787357.0124
        45.5004         39.2504
 25  7  1  0 17 30.0000000  0 10G10G04G31G01G03G32G02G25G26G28
   6622126.90247   5161717.75446  22915201.0704                   22915200.6374
        42.0004         38.2504
  -3660817.79746  -2776163.82843  24433349.6414                   24433351.2624
        37.0004         19.0004
 -25467141.22348 -19786190.68447  20625728.9224                   20625724.3794
        48.5004         47.7504
 -20892654.59847 -16257046.52745  21474387.3134                   21474384.2344
        46.2504         35.7504
 -10902605.76646  -8476270.20346  22934927.4454                   22934927.3244
        41.5004         38.0004
   4229110.74247   3318054.44547  22421863.0164                   22421862.0354
        46.0004         44.2504
 -23348294.87147 -18155427.30946  21275573.1024                   21275567.5864
        46.5004         39.7504
  -2164939.32846  -1804591.69944  24362088.3914                   24362090.0634
        36.5004         25.7504
  -1023070.85945   -695401.03144  24890896.6484                   24890898.4494
        35.7504         25.5004
 -26509231.64547 -20359236.11346  20787443.1724                   20787439.4224
        45.7504         39.0004
 25  7  1  0 18  0.0000000  0 10G10G04G31G01G03G32G02G25G26G28
   6678000.96546   5205255.92646  22925833.6024                   22925833.8364
        41.5004         39.0004
  -3748659.35946  -2844611.62143  24416633.8754                   24416635.3954
        38.2504         19.7504
 -25534400.17247 -19838600.23047  20612929.8364                   20612925.5664
        47.5004         47.7504
 -20952376.18747 -16303582.80945  21463023.1334                   21463019.8164
        46.0004         35.5004
 -10995857.60946  -8548933.91846  22917182.7424                   22917181.8634
        41.2504         37.5004
   4286056.55947   3362427.78147  22432699.3364                   22432698.2814
        47.0004         44.5004
 -23343915.84448 -18152015.09046  21276406.5864                   21276400.6524
        49.0004         39.5004
  -2189919.62945  -1824056.81244  24357334.2894                   24357335.9454
        34.7504         27.0004
  -1118362.51646   -769654.18744  24872763.4384                   24872766.5004
        37.0004         28.0004
 -26508189.92247 -20358424.38746  20787641.9224                   20787637.5514
        47.2504         39.0004
 25  7  1  0 18 30.0000000  0 10G10G04G31G01G03G32G02G25G26G28
   6734148.20346   5249006.97746  22936517.8754                   22936517.6524
        41.5004         37.5004
  -3836344.70746  -2912937.76243  24399947.9844                   24399948.5234
        38.0004         19.2504
 -25601090.89147 -19890566.99648  20600239.0314                   20600234.9344
        47.2504         48.0004
 -21011577.84447 -16349713.95345  21451756.8674                   21451753.1724
        45.2504         35.5004
 -11089056.35246  -8621556.26246  22899447.2504                   22899446.0944
        41.5004         37.0004
   4343094.98047   3406873.25847  22443554.1094                   22443552.7114
        47.0004         44.5004
 -23339000.77048 -18148185.17646  21277342.0234                   21277335.9264
        48.2504         39.0004
  -2214389.34045  -1843124.14544  24352678.1644                   24352679.7114
        34.5004         27.7504
  -1213756.10946   -843986.69144  24854610.3054                   24854614.3204
        36.2504         28.2504
 -26506540.94547 -20357139.47346  20787955.4534                   20787951.2894
        47.5004         39.2504
 25  7  1  0 19  0.0000000  0 10G10G04G31G01G03G32G02G25G26G28
   6790567.39146   5292969.91446  22947254.2274                   22947255.5314
        41.2504         38.7504
  -3923874.75046  -2981142.87543  24383291.4454                   24383292.2544
        39.7504         18.2504
 -25667212.72747 -19942090.46947  20587656.4144                   20587651.7664
        47.0004         47.7504
 -21070258.74647 -16395439.31645  21440590.4534                   21440586.8404
        46.2504         35.5004
 -11182202.02746  -8694137.27046  22881721.9534                   22881720.9384
        41.5004         36.5004
   4400223.82447   3451389.21547  22454425.3754                   22454423.4494
        46.5004         44.0004
 -23333551.02048 -18143938.63346  21278378.8134                   21278373.0004
        48.5004         39.5004
  -2238348.02345  -1861793.25044  24348119.0784                   24348120.2464
        35.7504         26.7504
  -1309250.33646   -918397.57844  24836438.7034                   24836442.0084
        36.2504         27.5004
 -26504286.57847 -20355382.82446  20788384.5474                   20788380.3674
        47.0004         39.0004
 25  7  1  0 19 30.0000000  0 10G10G04G31G01G03G32G02G25G26G28
   6847259.10247   5337145.23446  22958042.5944                   22958042.6334
        43.5004         39.0004
  -4011248.77746  -3049226.34443  24366664.9694                   24366666.4064
        39.5004         19.7504
 -25732762.75047 -19993168.39147  20575181.9614                   20575178.2894
        46.2504         47.7504
 -21128416.56247 -16440757.07445  21429523.0314                   21429520.0784
        46.0004         35.5004
 -11275292.88746  -8766675.55146  22864007.5164                   22864006.8834
        40.2504         36.0004
   4457442.53147   3495975.18847  22465313.2034                   22465311.4064
        46.7504         44.0004
 -23327566.51248 -18139275.39846  21279517.9844                   21279511.9844
        48.5004         39.7504
  -2261793.68446  -1880062.55944  24343657.5164                   24343658.8164
        37.5004         27.0004
  -1404842.00446   -992884.47344  24818248.3524                   24818248.5394
        36.5004         27.5004
 -26501427.03947 -20353154.61346  20788928.2034                   20788924.5554
        47.2504         39.0004
 25  7  1  0 20  0.0000000  0 10G10G04G31G01G03G32G02G25G26G28
   6904220.65247   5381530.78146  22968883.1174                   22968881.9574
        42.5004         38.5004
  -4098469.16046  -3117190.13743  24350066.8134                   24350068.2304
        39.7504         19.2504
 -25797742.42247 -20043801.87547  20562817.1174                   20562812.3404
        47.0004         47.5004
 -21186051.94547 -16485667.75846  21418555.5394                   21418552.4144
        46.7504         36.0004
 -11368330.34046  -8839172.21945  22846301.9844                   22846301.8134
        39.7504         35.2504
   4514747.61747   3540628.45747  22476218.4064                   22476216.7704
        47.2504         44.0004
 -23321050.22747 -18134197.78946  21280757.7664                   21280751.8324
        46.7504         39.5004
  -2284727.52346  -1897933.04744  24339293.3834                   24339294.5354
        36.2504         28.2504
  -1500531.16445  -1067447.34844  24800038.7424                   24800042.3244
        34.2504         28.5004
 -26497965.70347 -20350457.47346  20789587.0164                   20789583.2504
        45.2504         39.2504
 25  7  1  0 20 30.0000000  0 10G10G04G31G01G03G32G02G25G26G28
   6961455.06347   5426128.97746  22979773.5004                   22979773.4574
        43.0004         39.5004
  -4185532.77046  -3185031.80543  24333498.8834                   24333500.0904
        37.5004         18.5004
 -25862146.48847 -20093986.83248  20550561.9774                   20550557.1764
        47.2504         48.0004
 -21243160.04747 -16530167.56645  21407688.1884                   21407685.0664
        46.5004         35.5004
 -11461310.25046  -8911624.03546  22828608.2974                   22828608.9774
        40.5004         36.2504
   4572140.94547   3585350.50047  22487139.7814                   22487137.8914
        46.5004         44.5004
 -23313999.59448 -18128703.80546  21282099.6254                   21282093.4344
        48.2504         39.0004
  -2307144.96945  -1915401.15644  24335027.5554                   24335028.5984
        35.0004         28.2504
  -1596312.20345  -1142081.71944  24781812.0784                   24781816.6564
        34.0004         28.5004
 -26493900.28547 -20347289.60946  20790360.5784                   20790356.7774
        47.0004         39.0004
 25  7  1  0 21  0.0000000  0 10G10G04G31G01G03G32G02G25G26G28
   7018958.46147   5470936.77746  22990715.8674                   22990715.2194
        44.0004         39.0004
  -4272443.08646  -3252753.97343  24316961.2974                   24316962.6454
        39.7504         22.0004
 -25925976.55148 -20143724.52348  20538415.3914                   20538410.6524
        48.2504         48.0004
 -21299742.78147 -16574257.99245  21396921.0864                   21396917.8134
        46.5004         35.5004
 -11554235.10246  -8984032.94546  22810926.1174                   22810926.3444
        41.2504         36.7504
   4629617.82848   3630137.64547  22498077.6644                   22498075.7464
        48.0004         44.2504
 -23306419.16447 -18122796.98846  21283542.1334                   21283535.5044
        47.5004         39.0004
  -2329048.43446  -1932468.80144  24330859.3754                   24330861.4844
        36.5004         28.5004
  -1692186.18745  -1216788.54344  24763567.3594                   24763570.8054
        34.7504         26.2504
 -26489235.37547 -20343654.62146  20791248.5394                   20791244.3754
        45.7504         39.0004
 25  7  1  0 21 30.0000000  0 10G10G04G31G01G03G32G02G25G26G28
   7076734.55147   5515957.05946  23001710.7664                   23001710.9924
        44.5004         40.0004
  -4359196.25846  -3320353.69943  24300452.2664                   24300453.9884
        37.5004         21.7504
 -25989227.40247 -20193010.88347  20526378.8674                   20526374.4804
        47.5004         47.7504
 -21355794.66447 -16617934.77746  21386254.8674                   21386251.4264
        46.5004         36.0004
 -11647100.03147  -9056395.16846  22793254.8834                   22793254.6214
        42.2504         37.7504
   4687180.98047   3674992.01647  22509031.2114                   22509030.0044
        46.7504         44.0004
 -23298305.66048 -18116474.79746  21285086.0004                   21285079.9264
        48.5004         39.2504
  -2350432.86746  -1949131.97344  24326790.9384                   24326792.3164
        37.0004         28.2504
  -1788146.93745  -1291563.04344  24745306.7274                   24745308.9224
        35.0004         26.5004
 -26483968.09847 -20339550.25046  20792250.8984                   20792246.8444
        46.5004         39.2504
 25  7  1  0 22  0.0000000  0 10G10G04G31G01G03G32G02G25G26G28
   7134775.44547   5561183.67646  23012755.7274                   23012755.6174
        44.7504         39.2504
  -4445799.95746  -3387836.96543  24283971.9614                   24283973.2624
        38.0004         21.0004
 -26051905.00847 -20241850.54747  20514451.7194                   20514447.2974
        47.7504         47.5004
 -21411321.63747 -16661202.53545  21375688.4774                   21375684.7194
        45.5004         35.2504
 -11739911.60547  -9128715.83646  22775593.1334                   22775592.6294
        42.0004         37.0004
   4744821.59847   3719906.75047  22520000.2504                   22519998.5084
        47.5004         44.0004
 -23289667.59847 -18109743.85246  21286729.7504                   21286723.8554
        47.7504         39.5004
  -2371304.58246  -1965395.62544  24322818.5704                   24322820.1604
        37.5004         28.5004
  -1884199.68045  -1366409.20744  24727028.7034                   24727031.9264
        34.5004         26.5004
 -26478107.11347 -20334983.25846  20793366.0474                   20793361.9924
        46.7504         40.0004
 25  7  1  0 22 30.0000000  0 10G10G04G31G01G03G32G02G25G26G28
   7193084.75447   5606619.45346  23023851.1254                   23023851.1844
        43.2504         39.5004
  -4532250.19146  -3455200.69943  24267520.3754                   24267521.9774
        37.0004         19.7504
 -26114003.63747 -20290239.05947  20502634.7274                   20502630.0984
        47.5004         47.7504
 -21466318.28947 -16704057.05945  21365222.7034                   21365219.3634
        46.7504         35.5004
 -11832664.82847  -9200991.04746  22757942.9844                   22757941.7344
        42.0004         37.0004
   4802542.41447   3764883.95347  22530983.8594                   22530981.7854
        46.7504         43.7504
 -23280501.77348 -18102601.67246  21288473.8984                   21288467.9144
        48.5004         39.0004
  -2391658.59046  -1981255.85944  24318945.1414                   24318946.2504
        36.5004         29.0004
  -1980337.93045  -1441321.96144  24708734.3984                   24708738.1914
        35.5004         26.5004
 -26471649.61747 -20329951.43746  20794594.7734                   20794591.1524
        47.0004         38.7504
 25  7  1  0 23  0.0000000  0 10G10G04G31G01G03G32G02G25G26G28
   7251662.68047   5652264.57446  23034998.4614                   23034997.3404
        44.5004         40.0004
  -4618546.57445  -3522444.46143  24251098.7424                   24251100.4844
        35.5004         19.2504
 -26175521.68448 -20338175.17648  20490928.1414                   20490923.7274
        48.0004         48.0004
 -21520782.47347 -16746496.67645  21354858.4304                   21354855.3754
        46.2504         35.2504
 -11925358.28146  -9273219.68746  22740303.7584                   22740303.4694
        41.0004         36.0004
   4860342.77047   3809923.14547  22541983.2274                   22541981.5744
        46.0004         44.0004
 -23270808.52348 -18095048.50046  21290318.6334                   21290312.6524
        48.7504         39.0004
  -2411493.22746  -1996711.41844  24315170.4454                   24315171.8204
        36.5004         27.7504
  -2076558.82845  -1516299.12944  24690423.0554                   24690425.7234
        35.2504         24.7504
 -26464596.13747 -20324455.21946  20795937.1334                   20795932.9304
        47.2504         39.5004
 25  7  1  0 23 30.0000000  0 10G10G04G31G01G03G32G02G25G26G28
   7310508.38347   5698118.27046  23046197.2424                   23046196.0314
        44.5004         40.0004
  -4704689.73045  -3589568.85243  24234706.6804                   24234708.1024
        35.0004         18.2504
 -26236458.07047 -20385658.05948  20479332.5784                   20479327.9224
        47.5004         48.0004
 -21574713.26247 -16788520.65645  21344595.8444                   21344592.7234
        46.5004         35.7504
 -12017991.37546  -9345401.27346  22722676.1254                   22722676.0354
        41.2504         37.2504
   4918220.86747   3855022.93447  22552996.9064                   22552995.8284
        45.5004         44.2504
 -23260589.00047 -18087085.25046  21292263.3524                   21292257.3204
        47.5004         39.0004
  -2430807.94545  -2011761.85244  24311495.8834                   24311497.5864
        35.0004         27.2504
  -2172860.48045  -1591339.25443  24672098.2114                   24672098.9414
        35.0004         22.7504
 -26456948.45347 -20318495.98846  20797392.7974                   20797388.7154
        46.0004         39.5004
 25  7  1  0 24  0.0000000  0 10G10G04G31G01G03G32G02G25G26G28
   7369619.78547   5744179.08646  23057444.2584                   23057445.1644
        43.5004         40.2504
  -4790681.36346  -3656575.18742  24218342.9924                   24218343.8794
        36.5004         17.7504
 -26296812.70347 -20432687.61748  20467847.4384                   20467843.0314
        47.2504         48.2504
 -21628110.80947 -16830129.12545  21334434.3204                   21334431.1884
        46.2504         35.2504
 -12110564.81246  -9417536.37146  22705060.1094                   22705060.0664
        41.7504         38.5004
   4976173.91847   3900181.13347  22564025.5084                   22564023.5904
        46.5004         44.2504
 -23249846.35248 -18078714.37946  21294307.5474                   21294301.4104
        48.0004         39.0004
  -2449603.35245  -2026407.60944  24307918.7894                   24307920.8914
        35.5004         27.7504
  -2269242.04346  -1666441.66044  24653757.9224                   24653761.0514
        37.0004         26.2504
 -26448709.39547 -20312075.94146  20798960.1724                   20798956.3714
        47.2504         39.0004
 25  7  1  0 24 30.0000000  0 10G10G04G31G01G03G32G02G25G26G28
   7428998.00047   5790447.78546  23068743.9774                   23068743.8244
        43.5004         39.5004
  -4876520.31246  -3723462.47343  24202007.3524                   24202008.3554
        36.5004         19.7504
 -26356582.95347 -20479261.80948  20456473.2274                   20456469.0124
        47.2504         48.2504
 -21680972.29347 -16871319.88345  21324374.9534                   21324372.3164
        46.5004         35.5004
 -12203076.21147  -9489623.12146  22687455.3914                   22687455.4024
        42.0004         39.0004
   5034202.10947   3945397.86347  22575067.5474                   22575065.6644
        47.0004         44.0004
 -23238579.72347 -18069935.21546  21296451.2814                   21296445.6134
        46.0004         39.2504
  -2467877.09446  -2040646.84444  24304441.5634                   24304443.2114
        37.0004         28.5004
  -2365699.91445  -1741603.45744  24635400.2664                   24635405.8674
        34.5004         26.2504
 -26439878.81247 -20305194.97346  20800640.6254                   20800636.9734
        45.5004         39.0004
 25  7  1  0 25  0.0000000  0 10G10G04G31G01G03G32G02G25G26G28
   7488645.29747   5836926.14546  23080095.4454                   23080094.7664
        44.0004         40.5004
  -4962203.94146  -3790228.77043  24185703.7664                   24185703.4924
        38.0004         19.5004
 -26415764.62947 -20525377.38348  20445211.9384                   20445207.3444
        47.5004         48.5004
 -21733293.59447 -16912089.72345  21314418.9774                   21314415.6414
        45.7504         35.5004
 -12295521.84447  -9561658.62946  22669863.3284                   22669863.1524
        42.7504         39.2504
   5092306.85947   3990674.26247  22586124.9144                   22586122.4884
        47.0004         44.0004
 -23226787.43047 -18060746.43746  21298695.5944                   21298690.1334
        46.2504         39.0004
  -2485625.41445  -2054476.65644  24301063.6334                   24301064.7854
        34.2504         27.2504
  -2462228.90246  -1816820.68444  24617031.8754                   24617035.2424
        36.0004         26.2504
 -26430455.27347 -20297851.95346  20802433.9064                   20802429.9304
        46.0004         39.0004
 25  7  1  0 25 30.0000000  0 10G10G04G31G01G03G32G02G25G26G28
   7548564.88746   5883616.65246  23091497.3984                   23091494.9304
        41.7504         38.5004
  -5047728.73846  -3856871.33643  24169428.2424                   24169428.9494
        37.5004         20.5004
 -26474352.94548 -20571030.59448  20434062.4844                   20434057.7934
        48.2504         48.5004
 -21785069.64847 -16952434.68745  21304566.1254                   21304563.0004
        46.5004         35.5004
 -12387897.10547  -9633639.29746  22652285.3134                   22652285.2854
        43.0004         38.7504
   5150490.67247   4036012.27047  22597196.6954                   22597195.5984
        47.2504         44.5004
 -23214467.18747 -18051146.26646  21301040.0084                   21301034.6884
        46.2504         39.0004
  -2502843.84445  -2067893.60544  24297786.5704                   24297787.2424
        33.7504         26.2504
  -2558822.88746  -1892088.64544  24598651.9304                   24598653.4844
        36.0004         27.0004
 -26420436.42647 -20290045.06246  20804340.5234                   20804336.3094
        45.5004         39.2504
 25  7  1  0 26  0.0000000  0 10G10G04G31G01G03G32G02G25G26G28
   7608748.36747   5930512.81346  23102949.9384                   23102949.2544
        42.7504         39.2504
  -5133102.85246  -3923396.50443  24153182.0164                   24153182.2034
        38.2504         21.7504
 -26532354.33248 -20616226.46148  20423025.0164                   20423020.6374
        48.5004         48.5004
 -21836307.04747 -16992359.91445  21294816.2344                   21294812.5204
        46.5004         35.7504
 -12480208.92646  -9705570.53546  22634719.1804                   22634718.6954
        41.7504         38.0004
   5208744.30147   4081404.68447  22608281.6644                   22608280.1254
        46.7504         43.7504
 -23201627.72747 -18041141.51246  21303483.3524                   21303477.6094
        47.2504         39.5004
  -2519539.42645  -2080903.10944  24294609.2424                   24294610.8834
        35.2504         27.5004
  -2655487.55145  -1967411.59844  24580256.9924                   24580259.6254
        33.7504         26.7504
 -26409831.63747 -20281781.59046  20806358.3364                   20806354.5084
        45.7504         38.7504
 25  7  1  0 26 30.0000000  0 10G10G04G31G01G03G32G02G25G26G28
   7669198.16847   5977616.48846  23114453.9064                   23114452.6764
        43.5004         39.5004
  -5218323.64146  -3989802.15243  24136964.8134                   24136964.9264
        38.2504         21.7504
 -26589764.43048 -20660961.58648  20412100.3524                   20412095.8524
        48.2504         48.5004
 -21887001.59447 -17031862.14546  21285169.7274                   21285165.9184
        46.5004         36.0004
 -12572453.48446  -9777449.36346  22617164.9384                   22617164.5394
        41.7504         37.5004
   5267069.42247   4126852.79747  22619380.3754                   22619379.1914
        47.0004         43.7504
 -23188267.37547 -18030730.86346  21306026.0394                   21306019.9844
        47.2504         38.7504
  -2535708.42245  -2093502.31243  24291533.3204                   24291534.0434
        32.5004         22.5004
  -2752217.66845  -2042785.53144  24561848.9454                   24561852.1454
        35.0004         28.0004
 -26398639.35547 -20273060.33646  20808488.2274                   20808484.2234
        46.5004         39.2504
 25  7  1  0 27  0.0000000  0 10G10G04G31G01G03G32G02G25G26G28
   7729913.03546   6024926.69546  23126007.2734                   23126007.1954
        41.7504         39.5004
  -5303391.98046  -4056089.08243  24120776.6094                   24120776.5314
        40.0004         22.7504
 -26646582.99248 -20705235.76248  20401288.1724                   20401283.6254
        48.2504         48.5004
 -21937152.75047 -17070940.96946  21275626.1884                   21275622.5784
        46.0004         36.0004
 -12664630.51246  -9849275.56646  22599624.4304                   22599623.7074
        41.7504         36.7504
   5325464.07047   4172355.08247  22630493.3204                   22630491.6134
        47.5004         43.7504
 -23174387.94547 -18019915.74246  21308667.3754                   21308661.1054
        46.2504         39.2504
  -2551350.80145  -2105691.18444  24288556.1024                   24288557.4304
        33.0004         25.2504
  -2849011.44945  -2118209.13344  24543430.0784                   24543431.5704
        35.0004         27.5004
 -26386861.75047 -20263882.98446  20810729.6414                   20810725.7464
        45.5004         39.2504
 25  7  1  0 27 30.0000000  0 10G10G04G31G01G03G32G02G25G26G28
   7790895.39546   6072445.39846  23137610.7584                   23137609.7114
        41.0004         37.5004
  -5388305.14846  -4122255.03543  24104617.7344                   24104618.6374
        39.7504         22.7504
 -26702806.03148 -20749045.90648  20390589.3444                   20390584.7544
        48.5004         48.5004
 -21986756.27047 -17109593.04346  21266186.3054                   21266183.4804
        47.0004         36.0004
 -12756736.03147  -9921046.04346  22582097.1954                   22582096.8634
        42.0004         37.7504
   5383930.02747   4217912.94147  22641618.5784                   22641617.7544
        47.5004         44.2504
 -23159987.60248 -18008694.71946  21311407.4064                   21311401.0474
        48.2504         39.2504
  -2566462.63345  -2117466.61344  24285681.2894                   24285682.8674
        34.2504         26.0004
  -2945863.69545  -2193678.27744  24524998.9454                   24525002.4804
        33.5004         25.0004
 -26374497.24247 -20254248.31646  20813082.6414                   20813078.5314
        47.5004         39.0004
 25  7  1  0 28  0.0000000  0 10G10G04G31G01G03G32G02G25G26G28
   7852146.37547   6120173.33246  23149268.0864                   23149266.9534
        43.7504         39.0004
  -5473061.84446  -4188299.10943  24088488.8834                   24088490.0394
        39.0004         23.0004
 -26758430.59848 -20792389.70348  20380004.2894                   20379999.5394
        48.7504         48.5004
 -22035809.35247 -17147816.21146  21256852.1484                   21256848.6764
        46.2504         36.2504
 -12848767.47347  -9992758.79346  22564584.2584                   22564584.2234
        42.5004         38.5004
   5442467.54747   4263526.56647  22652758.0634                   22652756.8484
        47.0004         43.7504
 -23145065.77348 -17997067.33246  21314246.7894                   21314240.6724
        48.2504         39.2504
  -2581041.69945  -2128826.93744  24282907.5314                   24282908.6414
        33.5004         27.2504
  -3042770.28945  -2269189.69944  24506559.0164                   24506562.6644
        35.5004         26.7504
 -26361545.87947 -20244156.34846  20815547.4534                   20815543.0664
        47.2504         39.0004
 25  7  1  0 28 30.0000000  0 10G10G04G31G01G03G32G02G25G26G28
   7913665.00447   6168109.84846  23160974.1254                   23160972.7734
        43.0004         38.0004
  -5557662.84046  -4254221.82844  24072389.5394                   24072391.3794
        40.2504         24.2504
 -26813455.90248 -20835266.53948  20369533.0634                   20369528.7154
        48.7504         48.7504
 -22084311.19947 -17185609.85246  21247622.3674                   21247618.9064
        45.5004         36.0004
 -12940724.31647 -10064413.41846  22547085.3284                   22547085.4734
        42.5004         38.5004
   5501074.96547   4309194.65247  22663910.5704                   22663908.6174
        46.5004         43.2504
 -23129624.63347 -17985035.29346  21317185.0234                   21317179.0704
        47.5004         38.7504
  -2595087.73845  -2139771.90244  24280233.8834                   24280234.8404
        34.0004         28.2504
  -3139729.35246  -2344742.06644  24488108.1804                   24488111.3794
        36.7504         28.0004
 -26348009.51247 -20233608.53146  20818122.9844                   20818118.9104
        46.7504         38.7504
 25  7  1  0 29  0.0000000  0 10G10G04G31G01G03G32G02G25G26G28
   7975451.53147   6216255.16846  23172731.1484                   23172731.4494
        42.2504         37.2504
  -5642107.31646  -4320022.62543  24056320.7504                   24056321.4184
        40.5004         22.0004
 -26867880.30148 -20877675.13748  20359176.7114                   20359171.8164
        49.0004         48.5004
 -22132259.70747 -17222972.31646  21238498.4924                   21238494.8444
        47.5004         36.2504
 -13032604.64847 -10136008.41846  22529600.8364                   22529600.6954
        42.2504         38.5004
   5559751.98847   4354916.97347  22675076.4844                   22675075.0124
        46.0004         43.2504
 -23113664.05147 -17972598.50046  21320222.4924                   21320216.7074
        47.5004         38.7504
  -2608599.09045  -2150300.18444  24277662.0004                   24277662.9654
        35.5004         27.5004
  -3236737.64545  -2420332.78944  24469647.7274                   24469650.3244
        35.7504         26.7504
 -26333888.80947 -20222605.38746  20820810.0314                   20820805.8054
        46.5004         38.5004
 25  7  1  0 29 30.0000000  0 10G10G04G31G01G03G32G02G25G26G28
   8037508.68447   6264611.32446  23184541.2734                   23184538.4264
        45.0004         38.0004
  -5726392.45346  -4385699.22743  24040281.5704                   24040281.8754
        40.7504         22.0004
 -26921699.18448 -20919611.91448  20348935.4844                   20348930.9224
        49.0004         49.0004
 -22179650.54747 -17259900.23046  21229480.1804                   21229476.4224
        46.5004         36.7504
 -13124404.34446 -10207540.57846  22512132.3204                   22512131.5314
        41.5004         38.2504
   5618500.59847   4400695.07847  22686256.3444                   22686254.9694
        46.2504         43.0004
 -23097182.16847 -17959755.49246  21323358.1414                   21323352.7894
        47.2504         38.5004
  -2621571.87945  -2160408.83644  24275194.2504                   24275194.6564
        32.2504         26.2504
  -3333789.41446  -2495957.37944  24451178.9224                   24451181.1334
        36.2504         26.7504
 -26319182.13347 -20211145.64846  20823608.4924                   20823604.5124
        47.5004         39.0004
 25  7  1  0 30  0.0000000  0 10G10G04G31G01G03G32G02G25G26G28
   8099833.82847   6313176.25846  23196400.1174                   23196401.0944
        42.2504         37.7504
  -5810520.61746  -4451253.49243  24024272.8054                   24024272.7584
        41.5004         22.7504
 -26974913.48848 -20961077.58648  20338808.9844                   20338803.9734
        49.0004         49.0004
 -22226484.68447 -17296394.34846  21220567.8134                   21220564.6954
        46.0004         36.7504
 -13216124.43047 -10279010.72346  22494678.2734                   22494677.6454
        42.7504         38.7504
   5677317.44147   4446526.35947  22697448.2664                   22697447.6134
        46.0004         42.7504
 -23080182.44147 -17946508.97746  21326593.9144                   21326587.6764
        46.7504         38.0004
  -2634007.56245  -2170098.99244  24272827.2424                   24272829.2034
        33.0004         26.7504
  -3430884.56646  -2571615.81644  24432702.5944                   24432704.8014
        37.7504         27.5004
 -26303893.20347 -20199232.19946  20826517.9614                   20826513.8834
        47.0004         39.7504
 25  7  1  0 30 30.0000000  0 10G10G04G31G01G03G32G02G25G26G28
   8162426.23847   6361949.57846  23208311.3054                   23208311.8094
        42.7504         37.5004
  -5894492.00446  -4516685.62543  24008292.9304                   24008292.8244
        40.7504         22.5004
 -27027522.08248 -21002071.28148  20328797.8364                   20328793.3484
        48.0004         48.7504
 -22272760.85547 -17332453.68746  21211761.7424                   21211758.1954
        46.7504         36.5004
 -13307763.78547 -10350417.96546  22477240.0394                   22477239.2154
        43.2504         38.5004
   5736201.38347   4492409.91047  22708653.8674                   22708652.5664
        45.7504         42.5004
 -23062666.31247 -17932860.06246  21329926.8444                   21329920.5164
        47.0004         37.7504
  -2645905.43445  -2179370.05144  24270563.7274                   24270565.6414
        34.2504         27.5004
  -3528020.63346  -2647306.12144  24414217.2034                   24414219.9024
        36.5004         25.0004
 -26288023.55947 -20186866.25446  20829537.8914                   20829533.9024
        47.0004         39.0004
 25  7  1  0 31  0.0000000  0 10G10G04G31G01G03G32G02G25G26G28
   8225283.89547   6410929.47746  23220273.6884                   23220273.1844
        45.0004         38.0004
  -5978308.59046  -4581997.11744  23992343.6954                   23992344.0434
        40.5004         24.2504
 -27079525.30548 -21042593.25048  20318901.9694                   20318897.3404
        48.0004         49.0004
 -22318479.68047 -17368078.73846  21203061.5704                   21203058.8524
        46.7504         36.7504
 -13399323.08647 -10421762.82846  22459817.3914                   22459816.2234
        43.5004         40.0004
   5795149.59847   4538343.55147  22719871.5634                   22719870.0554
        46.0004         42.2504
 -23044636.57047 -17918810.93446  21333358.3594                   21333352.1374
        46.7504         38.5004
  -2657266.65245  -2188222.95344  24268401.7274                   24268402.9694
        32.7504         27.0004
  -3625196.68446  -2723027.57043  24395726.4144                   24395727.2504
        36.5004         22.5004
 -26271576.39847 -20174050.29346  20832667.7114                   20832663.6334
        46.2504         39.0004
 25  7  1  0 31 30.0000000  0 10G10G04G31G01G03G32G02G25G26G28
   8288408.11747   6460117.12145  23232284.2974                   23232283.3094
        42.5004         35.0004
  -6061968.49646  -4647186.59043  23976423.5234                   23976423.2114
        39.0004         22.0004
 -27130920.73448 -21082641.62148  20309121.6094                   20309117.2114
        49.0004         49.0004
 -22363637.93447 -17403266.97746  21194468.0944                   21194465.1134
        46.7504         36.7504
 -13490799.14847 -10493042.83646  22442409.2114                   22442409.4184
        43.7504         40.0004
   5854162.99647   4584327.97746  22731101.2424                   22731099.5664
        45.5004         41.7504
 -23026092.37947 -17904360.93446  21336886.8674                   21336880.4064
        47.0004         38.2504
  -2668088.45745  -2196655.53144  24266342.5234                   24266342.8204
        33.5004         26.0004
  -3722408.24246  -2798776.78544  24377227.9844                   24377228.1024
        37.7504         24.2504
 -26254551.34047 -20160784.02746  20835907.2894                   20835903.7814
        47.0004         39.0004
 25  7  1  0 32  0.0000000  0 10G10G04G31G01G03G32G02G25G26G28
   8351800.10547   6509513.40246  23244349.0084                   23244349.4694
        44.7504         39.5004
  -6145470.34046  -4712252.78543  23960532.9304                   23960534.2934
        37.0004         22.5004
 -27181705.76648 -21122214.35548  20299457.7424                   20299453.1054
        49.0004         49.0004
 -22408232.83247 -17438016.23446  21185982.3674                   21185979.0204
        45.2504         36.5004
 -13582189.27747 -10564255.86346  22425018.5234                   22425018.3754
        43.7504         40.5004
   5913242.05947   4630363.58247  22742343.3674                   22742342.0474
        46.2504         42.2504
 -23007033.66847 -17889510.01246  21340513.7034                   21340507.9384
        47.0004         38.7504
  -2678368.52045  -2204665.96544  24264386.1484                   24264386.4304
        33.2504         27.5004
  -3819651.12545  -2874550.34044  24358721.0554                   24358725.2624
        35.0004         24.2504
 -26236948.34847 -20147067.42246  20839257.3284                   20839253.6844
        47.0004         39.2504
 25  7  1  0 32 30.0000000  0 10G10G04G31G01G03G32G02G25G26G28
   8415458.22347   6559117.06646  23256462.6564                   23256461.3404
        43.5004         36.5004
  -6228815.48446  -4777197.03543  23944672.9844                   23944673.5204
        37.5004         21.2504
 -27231880.39548 -21161311.45748  20289909.5004                   20289905.0274
        48.7504         49.0004
 -22452264.41447 -17472326.53946  21177603.1174                   21177599.9064
        46.5004         36.5004
 -13673493.46947 -10635401.91846  22407643.3594                   22407643.6374
        43.0004         40.0004
   5972384.56647   4676448.60547  22753597.9144                   22753596.9804
        46.2504         42.0004
 -22987462.73447 -17874259.96946  21344237.9844                   21344231.9454
        47.5004         39.0004
  -2688107.39145  -2212254.73444  24262534.2194                   24262534.1294
        32.7504         25.7504
  -3916924.17645  -2950347.33244  24340211.4224                   24340214.4184
        33.7504         25.7504
 -26218770.17247 -20132902.61746  20842716.4224                   20842712.5124
        46.0004         39.0004
 25  7  1  0 33  0.0000000  0 10G10G04G31G01G03G32G02G25G26G28
   8479381.75447   6608927.54746  23268626.5164                   23268625.7424
        44.2504         36.5004
  -6312004.17246  -4842019.25043  23928843.2034                   23928842.9104
        40.0004         21.0004
 -27281443.19548 -21199931.79348  20280477.9144                   20280473.1414
        48.0004         49.0004
 -22495731.53947 -17506197.01246  21169331.5234                   21169328.0984
        46.5004         36.5004
 -13764710.59047 -10706480.12946  22390285.2974                   22390284.9734
        43.0004         40.0004
   6031589.43847   4722582.23847  22764864.2814                   22764863.5514
        46.5004         42.5004
 -22967380.68747 -17858611.64846  21348059.5784                   21348053.8874
        47.0004         38.7504
  -2697304.73045  -2219421.49244  24260782.1254                   24260783.6914
        32.2504         24.5004
  -4014224.55546  -3026165.66844  24321695.8834                   24321697.3634
        36.5004         28.5004
 -26200018.44147 -20118290.88746  20846284.6414                   20846280.9024
        46.2504         38.5004
 25  7  1  0 33 30.0000000  0 10G10G04G31G01G03G32G02G25G26G28
   8543570.71547   6658944.77346  23280842.5634                   23280841.9384
        45.0004         37.2504
  -6395036.28946  -4906719.48043  23913042.8054                   23913042.6214
        40.5004         21.5004
 -27330393.09848 -21238074.55948  20271162.9534                   20271158.4734
        48.5004         48.5004
 -22538632.74247 -17539626.51246  21161168.0944                   21161164.5314
        46.5004         37.0004
 -13855839.00047 -10777489.23846  22372944.2274                   22372944.0124
        43.0004         40.0004
   6090856.02747   4768763.96147  22776142.2504                   22776141.6414
        45.0004         42.0004
 -22946788.82047 -17842566.06246  21351977.6094                   21351972.0634
        47.0004         39.0004
  -2705959.19945  -2226165.24643  24259135.8054                   24259136.9694
        32.7504         22.7504
  -4111549.53546  -3102003.16845  24303175.0944                   24303178.2734
        36.2504         30.2504
 -26180694.43047 -20103233.21146  20849961.6954                   20849958.2384
        46.2504         39.2504
 25  7  1  0 34  0.0000000  0 10G10G04G31G01G03G32G02G25G26G28
   8608026.51647   6709170.07846  23293106.2114                   23293107.5004
        42.7504         37.2504
  -6477909.90246  -4971296.21943  23897271.5944                   23897271.2774
        39.7504         19.0004
 -27378727.09448 -21275737.39148  20261965.2734                   20261960.6214
        48.7504         48.5004
 -22580964.84847 -17572612.55546  21153112.3984                   21153108.9024
        47.0004         36.5004
 -13946875.47747 -10848426.70746  22355620.4844                   22355620.3524
        44.2504         40.0004
   6150185.27047   4814994.51646  22787432.5634                   22787431.0824
        46.0004         41.2504
 -22925686.24648 -17826122.52746  21355993.4774                   21355987.9184
        48.0004         39.5004
  -2714068.41445  -2232484.11343  24257592.6644                   24257593.9104
        33.2504         23.2504
  -4208894.37546  -3177856.10245  24284650.8674                   24284654.6254
        37.5004         32.5004
 -26160797.74647 -20087729.31646  20853747.9304                   20853744.1414
        45.7504         39.2504
 25  7  1  0 34 30.0000000  0 10G10G04G31G01G03G32G02G25G26G28
   8672745.72347   6759600.55545  23305422.9844                   23305420.7734
        44.2504         35.5004
  -6560628.16446  -5035751.80142  23881530.2344                   23881531.2544
        36.5004         17.2504
 -27426447.05948 -21312921.76648  20252884.8204                   20252879.9384
        49.0004         48.7504
 -22622729.67647 -17605156.56646  21145164.9534                   21145161.2344
        46.5004         36.5004
 -14037821.70747 -10919293.86346  22338314.4224                   22338314.0474
        42.7504         40.5004
   6209573.33247   4861270.88346  22798733.0234                   22798732.2734
        45.7504         41.0004
 -22904077.18748 -17809284.33646  21360106.0554                   21360100.1524
        48.0004         38.5004
  -2721634.68745  -2238379.93443  24256152.1334                   24256153.1054
        31.7504         22.7504
  -4306259.35946  -3253724.74245  24266123.3754                   24266126.5234
        39.5004         34.0004
 -26140332.88347 -20071782.67646  20857642.4534                   20857638.7304
        46.5004         39.0004
 25  7  1  0 35  0.0000000  0 10G10G04G31G01G03G32G02G25G26G28
   8737729.76647   6810237.37946  23317788.5944                   23317788.4264
        44.5004         36.5004
  -6643189.23046  -5100085.09043  23865819.6024                   23865821.5044
        37.0004         19.0004
 -27473550.16848 -21349625.47748  20243921.3674                   20243916.0594
        48.7504         49.0004
 -22663924.24247 -17637256.22346  21137325.7584                   21137321.9344
        46.0004         36.5004
 -14128674.53947 -10990088.23046  22321024.8834                   22321025.0704
        42.7504         40.5004
   6269021.08647   4907593.75846  22810045.9924                   22810045.2664
        45.5004         41.5004
 -22881961.24247 -17792051.15646  21364314.1024                   21364308.2074
        47.7504         38.2504
  -2728655.37145  -2243850.64544  24254816.6414                   24254818.0274
        31.7504         24.7504
  -4403640.00846  -3329605.62945  24247592.8524                   24247594.1054
        39.5004         32.2504
 -26119299.59447 -20055393.10546  20861644.9384                   20861641.1684
        46.0004         39.2504
 25  7  1  0 35 30.0000000  0 10G10G04G31G01G03G32G02G25G26G28
   8802977.69947   6861079.88746  23330205.0234                   23330205.9144
        44.0004         37.7504
  -6725593.80146  -5164296.39843  23850139.5864                   23850139.1644
        38.2504         18.2504
 -27520035.68048 -21385847.94148  20235075.7114                   20235070.6994
        48.2504         49.0004
 -22704547.86347 -17668910.98846  21129595.4144                   21129592.0664
        46.2504         36.5004
 -14219433.08247 -11060809.11746  22303754.4534                   22303754.3874
        43.0004         41.5004
   6328527.18047   4953962.09846  22821370.1884                   22821368.9304
        45.5004         41.0004
 -22859339.94947 -17774424.19946  21368619.0084                   21368613.0514
        47.0004         38.5004
  -2735130.60245  -2248896.24644  24253584.9454                   24253585.7734
        33.5004         25.5004
  -4501033.99646  -3405496.91045  24229058.6334                   24229060.7074
        38.2504         31.7504
 -26097699.96547 -20038562.23446  20865755.3594                   20865751.6374
        46.5004         39.0004
 25  7  1  0 36  0.0000000  0 10G10G04G31G01G03G32G02G25G26G28
   8868489.02047   6912127.63346  23342672.2734                   23342670.0274
        45.2504         37.0004
  -6807842.13346  -5228385.83243  23834488.0554                   23834488.1094
        38.5004         19.2504
 -27565902.66048 -21421588.43448  20226347.2274                   20226342.8594
        48.7504         49.0004
 -22744599.53147 -17700120.07046  21121973.9224                   21121970.2974
        46.0004         37.0004
 -14310096.12947 -11131455.58647  22286501.6174                   22286501.7154
        43.5004         42.0004
   6388090.63747   5000375.14146  22832703.8754                   22832703.7194
        45.5004         41.0004
 -22836214.65647 -17756404.51646  21373019.5944                   21373013.7154
        47.5004         38.5004
  -2741059.74245  -2253516.38744  24252455.0314                   24252457.5474
        31.0004         25.5004
  -4598438.82046  -3481396.60945  24210523.1174                   24210525.7384
        37.5004         30.7504
 -26075535.73847 -20021291.41446  20869973.3754                   20869969.4224
        46.2504         39.0004
 25  7  1  0 36 30.0000000  0 10G10G04G31G01G03G32G02G25G26G28
   8934264.91047   6963381.43446  23355187.9304                   23355189.1564
        43.2504         37.5004
  -6889932.50846  -5292352.21143  23818865.6254                   23818866.9184
        38.0004         19.5004
 -27611148.52348 -21456844.93048  20217737.1884                   20217732.5594
        48.5004         49.0004
 -22784076.28947 -17730881.18046  21114461.5784                   21114458.0744
        45.7504         36.7504
 -14400660.51647 -11202025.19546  22269268.1644                   22269267.6254
        44.0004         41.7504
   6447712.30547   5046833.53946  22844049.8364                   22844049.3714
        45.5004         41.5004
 -22812585.08247 -17737991.88346  21377515.8444                   21377510.0704
        47.2504         38.5004
  -2746440.36354  -2257709.06654  24251430.6884                   24251433.3634
        29.0004         24.5004
  -4695849.88346  -3557301.21144  24191986.2814                   24191988.3754
        37.0004         28.7504
 -26052806.75047 -20003580.52046  20874298.1024                   20874294.2154
        46.5004         39.2504
 25  7  1  0 37  0.0000000  0 10G10G04G31G01G03G32G02G25G26G28
   9000306.46547   7014842.36346  23367756.3984                   23367754.8134
        44.5004         37.2504
  -6971863.49646  -5356194.41443  23803274.8364                   23803275.0084
        37.5004         19.0004
 -27655771.17648 -21491615.80948  20209245.6024                   20209241.1414
        48.0004         49.0004
 -22822975.65647 -17761192.36746  21107059.4454                   21107055.3984
        45.5004         36.5004
 -14491123.35547 -11272515.69146  22252053.8444                   22252052.6054
        44.5004         41.0004
   6507392.82447   5093337.81646  22855407.7504                   22855406.7704
        45.7504         41.5004
 -22788451.07447 -17719186.18446  21382108.7734                   21382102.5394
        46.2504         38.2504
  -2751270.55945  -2261472.87944  24250512.9774                   24250514.1334
        31.7504         24.2504
  -4793262.97346  -3633207.38344  24173448.7424                   24173449.5434
        36.5004         27.0004
 -26029513.16047 -19985429.68446  20878731.0164                   20878726.6054
        47.0004         38.7504
 25  7  1  0 37 30.0000000  0 10G10G04G31G01G03G32G02G25G26G28
   9066611.10946   7066508.22746  23380371.9924                   23380373.2074
        41.7504         36.2504
  -7053637.38346  -5419914.16043  23787713.7274                   23787713.4844
        37.5004         18.2504
 -27699771.54747 -21525901.78948  20200872.6024                   20200868.1174
        47.7504         49.0004
 -22861298.64847 -17791054.43446  21099766.7664                   21099762.9574
        47.2504         36.2504
 -14581485.41047 -11342927.65246  22234857.9774                   22234857.6844
        44.0004         41.0004
   6567129.24247   5139885.64546  22866774.3134                   22866773.4804
        45.5004         41.5004
 -22763816.35247 -17699990.32446  21386796.6804                   21386790.9344
        47.5004         38.5004
  -2755551.96145  -2264809.02344  24249697.3594                   24249699.1914
        31.7504         24.7504
  -4890677.49245  -3709114.71144  24154911.2274                   24154913.2934
        35.7504         28.0004
 -26005658.75847 -19966841.84446  20883270.4304                   20883266.3244
        47.0004         38.7504
 25  7  1  0 38  0.0000000  0 10G10G04G31G01G03G32G02G25G26G28
   9133179.39847   7118379.54746  23393040.8914                   23393040.9304
        43.5004         36.0004
  -7135253.17246  -5483510.78943  23772183.1724                   23772182.6294
        38.2504         20.2504
 -27743147.63748 -21559701.32848  20192618.0784                   20192613.6524
        48.5004         49.0004
 -22899043.08247 -17820465.67246  21092584.2734                   21092580.9614
        46.2504         36.7504
 -14671744.13347 -11413259.10246  22217682.7664                   22217681.8164
        44.7504         41.7504
   6626921.81347   5186477.20746  22878152.6484                   22878150.9184
        46.0004         41.2504
 -22738681.01647 -17680404.37146  21391579.5864                   21391573.8204
        46.5004         38.7504
  -2759282.93445  -2267716.26244  24248987.8134                   24248989.1374
        31.7504         26.5004
  -4988089.41845  -3785019.96944  24136374.7344                   24136376.7114
        35.7504         28.7504
 -25981244.09847 -19947817.43746  20887915.8204                   20887911.9494
        46.5004         38.7504
 25  7  1  0 38 30.0000000  0 10G10G04G31G01G03G32G02G25G26G28
   9200010.98446   7170456.05546  23405757.3284                   23405758.8404
        40.2504         36.2504
  -7216710.80146  -5546984.11743  23756682.0004                   23756682.3634
        38.2504         21.7504
 -27785898.35948 -21593013.57048  20184483.3204                   20184478.6724
        49.0004         49.0004
 -22936207.86347 -17849425.25046  21085511.7504                   21085508.4384
        46.5004         36.2504
 -14761898.16447 -11483508.95347  22200527.1724                   22200526.7814
        45.5004         42.2504
   6686769.77047   5233111.93846  22889541.2034                   22889540.5514
        45.7504         41.0004
 -22713046.32047 -17660429.30546  21396457.5784                   21396451.8444
        47.5004         38.2504
  -2762462.85245  -2270194.14144  24248384.0704                   24248384.5554
        32.7504         26.5004
  -5085496.03545  -3860921.07844  24117838.6644                   24117840.8954
        33.7504         28.7504
 -25956270.81647 -19928357.74646  20892668.2734                   20892664.1954
        46.7504         38.2504
 25  7  1  0 39  0.0000000  0 10G10G04G31G01G03G32G02G25G26G28
   9267100.80147   7222733.71546  23418525.7424                   23418525.9534
        44.5004         37.2504
  -7298015.07846  -5610338.02743  23741209.1564                   23741210.0704
        38.0004         21.7504
 -27828027.60248 -21625841.53948  20176466.5634                   20176461.5944
        48.5004         49.0004
 -22972796.44147 -17877935.82846  21078549.1094                   21078545.3754
        45.5004         36.0004
 -14851950.34047 -11553679.46147  22183390.8984                   22183390.2074
        46.0004         43.0004
   6746667.71947   5279785.63746  22900939.7584                   22900939.0084
        46.0004         41.7504
 -22686917.85547 -17640069.50046  21401429.7974                   21401423.9064
        46.5004         39.0004
  -2765095.77745  -2272245.78544  24247881.8134                   24247883.0824
        32.0004         26.0004
  -5182898.98046  -3936819.33644  24099303.1414                   24099304.9964
        36.2504         29.5004
 -25930745.14847 -19908467.61746  20897526.1174                   20897522.0904
        45.7504         38.7504
 25  7  1  0 39 30.0000000  0 10G10G04G31G01G03G32G02G25G26G28
   9334452.80147   7275215.73046  23431342.7194                   23431342.6994
        43.5004         37.5004
  -7379161.74246  -5673569.07843  23725767.3914                   23725768.0664
        38.7504         22.2504
 -27869530.00848 -21658181.06248  20168568.6094                   20168564.0594
        48.0004         49.0004
 -23008803.55947 -17905993.31646  21071697.3984                   21071693.8164
        45.5004         36.5004
 -14941895.05947 -11623766.22347  22166275.0314                   22166274.2774
        45.5004         43.2504
   6806619.11747   5326500.98046  22912348.0704                   22912347.0234
        45.2504         41.5004
 -22660292.85547 -17619322.78546  21406496.5554                   21406490.7424
        46.5004         38.0004
  -2767176.96945  -2273867.51644  24247486.5704                   24247487.4184
        32.5004         25.2504
  -5280291.12146  -4012709.18745  24080770.0004                   24080772.4884
        36.2504         31.7504
 -25904664.50047 -19888145.04746  20902489.0084                   20902485.0314
        45.7504         38.5004
 25  7  1  0 40  0.0000000  0 10G10G04G31G01G03G32G02G25G26G28
   9402065.62146   7327900.94545  23444207.3594                   23444208.9494
        41.2504         35.0004
  -7460151.50446  -5736677.88744  23710356.1414                   23710356.6954
        41.0004         25.2504
 -27910405.37148 -21690031.98448  20160790.2894                   20160785.6644
        48.0004         48.7504
 -23044228.74647 -17933597.35946  21064955.8134                   21064952.4144
        46.2504         37.0004
 -15031731.37947 -11693768.51647  22149179.1254                   22149178.2894
        45.2504         42.2504
   6866622.80547   5373257.05946  22923766.0784                   22923765.0864
        44.7504         41.0004
 -22633173.88747 -17598191.15246  21411656.8444                   21411650.8674
        47.5004         38.0004
  -2768706.63345  -2275059.46543  24247195.6804                   24247195.3094
        32.0004         22.5004
  -5377670.19546  -4088588.85945  24062238.9384                   24062241.6174
        37.0004         32.0004
 -25878031.16447 -19867391.80546  20907556.9454                   20907553.0944
        46.2504         38.5004
 25  7  1  0 40 30.0000000  0 10G10G04G31G01G03G32G02G25G26G28
   9469939.28546   7380789.43845  23457123.3054                   23457124.2034
        41.0004         34.5004
  -7540984.21146  -5799664.32044  23694974.2664                   23694974.9224
        40.5004         27.2504
 -27950653.01647 -21721393.76648  20153131.7194                   20153126.6564
        47.2504         48.7504
 -23079070.87947 -17960747.07046  21058325.3834                   21058322.0554
        45.5004         36.2504
 -15121457.64847 -11763685.06646  22132104.8914                   22132103.8134
        43.7504         41.5004
   6926678.16047   5420053.39846  22935194.7584                   22935193.9064
        45.2504         41.5004
 -22605561.71147 -17576675.20346  21416911.7274                   21416905.6294
        46.5004         38.2504
  -2769683.96555  -2275821.06653  24247009.6954                   24247009.7934
        31.7504         22.0004
  -5475033.21146  -4164456.02345  24043711.9064                   24043713.9184
        37.2504         32.7504
 -25850846.63347 -19846209.06246  20912730.0864                   20912726.3674
        46.0004         38.7504
 25  7  1  0 41  0.0000000  0 10G10G04G31G01G03G32G02G25G26G28
   9538071.79346   7433879.68046  23470089.1954                   23470089.8244
        41.7504         37.0004
  -7621661.15246  -5862529.42644  23679622.1884                   23679621.8634
        40.5004         24.5004
 -27990272.95348 -21752266.43048  20145591.9224                   20145587.2034
        48.5004         49.0004
 -23113330.15647 -17987442.60546  21051806.7424                   21051803.4574
        45.7504         36.5004
 -15211073.57447 -11833515.64846  22115051.7894                   22115050.3364
        45.0004         41.7504
   6986783.09847   5466888.37946  22946632.3594                   22946631.5664
        44.2504         41.5004
 -22577459.05147 -17554777.06246  21422259.3594                   21422253.4064
        46.7504         38.2504
  -2770110.01255  -2276153.06653  24246926.7734                   24246928.8054
        30.0004         23.2504
  -5572378.48446  -4240309.35245  24025186.9924                   24025189.6374
        36.7504         32.0004
 -25823113.96547 -19824599.19546  20918007.3054                   20918003.3244
        46.0004         38.5004
 25  7  1  0 41 30.0000000  0 10G10G04G31G01G03G32G02G25G26G28
   9606462.39847   7487170.87146  23483105.5474                   23483104.4654
        43.7504         37.5004
  -7702183.07446  -5925273.66044  23664299.3364                   23664298.7664
        41.0004         25.0004
 -28029265.14847 -21782649.94548  20138171.9534                   20138167.4304
        47.2504         49.2504
 -23147006.19147 -18013683.67646  21045398.4454                   21045394.9534
        46.5004         37.0004
 -15300578.18747 -11903259.46946  22098019.6954                   22098018.4574
        44.5004         41.7504
   7046936.40247   5513761.03546  22958078.9064                   22958077.6604
        44.0004         41.2504
 -22548867.93047 -17532498.29346  21427699.8204                   21427694.2344
        47.0004         37.7504
  -2769984.81655  -2276055.53953  24246952.4064                   24246953.0864
        31.0004         22.7504
  -5669703.76646  -4316147.09045  24006666.7974                   24006668.8364
        36.5004         30.5004
 -25794835.43447 -19802563.98846  20923388.9454                   20923384.9924
        46.7504         38.5004
 25  7  1  0 42  0.0000000  0 10G10G04G31G01G03G32G02G25G26G28
   9675111.64146   7540663.77045  23496165.9774                   23496167.4534
        38.7504         33.7504
  -7782548.66846  -5987896.10244  23649006.1644                   23649005.5354
        40.7504         24.2504
 -28067627.66047 -21812542.79748  20130871.8674                   20130867.2544
        47.7504         49.2504
 -23180096.69547 -18039468.48446  21039101.3204                   21039098.1684
        46.0004         37.0004
 -15389968.62547 -11972914.30946  22081009.4224                   22081008.5354
        44.0004         41.7504
   7107138.68447   5560671.87547  22969535.5394                   22969533.8134
        44.5004         42.0004
 -22519788.62947 -17509839.13346  21433233.6804                   21433227.7584
        46.7504         38.2504
  -2769306.77355  -2275527.20753  24247081.3284                   24247081.4884
        30.5004         21.0004
  -5767004.71545  -4391965.87545  23988150.5004                   23988153.1054
        35.7504         30.2504
 -25766011.52347 -19780103.80546  20928873.8364                   20928869.7664
        46.5004         38.2504
 25  7  1  0 42 30.0000000  0 10G10G04G31G01G03G32G02G25G26G28
   9744018.32846   7594357.14545  23509279.2584                   23509280.6094
        41.5004         35.7504
  -7862758.94146  -6050397.52044  23633742.4844                   23633743.0004
        40.5004         24.5004
 -28105360.44148 -21841944.94948  20123691.2894                   20123686.8874
        48.0004         49.2504
 -23212601.70347 -18064797.06246  21032916.0234                   21032912.6254
        46.0004         37.0004
 -15479244.19947 -12042479.64546  22064020.5084                   22064019.9064
        43.7504         41.5004
   7167388.33247   5607619.62547  22981000.5004                   22980999.7234
        45.0004         42.0004
 -22490223.35248 -17486801.28546  21438859.9064                   21438853.9494
        48.5004         38.0004
  -2768076.35245  -2274568.46543  24247315.2114                   24247315.5394
        30.5004         22.5004
  -5864279.44146  -4467764.21544  23969639.9144                   23969643.2274
        37.2504         29.0004
 -25736644.81647 -19757220.67246  20934461.9304                   20934458.1094
        46.5004         38.5004
 25  7  1  0 43  0.0000000  0 10G10G04G31G01G03G32G02G25G26G28
   9813182.62146   7648251.37945  23522441.3284                   23522440.9144
        40.0004         34.2504
  -7942813.21546  -6112777.38343  23618508.5234                   23618508.6454
        39.5004         22.7504
 -28142462.06647 -21870855.29348  20116631.2034                   20116626.3954
        47.7504         49.0004
 -23244519.59047 -18089668.14846  21026842.1724                   21026838.5394
        46.5004         37.5004
 -15568402.60547 -12111953.67646  22047054.0314                   22047052.8524
        43.5004         41.0004
   7227685.39847   5654604.31347  22992474.4384                   22992473.4774
        45.0004         42.0004
 -22460172.76647 -17463385.26646  21444578.6094                   21444572.6374
        47.5004         37.5004
  -2766292.42645  -2273178.42244  24247655.6254                   24247655.8244
        32.7504         25.2504
  -5961524.15646  -4543539.15644  23951133.7584                   23951137.6994
        36.5004         28.7504
 -25706736.43047 -19733915.43746  20940153.2894                   20940149.1994
        46.5004         38.0004
 25  7  1  0 43 30.0000000  0 10G10G04G31G01G03G32G02G25G26G28
   9882606.29347   7702347.60246  23535653.2894                   23535652.6804
        43.0004         38.2504
  -8022709.35946  -6175034.03543  23603303.8914                   23603304.0514
        39.2504         22.7504
 -28178929.91448 -21899271.78548  20109691.6884                   20109686.8674
        48.2504         49.0004
 -23275847.19147 -18114079.27046  21020880.7114                   21020877.1484
        46.2504         36.5004
 -15657440.03547 -12181333.46146  22030110.7894                   22030109.4574
        44.0004         41.0004
   7288031.44547   5701627.16846  23003958.4304                   23003957.1134
        45.2504         41.7504
 -22429636.23047 -17439590.58646  21450388.9144                   21450383.4384
        47.5004         37.7504
  -2763952.64845  -2271355.22344  24248099.9844                   24248101.3284
        33.0004         25.5004
  -6058733.78146  -4619286.83244  23932635.8834                   23932636.3014
        39.0004         27.0004
 -25676285.99247 -19710187.84046  20945947.7584                   20945944.0824
        46.5004         38.2504
 25  7  1  0 44  0.0000000  0 10G10G04G31G01G03G32G02G25G26G28
   9952286.27046   7756643.59845  23548911.1024                   23548912.5554
        40.2504         34.0004
  -8102449.90646  -6237169.46543  23588130.8594                   23588129.4804
        39.5004         20.2504
 -28214765.53547 -21927195.63348  20102872.4844                   20102867.5044
        47.7504         49.2504
 -23306586.05147 -18138031.62946  21015031.0634                   21015027.4264
        45.7504         37.0004
 -15746357.26647 -12250619.57846  22013190.2664                   22013189.3054
        44.5004         40.5004
   7348423.39547   5748685.78946  23015450.3524                   23015449.3594
        45.7504         41.5004
 -22398617.66048 -17415420.30146  21456291.9844                   21456286.1024
        48.0004         37.7504
  -2761058.93045  -2269100.38344  24248650.9384                   24248651.9304
        32.7504         24.2504
  -6155907.66846  -4695006.70744  23914144.7974                   23914145.8834
        38.5004         27.5004
 -25645297.60547 -19686041.06246  20951844.8284                   20951840.7384
        45.7504         37.7504
 25  7  1  0 44 30.0000000  0 10G10G04G31G01G03G32G02G25G26G28
  10022223.61347   7811140.17245  23562221.0234                   23562219.8954
        42.2504         35.0004
  -8182033.44546  -6299182.49243  23572986.6174                   23572986.5944
        39.0004         21.2504
 -28249966.80147 -21954625.18448  20096173.8834                   20096169.3244
        47.7504         49.2504
 -23336733.90247 -18161523.46146  21009294.3444                   21009290.8984
        46.5004         37.0004
 -15835151.28547 -12319809.67246  21996293.2274                   21996292.1954
        45.2504         41.5004
   7408862.02347   5795780.80146  23026951.3204                   23026949.9024
        44.7504         41.0004
 -22367117.16047 -17390874.48846  21462286.2034                   21462280.3954
        47.2504         37.5004
  -2757609.69545  -2266412.66844  24249307.6414                   24249307.7504
        33.0004         25.5004
  -6253041.55146  -4770695.35544  23895661.0704                   23895662.6214
        39.0004         29.2504
 -25613771.76647 -19661475.48046  20957843.6334                   20957840.0164
        46.5004         38.0004
 25  7  1  0 45  0.0000000  0 10G10G04G31G01G03G32G02G25G26G28
  10092415.30147   7865834.89846  23575578.0864                   23575579.5124
        42.5004         37.5004
  -8261462.52746  -6361075.23043  23557871.1254                   23557871.2154
        39.5004         20.7504
 -28284535.57448 -21981561.88348  20089595.6484                   20089590.6414
        48.5004         49.5004
 -23366292.30947 -18184555.98446  21003669.4064                   21003666.2854
        47.0004         37.0004
 -15923822.91847 -12388904.39147  21979419.5084                   21979418.7974
        44.2504         42.2504
   7469344.27047   5842909.78546  23038461.3444                   23038459.3014
        44.5004         40.7504
 -22335138.77747 -17365956.29746  21468371.6024                   21468365.5784
        47.7504         37.5004
  -2753607.01245  -2263293.67643  24250068.8674                   24250069.8834
        33.0004         23.2504
  -6350134.87946  -4846352.37945  23877184.9774                   23877186.5044
        38.2504         31.7504
 -25581712.66447 -19636494.37546  20963944.3834                   20963940.5594
        46.2504         38.2504
 25  7  1  0 45 30.0000000  0 10G10G04G31G01G03G32G02G25G26G28
  11738280.89547   9148327.41445  23888776.1174                   23888775.6024
        42.5004         33.7504
  -6765312.22746  -5195243.73443  23842579.8364                   23842578.6454
        40.0004         21.5004
 -26743047.89148 -20780402.64148  20382931.0474                   20382926.3324
        48.7504         49.2504
 -21819837.19147 -16979526.02746  21297950.3984                   21297947.0394
        46.0004         37.0004
 -14436945.13747 -11230298.27047  22262362.9064                   22262361.9654
        43.5004         42.2504
   9105289.82047   7117672.50846  23349771.1484                   23349769.9654
        45.0004         41.7504
 -20727262.63347 -16113065.82846  21774340.1024                   21774334.7854
        47.5004         37.5004
  -1173628.49645  -1032141.59044  24550728.6484                   24550729.3364
        32.7504         25.5004
  -4871759.05146  -3694371.08645  24158510.5004                   24158511.6994
        40.0004         32.5004
 -23973700.93747 -18383498.24246  21269938.8754                   21269935.0784
        46.7504         37.7504
 25  7  1  0 46  0.0000000  0 10G10G04G31G01G03G32G02G25G26G28
  11808983.83247   9203420.64846  23902229.6724                   23902231.6724
        42.5004         37.0004
  -6844428.49246  -5256892.68043  23827523.8834                   23827522.6484
        41.0004         22.5004
 -26776345.77348 -20806349.03148  20376594.7734                   20376589.8594
        48.2504         49.0004
 -21848210.22347 -17001634.88746  21292551.1484                   21292547.3954
        46.2504         37.0004
 -14525362.84847 -11299195.11747  22245537.4774                   22245536.7584
        43.5004         42.0004
   9165861.45747   7164871.14846  23361297.2344                   23361296.6604
        44.0004         41.5004
 -20694328.96547 -16087403.25446  21780607.3914                   21780601.3014
        47.5004         37.5004
  -1168514.36745  -1028156.55544  24551701.1174                   24551703.3134
        33.5004         26.2504
  -4968758.13346  -3769954.68445  24140052.1884                   24140052.6254
        39.7504         31.0004
 -23940576.84047 -18357687.27346  21276242.8054                   21276238.3094
        47.0004         38.0004
 25  7  1  0 46 30.0000000  0 10G10G04G31G01G03G32G02G25G26G28
  11879943.14547   9258713.41845  23915734.3054                   23915735.2304
        43.0004         35.7504
  -6923387.02046  -5318418.68743  23812498.4454                   23812496.8954
        41.5004         21.5004
 -26809006.02747 -20831798.56648  20370379.0784                   20370374.6334
        46.5004         49.0004
 -21875987.93447 -17023279.85946  21287265.0864                   21287261.3164
        46.2504         37.0004
 -14613649.58247 -11367989.91847  22228737.0084                   22228735.9184
        43.7504         42.0004
   9226478.46947   7212105.14146  23372832.6174                   23372831.2624
        43.7504         41.0004
 -20660918.43747 -16061369.12546  21786965.2504                   21786959.6174
        46.7504         38.0004
  -1162842.68445  -1023737.04344  24552781.5474                   24552782.1374
        33.7504         25.5004
  -5065704.08246  -3845496.88745  24121604.2424                   24121605.0474
        39.2504         31.0004
 -23906921.59047 -18331462.41046  21282646.7814                   21282642.8874
        46.7504         38.5004
 25  7  1  0 47  0.0000000  0 10G10G04G31G01G03G32G02G25G26G28
  11951157.34447   9314205.01245  23929285.0314                   23929284.4534
        43.0004         33.2504
  -7002188.65647  -5379822.46944  23797502.9224                   23797502.1684
        42.0004         24.5004
 -26841028.78148 -20856751.34048  20364285.8524                   20364280.9804
        48.2504         49.2504
 -21903170.35947 -17044460.97346  21282092.8834                   21282088.7504
        46.2504         37.0004
 -14701804.51247 -11436682.02347  22211961.9304                   22211961.1604
        43.0004         42.0004
   9287139.40647   7259373.35546  23384375.5394                   23384374.4774
        43.2504         40.5004
 -20627033.62147 -16034965.41446  21793413.3284                   21793407.4844
        47.5004         38.0004
  -1156613.96145  -1018883.51244  24553966.1804                   24553967.3244
        34.5004         26.0004
  -5162594.73846  -3920996.00044  24103166.0634                   24103166.5634
        39.0004         29.7504
 -23872737.84847 -18304825.75046  21289152.1174                   21289147.8754
        46.5004         38.0004
 25  7  1  0 47 30.0000000  0 10G10G04G31G01G03G32G02G25G26G28
  12022623.12547   9369892.53945  23942884.4224                   23942885.4024
        43.0004         34.5004
  -7080836.41847  -5441106.35244  23782536.2274                   23782536.2814
        42.2504         24.5004
 -26872416.63348 -20881209.40248  20358312.9924                   20358308.2624
        48.0004         49.5004
 -21929759.74247 -17065179.97346  21277032.3594                   21277029.3014
        46.2504         36.7504
 -14789828.94947 -11505272.45347  22195211.4384                   22195210.4924
        43.5004         42.5004
   9347840.70747   7306673.03146  23395926.7034                   23395925.8204
        44.2504         40.5004
 -20592678.83247 -16008195.48846  21799950.4064                   21799944.6724
        47.5004         38.0004
  -1149831.15645  -1013598.21544  24555257.3984                   24555257.9694
        35.2504         27.5004
  -5259429.98046  -3996451.95345  24084738.3674                   24084739.6334
        37.7504         30.0004
 -23838030.46547 -18277781.05146  21295756.3914                   21295752.4574
        47.5004         39.0004
 25  7  1  0 48  0.0000000  0 10G10G04G31G01G03G32G02G25G26G28
  12094344.46147   9425779.16445  23956533.3594                   23956533.7304
        43.5004         34.2504
  -7159325.75846  -5502266.77744  23767600.4694                   23767599.8714
        40.7504         26.2504
 -26903164.49648 -20905168.77048  20352461.9454                   20352456.7424
        48.2504         49.5004
 -21955750.56647 -17085432.56646  21272086.9534                   21272083.1804
        46.0004         37.0004
 -14877716.34847 -11573756.09047  22178486.6644                   22178486.2424
        43.0004         43.5004
   9408586.55147   7354007.39546  23407486.4304                   23407485.8754
        44.5004         40.5004
 -20557851.15247 -15981057.07446  21806578.0944                   21806572.3874
        47.5004         37.2504
  -1142489.37945  -1007877.36344  24556654.8524                   24556655.9534
        33.5004         25.7504
  -5356202.14146  -4071858.70745  24066323.3444                   24066325.5394
        38.5004         31.5004
 -23802796.71547 -18250326.19946  21302461.4384                   21302457.1724
        47.0004         38.2504
 25  7  1  0 48 30.0000000  0 10G10G04G31G01G03G32G02G25G26G28
  12166317.14546   9481861.77345  23970228.1644                   23970226.5514
        41.5004         30.2504
  -7237660.50446  -5563306.77044  23752693.4844                   23752693.5354
        40.0004         26.7504
 -26933275.53948 -20928631.91848  20346731.7734                   20346727.2544
        48.5004         49.5004
 -21981146.03147 -17105221.24246  21267254.2664                   21267250.4654
        47.0004         37.2504
 -14965468.88347 -11642134.61747  22161787.8754                   22161787.1844
        44.0004         43.7504
   9469372.56347   7401373.06346  23419053.7894                   23419053.1414
        43.2504         40.0004
 -20522556.07047 -15953554.44546  21813294.4774                   21813289.1954
        47.2504         36.7504
  -1134592.37145  -1001723.86344  24558156.5554                   24558158.8324
        35.5004         26.0004
  -5452911.83246  -4147216.77745  24047919.6174                   24047922.0704
        39.2504         31.2504
 -23767042.25847 -18222465.59446  21309264.8284                   21309261.1564
        47.5004         38.0004
 25  7  1  0 49  0.0000000  0 10G10G04G31G01G03G32G02G25G26G28
  12238540.37147   9538139.50846  23983972.5164                   23983973.3524
        43.7504         37.0004
  -7315840.82046  -5624226.40644  23737816.4304                   23737816.5704
        40.0004         25.2504
 -26962749.33647 -20951598.50048  20341123.1644                   20341118.3094
        47.7504         49.5004
 -22005945.56647 -17124545.55946  21262534.9694                   21262531.3244
        47.0004         37.0004
 -15053084.87947 -11710406.77747  22145114.9614                   22145114.7814
        44.5004         43.5004
   9530198.19147   7448769.60946  23430628.2424                   23430627.9304
        43.7504         39.5004
 -20486795.24247 -15925688.88746  21820099.3364                   21820093.5354
        47.5004         36.7504
  -1126140.10546   -995137.67644  24559765.2424                   24559766.8204
        36.0004         26.7504
  -5549556.16446  -4222523.95745  24029529.1484                   24029530.1724
        40.0004         30.7504
 -23730769.13747 -18194200.84046  21316167.6804                   21316163.6414
        47.2504         37.7504
 25  7  1  0 49 30.0000000  0 10G10G04G31G01G03G32G02G25G26G28
  12311014.39146   9594612.63744  23997763.4774                   23997761.7584
        41.0004         28.0004
  -7393866.00446  -5685025.18744  23722968.8054                   23722968.4064
        39.0004         24.0004
 -26991584.86348 -20974067.73048  20335635.8444                   20335631.3914
        49.0004         49.5004
 -22030147.67647 -17143404.35946  21257929.7194                   21257926.3164
        47.7504         37.5004
 -15140561.87147 -11778570.62147  22128468.8914                   22128467.8014
        44.7504         43.2504
   9591063.52747   7496197.11346  23442210.5084                   23442210.1684
        44.0004         40.2504
 -20450569.50447 -15897461.07046  21826993.2274                   21826987.3094
        47.0004         37.0004
  -1117131.68746   -988118.14544  24561480.0394                   24561482.2074
        37.0004         28.5004
  -5646131.34446  -4297777.27044  24011151.5314                   24011151.4414
        40.0004         29.7504
 -23693978.52747 -18165532.84446  21323168.5004                   21323164.7974
        47.2504         37.5004
 25  7  1  0 50  0.0000000  0 10G10G04G31G01G03G32G02G25G26G28
  12383734.16447   9651277.40645  24011602.4844                   24011602.5044
        42.5004         34.7504
  -7471740.68746  -5745706.66443  23708149.6334                   23708149.0514
        39.2504         22.0004
 -27019786.24248 -20996042.81248  20330269.3674                   20330264.9064
        48.0004         49.5004
 -22053756.32847 -17161800.71146  21253437.1724                   21253433.6294
        46.2504         37.5004
 -15227902.53547 -11846628.23847  22111848.8284                   22111847.7304
        44.2504         43.2504
   9651963.65247   7543651.69546  23453799.6254                   23453798.8444
        43.0004         39.5004
 -20413885.28947 -15868875.99646  21833973.9614                   21833968.2584
        47.7504         37.0004
  -1107571.67646   -980668.79744  24563299.2584                   24563300.6914
        36.5004         26.7504
  -5742638.78146  -4372977.82445  23992787.2814                   23992787.1174
        39.5004         31.5004
 -23656676.92247 -18136466.66846  21330266.5634                   21330262.8794
        47.2504         38.0004
 25  7  1  0 50 30.0000000  0 10G10G04G31G01G03G32G02G25G26G28
  12456700.60246   9708134.24245  24025487.1644                   24025488.2114
        41.5004         34.0004
  -7549463.36746  -5806269.71943  23693359.7424                   23693359.0354
        38.7504         22.5004
 -27047351.51647 -21017522.24248  20325024.0474                   20325019.4414
        47.5004         49.5004
 -22076769.27747 -17179732.88746  21249057.7584                   21249054.1214
        47.2504         37.5004
 -15315103.56247 -11914577.06247  22095255.0474                   22095253.7624
        44.5004         43.7504
   9712899.55147   7591134.14846  23465395.2504                   23465394.6024
        43.5004         38.7504
 -20376742.44548 -15839933.55946  21841042.0314                   21841036.8014
        48.0004         38.0004
  -1097458.42646   -972788.33644  24565223.4144                   24565224.4614
        37.0004         27.0004
  -5839073.83646  -4448121.92645  23974435.0474                   23974437.6414
        39.2504         32.5004
 -23618864.69147 -18107002.60946  21337461.9614                   21337458.3284
        47.2504         37.5004
 25  7  1  0 51  0.0000000  0 10G10G04G31G01G03G32G02G25G26G28
  12529916.39846   9765185.40245  24039420.2424                   24039420.5704
        41.2504         33.0004
  -7627030.96546  -5866711.93043  23678599.0234                   23678598.0744
        38.5004         22.2504
 -27074277.02748 -21038503.14148  20319900.1094                   20319895.3444
        48.2504         49.5004
 -22099182.82448 -17197197.99646  21244792.7194                   21244789.2464
        48.0004         37.5004
 -15402159.94947 -11982413.17247  22078688.1884                   22078687.4844
        45.5004         44.0004
   9773873.95347   7638646.62546  23476998.5004                   23476997.3554
        43.5004         38.5004
 -20339139.66847 -15810632.73046  21848197.7584                   21848192.4534
        47.7504         37.5004
  -1086788.80146   -964474.33644  24567253.7194                   24567254.9384
        36.2504         26.0004
  -5935430.20346  -4523204.69945  23956099.6024                   23956101.2974
        38.5004         32.0004
 -23580540.66447 -18077139.75046  21344754.9454                   21344751.5594
        47.7504         38.0004
 25  7  1  0 51 30.0000000  0 10G10G04G31G01G03G32G02G25G26G28
  12603382.44946   9822431.64545  24053399.8834                   24053400.9574
        41.0004         32.7504
  -7704441.96946  -5927032.07443  23663867.3204                   23663867.4104
        39.0004         22.0004
 -27100560.94948 -21058984.11748  20314898.2424                   20314893.5354
        48.0004         49.5004
 -22120994.74647 -17214194.29746  21240642.0474                   21240638.4304
        47.2504         37.5004
 -15489068.36747 -12050133.98447  22062150.3204                   22062149.4494
        45.2504         44.2504
   9834888.00047   7686189.98846  23488609.3364                   23488607.5864
        43.0004         39.2504
 -20301076.77347 -15780973.36746  21855441.2584                   21855435.1684
        47.5004         37.5004
  -1075561.12546   -955725.50444  24569391.0554                   24569391.9884
        37.2504         27.0004
  -6031703.22746  -4598222.54745  23937779.5474                   23937780.5784
        38.7504         31.5004
 -23541705.25047 -18046878.39546  21352145.3054                   21352141.4184
        47.0004         38.5004
 25  7  1  0 52  0.0000000  0 10G10G04G31G01G03G32G02G25G26G28
  12677094.72346   9879869.62945  24067427.4774                   24067428.6914
        40.2504         34.0004
  -7781699.98446  -5987233.00843  23649166.0314                   23649165.8834
        40.0004         22.0004
 -27126207.04748 -21078968.08248  20310018.0234                   20310013.3674
        48.2504         49.5004
 -22142208.10547 -17230724.19546  21236604.9064                   21236601.6644
        47.2504         37.2504
 -15575830.53147 -12117740.83247  22045639.8984                   22045638.7424
        45.5004         43.7504
   9895937.63347   7733761.07846  23500226.2424                   23500226.1214
        42.5004         38.5004
 -20262559.52347 -15750959.95346  21862770.5004                   21862764.5984
        47.7504         37.5004
  -1063779.16045   -946544.75044  24571632.8134                   24571632.9884
        35.5004         26.5004
  -6127893.29746  -4673175.78545  23919475.2894                   23919476.1994
        39.0004         32.5004
 -23502364.02047 -18016222.90646  21359631.5394                   21359627.7854
        47.7504         38.0004
 25  7  1  0 52 30.0000000  0 10G10G04G31G01G03G32G02G25G26G28
  12751055.48847   9937501.32845  24081501.1094                   24081502.1764
        42.2504         33.0004
  -7858802.02346  -6047312.41843  23634493.8754                   23634492.8794
        40.7504         22.7504
 -27151211.53548 -21098452.09448  20305260.0394                   20305254.8914
        48.5004         49.5004
 -22162819.21547 -17246784.80546  21232682.8914                   21232679.4384
        47.5004         37.0004
 -15662441.53947 -12185229.90647  22029158.1334                   22029157.5124
        44.5004         42.7504
   9957025.46147   7781361.93446  23511851.5164                   23511851.1374
        43.7504         39.0004
 -20223586.47348 -15720591.38346  21870186.8984                   21870181.2464
        48.2504         37.7504
  -1051439.82046   -936929.67244  24573980.1954                   24573981.4654
        36.0004         27.2504
  -6223994.30546  -4748059.58645  23901186.8204                   23901188.8794
        36.2504         31.0004
 -23462515.86347 -17985172.41046  21367214.4384                   21367210.8364
        47.2504         38.0004
 25  7  1  0 53  0.0000000  0 10G10G04G31G01G03G32G02G25G26G28
  12825259.77346   9995322.78145  24095621.7734                   24095622.9534
        38.0004         32.2504
  -7935752.91046  -6107274.07044  23619850.8364                   23619850.3324
        41.0004         24.5004
 -27175578.83248 -21117439.59848  20300623.1724                   20300617.7344
        48.5004         49.7504
 -22182832.34447 -17262379.45346  21228874.5394                   21228871.2544
        47.5004         37.0004
 -15748904.27747 -12252603.45347  22012705.2034                   22012703.8014
        45.0004         43.2504
  10018146.29747   7828988.51246  23523482.6484                   23523481.7344
        44.2504         38.5004
 -20184164.00447 -15689872.62546  21877688.4844                   21877683.0514
        47.7504         37.7504
  -1038547.86746   -926884.04344  24576433.9844                   24576435.4574
        36.0004         25.7504
  -6320007.79346  -4822875.17645  23882916.0554                   23882918.5864
        38.7504         32.5004
 -23422167.55148 -17953732.18746  21374892.5394                   21374889.0514
        48.0004         38.2504
 25  7  1  0 53 30.0000000  0 10G10G04G31G01G03G32G02G25G26G28
  12899710.52746  10053336.23846  24109790.0314                   24109791.1954
        41.2504         36.7504
  -8012548.66046  -6167114.83643  23605237.0554                   23605236.0634
        41.0004         22.0004
 -27199304.80948 -21135927.36348  20296108.1484                   20296103.5124
        48.2504         50.0004
 -22202243.05947 -17277504.69146  21225180.5704                   21225177.7504
        47.2504         36.7504
 -15835212.90647 -12319856.91847  21996281.2194                   21996279.9924
        44.7504         43.5004
  10079303.69947   7876643.59046  23535119.6484                   23535118.3914
        43.0004         37.5004
 -20144289.84047 -15658801.87946  21885276.6024                   21885271.0234
        46.7504         37.2504
  -1025099.47345   -916404.76244  24578992.8054                   24578993.9304
        35.7504         26.0004
  -6415926.57046  -4897616.99645  23864664.2114                   23864665.2234
        39.7504         33.5004
 -23381317.15647 -17921900.72746  21382666.0084                   21382662.3874
        47.2504         38.0004
 25  7  1  0 54  0.0000000  0 10G10G04G31G01G03G32G02G25G26G28
  12974408.29346  10111542.19945  24124003.6334                   24124003.8244
        38.7504         31.2504
  -8089188.41846  -6226834.03944  23590652.3594                   23590651.6564
        40.7504         25.0004
 -27222388.50847 -21153914.65248  20291715.5554                   20291711.0004
        47.5004         50.2504
 -22221049.86747 -17292159.35546  21221601.9064                   21221598.6684
        45.5004         36.7504
 -15921364.61347 -12386988.08247  21979886.8134                   21979886.0554
        45.0004         44.0004
  10140498.24647   7924327.59846  23546764.6484                   23546763.0434
        43.7504         36.5004
 -20103964.81647 -15627379.84046  21892950.4064                   21892944.9534
        47.0004         37.0004
  -1011093.74646   -905491.21144  24581657.2974                   24581657.9774
        36.2504         25.0004
  -6511746.57446  -4972281.87145  23846429.5234                   23846430.4104
        37.7504         31.7504
 -23339965.71947 -17889678.84846  21390534.9384                   21390531.5084
        47.5004         38.0004
 25  7  1  0 54 30.0000000  0 10G10G04G31G01G03G32G02G25G26G28
  13049348.59846  10169937.15245  24138265.1644                   24138265.4064
        38.0004         33.0004
  -8165676.23446  -6286434.86344  23576097.1024                   23576096.1374
        41.7504         24.5004
 -27244833.61347 -21171404.33248  20287444.2814                   20287439.7814
        47.5004         50.0004
 -22239256.27347 -17306346.16846  21218137.5164                   21218133.8094
        47.7504         37.0004
 -16007361.41447 -12453998.53947  21963521.8594                   21963521.5634
        45.0004         44.0004
  10201725.57447   7972037.15646  23558416.4454                   23558415.0354
        43.7504         38.0004
 -20063194.73047 -15595610.97346  21900708.2894                   21900702.5084
        46.7504         37.0004
   -996534.69946   -894146.50444  24584429.2894                   24584427.3204
        36.0004         24.7504
  -6607468.60546  -5046870.35945  23828214.0634                   23828215.5274
        38.0004         31.7504
 -23298119.21147 -17857071.19146  21398498.2664                   21398494.6644
        47.5004         38.0004
 25  7  1  0 55  0.0000000  0 10G10G04G31G01G03G32G02G25G26G28
  13124532.69946  10228522.08245  24152572.4224                   24152573.9964
        39.2504         35.7504
  -8242010.11746  -6345915.72744  23561571.9454                   23561570.8674
        41.0004         27.7504
 -27266638.12148 -21188394.84448  20283294.9844                   20283290.6374
        48.7504         50.0004
 -22256859.84047 -17320063.23446  21214787.3364                   21214783.5864
        46.2504         36.7504
 -16093199.42247 -12520885.26247  21947187.1254                   21947187.0634
        45.2504         44.2504
  10262987.31347   8019773.54346  23570074.4224                   23570073.1684
        45.0004         38.5004
 -20021979.19947 -15563495.02046  21908551.7584                   21908545.5784
        47.0004         37.0004
   -981420.66046   -882369.31644  24587305.0164                   24587304.7934
        37.5004         24.5004
  -6703087.33646  -5121378.39845  23810018.0554                   23810019.7894
        39.0004         31.2504
 -23255777.68447 -17824077.80946  21406555.5084                   21406551.8484
        47.0004         38.0004
 25  7  1  0 55 30.0000000  0 10G10G04G31G01G03G32G02G25G26G28
  13199961.67646  10287297.74645  24166924.6414                   24166926.9384
        37.7504         31.5004
  -8318188.50847  -6405275.43444  23547075.3444                   23547074.9144
        42.0004         28.2504
 -27287799.85248 -21204884.50048  20279267.9694                   20279263.2624
        49.0004         50.0004
 -22273858.52047 -17333308.97346  21211552.3834                   21211549.2814
        47.5004         36.7504
 -16178875.13347 -12587645.52047  21930884.2194                   21930883.3794
        46.2504         44.5004
  10324284.65247   8067537.64846  23581738.6644                   23581737.8014
        44.2504         38.5004
 -19980318.54347 -15531032.21146  21916479.3524                   21916473.3594
        47.0004         37.2504
   -965750.05946   -870158.48044  24590287.1484                   24590287.7974
        37.0004         25.7504
  -6798598.15646  -5195802.32045  23791843.3914                   23791845.7704
        37.5004         31.7504
 -23212941.64147 -17790699.09046  21414706.7194                   21414703.5314
        46.7504         38.0004
 25  7  1  0 56  0.0000000  0 10G10G04G31G01G03G32G02G25G26G28
  13275632.35946  10346261.87945  24181326.1094                   24181326.6094
        40.2504         34.5004
  -8394213.94546  -6464515.93744  23532608.1254                   23532607.8794
        40.2504         26.5004
 -27308321.32447 -21220875.25048  20275363.1174                   20275358.1954
        47.7504         50.0004
 -22290254.42247 -17346084.99646  21208432.4304                   21208429.1564
        47.0004         36.7504
 -16264389.00847 -12654279.68447  21914611.4304                   21914610.6054
        46.2504         44.5004
  10385614.83647   8115327.35546  23593408.9844                   23593408.2504
        44.0004         38.5004
 -19938217.08247 -15498225.93046  21924491.1644                   21924485.5314
        47.0004         37.7504
   -949525.51646   -857516.02343  24593374.0634                   24593374.1454
        37.0004         22.2504
  -6894000.25846  -5270141.51645  23773689.6414                   23773690.0864
        39.0004         33.0004
 -23169615.51247 -17756938.48446  21422951.9774                   21422947.8874
        47.0004         38.2504
 25  7  1  0 56 30.0000000  0 10G10G04G31G01G03G32G02G25G26G28
  13351545.04346  10405414.51645  24195770.9534                   24195773.3874
        37.7504         34.0004
  -8470085.60246  -6523636.63744  23518170.0864                   23518169.4774
        39.2504         26.5004
 -27328201.40247 -21236366.21148  20271579.7274                   20271575.0594
        47.5004         49.7504
 -22306046.31247 -17358390.37146  21205427.7344                   21205424.1684
        46.2504         36.7504
 -16349738.34047 -12720785.61747  21898369.7274                   21898368.7114
        45.7504         44.0004
  10446978.33247   8163143.03946  23605086.8984                   23605085.6524
        44.5004         38.5004
 -19895675.51247 -15465076.68446  21932586.7664                   21932581.2664
        46.5004         38.0004
   -932746.38346   -844441.36344  24596567.8204                   24596566.2384
        38.5004         25.5004
  -6989289.46146  -5344392.77045  23755555.8674                   23755557.0164
        38.2504         31.7504
 -23125800.58247 -17722796.99646  21431289.4064                   21431285.8204
        46.5004         37.5004
 25  7  1  0 57  0.0000000  0 10G10G04G31G01G03G32G02G25G26G28
  13427700.50846  10464756.24645  24210263.0784                   24210265.3674
        37.5004         34.0004
  -8545802.22746  -6582636.52044  23503761.4614                   23503761.0824
        37.2504         26.0004
 -27347439.22347 -21251356.71148  20267918.8444                   20267914.1604
        47.5004         49.5004
 -22321232.50447 -17370223.77346  21202538.2424                   21202534.4414
        47.0004         37.5004
 -16434919.77747 -12787160.72347  21882160.2894                   21882159.5864
        46.5004         44.7504
  10508376.09847   8210985.41446  23616770.5084                   23616769.1454
        45.5004         39.0004
 -19852694.65247 -15431585.14846  21940765.2664                   21940760.1914
        47.0004         37.5004
   -915411.68446   -830933.80943  24599865.8204                   24599865.3794
        37.2504         23.7504
  -7084461.32846  -5418552.58245  23737444.8674                   23737446.5784
        38.7504         31.7504
 -23081497.53547 -17688275.15646  21439719.9224                   21439716.3914
        47.2504         37.7504
 25  7  1  0 57 30.0000000  0 10G10G04G31G01G03G32G02G25G26G28
  13504096.80546  10524285.76645  24224801.5944                   24224801.4924
        40.5004         34.5004
  -8621364.94146  -6641516.48044  23489382.1724                   23489382.1604
        37.0004         25.5004
 -27366035.77347 -21265847.53148  20264380.1724                   20264374.8874
        47.0004         49.5004
 -22335813.75047 -17381585.79746  21199763.3914                   21199759.5434
        46.5004         37.0004
 -16519932.49247 -12853404.34847  21865982.8204                   21865982.6524
        46.5004         45.5004
  10569806.77747   8258853.43046  23628460.2814                   23628459.3204
        44.7504         39.2504
 -19809277.40647 -15397753.58246  21949027.6644                   21949021.7974
        46.5004         37.0004
   -897522.70746   -816994.37143  24603269.7734                   24603270.8324
        37.7504         23.0004
  -7179513.72346  -5492619.29345  23719357.5554                   23719358.4844
        39.2504         32.5004
 -23036709.66447 -17653375.52746  21448242.6724                   21448239.0944
        46.7504         37.0004
 25  7  1  0 58  0.0000000  0 10G10G04G31G01G03G32G02G25G26G28
  13580732.76646  10584002.01645  24239384.0944                   24239384.6914
        37.7504         32.5004
  -8696774.53146  -6700277.12144  23475032.9224                   23475032.1844
        37.5004         24.5004
 -27383991.63747 -21279839.10248  20260963.1954                   20260958.2274
        47.5004         49.5004
 -22349790.42647 -17392476.71946  21197103.5634                   21197100.1884
        47.0004         37.5004
 -16604775.12147 -12919515.44547  21849837.8674                   21849837.1294
        46.5004         45.5004
  10631269.35547   8306746.29746  23640156.6484                   23640155.0004
        44.2504         38.7504
 -19765426.20747 -15363583.86746  21957372.2424                   21957366.6414
        46.0004         37.5004
   -879080.34446   -802623.72743  24606779.2504                   24606780.0634
        39.0004         23.7504
  -7274443.98446  -5566590.84045  23701292.2664                   23701293.7974
        40.0004         34.5004
 -22991439.61347 -17618100.18446  21456857.4304                   21456853.6174
        45.5004         37.2504
 25  7  1  0 58 30.0000000  0 10G10G04G31G01G03G32G02G25G26G28
  13657606.62946  10643903.57045  24254013.3524                   24254014.3014
        40.5004         35.2504
  -8772032.18046  -6758919.36344  23460711.0864                   23460710.8834
        37.7504         26.7504
 -27401307.64547 -21293332.08648  20257667.8594                   20257662.6724
        47.5004         49.5004
 -22363163.44547 -17402897.25846  21194558.9924                   21194555.0474
        47.0004         37.2504
 -16689446.95747 -12985493.46947  21833725.2034                   21833724.4734
        47.0004         45.0004
  10692762.39847   8354662.88346  23651857.5554                   23651857.1334
        44.5004         39.2504
 -19721144.10247 -15329078.37546  21965799.0004                   21965793.9144
        46.5004         38.0004
   -860086.12946   -787823.05143  24610393.9384                   24610393.2934
        37.5004         22.5004
  -7369250.20746  -5640465.71545  23683251.6724                   23683252.6684
        40.0004         34.2504
 -22945690.76647 -17582451.75046  21465562.8984                   21465559.2584
        46.5004         37.2504
 25  7  1  0 59  0.0000000  0 10G10G04G31G01G03G32G02G25G26G28
  13734719.30546  10703991.30945  24268687.1724                   24268687.3754
        40.0004         34.0004
  -8847136.12946  -6817441.83244  23446419.8204                   23446419.4224
        39.2504         27.7504
 -27417982.47747 -21306325.45748  20254494.9844                   20254490.0394
        47.7504         49.7504
 -22375930.64547 -17412845.73446  21192129.5234                   21192125.9614
        46.5004         37.0004
 -16773944.08647 -13051335.34847  21817645.7734                   21817645.5664
        47.7504         45.7504
  10754287.35947   8402604.37946  23663565.7034                   23663565.5204
        44.5004         38.7504
 -19676430.87947 -15294236.94946  21974307.9384                   21974302.6024
        47.0004         37.5004
   -840538.49246   -772591.13743  24614114.0164                   24614112.9064
        37.5004         23.5004
  -7463927.15246  -5714239.87945  23665234.6564                   23665235.5164
        40.2504         33.5004
 -22899463.32447 -17546430.38746  21474360.1334                   21474356.5474
        46.5004         37.5004
 25  7  1  0 59 30.0000000  0 10G10G04G31G01G03G32G02G25G26G28
  13812068.35946  10764263.18445  24283406.2194                   24283406.9024
        37.7504         32.5004
  -8922088.49546  -6875846.20544  23432156.6484                   23432155.7074
        40.0004         27.0004
 -27434017.91447 -21318820.60248  20251443.6334                   20251438.8714
        47.2504         50.0004
 -22388093.94547 -17422323.65246  21189815.1884                   21189811.1134
        46.0004         37.0004
 -16858266.62547 -13117041.17247  21801599.5864                   21801599.3164
        47.2504         45.7504
  10815841.88347   8450568.91446  23675279.3674                   23675279.0164
        44.0004         38.5004
 -19631290.94147 -15259063.02046  21982897.7274                   21982891.8984
        47.0004         37.2504
   -820439.89146   -756929.93444  24617938.6024                   24617939.2304
        37.7504         26.2504
  -7558473.78546  -5787912.52045  23647243.3284                   23647244.5124
        41.0004         33.5004
 -22852761.60947 -17510039.44946  21483247.0394                   21483243.6414
        46.5004         37.5004
 25  7  1  1  0  0.0000000  0 10G10G04G31G01G03G32G02G25G26G28
  13889657.35546  10824722.05146  24298171.2734                   24298172.8554
        41.5004         36.7504
  -8996884.80146  -6934128.99644  23417922.9924                   23417922.0394
        41.2504         27.2504
 -27449409.58648 -21330814.11348  20248514.8364                   20248510.0394
        48.0004         50.2504
 -22399648.59847 -17431327.27746  21187615.6724                   21187612.2274
        46.7504         36.5004
 -16942408.02047 -13182605.84447  21785588.4384                   21785587.4924
        47.0004         45.7504
  10877430.21147   8498559.76246  23686998.7114                   23686998.8524
        44.2504         38.5004
 -19585721.62147 -15223554.48846  21991569.1024                   21991563.2384
        47.7504         37.2504
   -799786.20346   -740836.21544  24621869.3284                   24621869.8674
        39.0004         27.0004
  -7652882.25846  -5861477.46945  23629278.3914                   23629279.1844
        40.7504         34.5004
 -22805583.13347 -17473277.01646  21492224.7894                   21492221.1804
        46.2504         37.2504
 25  7  1  1  0 30.0000000  0 10G10G04G31G01G03G32G02G25G26G28
  13967479.69946  10885362.71145  24312980.0314                   24312982.6914
        40.5004         35.0004
  -9071531.16046  -6992294.90244  23403717.9614                   23403717.4064
        40.5004         28.0004
 -27464163.77048 -21342310.88748  20245707.3284                   20245702.7074
        48.0004         50.2504
 -22410600.41847 -17439861.18046  21185531.6484                   21185527.8324
        45.5004         36.7504
 -17026372.28947 -13248032.50847  21769610.6804                   21769609.3594
        46.7504         45.5004
  10939046.08647   8546572.07846  23698724.2894                   23698723.8714
        43.7504         39.0004
 -19539730.68747 -15187717.44146  22000320.9454                   22000315.1054
        47.0004         36.7504
   -778583.78146   -724314.89844  24625903.8134                   24625905.1134
        39.0004         27.7504
  -7747155.30946  -5934936.91045  23611338.5394                   23611339.4304
        40.2504         34.5004
 -22757936.12147 -17436149.50046  21501291.7584                   21501288.4924
        45.7504         36.5004
 25  7  1  1  1  0.0000000  0 10G10G04G31G01G03G32G02G25G26G28
  14045536.96946  10946186.44145  24327834.3204                   24327835.4804
        38.5004         31.7504
  -9146025.32046  -7050342.22344  23389542.3134                   23389541.6804
        41.2504         26.7504
 -27478278.41047 -21353309.29748  20243021.1024                   20243016.5824
        47.0004         50.2504
 -22420946.99247 -17447923.46146  21183562.9534                   21183559.3164
        46.2504         36.7504
 -17110155.14147 -13313317.80547  21753667.2734                   21753666.1334
        45.7504         44.7504
  11000691.48447   8594607.39546  23710454.9224                   23710454.0474
        44.0004         39.2504
 -19493317.95348 -15151551.71546  22009153.6174                   22009147.2854
        48.0004         36.7504
   -756830.72346   -707364.49644  24630042.8984                   24630043.3444
        38.5004         26.0004
  -7841287.43446  -6008286.51645  23593425.0944                   23593426.8874
        38.7504         33.0004
 -22709820.43447 -17398656.77346  21510447.7034                   21510443.9694
        45.5004         37.0004
 25  7  1  1  1 30.0000000  0 10G10G04G31G01G03G32G02G25G26G28
  14123828.46146  11007192.74245  24342733.0314                   24342733.6954
        40.5004         33.5004
  -9220367.49646  -7108271.10244  23375395.9144                   23375394.7034
        41.2504         25.5004
 -27491753.65647 -21363809.48848  20240456.8284                   20240452.1174
        47.5004         50.2504
 -22430688.26247 -17455514.06646  21181709.4534                   21181705.8204
        45.7504         36.7504
 -17193754.55947 -13378460.17647  21737758.4144                   21737757.7974
        46.5004         45.2504
  11062366.05547   8642665.45346  23722191.1094                   23722190.4344
        42.5004         38.5004
 -19446485.40647 -15115058.86346  22018065.1804                   22018059.5824
        47.5004         37.2504
   -734527.62946   -689985.49244  24634286.6804                   24634287.9304
        39.0004         26.7504
  -7935275.46146  -6081523.84045  23575540.0864                   23575541.4844
        41.0004         34.0004
 -22661238.31247 -17360800.59446  21519692.4614                   21519689.1254
        44.7504         36.5004
 25  7  1  1  2  0.0000000  0 10G10G04G31G01G03G32G02G25G26G28
  14202353.46546  11068380.95345  24357676.0634                   24357676.9494
        39.5004         34.0004
  -9294557.58646  -7166081.46543  23361277.8134                   23361276.8594
        41.0004         22.5004
 -27504589.65247 -21373811.55548  20238014.3984                   20238009.9024
        47.5004         50.2504
 -22439824.01647 -17462632.85246  21179970.8984                   21179967.0594
        46.0004         37.2504
 -17277168.48047 -13443458.00447  21721885.6414                   21721884.6844
        47.0004         45.5004
  11124069.71547   8690746.18046  23733933.4774                   23733932.5944
        43.2504         38.5004
 -19399234.75047 -15078240.20746  22027056.4304                   22027051.3204
        46.2504         37.0004
   -711674.70346   -672178.06644  24638636.5474                   24638637.1054
        39.5004         28.0004
  -8029115.93046  -6154646.22745  23557683.8364                   23557683.9654
        41.0004         34.5004
 -22612191.85547 -17322582.59046  21529025.9384                   21529022.3954
        44.7504         37.0004
 25  7  1  1  2 30.0000000  0 10G10G04G31G01G03G32G02G25G26G28
  14281110.62946  11129750.01245  24372662.6484                   24372664.0944
        38.2504         30.5004
  -9368596.34846  -7223773.93744  23347188.7424                   23347187.1724
        41.5004         24.0004
 -27516787.29347 -21383316.20348  20235692.9384                   20235688.4964
        47.0004         50.2504
 -22448354.88747 -17469280.28946  21178347.2194                   21178343.8834
        47.0004         37.0004
 -17360395.50847 -13508310.19147  21706047.8364                   21706046.9064
        47.5004         46.0004
  11185801.39547   8738848.72346  23745680.3754                   23745680.3164
        42.7504         39.0004
 -19351568.83247 -15041097.98046  22036127.1564                   22036121.8444
        46.0004         37.5004
   -688273.36746   -653943.29744  24643089.5944                   24643090.6954
        38.0004         28.0004
  -8122806.39546  -6227651.71145  23539853.4144                   23539854.7974
        39.0004         33.5004
 -22562684.02347 -17284005.08646  21538446.8834                   21538443.5704
        45.0004         36.5004
 25  7  1  1  3  0.0000000  0 10G10G04G31G01G03G32G02G25G26G28
  14360102.22746  11191301.88744  24387694.9144                   24387693.6334
        41.2504         29.5004
  -9442480.82846  -7281346.19143  23333128.3054                   23333127.7734
        41.5004         22.0004
 -27528343.32848 -21392320.90648  20233494.2274                   20233489.1334
        48.0004         50.0004
 -22456277.70347 -17475453.93046  21176839.4694                   21176836.4574
        46.5004         37.0004
 -17443430.46147 -13573012.71147  21690246.6884                   21690245.9654
        47.5004         45.7504
  11247564.08647   8786975.42246  23757433.7344                   23757433.5044
        43.0004         39.0004
 -19303486.60247 -15003631.34446  22045276.4844                   22045271.1134
        45.7504         37.0004
   -664320.86746   -635279.03144  24647646.8594                   24647648.5274
        38.0004         26.7504
  -8216340.39146  -6300535.25445  23522055.3594                   23522055.6604
        40.0004         33.5004
 -22512713.73447 -17245067.21546  21547955.7424                   21547952.4184
        45.0004         37.2504
 25  7  1  1  3 30.0000000  0 10G10G04G31G01G03G32G02G25G26G28
  14439322.75446  11253032.13745  24402770.6644                   24402769.5124
        41.5004         31.2504
  -9516215.85946  -7338801.98043  23319096.8594                   23319096.1454
        41.0004         22.5004
 -27539263.57847 -21400830.19148  20231415.9614                   20231411.3914
        47.5004         50.0004
 -22463597.25447 -17481157.49646  21175447.2974                   21175443.3134
        46.0004         36.5004
 -17526276.12147 -13637567.73847  21674482.0634                   21674480.3094
        47.5004         45.5004
  11309352.65647   8835122.30146  23769191.6024                   23769191.6564
        43.7504         38.7504
 -19254994.72747 -14965845.52346  22054504.7194                   22054499.3554
        45.7504         36.7504
   -639822.49246   -616189.41044  24652308.8594                   24652309.9654
        36.7504         26.5004
  -8309719.39546  -6373298.05145  23504285.8524                   23504286.7114
        40.7504         34.0004
 -22462288.14547 -17205774.57046  21557551.8364                   21557548.1684
        45.5004         37.0004
 25  7  1  1  4  0.0000000  0 10G10G04G31G01G03G32G02G25G26G28
  14518771.96146  11314940.50845  24417888.1954                   24417888.6644
        38.7504         30.0004
  -9589801.11346  -7396141.03543  23305094.1094                   23305093.6724
        41.7504         22.7504
 -27549547.71147 -21408843.80148  20229458.9064                   20229454.1844
        46.5004         50.0004
 -22470313.08647 -17486390.62146  21174168.8204                   21174165.3244
        45.5004         36.7504
 -17608929.96547 -13701973.31647  21658753.1414                   21658751.1954
        47.7504         45.0004
  11371167.35247   8883289.52046  23780954.2894                   23780953.9454
        42.7504         37.5004
 -19206095.14147 -14927741.99246  22063809.5864                   22063804.7584
        46.0004         36.5004
   -614778.41046   -596674.59844  24657074.5864                   24657075.4144
        37.7504         26.7504
  -8402939.87946  -6445937.32445  23486546.2504                   23486547.9144
        40.2504         34.0004
 -22411409.03147 -17166128.53146  21567233.4694                   21567229.9224
        45.0004         36.7504
 25  7  1  1  4 30.0000000  0 10G10G04G31G01G03G32G02G25G26G28
  14598450.65246  11377027.66444  24433050.6254                   24433051.2934
        38.2504         29.0004
  -9663235.07446  -7453362.19943  23291120.6094                   23291118.8554
        41.2504         22.0004
 -27559194.31247 -21416360.63748  20227623.3054                   20227618.4264
        46.2504         50.0004
 -22476423.68447 -17491152.13746  21173006.2894                   21173003.3364
        45.5004         36.7504
 -17691388.32447 -13766226.57047  21643062.0234                   21643060.5594
        47.2504         45.0004
  11433009.52046   8931478.16846  23792722.2504                   23792721.4264
        41.5004         36.7504
 -19156788.06247 -14889320.93746  22073192.3674                   22073187.4064
        45.5004         36.7504
   -589187.71946   -576733.84044  24661944.3204                   24661946.9304
        37.0004         27.0004
  -8495996.84846  -6518449.12945  23468837.8524                   23468839.2624
        40.0004         34.5004
 -22360077.05947 -17126129.60946  21577001.8054                   21576998.6094
        45.0004         37.5004
 25  7  1  1  5  0.0000000  0 10G10G04G31G01G03G32G02G25G26G28
  14678356.41046  11439291.87544  24448256.6724                   24448257.3444
        38.7504         29.2504
  -9736519.33646  -7510466.72343  23277175.1334                   23277174.0904
        41.0004         23.2504
 -27568205.43047 -21423382.28548  20225908.5944                   20225903.8404
        46.5004         50.2504
 -22481930.55547 -17495443.21946  21171958.1414                   21171954.8324
        45.2504         36.7504
 -17773650.66847 -13830327.06647  21627407.7734                   21627406.8714
        46.7504         45.0004
  11494877.39847   8979686.83646  23804495.7584                   23804494.7854
        43.2504         37.0004
 -19107076.93747 -14850585.04346  22082652.2894                   22082646.9494
        45.5004         36.0004
   -563052.59446   -556368.87544  24666917.5164                   24666920.4614
        36.0004         27.2504
  -8588888.49646  -6590832.14845  23451161.2194                   23451161.4384
        40.2504         34.5004
 -22308295.94147 -17085780.71946  21586855.8984                   21586851.9844
        45.5004         37.0004
 25  7  1  1  5 30.0000000  0 10G10G04G31G01G03G32G02G25G26G28
  14758486.94145  11501731.16444  24463503.7814                   24463505.7194
        35.5004         27.5004
  -9809655.58246  -7567455.91844  23263257.2424                   23263256.3754
        41.5004         24.0004
 -27576583.07847 -21429910.32448  20224314.7274                   20224309.5744
        46.5004         50.2504
 -22486835.46147 -17499265.24246  21171025.0784                   21171021.7154
        45.7504         37.2504
 -17855716.50847 -13894274.43747  21611791.0784                   21611790.0354
        46.5004         45.0004
  11556769.24647   9027914.18046  23816273.6094                   23816273.6054
        43.5004         38.0004
 -19056965.47347 -14811537.17645  22092188.1334                   22092182.4224
        46.2504         35.7504
   -536375.10946   -535581.33644  24671994.8834                   24671996.5904
        37.0004         27.2504
  -8681613.22746  -6663085.14145  23433515.3984                   23433516.7424
        40.0004         32.5004
 -22256069.59447 -17045084.88746  21596794.2504                   21596790.1294
        46.2504         36.7504
 25  7  1  1  6  0.0000000  0 10G10G04G31G01G03G32G02G25G26G28
  14838845.33246  11564347.91044  24478796.0004                   24478798.7854
        37.5004         29.7504
  -9882640.14146  -7624326.91444  23249369.0474                   23249367.7734
        41.7504         25.5004
 -27584323.65647 -21435941.94548  20222841.7274                   20222836.5744
        47.5004         50.2504
 -22491134.74247 -17502615.34846  21170206.2424                   21170203.2774
        47.0004         37.0004
 -17937579.89548 -13958064.06647  21596213.1884                   21596211.7544
        48.0004         45.5004
  11618688.58247   9076162.93046  23828055.9774                   23828056.3014
        43.5004         37.5004
 -19006452.14147 -14772176.18445  22101800.8054                   22101795.1524
        46.5004         35.7504
   -509152.15246   -514368.69144  24677175.1414                   24677175.5274
        38.5004         25.5004
  -8774163.92646  -6735202.49246  23415904.0634                   23415905.6884
        41.0004         36.0004
 -22203396.48847 -17004040.92646  21606817.6334                   21606813.5784
        46.0004         36.7504
 25  7  1  1  6 30.0000000  0 10G10G04G31G01G03G32G02G25G26G28
  14919427.97746  11627139.51644  24494131.0164                   24494133.0394
        37.5004         28.7504
  -9955475.66846  -7681081.80144  23235508.8054                   23235507.2304
        41.0004         26.0004
 -27591430.39147 -21441479.66048  20221489.1334                   20221484.3204
        47.2504         50.2504
 -22494830.96547 -17505495.53546  21169503.2034                   21169499.5044
        46.0004         37.2504
 -18019241.31647 -14021696.32447  21580673.4924                   21580672.1844
        47.2504         45.5004
  11680632.71547   9124431.00846  23839844.2734                   23839843.0904
        43.2504         36.2504
 -18955541.44947 -14732505.55945  22111488.4844                   22111483.7894
        45.5004         35.5004
   -481386.95346   -492733.52744  24682460.0784                   24682460.9694
        36.5004         27.2504
  -8866539.81246  -6807183.62945  23398326.3364                   23398326.9264
        41.5004         35.5004
 -22150281.39847 -16962652.58246  21616924.9454                   21616921.3404
        45.0004         36.5004
 25  7  1  1  7  0.0000000  0 10G10G04G31G01G03G32G02G25G26G28
  15000239.16045  11690109.19943  24509507.9224                   24509509.6254
        33.5004         23.2504
 -10028157.34046  -7737716.82044  23221677.8364                   23221676.4064
        41.5004         26.0004
 -27597898.66447 -21446519.87948  20220258.0784                   20220253.4104
        47.0004         50.2504
 -22497919.54747 -17507902.24246  21168915.5084                   21168912.1954
        46.5004         37.2504
 -18100693.85247 -14085165.80147  21565173.6254                   21565172.3094
        46.5004         45.2504
  11742606.23447   9172722.01246  23851637.6564                   23851636.6954
        43.7504         37.0004
 -18904230.46147 -14692523.00446  22121252.9694                   22121247.8754
        46.2504         36.2504
   -453075.37146   -470672.61344  24687847.0944                   24687850.3594
        37.2504         27.7504
  -8958732.84446  -6879022.26245  23380781.7734                   23380781.7624
        39.5004         33.5004
 -22096721.82447 -16920917.87146  21627116.5784                   21627112.8204
        46.5004         37.0004
 25  7  1  1  7 30.0000000  0 10G10G04G31G01G03G32G02G25G26G28
  15081276.14845  11753254.79344  24524929.5004                   24524930.3484
        33.5004         25.5004
 -10100687.21546  -7794233.53544  23207875.7734                   23207874.4734
        41.0004         27.5004
 -27603730.99647 -21451064.55148  20219148.2894                   20219143.5944
        46.5004         50.0004
 -22500402.46547 -17509836.99646  21168442.8054                   21168439.8164
        47.2504         37.0004
 -18181937.15247 -14148472.23047  21549713.6024                   21549712.5164
        46.0004         45.7504
  11804607.16447   9221034.37146  23863435.9694                   23863434.1414
        45.0004         36.5004
 -18852523.52747 -14652231.93445  22131092.0394                   22131087.0784
        46.2504         35.5004
   -424219.96146   -448187.87944  24693338.1884                   24693339.0514
        36.7504         27.2504
  -9050741.48447  -6950717.25446  23363273.9614                   23363273.9104
        42.0004         36.5004
 -22042721.82847 -16878839.98046  21637392.7034                   21637389.1954
        45.7504         36.0004
 25  7  1  1  8  0.0000000  0 10G10G04G31G01G03G32G02G25G26G28
  15162533.74646  11816572.28945  24540392.7194                   24540394.1914
        38.0004         31.0004
 -10173069.66846  -7850635.37944  23194101.5474                   23194100.5044
        40.7504         27.7504
 -27608932.34447 -21455117.55148  20218158.2034                   20218153.8054
        46.5004         50.2504
 -22502284.27747 -17511303.35546  21168085.2194                   21168081.2424
        47.0004         36.7504
 -18262973.49247 -14211617.39547  21534292.6174                   21534291.8364
        47.0004         45.7504
  11866631.02047   9269364.60546  23875238.7974                   23875236.6884
        44.0004         36.2504
 -18800426.96947 -14611637.25846  22141006.1094                   22141000.7114
        46.5004         37.0004
   -394825.78146   -425283.32044  24698931.7504                   24698931.8954
        38.5004         28.2504
  -9142566.80546  -7022269.40645  23345800.3134                   23345801.0044
        40.2504         35.2504
 -21988288.13347 -16836424.14845  21647751.2504                   21647747.0554
        46.0004         35.7504
 25  7  1  1  8 30.0000000  0 10G10G04G31G01G03G32G02G25G26G28
  15244013.15646  11880062.66045  24555898.3524                   24555898.9844
        39.0004         31.5004
 -10245302.74646  -7906920.82444  23180356.0554                   23180354.4844
        41.7504         28.0004
 -27613501.07447 -21458677.60248  20217289.3444                   20217284.9104
        47.2504         50.5004
 -22503563.15247 -17512299.88746  21167841.8754                   21167838.0744
        46.5004         36.7504
 -18343798.62947 -14274597.98447  21518912.1564                   21518911.0824
        47.2504         45.7504
  11928679.68047   9317714.14145  23887045.9534                   23887044.9924
        44.0004         35.7504
 -18747940.92247 -14570739.09845  22150993.4774                   22150988.7384
        47.0004         35.5004
   -364891.56946   -401957.98344  24704627.7194                   24704628.7304
        38.2504         28.0004
  -9234203.45346  -7093674.48845  23328361.1334                   23328362.8524
        39.0004         34.2504
 -21933420.86747 -16793670.45746  21658191.8674                   21658187.9264
        45.0004         36.0004
 25  7  1  1  9  0.0000000  0 10G10G04G31G01G03G32G02G25G26G28
  15325715.41846  11943726.66444  24571444.6334                   24571445.7074
        38.0004         29.7504
 -10317384.68447  -7963088.51244  23166639.5394                   23166638.0634
        42.5004         28.0004
 -27617435.91047 -21461743.71148  20216540.3914                   20216535.3484
        47.0004         50.2504
 -22504237.52747 -17512825.38746  21167713.2274                   21167709.7194
        47.0004         37.0004
 -18424408.67647 -14337410.97747  21503572.3204                   21503571.3244
        47.0004         45.7504
  11990754.78147   9366084.28546  23898858.6724                   23898858.0664
        43.5004         36.7504
 -18695065.61747 -14529537.62546  22161055.6884                   22161051.5234
        45.0004         36.5004
   -334416.37546   -378211.13344  24710426.5704                   24710429.2344
        36.7504         27.7504
  -9325646.30546  -7164928.56646  23310961.1254                   23310961.0784
        40.0004         36.0004
 -21878120.56247 -16750579.34046  21668715.4614                   21668711.7664
        45.0004         36.2504
 25  7  1  1  9 30.0000000  0 10G10G04G31G01G03G32G02G25G26G28
  15407638.77346  12007562.98045  24587035.4924                   24587035.5084
        40.5004         32.2504
 -10389316.46147  -8019139.17244  23152951.3284                   23152949.5084
        42.5004         29.5004
 -27620738.35547 -21464317.05148  20215911.9304                   20215907.4454
        47.2504         50.2504
 -22504308.61347 -17512880.78546  21167699.8444                   21167696.3094
        47.0004         37.0004
 -18504802.21547 -14400055.25047  21488274.1644                   21488273.1844
        47.5004         46.0004
  12052855.28147   9414474.23046  23910675.8594                   23910674.9804
        44.0004         36.2504
 -18641804.00847 -14488035.10946  22171191.1804                   22171186.6414
        45.2504         36.0004
   -303401.82045   -354043.96544  24716328.3364                   24716330.0784
        35.7504         27.5004
  -9416892.92646  -7236029.78145  23293596.5164                   23293596.9494
        39.7504         34.5004
 -21822390.45347 -16707153.30545  21679320.5394                   21679316.8014
        44.7504         35.5004
 25  7  1  1 10  0.0000000  0 10G10G04G31G01G03G32G02G25G26G28
  15489782.25846  12071570.82045  24602666.4144                   24602667.5904
        41.7504         35.0004
 -10461098.30547  -8075073.00844  23139291.7584                   23139289.9534
        42.5004         29.2504
 -27623409.45747 -21466398.42648  20215403.4304                   20215398.8204
        47.2504         50.2504
 -22503776.74247 -17512466.34846  21167801.1644                   21167798.1094
        47.5004         37.2504
 -18584977.29347 -14462529.29347  21473017.6564                   21473016.1024
        47.5004         46.0004
  12114981.01247   9462883.83645  23922498.4614                   23922496.8914
        43.5004         35.5004
 -18588158.31647 -14446233.31245  22181399.4534                   22181393.5634
        47.0004         35.5004
   -271848.80546   -329457.14844  24722332.8834                   24722334.6174
        36.5004         28.0004
  -9507940.10246  -7306975.54745  23276270.7584                   23276272.3674
        39.0004         35.5004
 -21766232.91447 -16663394.20345  21690006.8674                   21690003.3014
        45.5004         35.5004
 25  7  1  1 10 30.0000000  0 10G10G04G31G01G03G32G02G25G26G28
  15572145.54346  12135749.91445  24618340.1414                   24618341.2734
        40.7504         35.0004
 -10532729.84847  -8130889.72345  23125660.3054                   23125658.8404
        43.2504         30.0004
 -27625449.12547 -21467987.78148  20215015.5864                   20215010.6294
        47.0004         50.2504
 -22502641.82047 -17511582.00446  21168017.1724                   21168013.6054
        46.0004         37.0004
 -18664931.26247 -14524831.04347  21457802.6804                   21457801.6524
        47.7504         46.2504
  12177132.25047   9511313.32045  23934325.1024                   23934323.8754
        43.5004         35.2504
 -18534130.79747 -14404134.01245  22191680.6954                   22191675.1844
        46.5004         35.7504
   -239757.71146   -304451.07444  24728438.8524                   24728441.1374
        36.7504         28.5004
  -9598783.98046  -7377762.90246  23258984.2034                   23258985.1604
        41.5004         36.5004
 -21709649.78947 -16619303.48446  21700774.2504                   21700770.1454
        45.2504         36.0004
 25  7  1  1 11  0.0000000  0 10G10G04G31G01G03G32G02G25G26G28
  15654726.73846  12200098.78545  24634053.9224                   24634056.2934
        39.0004         34.0004
 -10604212.19547  -8186590.18045  23112057.8594                   23112056.1454
        44.0004         31.0004
 -27626859.22748 -21469086.55948  20214747.1484                   20214742.5784
        48.5004         50.2504
 -22500905.19148 -17510228.79746  21168347.2584                   21168344.5634
        48.0004         37.2504
 -18744662.95347 -14586959.59847  21442630.1564                   21442628.6024
        47.5004         46.2504
  12239307.91047   9559761.83246  23946156.6334                   23946156.0864
        44.0004         36.0004
 -18479724.07447 -14361739.22346  22202034.1564                   22202029.5664
        47.2504         36.2504
   -207130.39546   -279027.18744  24734648.1334                   24734650.3444
        36.0004         27.0004
  -9689422.34446  -7448390.12545  23241735.4534                   23241736.7854
        40.7504         35.5004
 -21652644.46547 -16574883.77746  21711621.9614                   21711617.9774
        46.5004         36.5004
 25  7  1  1 11 30.0000000  0 10G10G04G31G01G03G32G02G25G26G28
  15737528.57846  12264619.56645  24649811.7974                   24649813.6994
        39.0004         34.0004
 -10675541.85247  -8242171.66045  23098483.6484                   23098483.0864
        43.5004         31.5004
 -27627636.62147 -21469692.30948  20214599.1414                   20214594.6094
        47.2504         50.2504
 -22498563.67247 -17508404.24246  21168793.1884                   21168789.8484
        47.2504         37.0004
 -18824166.62947 -14648910.47747  21427501.1254                   21427499.8324
        47.7504         46.5004
  12301511.44147   9608232.04746  23957994.5234                   23957993.3794
        43.0004         36.2504
 -18424937.07847 -14319048.10246  22212460.4304                   22212454.9304
        46.7504         36.5004
   -173964.19945   -253183.44944  24740959.5784                   24740961.3524
        34.2504         25.5004
  -9779848.24246  -7518851.80546  23224528.6804                   23224528.9574
        40.2504         36.7504
 -21595215.65247 -16530134.08646  21722550.6804                   21722546.8204
        46.0004         36.0004
 25  7  1  1 12  0.0000000  0 10G10G04G31G01G03G32G02G25G26G28
  15820546.01246  12329308.39145  24665609.2194                   24665611.3554
        41.5004         34.2504
 -10746722.96147  -8297637.38745  23084938.4694                   23084937.5824
        43.5004         30.5004
 -27627786.08647 -21469808.78148  20214570.5314                   20214566.1844
        47.0004         50.2504
 -22495621.69547 -17506111.79746  21169353.0554                   21169349.6334
        45.7504         37.5004
 -18903444.06248 -14710685.08247  21412415.2194                   21412414.0824
        48.0004         47.0004
  12363738.62547   9656720.71145  23969835.6484                   23969834.2274
        42.5004         35.7504
 -18369776.03947 -14276065.53546  22222956.6094                   22222950.9654
        47.2504         36.0004
   -140264.05545   -226923.59444  24747373.5234                   24747373.7854
        33.7504         24.5004
  -9870062.40646  -7589148.49646  23207361.1174                   23207361.8204
        40.2504         36.0004
 -21537369.78147 -16485059.40646  21733558.6024                   21733554.6054
        46.5004         36.0004
 25  7  1  1 12 30.0000000  0 10G10G04G31G01G03G32G02G25G26G28
  15903779.38746  12394165.49245  24681448.1484                   24681449.2194
        41.7504         34.0004
 -10817754.45347  -8352986.53145  23071421.3834                   23071420.2544
        43.5004         31.2504
 -27627307.35247 -21469435.75048  20214662.1414                   20214656.9534
        47.7504         50.0004
 -22492078.54747 -17503350.90646  21170027.0634                   21170023.6684
        47.0004         37.5004
 -18982491.93048 -14772280.79747  21397372.5084                   21397371.7304
        48.0004         47.7504
  12425990.68047   9705228.75845  23981681.1094                   23981681.0234
        42.0004         34.7504
 -18314242.02047 -14232792.34445  22233524.5634                   22233519.3794
        46.7504         35.5004
   -106029.89155   -200247.58653  24753885.6884                   24753888.1414
        30.0004         23.0004
  -9960060.41846  -7659276.71545  23190235.0234                   23190236.4344
        39.7504         35.2504
 -21479107.98447 -16439660.62946  21744645.3754                   21744641.2894
        46.0004         36.2504
 25  7  1  1 13  0.0000000  0 10G10G04G31G01G03G32G02G25G26G28
  15987227.73046  12459190.13345  24697327.9064                   24697328.3674
        41.5004         32.0004
 -10888636.48047  -8408219.19945  23057933.4144                   23057931.7344
        44.0004         31.2504
 -27626201.23047 -21468573.82848  20214872.0944                   20214867.4454
        46.5004         50.0004
 -22487934.69947 -17500121.94546  21170815.9534                   21170812.5634
        46.0004         37.2504
 -19061308.14148 -14833695.98447  21382374.5784                   21382373.7194
        48.5004         47.7504
  12488267.32447   9753755.95745  23993532.1254                   23993532.6174
        42.0004         35.0004
 -18258337.05947 -14189230.09846  22244163.0704                   22244158.5044
        46.0004         36.0004
    -71262.57454   -173156.19953  24760501.1884                   24760504.3324
        29.0004         23.2504
 -10049838.91046  -7729233.90246  23173150.5084                   23173151.8014
        41.2504         36.5004
 -21420432.73847 -16393939.68046  21755810.9384                   21755807.0664
        45.7504         36.2504
 25  7  1  1 13 30.0000000  0 10G10G04G31G01G03G32G02G25G26G28
  16070888.66446  12524380.43845  24713247.4534                   24713247.5124
        40.0004         30.2504
 -10959370.62947  -8463336.65645  23044472.9384                   23044472.2304
        42.7504         30.0004
 -27624469.86347 -21467224.71148  20215201.9534                   20215196.7974
        46.5004         50.0004
 -22483192.18747 -17496426.49246  21171717.9844                   21171714.8554
        45.5004         37.5004
 -19139891.97748 -14894930.10547  21367420.3054                   21367419.4064
        48.0004         47.7504
  12550567.01646   9802301.13345  24005387.9384                   24005387.3204
        41.0004         34.5004
 -18202065.15647 -14145381.91845  22254871.2424                   22254865.9884
        45.5004         35.5004
    -35964.77055   -145651.42254  24767220.0004                   24767222.4144
        30.5004         24.2504
 -10139396.15646  -7799018.73045  23156108.8984                   23156108.8874
        41.5004         35.5004
 -21361347.88347 -16347899.55546  21767054.2034                   21767050.4964
        45.0004         36.7504
 25  7  1  1 14  0.0000000  0 10G10G04G31G01G03G32G02G25G26G28
  16154762.81646  12589736.88344  24729208.0554                   24729208.8874
        38.5004         29.0004
 -11029955.45347  -8518337.75045  23031040.8054                   23031039.8094
        43.0004         30.5004
 -27622112.54348 -21465387.84048  20215650.5944                   20215645.3204
        48.2504         49.7504
 -22477849.91447 -17492263.69946  21172734.5474                   21172731.9534
        47.5004         37.2504
 -19218239.57448 -14955980.15247  21352511.8674                   21352510.4534
        48.0004         47.7504
  12612891.22747   9850865.38745  24017247.9304                   24017246.6134
        42.2504         35.0004
 -18145427.05947 -14101248.38745  22265649.2974                   22265643.6604
        45.5004         35.0004
      -135.61745   -117732.59843  24774039.4614                   24774040.3834
        32.5004         23.7504
 -10228727.15646  -7868627.21146  23139109.3984                   23139110.2584
        40.2504         37.2504
 -21301854.13747 -16301540.82446  21778375.4774                   21778372.0394
        45.0004         36.0004
 25  7  1  1 14 30.0000000  0 10G10G04G31G01G03G32G02G25G26G28
  16238846.92645  12655256.88344  24745209.2894                   24745210.5274
        35.5004         28.0004
 -11100393.46547  -8573224.43044  23017637.3754                   23017635.8204
        42.7504         29.2504
 -27619132.89848 -21463066.03548  20216217.2814                   20216212.4414
        48.7504         49.7504
 -22471910.84448 -17487635.86346  21173865.2974                   21173862.1914
        48.0004         37.5004
 -19296351.20348 -15016846.33647  21337647.4304                   21337646.0864
        48.2504         47.7504
  12675237.35247   9899446.71145  24029112.1724                   24029110.6804
        43.0004         35.5004
 -18088427.23047 -14056833.00045  22276495.7274                   22276490.7234
        46.7504         35.0004
                                  24780957.8834                   24780957.8014
        29.0004         23.2504
 -10317831.10246  -7938058.77746  23122153.4924                   23122154.1094
        41.2504         36.7504
 -21241956.39147 -16254867.27346  21789773.6174                   21789770.1414
        46.0004         36.0004
 25  7  1  1 15  0.0000000  0 10G10G04G31G01G03G32G02G25G26G28
  16323136.43845  12720936.91844  24761248.8674                   24761251.7194
        34.2504         27.0004
 -11170688.28947  -8627999.55944  23004260.3364                   23004259.0554
        42.7504         29.0004
 -27615535.12548 -21460262.57448  20216902.1174                   20216896.7114
        49.0004         50.0004
 -22465379.06648 -17482546.18046  21175107.9844                   21175104.7624
        48.5004         37.0004
 -19374228.17648 -15077529.67647  21322827.6024                   21322826.4454
        48.0004         47.7504
  12737602.02347   9948042.50445  24040979.5084                   24040978.6484
        42.2504         34.5004
 -18031071.71147 -14012140.42645  22287410.4064                   22287405.3484
        46.7504         34.7504
     73101.44955    -60664.83654  24787976.2894                   24787975.4534
        32.2504         25.2504
 -10406708.16446  -8007313.57846  23105240.7114                   23105240.6884
        41.0004         36.0004
 -21181660.49647 -16207883.48045  21801247.4454                   21801243.7704
        46.7504         35.5004
 25  7  1  1 15 30.0000000  0 10G10G04G31G01G03G32G02G25G26G28
  16407620.11345  12786768.21144  24777326.2664                   24777328.4844
        35.0004         26.7504
 -11240850.45747  -8682671.31644  22990909.1254                   22990907.5124
        42.5004         28.0004
 -27611330.59848 -21456986.32848  20217702.1954                   20217697.1994
        48.5004         50.0004
 -22458265.58248 -17477003.21946  21176461.5474                   21176458.2304
        48.0004         37.0004
 -19451878.60248 -15138036.47747  21308051.4304                   21308050.0864
        48.0004         47.0004
  12799974.71946   9996644.52745  24052848.5004                   24052847.8404
        41.2504         34.2504
 -17973372.80147 -13967180.28145  22298390.1174                   22298384.7854
        46.7504         34.5004
    110493.24245    -31528.35244  24795090.7274                   24795092.5124
        32.0004         26.2504
 -10495365.37946  -8076397.07046  23088370.1484                   23088370.9694
        41.7504         37.5004
 -21120979.25447 -16160599.43046  21812794.7424                   21812791.3484
        46.7504         36.0004
 25  7  1  1 16  0.0000000  0 10G10G04G31G01G03G32G02G25G26G28
  16492293.94546  12852747.74644  24793438.6884                   24793440.2504
        36.7504         28.0004
 -11310882.93747  -8737242.03144  22977582.5784                   22977580.6804
        43.2504         27.0004
 -27606522.92248 -21453240.08248  20218617.1024                   20218612.5904
        48.7504         50.0004
 -22450573.88347 -17471009.70746  21177925.5394                   21177922.3054
        47.5004         37.0004
 -19529303.20348 -15198367.31247  21293317.9144                   21293316.7194
        48.2504         47.5004
  12862352.37946  10045250.43045  24064718.9774                   24064717.5084
        41.5004         34.0004
 -17915335.89547 -13921956.78145  22309434.0314                   22309428.5084
        46.7504         34.5004
    148392.89154     -1996.25054  24802301.2274                   24802304.1954
        29.7504         24.5004
 -10583802.41846  -8145308.94146  23071540.1414                   23071541.9384
        40.7504         37.0004
 -21059917.97347 -16113019.23046  21824414.2974                   21824410.7854
        46.5004         36.2504
 25  7  1  1 16 30.0000000  0 10G10G04G31G01G03G32G02G25G26G28
  16577163.83646  12918880.03144  24809588.6174                   24809589.5984
        36.7504         29.2504
 -11380779.06247  -8791706.49244  22964281.9694                   22964279.6844
        43.2504         27.5004
 -27601106.18747 -21449019.25048  20219647.4694                   20219643.1844
        47.0004         50.0004
 -22442297.82047 -17464560.84446  21179500.1334                   21179496.9414
        46.0004         37.0004
 -19606492.89548 -15258515.11747  21278629.4224                   21278627.8444
        48.5004         47.5004
  12924741.81646  10093865.50845  24076591.1724                   24076590.5394
        41.2504         35.0004
 -17856956.76247 -13876466.59845  22320542.8444                   22320538.2304
        46.0004         34.2504
    186805.93055     27935.95754  24809613.4454                   24809613.5784
        30.0004         25.0004
 -10672009.09846  -8214041.35246  23054755.3524                   23054755.3054
        41.5004         36.0004
 -20998472.20747 -16065139.43746  21836106.9454                   21836103.6954
        46.5004         36.0004
 25  7  1  1 17  0.0000000  0 11G10G04G31G01G03G32G02G25G26G28G16
  16662234.38746  12985168.69944  24825777.2194                   24825777.5594
        36.2504         28.5004
 -11450533.37547  -8846060.46144  22951007.4144                   22951005.4614
        43.0004         27.7504
 -27595076.27347 -21444320.62148  20220795.1724                   20220790.4144
        47.0004         49.7504
 -22433432.51247 -17457652.83246  21181187.2584                   21181183.9384
        46.0004         37.0004
 -19683439.88748 -15318473.80547  21263986.9064                   21263985.3714
        48.2504         47.2504
  12987148.54346  10142494.04745  24088466.2814                   24088466.2974
        40.7504         35.0004
 -17798231.85947 -13830706.98045  22331718.1644                   22331713.4884
        45.5004         34.5004
    225736.68455     58271.60554  24817020.1644                   24817021.4414
        31.7504         24.5004
 -10759976.52746  -8282587.35546  23038015.4534                   23038015.9694
        41.5004         36.5004
 -20936638.81647 -16016957.60246  21847873.3834                   21847870.3984
        47.0004         36.0004
   1465266.16015                  25162967.125
        34.000
 25  7  1  1 17 30.0000000  0 11G10G04G31G01G03G32G02G25G26G28G16
  16747504.81646  13051613.12144  24842004.1804                   24842004.5084
        37.2504         28.5004
 -11520145.80147  -8900303.86744  22937760.7734                   22937758.6374
        43.7504         27.2504
 -27588433.67248 -21439144.56248  20222059.3364                   20222054.4024
        48.5004         49.7504
 -22423978.45747 -17450286.05946  21182986.6254                   21182983.2464
        47.5004         36.7504
 -19760141.82847 -15378241.53147  21249390.3674                   21249389.5434
        47.2504         47.2504
  13049572.67647  10191136.16045  24100345.2814                   24100344.8914
        42.0004         35.5004
 -17739163.62947 -13784679.83645  22342958.8594                   22342953.2194
        45.0004         34.0004
    265184.39555     89010.05954  24824527.6024                   24824528.1884
        33.5004         28.2504
 -10847701.27747  -8350944.21146  23021322.1884                   23021323.0044
        43.0004         37.2504
 -20874420.05147 -15968475.47346  21859714.0084                   21859710.1884
        46.2504         36.2504
   1361185.699 5                  25143161.383
        34.000
 25  7  1  1 18  0.0000000  0 11G10G04G31G01G03G32G02G25G26G28G16
  16832972.92246  13118211.55944  24858268.0164                   24858270.5514
        38.2504         28.5004
 -11589617.62547  -8954437.69944  22924540.6884                   22924539.1564
        43.0004         26.5004
 -27581180.71147 -21433492.90648  20223439.3364                   20223434.7814
        47.0004         49.5004
 -22413937.51647 -17442461.96146  21184896.9144                   21184893.5314
        45.5004         37.2504
 -19836597.56647 -15437817.41447  21234841.8754                   21234840.6294
        47.7504         47.5004
  13112013.01247  10239790.90245  24112227.8364                   24112226.8714
        42.5004         35.7504
 -17679755.31247 -13738387.69945  22354263.6954                   22354258.8014
        44.7504         33.7504
    305146.66045    120149.48444  24832128.9064                   24832133.3404
        33.5004         28.2504
 -10935181.12147  -8419110.28946  23004675.3364                   23004675.7274
        42.2504         36.0004
 -20811819.46147 -15919695.82445  21871625.9064                   21871622.2304
        45.0004         35.5004
   1256947.582 5                  25123325.844
        35.250
 25  7  1  1 18 30.0000000  0 10G10G04G31G01G03G32G02G26G28G16
  16918637.46146  13184963.07444  24874569.2664                   24874573.9064
        37.7504         24.5004
 -11658949.30147  -9008462.32844  22911347.0554                   22911345.4264
        43.0004         26.5004
 -27573318.63347 -21427366.61348  20224935.5164                   20224931.2234
        47.7504         49.7504
 -22403310.75847 -17434181.39546  21186919.4694                   21186916.0124
        47.0004         36.7504
 -19912805.10947 -15497199.88747  21220339.7344                   21220338.4454
        47.7504         47.5004
  13174469.26247  10288458.04345  24124112.7894                   24124112.0904
        42.0004         35.7504
 -17620009.77747 -13691832.78545  22365633.3054                   22365627.9184
        45.5004         33.5004
 -11022413.16046  -8487083.21946  22988074.8914                   22988076.7734
        41.0004         37.0004
 -20748839.78147 -15870620.77745  21883610.7894                   21883607.3714
        47.0004         35.7504
   1152553.777 5                  25103459.508
        35.500
 25  7  1  1 19  0.0000000  0 10G10G04G31G01G03G32G02G26G28G16
  17004501.70746  13251870.23843  24890907.6884                   24890912.8164
        36.0004         21.5004
 -11728136.61747  -9062374.46944  22898181.3204                   22898179.0864
        43.0004         25.0004
 -27564844.41048 -21420763.31648  20226548.0634                   20226543.5124
        49.0004         50.0004
 -22392094.67647 -17425441.60246  21189053.3914                   21189050.1954
        47.2504         37.2504
 -19988758.00447 -15556383.94547  21205886.2194                   21205884.6994
        47.0004         47.2504
  13236945.59046  10337140.81646  24136001.6954                   24136001.2934
        40.7504         37.0004
 -17559924.82047 -13645013.39145  22377066.6414                   22377061.3674
        45.5004         34.0004
 -11109389.66047  -8554857.05146  22971524.8754                   22971525.2704
        42.7504         38.5004
 -20685479.09047 -15821248.83646  21895667.9614                   21895664.5664
        47.0004         36.0004
   1048011.48846   1193912.66852  25083565.9774                   25083566.0944
        37.5004         17.7504
 25  7  1  1 19 30.0000000  0 10G10G04G31G01G03G32G02G26G28G16
  17090575.17245  13318940.40643  24907288.2894                   24907287.7704
        33.7504         21.2504
 -11797169.12946  -9116165.98844  22885044.8524                   22885042.7774
        41.7504         25.2504
 -27555748.53947 -21413675.62948  20228279.2664                   20228274.6094
        47.2504         50.0004
 -22380279.52047 -17416235.01246  21191301.9064                   21191298.8284
        45.5004         36.5004
 -20064443.39148 -15615359.55147  21191483.9384                   21191482.3014
        48.0004         47.2504
  13299452.58647  10385847.50446  24147896.7114                   24147896.0234
        43.0004         37.0004
 -17499492.44547 -13597923.27745  22388566.7274                   22388561.3284
        45.2504         33.5004
 -11196096.87546  -8622421.02345  22955023.9384                   22955024.2934
        41.2504         35.5004
 -20621729.33647 -15771573.73846  21907799.0314                   21907795.9414
        46.0004         36.2504
    943334.09446   1112346.07042  25063646.5634                   25063647.8914
        37.2504         16.7504
 25  7  1  1 20  0.0000000  0 10G10G04G31G01G03G32G02G26G28G16
  17176865.44946  13386179.54344  24923708.4694                   24923707.5004
        37.0004         25.0004
 -11866038.47046  -9169830.35144  22871939.0004                   22871937.2624
        41.5004         24.2504
 -27546023.43748 -21406097.62548  20230129.7344                   20230124.9964
        49.2504         50.0004
 -22367857.55947 -17406555.58646  21193665.4774                   21193662.0984
        47.0004         37.0004
 -20139850.42647 -15674118.25847  21177134.5784                   21177133.3754
        46.5004         47.7504
  13361998.81647  10434584.77046  24159798.5784                   24159798.8914
        42.2504         36.2504
 -17438706.41447 -13550557.57445  22400134.0474                   22400128.9924
        45.7504         34.5004
 -11282522.87147  -8689765.94146  22938578.7974                   22938578.5634
        42.7504         38.5004
 -20557584.41047 -15721590.71545  21920005.7734                   21920002.2544
        47.5004         35.5004
    838532.90646   1030683.06343  25043703.7584                   25043704.6524
        37.5004         18.5004
 25  7  1  1 20 30.0000000  0 10G10G04G31G01G03G32G02G26G28G16
  17263366.18846  13453582.66844  24940169.2424                   24940170.2154
        39.2504         27.7504
 -11934749.89547  -9223371.64844  22858864.1484                   22858862.3874
        42.2504         24.2504
 -27535675.33648 -21398034.17248  20232098.8284                   20232093.9734
        49.0004         50.0004
 -22354834.84447 -17396408.03946  21196143.8204                   21196140.6254
        47.7504         36.5004
 -20214982.06648 -15732662.37947  21162837.3914                   21162836.0354
        48.0004         47.5004
  13424579.01247  10483348.52046  24171707.5784                   24171707.9344
        42.5004         36.5004
 -17377574.23847 -13502922.16045  22411767.0164                   22411762.1804
        45.5004         34.0004
 -11368669.62546  -8756893.18746  22922184.3834                   22922185.8984
        41.2504         37.0004
 -20493051.88348 -15671305.65246  21932286.0004                   21932282.2114
        48.0004         36.0004
    733605.25845    948921.40643  25023735.7034                   25023737.0864
        34.7504         18.2504
 25  7  1  1 21  0.0000000  0 10G10G04G31G01G03G32G02G26G28G16
  17350077.07046  13521149.52745  24956669.8834                   24956672.6764
        40.5004         30.2504
 -12003302.87546  -9276789.48444  22845818.3914                   22845817.0434
        41.5004         24.2504
 -27524705.00448 -21389485.86748  20234186.6954                   20234181.7894
        49.2504         50.0004
 -22341211.55547 -17385792.51246  21198736.3134                   21198733.3054
        47.5004         36.7504
 -20289835.37147 -15790989.59447  21148593.4224                   21148591.8834
        46.7504         47.2504
  13487193.90646  10532139.28546  24183622.4304                   24183623.5514
        41.7504         36.7504
 -17316097.82847 -13455018.52345  22423465.7894                   22423460.6484
        45.7504         33.7504
 -11454533.17247  -8823799.76246  22905846.4304                   22905845.0314
        43.2504         37.2504
 -20428133.57047 -15620719.97745  21944639.1254                   21944635.4614
        46.5004         35.7504
    628554.61746    867064.04742  25003746.0784                   25003746.0634
        36.5004         16.7504
 25  7  1  1 21 30.0000000  0 10G10G04G31G01G03G32G02G26G28G16
  17436992.14546  13588875.49245  24973209.7114                   24973213.3134
        39.2504         31.7504
 -12071702.38746  -9330087.73444  22832803.0634                   22832801.7854
        41.7504         25.0004
 -27513118.61347 -21380457.51248  20236391.6094                   20236386.4924
        47.7504         49.7504
 -22326993.47347 -17374713.50846  21201442.3364                   21201438.6844
        47.2504         36.5004
 -20364412.93447 -15849101.95747  21134401.7504                   21134399.9614
        46.5004         47.5004
  13549838.53546  10580953.21546  24195543.4924                   24195543.3444
        41.7504         36.5004
 -17254284.52747 -13406852.37545  22435228.0474                   22435223.8444
        44.2504         34.2504
 -11540114.93747  -8890486.86346  22889560.3754                   22889560.6254
        42.5004         37.5004
 -20362836.77347 -15569839.39145  21957064.8444                   21957061.6334
        45.2504         35.0004
    523378.87546    785109.12543  24983731.0784                   24983731.7114
        37.0004         18.5004
 25  7  1  1 22  0.0000000  0 10G10G04G31G01G03G32G02G26G28G16
  17524108.68046  13656758.42245  24989787.5554                   24989791.1684
        37.7504         31.2504
 -12139950.27747  -9383267.84044  22819815.8984                   22819814.3204
        43.0004         25.5004
 -27500919.10947 -21370951.41048  20238713.1484                   20238708.0044
        47.0004         49.5004
 -22312183.24247 -17363173.09046  21204260.0084                   21204256.7034
        45.5004         36.7504
 -20438714.19147 -15906999.02347  21120262.6254                   21120261.2584
        47.5004         47.7504
  13612511.28546  10629789.07845  24207469.4844                   24207469.0274
        41.7504         35.5004
 -17192138.41847 -13358426.90645  22447054.8134                   22447049.4344
        45.0004         34.2504
 -11625413.55947  -8956953.17646  22873328.2734                   22873328.1764
        43.0004         38.2504
 -20297165.63347 -15518667.10945  21969561.7974                   21969558.3984
        46.2504         35.7504
    418078.84846    703057.39543  24963693.2424                   24963692.8714
        36.7504         19.2504
 25  7  1  1 22 30.0000000  0 10G10G04G31G01G03G32G02G26G28G16
  17611420.69946  13724793.67245  25006402.3834                   25006403.9384
        37.7504         31.5004
 -12208051.73046  -9436333.83644  22806855.9304                   22806854.0044
        41.2504         24.0004
 -27488112.67247 -21360972.37148  20241149.9064                   20241145.0514
        47.0004         49.5004
 -22296786.85547 -17351175.92646  21207190.4534                   21207186.8484
        47.5004         36.7504
 -20512741.86348 -15964682.90248  21106175.4774                   21106174.5004
        48.0004         48.2504
  13675207.02746  10678642.84445  24219400.1644                   24219399.6524
        41.2504         34.7504
 -17129666.95347 -13309747.90245  22458942.2034                   22458937.3204
        45.5004         34.0004
 -11710430.61747  -9023200.24246  22857150.4144                   22857149.2584
        42.0004         36.5004
 -20231127.65647 -15467208.97345  21982127.8984                   21982124.9734
        46.2504         34.5004
    312652.31646    620907.06643  24943630.0554                   24943630.7584
        36.5004         19.2504
 25  7  1  1 23  0.0000000  0 10G10G04G31G01G03G32G02G26G28G16
  17698929.67646  13792982.39545  25023054.8834                   25023055.8594
        38.5004         32.5004
 -12276004.15246  -9489283.72343  22793925.1484                   22793922.7774
        40.5004         22.2504
 -27474697.75447 -21350519.19148  20243702.6414                   20243698.0084
        47.7504         49.5004
 -22280802.58247 -17338720.66846  21210232.2114                   21210228.7304
        47.5004         36.7504
 -20586491.07047 -16022149.77748  21092141.4304                   21092139.9804
        47.7504         48.0004
  13737928.54346  10727516.70345  24231335.3364                   24231335.0664
        41.0004         34.0004
 -17066869.90247 -13260815.19945  22470892.2894                   22470887.5204
        45.5004         34.5004
 -11795160.25046  -9089223.22346  22841025.6254                   22841027.5784
        41.0004         37.2504
 -20164722.63347 -15415464.81645  21994764.8204                   21994761.0704
        46.5004         35.2504
    207104.87945    538662.48443  24923545.2424                   24923545.8244
        35.7504         19.5004
 25  7  1  1 23 30.0000000  0 10G10G04G31G01G03G32G02G26G28G16
  17786628.87146  13861319.36745  25039743.4224                   25039744.2504
        38.5004         30.7504
 -12343813.36346  -9542122.05143  22781020.9614                   22781018.9024
        41.0004         22.5004
 -27460681.62547 -21339597.53948  20246369.6174                   20246364.7734
        46.5004         49.2504
 -22264237.12947 -17325812.53946  21213384.4454                   21213381.2504
        45.2504         36.5004
 -20659965.09047 -16079402.22348  21078159.6174                   21078158.2114
        47.0004         48.0004
  13800670.12546  10776406.20745  24243274.5394                   24243274.4224
        40.7504         33.5004
 -17003755.24647 -13211634.98445  22482902.5554                   22482897.5004
        45.5004         34.5004
 -11879604.71947  -9155024.05946  22824957.6724                   22824957.4494
        42.7504         39.5004
 -20097958.60547 -15363440.93745  22007469.7974                   22007466.3984
        46.2504         35.2504
    101433.60945    456321.41443  24903436.6024                   24903437.7544
        34.5004         20.0004
 25  7  1  1 24  0.0000000  0 10G10G04G31G01G03G32G02G26G28G16
  17874517.24246  13929803.76645  25056467.6724                   25056469.3094
        39.0004         31.2504
 -12411479.50446  -9594848.86743  22768144.4694                   22768143.4774
        41.0004         22.5004
 -27446065.41447 -21328208.28548  20249151.0394                   20249146.3324
        47.2504         49.2504
 -22247091.44948 -17312452.28146  21216647.2034                   21216643.4884
        48.0004         36.7504
 -20733161.64147 -16136438.46948  21064231.1174                   21064229.2624
        46.5004         48.2504
  13863431.89146  10825311.37945  24255218.4224                   24255217.8324
        41.7504         33.7504
 -16940325.50047 -13162209.28545  22494973.1024                   22494967.6844
        45.2504         33.7504
 -11963760.84446  -9220600.19545  22808940.8444                   22808941.9024
        39.7504         35.5004
 -20030838.08647 -15311139.25845  22020242.2894                   22020239.0004
        45.5004         35.5004
     -4358.89545    373885.93842  24883304.8204                   24883305.1804
        33.2504         17.2504
 25  7  1  1 24 30.0000000  0 10G10G04G31G01G03G32G02G26G28G16
  17962591.86746  13998433.27745  25073227.8914                   25073229.9144
        38.5004         31.2504
 -12479004.43046  -9647465.66443  22755294.7974                   22755294.3484
        40.2504         22.7504
 -27430852.12948 -21316353.78548  20252046.3134                   20252041.5824
        48.0004         49.5004
 -22229368.44547 -17298642.18046  21220019.6024                   21220016.5554
        47.0004         37.0004
 -20806080.29747 -16193258.17248  21050355.0084                   21050353.3324
        47.0004         48.2504
  13926212.01646  10874230.90245  24267164.9924                   24267165.7074
        41.7504         33.2504
 -16876584.89147 -13112541.32445  22507102.3754                   22507097.8134
        45.5004         34.7504
 -12047627.08647  -9285950.47346  22792984.2344                   22792983.4304
        43.5004         39.2504
 -19963365.38347 -15258563.15645  22033081.8524                   22033078.4144
        45.7504         35.5004
   -110271.54345    291356.81643  24863149.6564                   24863150.9574
        33.5004         18.2504
 25  7  1  1 25  0.0000000  0 10G10G04G31G01G03G32G02G26G28G16
  18050854.18846  14067209.02345  25090023.9384                   25090025.8794
        37.7504         31.0004
 -12546385.72346  -9699970.51243  22742473.3134                   22742472.0474
        40.2504         22.5004
 -27415040.57047 -21304033.08648  20255054.7894                   20255050.0044
        46.5004         49.2504
 -22211066.57847 -17284381.00046  21223502.2974                   21223499.3794
        45.7504         37.0004
 -20878716.05947 -16249857.43048  21036532.7114                   21036531.1134
        46.5004         48.5004
  13989013.10546  10923166.75845  24279115.6254                   24279117.0004
        39.5004         33.5004
 -16812533.21947 -13062630.97345  22519290.9454                   22519286.1604
        45.5004         33.7504
 -12131197.64146  -9351070.30545  22777078.5864                   22777079.1604
        38.7504         35.0004
 -19895540.23847 -15205712.43045  22045988.6174                   22045985.0164
        46.2504         35.5004
   -216298.96945    208738.23442  24842973.3364                   24842974.2624
        33.5004         17.7504
 25  7  1  1 25 30.0000000  0 10G10G04G31G01G03G32G02G26G28G16
  18139303.14146  14136130.21145  25106855.2114                   25106857.5744
        38.5004         30.7504
 -12613623.63346  -9752363.62143  22729678.0634                   22729676.6804
        39.5004         22.0004
 -27398632.55947 -21291247.63348  20258177.2504                   20258172.5634
        47.7504         49.5004
 -22192187.05147 -17269669.70346  21227095.0864                   21227091.2384
        46.2504         36.7504
 -20951066.78947 -16306234.59048  21022764.9064                   21022763.6604
        47.0004         48.7504
  14051835.11346  10972118.95345  24291069.9454                   24291070.6024
        38.7504         31.2504
 -16748173.27347 -13012480.43745  22531538.7194                   22531533.8444
        47.0004         34.2504
 -12214469.27047  -9415957.28146  22761234.8594                   22761234.3014
        42.7504         38.5004
 -19827365.34047 -15152589.16845  22058961.7584                   22058958.7974
        46.5004         35.0004
   -322438.37944    126032.37142  24822774.3444                   24822776.9614
        29.0004         16.2504
 25  7  1  1 26  0.0000000  0 10G10G04G31G01G03G32G02G26G28G16
  18227932.48446  14205191.95345  25123720.5784                   25123723.3094
        39.7504         30.5004
 -12680723.18046  -9804648.93043  22716909.0314                   22716907.9924
        40.0004         23.7504
 -27381634.14547 -21278002.11748  20261411.6954                   20261407.1764
        46.5004         49.5004
 -22172735.96947 -17254513.04746  21230796.7664                   21230793.4384
        45.0004         36.7504
 -21023135.17247 -16362391.73848  21009050.8524                   21009048.9694
        47.2504         48.7504
  14114673.19546  11021083.62145  24303028.7734                   24303027.6374
        39.7504         30.7504
 -16683512.57847 -12962095.53945  22543843.3284                   22543838.5744
        45.0004         34.0004
 -12297443.73046  -9480612.64146  22745444.4614                   22745445.3634
        40.7504         37.2504
 -19758848.06647 -15099199.11345  22072000.2344                   22071997.1374
        46.2504         35.5004
   -428691.83255     43237.71552  24802556.0084                   24802557.6024
        32.5004         15.5004
 25  7  1  1 26 30.0000000  0 10G10G04G31G01G03G32G02G26G28G16
  18316748.32046  14274399.04044  25140621.7274                   25140623.6844
        38.2504         29.0004
 -12747677.40246  -9856821.00044  22704168.5394                   22704166.7504
        40.5004         25.2504
 -27364039.61747 -21264292.10248  20264760.1724                   20264755.3204
        47.7504         49.5004
 -22152707.31647 -17238906.32846  21234607.9454                   21234604.4694
        46.5004         37.0004
 -21094911.69147 -16418321.47748  20995392.1094                   20995390.5234
        47.7504         48.5004
  14177534.45746  11070066.37545  24314990.5864                   24314990.4774
        38.5004         30.7504
 -16618546.39847 -12911472.61345  22556206.2114                   22556200.8134
        44.5004         32.7504
 -12380110.64547  -9545028.33646  22729713.6094                   22729713.4534
        43.0004         38.0004
 -19689983.71947 -15045538.62545  22085104.6804                   22085101.1844
        45.5004         35.2504
   -535049.55145    -39638.25842  24782317.0554                   24782318.5234
        34.5004         17.2504
 25  7  1  1 27  0.0000000  0 10G10G04G31G01G03G32G02G26G28G16
  18405744.67646  14343746.83244  25157557.3834                   25157558.6214
        37.7504         27.5004
 -12814491.09446  -9908883.55944  22691454.3204                   22691453.0084
        41.0004         26.2504
 -27345855.26648 -21250122.47748  20268220.4224                   20268215.7974
        48.7504         49.5004
 -22132106.99647 -17222854.14846  21238527.6954                   21238525.1484
        45.7504         37.0004
 -21166398.77347 -16474025.66048  20981788.2894                   20981786.9144
        47.0004         48.5004
  14240414.25846  11119063.56645  24326955.5554                   24326955.9264
        40.0004         30.2504
 -16553281.94947 -12860617.24645  22568625.0944                   22568620.3204
        45.0004         32.5004
 -12462471.36746  -9609205.48446  22714040.2814                   22714041.7304
        41.2504         38.0004
 -19620779.52347 -14991613.30145  22098273.6254                   22098270.6684
        46.0004         35.2504
   -641513.11745   -122596.75442  24762056.7584                   24762059.5554
        35.0004         15.5004
 25  7  1  1 27 30.0000000  0  9G04G31G01G03G32G02G26G28G16
 -12881164.15646  -9960836.55944  22678766.1024                   22678765.2464
        41.2504         26.0004
 -27327082.18448 -21235494.10548  20271792.8364                   20271788.0904
        48.7504         49.2504
 -22110935.94947 -17206357.24646  21242556.2584                   21242553.9884
        45.0004         36.5004
 -21237593.91047 -16529502.37148  20968240.8914                   20968238.9694
        47.0004         49.0004
  14303312.94946  11168075.48445  24338925.6954                   24338924.8634
        39.5004         31.2504
 -16487721.39147 -12809531.15645  22581100.9064                   22581096.1914
        45.5004         33.5004
 -12544522.55547  -9673141.36346  22698427.2344                   22698426.7774
        42.7504         38.5004
 -19551237.69147 -14937424.89545  22111507.5864                   22111504.5984
        46.5004         35.2504
   -748079.70746   -205635.50442  24741778.0084                   24741780.2424
        37.0004         16.7504
 25  7  1  1 28  0.0000000  0  9G04G31G01G03G32G02G26G28G16
 -12947693.95346 -10012677.92244  22666106.5784                   22666105.2664
        41.5004         26.7504
 -27307719.24648 -21220406.11348  20275477.2584                   20275472.5704
        48.0004         49.2504
 -22089192.67247 -17189414.46946  21246694.3204                   21246691.1054
        45.7504         36.5004
 -21308491.98447 -16584747.59848  20954749.2274                   20954747.7704
        47.5004         49.2504
  14366233.24246  11217104.21945  24350898.6484                   24350897.7704
        40.2504         31.2504
 -16421864.52747 -12758214.18745  22593633.3134                   22593628.4694
        47.0004         33.5004
 -12626258.02347  -9736831.34846  22682873.0234                   22682872.7274
        42.0004         37.5004
 -19481357.96547 -14882973.18445  22124805.1954                   22124801.7274
        45.2504         34.5004
   -854743.57846   -288750.08243  24721481.0634                   24721481.9924
        37.0004         19.2504
 25  7  1  1 28 30.0000000  0  9G04G31G01G03G32G02G26G28G16
 -13014068.90646 -10064398.60544  22653475.7894                   22653473.4104
        40.2504         26.7504
 -27287756.30547 -21204850.57848  20279276.3754                   20279271.2664
        47.5004         49.2504
 -22066866.67247 -17172017.59846  21250942.9774                   21250939.1994
        46.0004         36.5004
 -21379078.95347 -16639750.40648  20941316.8914                   20941315.5204
        47.5004         49.0004
  14429187.04346  11266159.06345  24362877.6174                   24362877.5944
        39.0004         31.7504
 -16355702.09447 -12706659.09045  22606223.8594                   22606219.0824
        46.0004         34.5004
 -12707662.97347  -9800263.69146  22667382.4774                   22667382.7154
        42.5004         39.0004
 -19411131.07447 -14828250.96945  22138168.7974                   22138165.7034
        45.7504         35.5004
   -961490.18446   -371929.06642  24701167.3594                   24701168.2624
        36.2504         17.7504
 25  7  1  1 29  0.0000000  0  9G04G31G01G03G32G02G26G28G16
 -13080284.60546 -10115995.19144  22640875.3674                   22640873.0234
        40.7504         26.0004
 -27267190.23447 -21188825.07448  20283190.0314                   20283185.1804
        47.5004         49.2504
 -22043954.62947 -17154164.07046  21255302.7974                   21255299.4104
        46.2504         36.5004
 -21449347.94147 -16694505.43748  20927944.8594                   20927943.5944
        47.5004         49.0004
  14492178.89846  11315243.55145  24374864.8834                   24374865.9774
        39.0004         31.5004
 -16289232.01247 -12654864.27745  22618872.1174                   22618867.2234
        45.0004         33.0004
 -12788729.46547  -9863432.34846  22651955.3674                   22651955.5704
        42.5004         37.5004
 -19340554.96147 -14773256.61745  22151599.0784                   22151595.7234
        46.2504         35.5004
  -1068312.11346   -455166.77742  24680840.1484                   24680840.4884
        36.2504         17.7504
 25  7  1  1 29 30.0000000  0  9G04G31G01G03G32G02G26G28G16
 -13146340.77346 -10167467.46144  22628304.9614                   22628303.3954
        40.0004         26.0004
 -27246022.25447 -21172330.55548  20287217.9844                   20287213.2734
        46.7504         49.2504
 -22020457.50847 -17135854.65646  21259774.3984                   21259771.1954
        45.5004         36.5004
 -21519296.33647 -16749010.65648  20914634.2734                   20914632.7034
        47.0004         49.0004
  14555209.38646  11364358.17245  24386859.3594                   24386860.2234
        38.5004         32.0004
 -16222456.71547 -12602831.65245  22631579.0554                   22631574.7894
        44.5004         32.5004
 -12869454.09047  -9926334.59846  22636593.7034                   22636594.0744
        42.0004         37.7504
 -19269631.72747 -14717991.78945  22165095.1884                   22165091.6804
        46.0004         35.5004
  -1175205.91046   -538460.52742  24660499.0004                   24660498.9184
        36.5004         17.2504
 25  7  1  1 30  0.0000000  0  9G04G31G01G03G32G02G26G28G16
 -13212245.03546 -10218821.38344  22615763.9224                   22615761.7934
        40.2504         25.7504
 -27224261.39847 -21155374.05548  20291358.9844                   20291354.1914
        47.5004         49.2504
 -21996384.12547 -17117096.19546  21264355.5864                   21264352.0354
        46.0004         36.5004
 -21588929.19547 -16803270.00848  20901383.6564                   20901381.6724
        47.0004         49.0004
  14618270.89546  11413496.95745  24398859.2664                   24398860.6294
        40.0004         32.0004
 -16155386.15247 -12550568.94545  22644342.7974                   22644337.9224
        44.7504         33.0004
 -12949840.92247  -9988973.61346  22621297.1414                   22621297.5704
        42.7504         38.7504
 -19198371.30547 -14662464.21945  22178655.8834                   22178652.1994
        46.0004         35.0004
  -1282176.13346   -621813.77042  24640141.9774                   24640143.1454
        36.0004         17.7504
 25  7  1  1 30 30.0000000  0  9G04G31G01G03G32G02G26G28G16
 -13278000.32846 -10270059.19944  22603251.2114                   22603248.6764
        40.5004         25.0004
 -27201912.22747 -21137959.12548  20295612.0474                   20295607.4734
        46.5004         49.2504
 -21971738.56647 -17097891.87546  21269045.0944                   21269042.2384
        45.5004         36.5004
 -21658247.04347 -16857283.90648  20888192.7274                   20888191.1844
        46.7504         49.0004
  14681360.93447  11462657.96545  24410865.6024                   24410866.3204
        42.0004         33.7504
 -16088025.73447 -12498080.38745  22657160.8754                   22657155.7504
        45.5004         33.0004
 -13029889.64147 -10051349.20346  22606064.5004                   22606063.3014
        42.2504         38.0004
 -19126779.03147 -14606678.07045  22192279.2664                   22192275.9924
        47.0004         34.7504
  -1389222.81645   -705226.57442  24619772.5554                   24619772.3524
        35.5004         16.2504
 25  7  1  1 31  0.0000000  0  9G04G31G01G03G32G02G26G28G16
 -13343608.30146 -10321182.23844  22590765.9844                   22590763.8524
        41.7504         28.0004
 -27178977.61747 -21120088.00048  20299976.4694                   20299971.6524
        46.0004         49.0004
 -21946523.77047 -17078244.00846  21273843.4614                   21273839.9774
        45.5004         36.7504
 -21727249.11347 -16911051.73448  20875061.9534                   20875060.6884
        46.2504         48.7504
  14744477.95746  11511840.03545  24422876.4614                   24422876.8014
        41.5004         34.5004
 -16020379.18747 -12445368.84045  22670033.9844                   22670029.2344
        46.2504         33.0004
 -13109598.54346 -10113459.98846  22590896.4224                   22590897.0124
        41.7504         40.0004
 -19054858.85247 -14550636.40645  22205965.3674                   22205961.7384
        46.2504         34.2504
  -1496344.81246   -788698.10243  24599388.7814                   24599387.7034
        36.5004         18.2504
 25  7  1  1 31 30.0000000  0  9G04G31G01G03G32G02G26G28G16
 -13409071.11746 -10372192.16444  22578309.2034                   22578307.6174
        41.5004         27.0004
 -27155461.41447 -21101763.69548  20304451.0634                   20304446.9454
        47.0004         49.0004
 -21920743.19147 -17058155.27346  21278749.6884                   21278746.1914
        47.0004         37.0004
 -21795935.07847 -16964573.25448  20861991.6414                   20861989.9734
        47.2504         49.0004
  14807619.94546  11561041.53145  24434892.3754                   24434892.0554
        41.5004         34.0004
 -15952451.66047 -12392438.35545  22682959.7194                   22682954.6054
        45.7504         31.2504
 -13188966.50046 -10175305.10246  22575792.4454                   22575793.2304
        41.5004         38.0004
 -18982615.41847 -14494342.86345  22219712.6954                   22219709.3594
        46.0004         33.5004
  -1603540.87145   -872227.30542  24578989.1804                   24578988.7664
        35.7504         17.7504
 25  7  1  1 32  0.0000000  0  9G04G31G01G03G32G02G26G28G16
 -13474390.92247 -10423090.64844  22565879.2424                   22565877.3524
        42.7504         28.0004
 -27131367.11747 -21082988.92648  20309036.0084                   20309031.4264
        47.5004         49.0004
 -21894400.21147 -17037628.28946  21283761.9924                   21283758.8094
        46.2504         37.0004
 -21864304.66847 -17017848.25048  20848981.3134                   20848979.6914
        47.5004         49.5004
  14870785.10246  11610261.07445  24446912.1564                   24446912.3984
        41.2504         34.7504
 -15884247.48447 -12339292.30145  22695938.7814                   22695934.0434
        44.7504         31.5004
 -13267992.26247 -10236883.56646  22560754.8674                   22560754.5704
        42.7504         39.0004
 -18910053.10947 -14437800.83245  22233520.6644                   22233517.4694
        45.7504         34.0004
  -1710810.14846   -955813.57042  24558575.7584                   24558575.8674
        38.5004         17.2504
 25  7  1  1 32 30.0000000  0  9G04G31G01G03G32G02G26G28G16
 -13539569.09446 -10473878.77044  22553475.4924                   22553474.2344
        41.7504         27.7504
 -27106697.84847 -21063766.12948  20313730.4774                   20313726.5554
        46.0004         49.0004
 -21867497.54347 -17016665.20346  21288881.6254                   21288878.2734
        45.5004         36.7504
 -21932356.75847 -17070875.84048  20836031.5944                   20836030.0704
        47.2504         49.5004
  14933972.23446  11659497.73045  24458936.4384                   24458936.3794
        40.7504         34.5004
 -15815770.30547 -12285933.52045  22708969.5704                   22708964.8284
        45.5004         32.0004
 -13346673.99647 -10298193.93746  22545782.1884                   22545783.2074
        42.7504         39.7504
 -18837175.65247 -14381013.23845  22247389.1804                   22247385.5434
        46.0004         33.7504
  -1818150.86746  -1039455.60542  24538149.5634                   24538148.9774
        37.7504         16.7504
 25  7  1  1 33  0.0000000  0  9G04G31G01G03G32G02G26G28G16
 -13604607.36746 -10524557.86744  22541099.0394                   22541097.5124
        41.5004         28.5004
 -27081456.94947 -21044097.89548  20318533.6414                   20318529.1294
        46.7504         49.0004
 -21840038.23047 -16995268.36346  21294107.1804                   21294103.7074
        46.5004         37.0004
 -22000090.64148 -17123655.47348  20823142.2734                   20823140.6214
        48.0004         49.5004
  14997179.85947  11708750.37146  24470964.4144                   24470964.3754
        42.2504         36.0004
 -15747024.34847 -12232365.30145  22722051.2974                   22722046.8874
        44.0004         31.7504
 -13425010.00847 -10359234.93046  22530875.1484                   22530874.9414
        43.0004         39.0004
 -18763987.18447 -14323983.29745  22261316.2894                   22261312.8284
        45.2504         34.2504
  -1925561.86346  -1123152.34042  24517709.4064                   24517709.0944
        37.0004         17.2504
 25  7  1  1 33 30.0000000  0  9G04G31G01G03G32G02G26G28G16
 -13669506.40246 -10575128.47744  22528749.6644                   22528747.5944
        40.7504         27.7504
 -27055646.46547 -21023985.84048  20323445.4694                   20323440.7814
        46.5004         48.7504
 -21812024.32447 -16973439.37546  21299437.7274                   21299435.2734
        45.7504         36.5004
 -22067504.55947 -17176185.77748  20810313.3674                   20810311.9844
        47.0004         49.5004
  15060407.50447  11758018.60245  24482996.3364                   24482995.6644
        43.5004         35.5004
 -15678013.07847 -12178590.37145  22735183.6884                   22735179.4344
        45.0004         31.5004
 -13502997.75447 -10420004.57446  22516034.7734                   22516034.8554
        43.2504         39.7504
 -18690490.74247 -14266713.36345  22275302.5314                   22275298.9454
        45.5004         34.0004
  -2033040.57046  -1206901.87142  24497257.2664                   24497256.7544
        38.0004         16.7504
 25  7  1  1 34  0.0000000  0  9G04G31G01G03G32G02G26G28G16
 -13734266.95346 -10625591.17244  22516426.5004                   22516424.8164
        41.0004         27.7504
 -27029269.07047 -21003432.02348  20328465.1094                   20328460.2114
        47.5004         49.0004
 -21783457.97347 -16951179.91446  21304873.6484                   21304870.9414
        46.2504         36.7504
 -22134596.82047 -17228465.45748  20797546.4384                   20797544.9104
        47.7504         49.2504
  15123654.71947  11807302.05946  24495032.3284                   24495031.8134
        44.0004         36.5004
 -15608739.54747 -12124611.05945  22748366.4144                   22748362.1334
        45.2504         31.7504
 -13580634.64847 -10480500.79346  22501260.7584                   22501260.3834
        42.5004         39.7504
 -18616689.40247 -14209205.87145  22289346.2814                   22289342.5354
        46.2504         34.2504
  -2140584.78946  -1290702.49242  24476793.2734                   24476792.7814
        37.2504         15.5004
 25  7  1  1 34 30.0000000  0  9G04G31G01G03G32G02G26G28G16
 -13798886.21546 -10675943.78144  22504129.4614                   22504127.5274
        41.7504         26.5004
 -27002323.28148 -20982435.31648  20333592.6174                   20333587.3794
        48.2504         48.7504
 -21754337.66448 -16928488.80946  21310415.3364                   21310411.9384
        48.0004         36.5004
 -22201362.09048 -17280490.32848  20784841.1884                   20784839.8244
        48.2504         49.2504
  15186924.57447  11856603.18046  24507072.2894                   24507072.8364
        43.7504         36.0004
 -15539203.25447 -12070426.99645  22761599.1564                   22761593.9774
        46.0004         32.0004
 -13657914.55947 -10540718.86746  22486554.6804                   22486554.2894
        42.0004         39.2504
 -18542582.66847 -14151460.39545  22303448.1644                   22303444.8594
        46.0004         33.5004
  -2248188.42245  -1374549.30542  24456314.5394                   24456316.1844
        33.2504         13.7504
 25  7  1  1 35  0.0000000  0  9G04G31G01G03G32G02G26G28G16
 -13863362.94946 -10726185.31244  22491859.6094                   22491857.7384
        41.0004         27.5004
 -26974809.32447 -20960995.87548  20338828.5234                   20338823.1094
        47.5004         49.0004
 -21724663.68047 -16905366.24646  21316061.7504                   21316058.8484
        47.7504         37.0004
 -22267796.68747 -17332257.53148  20772199.2734                   20772198.0204
        47.5004         49.5004
  15250218.49647  11905923.07446  24519116.6254                   24519118.1764
        43.0004         36.5004
 -15469405.79347 -12016039.40645  22774880.5314                   22774875.8714
        46.0004         32.0004
 -13734832.98847 -10600655.24246  22471917.5944                   22471918.8674
        42.7504         39.7504
 -18468171.70347 -14093477.85945  22317608.4304                   22317604.4534
        45.7504         34.0004
  -2355847.16445  -1458439.09442  24435828.9614                   24435829.0984
        35.0004         17.2504
 25  7  1  1 35 30.0000000  0  9G04G31G01G03G32G02G26G28G16
 -13927700.09046 -10776318.10944  22479616.3054                   22479614.4734
        41.0004         26.5004
 -26946732.46948 -20939117.80948  20344171.3984                   20344165.9144
        48.7504         49.0004
 -21694440.43447 -16881815.70346  21321813.5084                   21321810.4024
        47.2504         36.7504
 -22333901.19148 -17383767.52048  20759620.2424                   20759618.5704
        48.5004         50.0004
  15313533.77347  11955259.59445  24531165.4454                   24531165.9694
        42.5004         34.2504
 -15399352.30147 -11961452.33245  22788210.8674                   22788207.0044
        44.7504         31.5004
 -13811389.69547 -10660309.76246  22457349.3984                   22457348.9694
        43.0004         39.2504
 -18393461.86347 -14035262.43745  22331825.2894                   22331821.9024
        45.7504         34.0004
  -2463560.74246  -1542371.55543  24415331.9924                   24415331.9264
        37.0004         19.5004
 25  7  1  1 36  0.0000000  0  9G04G31G01G03G32G02G26G28G16
 -13991898.12146 -10826342.49644  22467400.4384                   22467398.6724
        40.7504         27.2504
 -26918094.46548 -20916802.50048  20349620.9224                   20349616.0394
        48.0004         49.0004
 -21663669.81247 -16857838.62546  21327669.0314                   21327666.1844
        46.2504         37.0004
 -22399673.54348 -17435018.69548  20747104.0784                   20747102.4224
        48.2504         50.0004
  15376870.23846  12004612.65245  24543216.7034                   24543217.7664
        39.7504         34.2504
 -15329045.72747 -11906668.03945  22801590.4454                   22801585.5744
        45.0004         31.2504
 -13887581.78147 -10719680.18746  22442850.0314                   22442850.6484
        43.5004         39.0004
 -18318455.92647 -13976816.28945  22346098.1174                   22346095.3484
        46.2504         33.5004
  -2571326.47746  -1626344.63743  24394824.2814                   24394824.3134
        36.7504         20.5004
 25  7  1  1 36 30.0000000  0  9G04G31G01G03G32G02G26G28G16
 -14055958.91046 -10876259.93744  22455209.8674                   22455207.9064
        40.5004         28.5004
 -26888899.46547 -20894053.14848  20355176.3984                   20355171.1994
        46.7504         49.0004
 -21632355.19147 -16833437.65246  21333627.9224                   21333624.8674
        45.7504         37.0004
 -22465113.19547 -17486010.60948  20734651.3914                   20734650.0204
        47.0004         49.7504
  15440226.30546  12053980.96545  24555273.7504                   24555274.4384
        40.0004         34.2504
 -15258490.70747 -11851690.16845  22815016.5234                   22815012.0004
        44.5004         31.0004
 -13963407.91047 -10778765.43046  22428421.3674                   22428421.1214
        44.5004         40.0004
 -18243158.07847 -13918142.67245  22360426.9384                   22360423.8554
        45.5004         34.0004
  -2679142.98046  -1710357.38343  24374307.2814                   24374306.0744
        39.5004         20.7504
 25  7  1  1 37  0.0000000  0  9G04G31G01G03G32G02G26G28G16
 -14119884.56246 -10926072.09044  22443045.0084                   22443043.3134
        41.2504         27.2504
 -26859150.51648 -20870872.16448  20360837.5314                   20360832.8284
        49.0004         49.0004
 -21600500.25448 -16808615.65246  21339689.9534                   21339686.6484
        48.0004         37.0004
 -22530219.82847 -17536743.03948  20722261.7344                   20722259.9694
        47.7504         49.5004
  15503600.09046  12103363.05145  24567333.2344                   24567334.0944
        39.7504         33.5004
 -15187691.51247 -11796522.04345  22828488.8054                   22828485.0784
        43.7504         30.7504
 -14038867.01647 -10837564.70746  22414061.4774                   22414060.8014
        42.2504         38.7504
 -18167572.86747 -13859245.13745  22374810.7894                   22374807.2304
        45.5004         34.0004
  -2787009.36346  -1794409.00043  24353781.8594                   24353780.8554
        39.7504         22.7504
 25  7  1  1 37 30.0000000  0  9G04G31G01G03G32G02G26G28G16
 -14183669.14146 -10975774.31244  22430907.5554                   22430905.4454
        41.7504         26.5004
 -26828843.85948 -20847256.58648  20366604.5554                   20366599.8244
        48.5004         48.7504
 -21568100.58647 -16783369.18746  21345855.3364                   21345851.8364
        47.7504         36.0004
 -22594985.02347 -17587209.41448  20709937.1644                   20709935.7734
        47.7504         49.7504
  15566997.77046  12152763.77345  24579397.2814                   24579397.4184
        39.0004         33.5004
 -15116645.09047 -11741161.25845  22842009.1564                   22842004.3444
        45.2504         32.2504
 -14113949.85247 -10896070.76646  22399774.5394                   22399774.9264
        44.2504         40.5004
 -18091696.67247 -13800120.85945  22389249.3984                   22389245.7034
        46.2504         33.5004
  -2894916.53546  -1878492.34043  24333246.9924                   24333247.1214
        37.7504         22.0004
 25  7  1  1 38  0.0000000  0  9G04G31G01G03G32G02G26G28G16
 -14247319.14146 -11025371.65244  22418794.8524                   22418793.2774
        41.0004         26.0004
 -26797987.59847 -20823212.75048  20372476.4064                   20372471.4614
        46.0004         48.7504
 -21535164.24247 -16757704.53146  21352122.8754                   21352119.7464
        45.5004         37.0004
 -22659412.87947 -17637412.90648  20697677.4064                   20697675.9144
        47.5004         50.0004
  15630413.13746  12202178.26645  24591465.6414                   24591465.1134
        40.0004         33.0004
 -15045360.24647 -11685614.70745  22855574.3914                   22855570.0044
        46.0004         33.5004
 -14188659.73047 -10954286.19946  22385557.3754                   22385556.9844
        43.7504         39.7504
 -18015538.36347 -13740776.75445  22403741.6254                   22403738.6024
        45.2504         33.5004
  -3002867.68446  -1962609.96543  24312703.9304                   24312703.9654
        38.0004         20.2504
 25  7  1  1 38 30.0000000  0  9G04G31G01G03G32G02G26G28G16
 -14310828.00446 -11074859.02344  22406709.6954                   22406708.1724
        40.7504         25.5004
 -26766576.96948 -20798736.93048  20378453.6254                   20378448.9844
        48.5004         48.7504
 -21501686.18748 -16731617.77046  21358493.4694                   21358490.2194
        48.0004         36.5004
 -22723494.24648 -17687346.41848  20685482.9384                   20685481.2544
        48.7504         50.2504
  15693853.10946  12251611.91445  24603538.2274                   24603537.4804
        41.7504         32.0004
 -14973832.81247 -11629879.12545  22869185.3754                   22869181.6024
        45.0004         31.7504
 -14262986.77747 -11012203.35946  22371412.7974                   22371413.4454
        44.2504         40.0004
 -17939093.64147 -13681209.48045  22418288.9064                   22418285.4144
        45.7504         32.5004
  -3110853.18046  -2046754.44142  24292155.9694                   24292154.1804
        37.2504         16.7504
 25  7  1  1 39  0.0000000  0  9G04G31G01G03G32G02G26G28G16
 -14374197.60546 -11124237.86744  22394650.9064                   22394649.2974
        40.5004         28.0004
 -26734615.58648 -20773831.96548  20384535.3834                   20384530.9884
        48.2504         49.0004
 -21467670.00047 -16705111.67646  21364966.1724                   21364963.8324
        46.7504         36.7504
 -22787228.73847 -17737009.64148  20673354.7664                   20673353.0984
        47.7504         50.2504
  15757315.99246  12301063.42645  24615613.5634                   24615614.5944
        39.5004         30.5004
 -14902067.54747 -11573958.21545  22882841.4384                   22882837.5474
        45.0004         31.2504
 -14336929.78547 -11069821.18746  22357341.8914                   22357342.6954
        44.0004         39.5004
 -17862366.90647 -13621422.43745  22432889.6484                   22432886.2274
        46.0004         34.0004
  -3218871.74645  -2130924.59842  24271600.0004                   24271598.5554
        33.5004         16.7504
 25  7  1  1 39 30.0000000  0  9G04G31G01G03G32G02G26G28G16
 -14437430.75446 -11173510.38344  22382617.9454                   22382616.2074
        41.2504         29.2504
 -26702108.16447 -20748501.52048  20390721.6884                   20390716.8954
        46.5004         49.0004
 -21433120.06647 -16678189.68446  21371541.1414                   21371537.7934
        45.0004         36.0004
 -22850616.64147 -17786402.79348  20661292.5164                   20661291.0044
        47.7504         50.5004
  15820799.22746  12350530.79345  24627693.9064                   24627695.3914
        38.2504         30.0004
 -14830069.67647 -11517856.04745  22896542.9774                   22896537.5944
        44.7504         30.5004
 -14410488.32847 -11127139.52746  22343344.5474                   22343344.1764
        43.7504         39.7504
 -17785363.15247 -13561419.55145  22447542.9694                   22447539.6334
        46.2504         33.2504
  -3326923.12146  -2215120.30542  24251037.6024                   24251037.7344
        37.2504         16.7504
 25  7  1  1 40  0.0000000  0  9G04G31G01G03G32G02G26G28G16
 -14500527.89146 -11222676.96944  22370611.0554                   22370609.1094
        41.0004         29.0004
 -26669056.97747 -20722747.35248  20397011.0864                   20397006.5784
        46.7504         49.0004
 -21398038.49247 -16650853.43046  21378216.7664                   21378213.8094
        45.2504         36.2504
 -22913655.98048 -17835524.33648  20649296.4614                   20649295.2114
        48.5004         50.2504
  15884302.72746  12400013.96144  24639778.3204                   24639779.0044
        37.7504         28.0004
 -14757842.04347 -11461574.85945  22910287.3054                   22910282.4534
        44.2504         30.0004
 -14483659.62947 -11184156.07046  22329420.3524                   22329419.9184
        44.0004         39.2504
 -17708085.33247 -13501203.09045  22462248.3594                   22462245.1724
        46.2504         33.5004
  -3435004.18446  -2299339.18443  24230471.2114                   24230469.5704
        38.5004         19.7504
 25  7  1  1 40 30.0000000  0  9G04G31G01G03G32G02G26G28G16
 -14563489.85546 -11271738.19144  22358629.8914                   22358628.0904
        41.2504         28.5004
 -26635464.75448 -20696571.60248  20403403.1484                   20403398.8834
        49.0004         48.5004
 -21362427.84448 -16623104.91446  21384993.5864                   21384990.8404
        48.0004         36.2504
 -22976345.18047 -17884373.03148  20637366.3594                   20637365.1054
        47.5004         50.0004
  15947825.86745  12449512.42644  24651866.9064                   24651866.3404
        35.5004         27.5004
 -14685388.05147 -11405117.26645  22924075.1954                   22924070.1524
        45.2504         30.0004
 -14556441.47347 -11240869.16046  22315570.2734                   22315569.5664
        44.5004         39.2504
 -17630536.54747 -13440775.51645  22477005.8054                   22477002.1844
        45.7504         33.7504
  -3543112.63346  -2383579.39843  24209898.3524                   24209897.2274
        38.5004         21.2504
 25  7  1  1 41  0.0000000  0  9G04G31G01G03G32G02G26G28G16
 -14626312.60246 -11320690.94544  22346674.3364                   22346672.7384
        41.7504         27.7504
 -26601329.41847 -20669972.64848  20409899.1174                   20409894.4494
        47.2504         48.7504
 -21326285.72347 -16594942.25046  21391871.1414                   21391868.3204
        45.5004         36.7504
 -23038677.73448 -17932943.83248  20625505.3834                   20625503.6214
        48.2504         49.7504
  16011372.94945  12499029.61744  24663959.5554                   24663959.8014
        35.5004         24.7504
 -14612706.33247 -11348482.22745  22937906.0164                   22937901.1884
        45.5004         30.7504
 -14628826.53547 -11297273.07046  22301796.1484                   22301796.4774
        44.5004         40.0004
 -17552715.14547 -13380135.49645  22491814.4614                   22491810.8134
        45.5004         33.2504
  -3651241.39846  -2467835.43443  24189322.1484                   24189322.9574
        40.0004         23.0004
 25  7  1  1 41 30.0000000  0  9G04G31G01G03G32G02G26G28G16
 -14688999.24247 -11369537.64144  22334745.5554                   22334744.1054
        42.0004         27.0004
 -26566655.53948 -20642954.04748  20416497.3594                   20416492.8834
        48.5004         48.5004
 -21289616.98847 -16566369.24646  21398849.0164                   21398846.5234
        47.7504         36.2504
 -23100654.32448 -17981237.25848  20613711.8444                   20613709.7544
        48.5004         50.2504
  16074941.31346  12548563.37144  24676056.5864                   24676056.7114
        37.0004         26.5004
 -14539802.57047 -11291674.18045  22951779.3364                   22951775.0314
        45.7504         31.0004
 -14700814.80147 -11353367.76646  22288097.0704                   22288096.5164
        44.0004         40.0004
 -17474626.54747 -13319287.26645  22506673.9454                   22506670.6134
        46.0004         32.7504
  -3759390.10246  -2552107.00843  24168742.3834                   24168742.0274
        39.5004         22.5004
 25  7  1  1 42  0.0000000  0  9G04G31G01G03G32G02G26G28G16
 -14751549.93446 -11418278.39544  22322843.1414                   22322840.3484
        41.7504         28.5004
 -26531445.69147 -20615517.81248  20423197.5704                   20423192.9494
        46.5004         48.5004
 -21252423.56247 -16537387.39546  21405927.0634                   21405923.8204
        46.2504         36.2504
 -23162272.75448 -18029251.60548  20601986.1644                   20601984.3284
        48.7504         50.2504
  16138530.81346  12598113.59444  24688156.7114                   24688157.8984
        38.5004         27.7504
 -14466679.28547 -11234695.06245  22965694.2894                   22965689.8204
        45.7504         31.2504
 -14772403.37547 -11409151.02746  22274474.0234                   22274473.8914
        44.5004         39.5004
 -17396273.30547 -13258232.82845  22521583.8364                   22521580.7854
        46.0004         33.0004
  -3867555.79346  -2636391.80143  24148159.0084                   24148157.8954
        39.2504         22.0004
 25  7  1  1 42 30.0000000  0  9G04G31G01G03G32G02G26G28G16
 -14813966.64847 -11466914.76244  22310965.2974                   22310963.1914
        42.5004         27.7504
 -26495703.76248 -20587666.95748  20429999.0784                   20429994.3754
        48.7504         48.5004
 -21214709.11748 -16507999.53546  21413103.6954                   21413100.8834
        48.0004         36.5004
 -23223532.44148 -18076986.40648  20590328.5394                   20590327.1024
        48.2504         50.2504
  16202140.02046  12647679.16044  24700262.1174                   24700262.4384
        39.7504         28.0004
 -14393340.92247 -11177548.37145  22979649.8204                   22979645.4614
        45.0004         31.5004
 -14843591.04347 -11464621.89846  22260927.5084                   22260927.8594
        43.7504         39.7504
 -17317659.67247 -13196975.48445  22536544.0234                   22536540.4344
        45.5004         32.7504
  -3975737.22746  -2720688.84843  24127572.5004                   24127571.2664
        38.7504         22.0004
 25  7  1  1 43  0.0000000  0  9G04G31G01G03G32G02G26G28G16
 -14876245.33647 -11515443.55144  22299114.2814                   22299112.1254
        43.0004         29.0004
 -26459427.56247 -20559399.80148  20436902.3524                   20436897.6724
        46.5004         48.5004
 -21176471.49647 -16478204.01246  21420380.1414                   21420377.2974
        45.2504         36.7504
 -23284427.06648 -18124436.74648  20578740.7664                   20578739.1134
        48.2504         50.2504
  16265773.10946  12697263.34044  24712370.2974                   24712369.5744
        40.0004         27.5004
 -14319786.57447 -11120233.37945  22993646.7034                   22993642.3914
        44.0004         31.5004
 -14914370.68047 -11519774.80946  22247458.2664                   22247457.9414
        43.5004         39.7504
 -17238784.06647 -13135514.01245  22551553.2114                   22551549.9104
        45.2504         33.2504
  -4083927.01646  -2804992.41843  24106984.4384                   24106983.4774
        37.7504         21.5004
 25  7  1  1 43 30.0000000  0  9G04G31G01G03G32G02G26G28G16
 -14938387.92247 -11563866.29345  22287288.5084                   22287287.3014
        42.2504         31.5004
 -26422620.79748 -20530719.21148  20443906.3134                   20443901.7544
        49.5004         49.0004
 -21137714.36747 -16448003.68046  21427755.4924                   21427752.6604
        47.2504         36.0004
 -23344956.05948 -18171602.16848  20567222.7034                   20567221.0704
        48.5004         50.5004
  16329428.54746  12746864.94145  24724483.6954                   24724482.7934
        41.0004         30.0004
 -14246020.23447 -11062753.19945  23007683.9694                   23007680.6374
        44.5004         31.5004
 -14984741.07447 -11574608.85546  22234067.2034                   22234068.4614
        44.7504         40.2504
 -17159650.63347 -13073851.64145  22566611.8834                   22566608.9574
        45.7504         32.2504
  -4192123.74645  -2889301.39843  24086394.7194                   24086395.1414
        35.5004         20.2504
 25  7  1  1 44  0.0000000  0  9G04G31G01G03G32G02G26G28G16
 -15000396.91847 -11612184.93745  22275489.0314                   22275487.1174
        43.7504         31.0004
 -26385288.04748 -20501628.77348  20451010.7344                   20451005.9184
        48.7504         49.0004
 -21098442.08247 -16417401.93045  21435228.5004                   21435225.3324
        47.0004         35.5004
 -23405119.54748 -18218482.79348  20555773.4924                   20555771.6954
        48.5004         50.2504
  16393104.05146  12796482.12145  24736601.2584                   24736601.0354
        41.5004         30.0004
 -14172047.19947 -11005111.94145  23021760.7344                   23021756.7814
        45.2504         31.5004
 -15054701.69147 -11629123.55946  22220754.5704                   22220754.1294
        44.0004         40.5004
 -17080264.30547 -13011992.20345  22581718.9304                   22581715.6214
        45.2504         32.5004
  -4300326.90646  -2973615.37943  24065804.5554                   24065804.1334
        36.2504         18.5004
 25  7  1  1 44 30.0000000  0  9G04G31G01G03G32G02G26G28G16
 -15062272.35547 -11660399.52745  22263714.1024                   22263712.4574
        44.5004         30.0004
 -26347431.17248 -20472129.91848  20458214.4844                   20458209.7424
        49.7504         49.0004
 -21058656.55547 -16386400.24645  21442799.4924                   21442796.5354
        47.5004         35.5004
 -23464915.14548 -18265076.76248  20544395.0784                   20544393.0744
        48.7504         50.2504
  16456799.87546  12846115.20345  24748722.0474                   24748722.3444
        40.5004         31.0004
 -14097869.96947 -10947311.58245  23035876.4614                   23035872.0084
        45.2504         30.0004
 -15124249.45347 -11683316.60246  22207519.8204                   22207520.1804
        43.2504         40.7504
 -17000627.44547 -12949937.54345  22596872.9454                   22596869.4574
        45.5004         33.0004
  -4408533.45746  -3057932.04743  24045214.1954                   24045211.9104
        36.5004         18.2504
 25  7  1  1 45  0.0000000  0  9G04G31G01G03G32G02G26G28G16
 -15124010.76247 -11708507.31645  22251965.9224                   22251963.9774
        43.5004         30.0004
 -26309048.94548 -20442221.69948  20465518.3524                   20465513.8484
        49.0004         49.0004
 -21018356.13347 -16354997.35245  21450468.3984                   21450465.0784
        46.7504         35.5004
 -23524337.01648 -18311379.50848  20533087.2894                   20533085.4344
        48.2504         50.5004
  16520519.82047  12895767.10545  24760847.7114                   24760847.8094
        42.0004         31.5004
 -14023487.91847 -10889351.60944  23050031.1644                   23050026.7034
        45.0004         29.7504
 -15193377.89147 -11737182.85246  22194365.3134                   22194365.6684
        44.5004         41.5004
 -16920738.91447 -12887686.77345  22612075.8204                   22612071.9384
        45.5004         34.0004
  -4516736.15646  -3142245.64842  24024622.7114                   24024620.9884
        38.0004         17.7504
 25  7  1  1 45 30.0000000  0  9G04G31G01G03G32G02G26G28G16
 -15185613.31247 -11756509.26244  22240242.9694                   22240240.7934
        42.7504         29.2504
 -26270144.73447 -20411906.74248  20472921.5864                   20472916.8014
        47.0004         48.5004
 -20977543.94147 -16323195.66045  21458234.6644                   21458231.7114
        45.5004         35.5004
 -23583383.90247 -18357390.05148  20521851.2664                   20521849.3984
        47.7504         50.5004
  16584262.84847  12945436.95745  24772977.1804                   24772977.3204
        42.0004         33.7504
 -13948904.71547 -10831234.89845  23064223.6024                   23064219.0944
        44.2504         30.0004
 -15262085.08247 -11790720.89846  22181290.7814                   22181290.2074
        43.5004         40.5004
 -16840602.23447 -12825242.64845  22627324.8914                   22627321.4144
        45.0004         33.0004
  -4624932.78146  -3226554.63743  24004034.5474                   24004032.3404
        39.0004         19.2504
 25  7  1  1 46  0.0000000  0  9G04G31G01G03G32G02G26G28G16
 -15247081.16047 -11804406.23045  22228545.9844                   22228543.6254
        45.2504         30.2504
 -26230721.37948 -20381187.25448  20480423.6564                   20480418.5274
        49.5004         48.5004
 -20936223.07448 -16290997.61745  21466097.7734                   21466094.3524
        48.0004         35.7504
 -23642054.60548 -18403107.46948  20510686.6174                   20510684.9344
        48.7504         51.0004
  16648028.39847  12995124.34045  24785111.7274                   24785111.2114
        42.0004         34.2504
 -13874123.92247 -10772964.22345  23078454.5394                   23078449.3134
        44.5004         30.5004
 -15330369.16847 -11843929.20346  22168296.8204                   22168296.7274
        44.5004         41.5004
 -16760220.89147 -12762607.86745  22642621.3754                   22642617.8714
        44.7504         32.2504
  -4733121.48046  -3310857.36343  23983446.6884                   23983444.5634
        39.5004         20.5004
 25  7  1  1 46 30.0000000  0  9G04G31G01G03G32G02G26G28G16
 -15308411.77747 -11852196.28145  22216875.2194                   22216872.8954
        44.7504         31.0004
 -26190778.42648 -20350062.88348  20488024.6484                   20488019.7344
        49.5004         48.5004
 -20894392.91447 -16258402.72745  21474058.0784                   21474055.3244
        47.0004         35.5004
 -23700344.19548 -18448527.91848  20499594.3284                   20499592.5124
        48.0004         50.5004
  16711819.11746  13044831.34445  24797250.6174                   24797251.0354
        41.5004         34.7504
 -13799145.65247 -10714539.67645  23092721.9614                   23092717.8324
        43.7504         31.0004
 -15398224.65647 -11896803.56646  22155383.9064                   22155383.7304
        44.0004         40.5004
 -16679594.77347 -12699782.34845  22657964.3444                   22657960.5634
        45.0004         32.5004
  -4841296.40646  -3395149.43043  23962860.9064                   23962859.5314
        38.7504         19.7504
 25  7  1  1 47  0.0000000  0  9G04G31G01G03G32G02G26G28G16
 -15369609.32847 -11899882.65245  22205229.9454                   22205227.8444
        44.7504         31.2504
 -26150322.38348 -20318538.69948  20495723.3524                   20495718.4884
        49.5004         48.5004
 -20852059.55147 -16225415.72345  21482113.4614                   21482110.6484
        47.5004         35.2504
 -23758254.44548 -18493652.78548  20488574.0164                   20488572.4884
        48.5004         50.5004
  16775631.18046  13094555.00445  24809394.0394                   24809394.5354
        41.5004         35.0004
 -13723976.80147 -10655966.60944  23107026.1724                   23107021.5984
        43.5004         29.2504
 -15465652.55147 -11949344.76246  22142553.2974                   22142552.3524
        44.7504         41.7504
 -16598730.26647 -12636771.07845  22673351.9144                   22673348.3914
        44.5004         32.5004
  -4949458.45746  -3479431.41043  23942279.0704                   23942276.5084
        38.5004         20.0004
 25  7  1  1 47 30.0000000  0  9G04G31G01G03G32G02G26G28G16
 -15430672.51247 -11947464.30545  22193609.6884                   22193607.9344
        44.5004         31.5004
 -26109353.86348 -20286615.19548  20503519.4774                   20503514.5044
        49.2504         48.5004
 -20809223.68447 -16192037.15645  21490265.3284                   21490262.3364
        47.0004         35.5004
 -23815781.68048 -18538479.19548  20477627.1174                   20477625.9144
        48.5004         50.7504
  16839466.19947  13144296.57445  24821541.3984                   24821540.8874
        42.5004         35.5004
 -13648618.69147 -10597246.07044  23121366.4534                   23121362.2304
        43.2504         29.5004
 -15532648.75847 -12001549.52346  22129803.9224                   22129802.6884
        44.7504         40.7504
 -16517628.47347 -12573574.91845  22688785.0234                   22688781.7544
        44.5004         33.2504
  -5057602.73846  -3563699.53943  23921699.8134                   23921697.8404
        38.2504         19.7504
 25  7  1  1 48  0.0000000  0  9G04G31G01G03G32G02G26G28G16
 -15491603.02347 -11994942.58645  22182015.5554                   22182013.3364
        45.2504         32.0004
 -26067876.52048 -20254295.19548  20511412.3914                   20511407.3094
        49.5004         48.5004
 -20765888.98447 -16158269.89845  21498511.8054                   21498508.6764
        47.0004         35.2504
 -23872925.25048 -18583006.64548  20466752.9924                   20466751.7934
        48.5004         50.7504
  16903322.77347  13194054.88745  24833692.2814                   24833693.2504
        42.0004         35.2504
 -13573075.64847 -10538381.45345  23135741.9844                   23135737.4884
        44.0004         30.0004
 -15599211.87547 -12053416.87146  22117137.6884                   22117137.6334
        43.7504         41.7504
 -16436293.38747 -12510196.96545  22704262.9694                   22704259.5594
        44.7504         33.0004
  -5165727.98046  -3647952.81243  23901122.7344                   23901122.4774
        37.0004         19.5004
 25  7  1  1 48 30.0000000  0  9G04G31G01G03G32G02G26G28G16
 -15552401.73447 -12042318.15645  22170444.9304                   22170443.4844
        45.0004         32.5004
 -26025893.52048 -20221581.18048  20519401.2344                   20519396.3404
        48.2504         48.5004
 -20722058.43447 -16124116.26646  21506852.6254                   21506849.5984
        46.0004         36.0004
 -23929683.62147 -18627233.93048  20455952.5004                   20455951.0164
        47.7504         50.7504
  16967200.34846  13243829.57045  24845848.2114                   24845848.5664
        41.7504         35.2504
 -13497350.97347 -10479375.29344  23150152.2344                   23150147.7034
        43.5004         29.7504
 -15665339.80547 -12104945.05946  22104553.9064                   22104553.5554
        44.7504         41.7504
 -16354728.21547 -12446639.72745  22719783.7504                   22719780.3524
        44.7504         32.5004
  -5273831.55546  -3732189.16843  23880551.9064                   23880550.6764
        37.2504         20.0004
 25  7  1  1 49  0.0000000  0  9G04G31G01G03G32G02G26G28G16
 -15613069.02747 -12089591.32045  22158900.5394                   22158898.7194
        46.2504         33.0004
 -25983407.64148 -20188475.30948  20527485.9774                   20527481.2704
        48.2504         48.2504
 -20677734.46547 -16089578.14545  21515286.8594                   21515284.0474
        46.0004         35.7504
 -23986054.93048 -18671159.60948  20445225.3674                   20445223.8714
        49.2504         51.0004
  17031098.72746  13293620.49245  24858007.6024                   24858008.1604
        41.0004         34.0004
 -13421447.80547 -10420230.02744  23164595.9224                   23164592.0004
        43.5004         29.5004
 -15731030.15247 -12156132.33246  22092052.6254                   22092052.6914
        43.7504         41.2504
 -16272935.69147 -12382905.34045  22735349.1024                   22735345.2624
        45.0004         33.0004
  -5381910.45346  -3816406.37543  23859984.4384                   23859983.3984
        37.7504         20.7504
 25  7  1  1 49 30.0000000  0  9G04G31G01G03G32G02G26G28G16
 -15673601.74647 -12136759.62545  22147381.3444                   22147379.1254
        45.2504         32.2504
 -25940417.63348 -20154976.61348  20535666.7034                   20535661.9534
        48.5004         48.0004
 -20632915.87947 -16054654.60245  21523815.7274                   21523812.7074
        47.0004         35.5004
 -24042033.55548 -18714779.31648  20434573.1954                   20434571.2814
        49.0004         51.0004
  17095021.53946  13343430.41445  24870171.7584                   24870172.2304
        39.5004         34.0004
 -13345365.34847 -10360945.04744  23179073.9534                   23179069.5274
        42.7504         28.7504
 -15796276.66847 -12206973.70347  22079637.4774                   22079636.6954
        44.2504         42.0004
 -16190914.98447 -12318993.12945  22750957.4384                   22750953.2704
        45.0004         32.5004
  -5489958.14546  -3900599.21943  23839423.7734                   23839422.8094
        38.5004         19.7504
 25  7  1  1 50  0.0000000  0  9G04G31G01G03G32G02G26G28G16
 -15733998.27047 -12183821.81645  22135888.7274                   22135886.2034
        45.5004         32.7504
 -25896924.10248 -20121085.55547  20543943.0474                   20543938.4964
        48.2504         47.7504
 -20587603.18747 -16019346.04745  21532438.1484                   21532435.0434
        46.7504         35.5004
 -24097615.59048 -18758089.99648  20423996.1724                   20423994.4964
        49.5004         51.0004
  17158970.64846  13393260.84845  24882340.9694                   24882342.1764
        37.2504         33.2504
 -13269105.25447 -10301521.66044  23193585.2424                   23193581.1804
        42.7504         29.0004
 -15861074.87547 -12257465.78946  22067306.0474                   22067305.7624
        43.5004         41.2504
 -16108666.77347 -12254903.64845  22766608.3054                   22766605.0044
        43.7504         32.2504
  -5597969.86346  -3984764.08243  23818869.9454                   23818868.5744
        39.2504         19.2504
 25  7  1  1 50 30.0000000  0  9G04G31G01G03G32G02G26G28G16
 -15794262.15247 -12230780.65645  22124420.8834                   22124418.3244
        45.5004         32.2504
 -25852932.48447 -20086806.37947  20552314.6024                   20552309.5004
        47.0004         47.7504
 -20541802.07447 -15983656.89545  21541153.6884                   21541150.1334
        47.2504         34.5004
 -24152802.22748 -18801092.56248  20413494.1724                   20413492.4804
        48.7504         50.7504
  17222942.72746  13443109.17645  24894513.9614                   24894515.7344
        37.2504         33.0004
 -13192673.41447 -10241964.48844  23208130.9144                   23208125.8444
        43.2504         29.5004
 -15925425.46147 -12307609.05547  22055061.2814                   22055061.6724
        44.5004         42.2504
 -16026196.96547 -12190641.50045  22782301.9924                   22782298.4614
        44.7504         32.0004
  -5705945.85946  -4068901.16043  23798323.0864                   23798320.8364
        39.5004         20.2504
 25  7  1  1 51  0.0000000  0  9G04G31G01G03G32G02G26G28G16
 -15854390.19147 -12277633.62545  22112978.5234                   22112976.7504
        45.0004         32.2504
 -25808442.18047 -20052138.62147  20560780.3054                   20560775.6294
        47.7504         47.7504
 -20495511.46147 -15947586.33245  21549962.7344                   21549959.1914
        46.0004         34.0004
 -24207587.97348 -18843782.73848  20403068.9614                   20403066.9144
        48.5004         50.7504
  17286941.30946  13492978.18845  24906692.7894                   24906694.4104
        36.5004         30.0004
 -13116069.25847 -10182273.02344  23222708.2974                   23222703.4734
        43.0004         28.5004
 -15989322.30947 -12357398.75446  22042901.4534                   22042901.1684
        43.2504         41.5004
 -15943504.66447 -12126205.97345  22798037.1884                   22798034.6214
        44.5004         32.2504
  -5813879.48446  -4153005.16443  23777783.7274                   23777781.6804
        39.5004         20.7504
 25  7  1  1 51 30.0000000  0  9G04G31G01G03G32G02G26G28G16
 -15914388.59447 -12324385.57445  22101561.2584                   22101559.2934
        44.5004         32.5004
 -25763461.56647 -20017088.80548  20569340.6094                   20569335.6174
        47.2504         48.0004
 -20448739.66047 -15911140.82045  21558863.0944                   21558860.2424
        45.5004         34.0004
 -24261976.71548 -18886163.57048  20392718.8834                   20392717.1684
        48.5004         51.0004
  17350960.59445  13542863.29344  24918875.3284                   24918876.5944
        34.5004         28.5004
 -13039301.43747 -10122454.02745  23237316.3134                   23237312.6334
        42.7504         30.0004
 -16052768.78147 -12406837.52347  22030828.1564                   22030828.4064
        43.5004         42.5004
 -15860598.44947 -12061603.75845  22813814.2274                   22813811.1214
        44.7504         32.0004
  -5921773.37146  -4237078.21143  23757251.5234                   23757249.7854
        39.0004         20.5004
 25  7  1  1 52  0.0000000  0  9G04G31G01G03G32G02G26G28G16
 -15974254.03147 -12371033.92645  22090169.5004                   22090167.0664
        45.7504         31.7504
 -25717989.27047 -19981655.85948  20577993.3134                   20577988.7034
        47.5004         48.0004
 -20401485.52747 -15874319.45745  21567855.7344                   21567851.8984
        45.0004         34.7504
 -24315962.77048 -18928230.60948  20382445.8594                   20382444.1334
        48.7504         51.0004
  17415004.13745  13592767.30144  24931062.3834                   24931062.8714
        33.5004         28.0004
 -12962369.48847 -10062507.11744  23251956.0084                   23251951.8984
        43.5004         29.5004
 -16115758.71947 -12455920.53147  22018842.2114                   22018840.9304
        44.2504         42.0004
 -15777477.23847 -11996834.02745  22829631.4064                   22829628.2194
        44.2504         31.5004
  -6029620.91446  -4321115.16043  23736729.4064                   23736726.7974
        38.7504         19.5004
 25  7  1  1 52 30.0000000  0  9G04G31G01G03G32G02G26G28G16
 -16033991.22747 -12417582.35945  22078801.6414                   22078799.2464
        43.5004         31.7504
 -25672032.27347 -19945845.22748  20586738.6094                   20586734.1024
        47.7504         48.0004
 -20353755.98047 -15837127.62545  21576937.9384                   21576934.8834
        46.5004         35.2504
 -24369548.57447 -18969985.77748  20372248.7194                   20372247.1414
        47.5004         51.0004
  17479067.53545  13642686.75844  24943253.7504                   24943253.9494
        34.2504         28.2504
 -12885280.75847 -10002438.05944  23266625.2424                   23266621.4344
        43.0004         29.2504
 -16178294.01247 -12504649.29747  22006941.4144                   22006941.3914
        43.2504         42.2504
 -15694148.07847 -11931902.25045  22845488.4384                   22845485.2114
        44.7504         31.2504
  -6137423.60946  -4405117.09843  23716214.6484                   23716213.1724
        38.0004         22.0004
 25  7  1  1 53  0.0000000  0  9G04G31G01G03G32G02G26G28G16
 -16093595.35547 -12464027.09045  22067459.2734                   22067456.8554
        45.0004         31.5004
 -25625587.77748 -19909654.72748  20595576.9304                   20595572.4414
        48.7504         48.0004
 -20305548.41447 -15799563.33645  21586111.7894                   21586108.6174
        46.7504         35.5004
 -24422727.09048 -19011423.56248  20362129.0314                   20362127.5944
        49.5004         51.0004
  17543155.76646  13692625.60544  24955449.6804                   24955449.7544
        36.0004         29.2504
 -12808033.06247  -9942245.16044  23281324.8754                   23281320.5904
        43.0004         28.5004
 -16240367.05147 -12553017.84047  21995129.7974                   21995128.2074
        45.7504         42.0004
 -15610608.54347 -11866806.54345  22861385.9774                   22861382.6804
        44.2504         31.5004
  -6245173.16446  -4489077.64143  23695711.2974                   23695709.3094
        39.7504         22.5004
 25  7  1  1 53 30.0000000  0 10G09G04G31G01G03G32G02G26G28G16
   1476812.32855   1168042.07853  24986617.2424                   24986620.4614
        35.0004         22.5004
 -16153068.55547 -12510369.79745  22056142.0004                   22056139.6024
        45.5004         31.7504
 -25578660.83248 -19873088.28148  20604506.7114                   20604502.0744
        48.5004         48.0004
 -20256867.14147 -15761629.91846  21595375.5084                   21595373.0124
        47.0004         36.2504
 -24475498.05548 -19052543.77348  20352087.1884                   20352085.7504
        50.0004         51.5004
  17607267.27345  13742582.54344  24967649.0084                   24967649.7734
        34.5004         27.0004
 -12730631.15647  -9881932.09044  23296054.0944                   23296050.2154
        42.5004         27.5004
 -16301977.14847 -12601025.68047  21983405.2974                   21983405.1764
        45.5004         42.5004
 -15526862.96947 -11801550.30545  22877321.9144                   22877318.7774
        43.7504         31.7504
  -6352868.32046  -4572995.83243  23675217.2424                   23675214.9384
        40.2504         22.5004
 25  7  1  1 54  0.0000000  0 10G09G04G31G01G03G32G02G26G28G16
   1393696.09445   1103276.37943  24970800.9304                   24970801.6724
        34.0004         21.0004
 -16212421.12547 -12556618.51245  22044847.5084                   22044844.9804
        43.2504         31.5004
 -25531263.96548 -19836155.67648  20613526.1414                   20613522.0274
        48.0004         48.0004
 -20207724.79747 -15723337.21545  21604726.8834                   21604724.1884
        46.5004         35.2504
 -24527869.55148 -19093352.71548  20342121.5784                   20342119.8204
        49.5004         51.5004
  17671391.77746  13792549.65644  24979851.8914                   24979851.4104
        37.5004         27.7504
 -12653087.90647  -9821508.86344  23310810.0704                   23310806.4774
        42.5004         27.7504
 -16363131.84847 -12648678.66847  21971767.8134                   21971767.1134
        44.7504         42.0004
 -15442924.02047 -11736143.36345  22893294.7584                   22893291.5234
        44.0004         31.0004
  -6460516.09446  -4656877.09043  23654732.0944                   23654730.3244
        40.2504         22.5004
 25  7  1  1 54 30.0000000  0 10G09G04G31G01G03G32G02G26G28G16
   1310589.95745   1038518.47743  24954987.0314                   24954986.6174
        33.0004         20.2504
 -16271656.39547 -12602775.81645  22033575.1954                   22033573.2344
        44.5004         31.2504
 -25483402.40247 -19798860.96548  20622633.4144                   20622629.5084
        46.5004         48.2504
 -20158126.88347 -15684689.52046  21614165.0004                   21614162.4734
        44.5004         36.0004
 -24579842.66448 -19133851.23048  20332231.2194                   20332229.4614
        49.5004         51.2504
  17735526.44946  13842524.63744  24992056.3594                   24992055.6604
        38.5004         27.0004
 -12575409.55946  -9760980.34844  23325592.4304                   23325587.9964
        41.7504         28.7504
 -16423831.73447 -12695977.25046  21960217.4224                   21960216.1484
        46.2504         41.7504
 -15358797.31247 -11670590.11745  22909303.4924                   22909300.7774
        44.2504         31.0004
  -6568116.43046  -4740721.35544  23634256.3054                   23634254.8714
        41.0004         24.5004
 25  7  1  1 55  0.0000000  0 10G09G04G31G01G03G32G02G26G28G16
   1227491.07446    973766.28544  24939173.2504                   24939174.5204
        36.2504         24.5004
 -16330777.21147 -12648843.93445  22022324.9924                   22022322.6884
        44.7504         30.7504
 -25435081.28948 -19761208.15648  20631828.6564                   20631824.4844
        48.0004         48.0004
 -20108078.57847 -15645690.88345  21623689.0634                   21623686.0824
        46.5004         35.2504
 -24631417.91448 -19174039.71548  20322416.7274                   20322414.8014
        50.0004         51.0004
  17799668.64146  13892505.54744  25004261.8054                   25004261.2814
        38.2504         27.0004
 -12497601.47747  -9700350.75444  23340398.7584                   23340395.0004
        42.5004         28.5004
 -16484076.87547 -12742921.46946  21948752.7734                   21948751.4804
        45.0004         41.0004
 -15274488.01647 -11604894.61745  22925346.8914                   22925344.3284
        44.2504         31.5004
  -6675668.74246  -4824528.26243  23613789.9144                   23613788.3364
        40.7504         22.7504
 25  7  1  1 55 30.0000000  0 10G09G04G31G01G03G32G02G26G28G16
   1144406.82445    909025.44944  24923363.1254                   24923365.3874
        35.5004         25.2504
 -16389776.18047 -12694817.12145  22011098.1254                   22011095.6564
        44.5004         31.5004
 -25386295.76648 -19723193.48048  20641112.5164                   20641108.2384
        48.2504         48.2504
 -20057574.73447 -15606337.28945  21633299.8204                   21633296.3794
        45.2504         35.5004
 -24682585.70348 -19213910.69548  20312679.5944                   20312678.3634
        49.5004         51.5004
  17863826.07446  13942498.36744  25016470.6884                   25016470.2974
        39.5004         26.5004
 -12419659.16847  -9639616.61744  23355230.9614                   23355226.6524
        42.0004         27.7504
 -16543857.21947 -12789503.55146  21937376.8134                   21937376.5274
        45.2504         41.7504
 -15189991.05547 -11539052.87945  22941426.1174                   22941423.3134
        44.5004         31.2504
  -6783162.04746  -4908289.16843  23593334.7974                   23593332.2464
        39.5004         22.0004
 25  7  1  1 56  0.0000000  0 10G09G04G31G01G03G32G02G26G28G16
   1061337.85246    844296.52044  24907554.8204                   24907557.2854
        38.2504         28.0004
 -16448652.69147 -12740694.89145  21999894.0234                   21999891.0594
        45.5004         30.7504
 -25337047.50848 -19684818.23048  20650484.1024                   20650479.7114
        48.5004         48.2504
 -20006617.09847 -15566630.09845  21642996.3834                   21642993.8954
        45.5004         35.5004
 -24733343.13348 -19253461.91848  20303021.0944                   20303019.6604
        49.0004         51.7504
  17927999.62946  13992503.71944  25028682.4844                   25028682.4304
        39.0004         27.7504
 -12341584.47747  -9578779.28944  23370088.0004                   23370083.1564
        42.0004         27.2504
 -16603169.45747 -12835720.82046  21926089.7734                   21926090.0354
        45.2504         41.7504
 -15105308.06647 -11473066.18045  22957541.3834                   22957538.1724
        43.7504         31.7504
  -6890592.59046  -4992001.15243  23572891.1644                   23572888.8444
        38.5004         21.5004
 25  7  1  1 56 30.0000000  0 10G09G04G31G01G03G32G02G26G28G16
    978285.55946    779580.59444  24891750.3054                   24891752.6484
        37.7504         28.2504
 -16507405.31647 -12786476.12945  21988714.1564                   21988711.3134
        45.2504         30.5004
 -25287337.60947 -19646083.26248  20659944.1254                   20659939.4614
        47.2504         48.2504
 -19955206.59847 -15526570.02045  21652779.8754                   21652777.7424
        44.7504         35.0004
 -24783686.61348 -19292690.58248  20293441.1334                   20293439.3324
        49.2504         51.7504
  17992191.03146  14042523.02044  25040897.4064                   25040896.7584
        40.0004         27.0004
 -12263378.52347  -9517839.68744  23384970.1414                   23384966.2974
        42.0004         27.5004
 -16662009.44947 -12881570.16046  21914892.6334                   21914892.8094
        45.0004         41.5004
 -15020439.96947 -11406935.24245  22973690.6884                   22973688.3954
        43.2504         31.5004
  -6997955.30946  -5075660.30943  23552461.1954                   23552458.1054
        39.5004         22.0004
 25  7  1  1 57  0.0000000  0 10G09G04G31G01G03G32G02G26G28G16
    895254.03946    714880.82844  24875950.6024                   24875951.8244
        38.0004         26.0004
 -16566029.94547 -12832157.63345  21977558.0314                   21977555.9884
        45.5004         31.7504
 -25237164.00448 -19606986.96548  20669491.7664                   20669487.2304
        48.7504         48.0004
 -19903341.48047 -15486155.66445  21662649.6254                   21662646.6054
        46.0004         35.0004
 -24833609.80148 -19331591.73848  20283940.6484                   20283938.7854
        49.0004         51.5004
  18056404.76246  14092559.79344  25053117.3594                   25053115.0204
        40.7504         25.7504
 -12185039.93046  -9456796.72744  23399877.6724                   23399873.6294
        41.5004         27.0004
 -16720370.40247 -12927046.17247  21903787.3134                   21903787.0044
        45.7504         42.2504
 -14935384.94147 -11340658.64545  22989876.0634                   22989873.9844
        43.5004         31.2504
  -7105242.99646  -5159260.96543  23532044.0084                   23532041.7974
        38.5004         21.5004
 25  7  1  1 57 30.0000000  0 10G09G04G31G01G03G32G02G26G28G16
    812246.85546    650200.00444  24860154.1414                   24860155.8914
        37.7504         26.5004
 -16624522.98047 -12877736.59445  21966427.0784                   21966424.7774
        46.2504         32.5004
 -25186525.41848 -19567528.34848  20679127.7664                   20679122.9064
        48.5004         48.0004
 -19851020.52347 -15445386.10245  21672606.6334                   21672602.6884
        45.5004         34.7504
 -24883106.89548 -19370160.87548  20274521.6564                   20274520.0594
        49.0004         51.2504
  18120644.61347  14142616.82444  25065341.7424                   25065340.9144
        42.5004         27.5004
 -12106568.07046  -9395649.89144  23414810.4534                   23414806.2974
        41.5004         26.5004
 -16778246.18047 -12972144.16047  21892774.0704                   21892773.4104
        45.0004         42.0004
 -14850141.66847 -11274235.35545  23006097.6254                   23006095.2304
        43.0004         31.5004
  -7212448.54746  -5242797.65243  23511643.2034                   23511640.8244
        39.0004         21.5004
 25  7  1  1 58  0.0000000  0 10G09G04G31G01G03G32G02G26G28G16
    729264.38346    585538.42643  24844364.1724                   24844364.9694
        37.0004         22.7504
 -16682884.05147 -12923212.73045  21955321.4614                   21955319.3554
        45.5004         33.5004
 -25135424.02047 -19527709.08648  20688852.1334                   20688847.3834
        47.2504         48.0004
 -19798245.70347 -15404262.90245  21682648.9224                   21682644.9344
        46.5004         34.7504
 -24932175.28148 -19408395.96548  20265184.3524                   20265182.4964
        49.5004         51.5004
  18184911.34046  14192694.77044  25077570.5474                   25077571.3984
        39.7504         28.2504
 -12027965.14847  -9334400.95344  23429768.4454                   23429763.5984
        42.0004         27.0004
 -16835633.70347 -13016861.68047  21881853.6174                   21881853.7384
        45.7504         42.5004
 -14764712.03547 -11207666.86345  23022354.5704                   23022351.7424
        43.5004         31.2504
  -7319567.99646  -5326267.22344  23491259.5944                   23491257.4734
        40.0004         24.5004
 25  7  1  1 58 30.0000000  0 10G09G04G31G01G03G32G02G26G28G16
    646302.47745    520892.87143  24828576.0084                   24828577.0274
        35.5004         21.7504
 -16741117.27747 -12968589.24645  21944240.2974                   21944237.3674
        46.5004         33.5004
 -25083866.33248 -19487534.28947  20698662.7504                   20698658.6454
        48.5004         47.7504
 -19745023.60947 -15362791.18445  21692776.9064                   21692773.0434
        46.0004         34.0004
 -24980816.93048 -19446298.53548  20255928.5394                   20255926.3954
        49.5004         51.2504
  18249201.07446  14242790.64844  25089804.8914                   25089805.9224
        40.2504         29.5004
 -11949238.05147  -9273055.25044  23444749.6094                   23444745.3794
        43.0004         27.0004
 -16892534.56247 -13061199.98846  21871025.7664                   21871024.6454
        45.2504         41.7504
 -14679102.50047 -11140958.18745  23038645.8134                   23038642.9614
        42.5004         30.0004
  -7426602.09846  -5409670.29744  23470891.7894                   23470889.4024
        41.0004         24.5004
 25  7  1  1 59  0.0000000  0 10G09G04G31G01G03G32G02G26G28G16
    563358.77045    456261.52343  24812792.0944                   24812793.4574
        35.0004         22.7504
 -16799225.00847 -13013867.95745  21933182.5314                   21933179.9494
        44.5004         33.5004
 -25031857.05147 -19447007.59448  20708560.1094                   20708555.7154
        47.0004         48.0004
 -19691358.96547 -15320974.60545  21702988.3284                   21702985.9024
        46.2504         34.7504
 -25029032.01248 -19483868.70748  20246753.0554                   20246751.5434
        48.5004         51.2504
  18313511.70347  14292902.80545  25102042.3834                   25102044.0554
        42.2504         31.0004
 -11870391.63747  -9211616.60244  23459753.7424                   23459748.9414
        42.2504         27.5004
 -16948948.43047 -13105158.81247  21860290.2814                   21860289.4454
        43.5004         42.0004
 -14593317.65247 -11074112.92245  23054969.5234                   23054967.1024
        42.5004         30.2504
  -7533550.00846  -5493006.20743  23450539.9844                   23450537.2154
        40.2504         23.7504
 25  7  1  1 59 30.0000000  0 10G09G04G31G01G03G32G02G26G28G16
    480433.65645    391644.70743  24797011.2504                   24797014.0394
        34.5004         22.0004
 -16857206.82447 -13059048.55945  21922148.6564                   21922146.4924
        46.5004         33.7504
 -24979398.02748 -19406130.44548  20718542.8594                   20718538.0274
        48.0004         48.0004
 -19637253.85547 -15278814.80145  21713284.3364                   21713281.8554
        45.7504         35.2504
 -25076817.91448 -19521104.45748  20237659.6954                   20237658.1804
        48.7504         51.0004
  18377843.98847  14343031.84045  25114285.1254                   25114285.7584
        42.7504         31.0004
 -11791428.14146  -9150086.69144  23474779.6954                   23474775.8794
        41.5004         27.2504
 -17004872.42647 -13148735.93047  21849648.5004                   21849647.6994
        46.5004         42.0004
 -14507359.34847 -11007132.49644  23071327.4064                   23071324.1254
        42.5004         29.2504
  -7640407.68446  -5576271.80543  23430205.6724                   23430202.7194
        40.0004         22.5004
 25  7  1  2  0  0.0000000  0 10G09G04G31G01G03G32G02G26G28G16
    397531.98445    327046.14843  24781236.6334                   24781238.0824
        33.7504         23.0004
 -16915058.02047 -13104127.39145  21911140.0474                   21911137.3404
        46.2504         33.7504
 -24926487.23447 -19364901.27347  20728611.4924                   20728606.9654
        47.0004         47.7504
 -19582706.05547 -15236310.04345  21723664.7734                   21723661.7074
        45.2504         35.5004
 -25124167.83648 -19558000.48848  20228649.5864                   20228647.4804
        48.0004         51.0004
  18442202.90646  14393181.64145  25126532.3364                   25126532.8284
        41.0004         30.2504
 -11712345.82447  -9088464.22744  23489828.1644                   23489825.3014
        42.2504         27.0004
 -17060299.28947 -13191925.65647  21839100.8594                   21839100.4734
        45.7504         42.5004
 -14421225.20346 -10940015.02344  23087717.4454                   23087715.0514
        41.5004         29.2504
  -7747166.94546  -5659460.73044  23409889.7344                   23409887.6954
        41.5004         26.0004
 25  7  1  2  0 30.0000000  0 10G09G04G31G01G03G32G02G26G28G16
    314654.82045    262466.66843  24765465.3054                   24765466.3714
        33.0004         22.0004
 -16972777.27347 -13149103.40645  21900156.0864                   21900154.1604
        45.5004         33.2504
 -24873125.74248 -19323320.89847  20738765.9774                   20738760.9694
        48.0004         47.7504
 -19527716.66447 -15193461.20745  21734128.5704                   21734125.3094
        45.5004         35.2504
 -25171078.25048 -19594554.03948  20219722.3444                   20219720.3874
        48.5004         51.2504
  18506590.09846  14443353.48445  25138784.8444                   25138785.6954
        40.7504         31.2504
 -11633145.92647  -9026750.11344  23504899.8204                   23504896.0394
        42.5004         27.2504
 -17115225.15247 -13234725.02047  21828648.8444                   21828647.7544
        46.0004         42.0004
 -14334916.12547 -10872761.26245  23104142.4304                   23104139.1844
        42.0004         30.2504
  -7853823.17646  -5742569.38744  23389594.1884                   23389591.3834
        40.0004         24.0004
 25  7  1  2  1  0.0000000  0 10G09G04G31G01G03G32G02G26G28G16
    231797.82845    197902.89543  24749697.1804                   24749698.6174
        33.2504         22.5004
 -17030368.99247 -13193980.04745  21889196.6174                   21889194.5634
        46.5004         34.0004
 -24819320.57447 -19281394.80547  20749004.5554                   20749000.0004
        47.0004         47.5004
 -19472292.61747 -15150273.68045  21744675.0004                   21744672.6954
        45.0004         34.5004
 -25217551.48048 -19630766.93748  20210878.7734                   20210877.1024
        48.7504         51.2504
  18571001.41046  14493544.09844  25151042.4064                   25151043.0744
        38.5004         29.0004
 -11553835.64847  -8964950.00444  23519992.0234                   23519988.4494
        43.0004         27.2504
 -17169651.97747 -13277135.48847  21818291.6414                   21818291.2854
        45.5004         42.5004
 -14248438.84446 -10805376.41044  23120597.8984                   23120595.4384
        40.7504         29.7504
  -7960377.30546  -5825598.45343  23369316.4224                   23369314.0704
        40.0004         23.7504
 25  7  1  2  1 30.0000000  0 10G09G04G31G01G03G32G02G26G28G16
    148965.13745    133358.05143  24733935.8204                   24733936.9494
        33.0004         23.0004
 -17087829.07447 -13238754.10545  21878262.8284                   21878260.0864
        46.0004         34.0004
 -24765069.84447 -19239121.52747  20759328.0704                   20759323.4304
        47.7504         47.5004
 -19416432.36347 -15106746.24245  21755305.5634                   21755303.2934
        45.0004         35.2504
 -25263581.28548 -19666634.30548  20202119.8754                   20202118.1174
        49.0004         51.2504
  18635441.34845  14543756.93044  25163305.0394                   25163306.2734
        35.2504         28.5004
 -11474413.74247  -8903062.91444  23535105.9534                   23535101.7504
        43.0004         27.7504
 -17223573.16847 -13319151.96947  21808030.9454                   21808030.4734
        45.5004         42.2504
 -14161791.53546 -10737859.08244  23137086.8444                   23137083.5824
        41.0004         29.0004
  -8066821.92246  -5908542.18744  23349061.2504                   23349059.1804
        40.5004         24.0004
 25  7  1  2  2  0.0000000  0 10G09G04G31G01G03G32G02G26G28G16
     66153.96145     68829.98843  24718177.0864                   24718178.5204
        32.7504         22.7504
 -17145160.25447 -13283427.72345  21867352.8594                   21867350.5354
        46.2504         33.7504
 -24710378.67247 -19196505.03547  20769735.2814                   20769730.6134
        47.0004         47.5004
 -19360141.07047 -15062882.92645  21766017.1334                   21766014.9494
        44.7504         34.5004
 -25309168.20748 -19702156.55948  20193444.7734                   20193443.1644
        49.0004         51.2504
  18699907.35245  14593990.13344  25175571.7974                   25175572.7934
        34.2504         29.0004
 -11394885.34047  -8841092.84044  23550239.6884                   23550235.9534
        43.0004         29.2504
 -17276988.96547 -13360774.63347  21797865.7274                   21797866.0434
        45.7504         42.7504
 -14074979.05946 -10670213.06644  23153606.6804                   23153603.7234
        41.2504         29.2504
  -8173155.84446  -5991399.69943  23328826.5784                   23328824.0664
        41.0004         22.5004
 25  7  1  2  2 30.0000000  0 10G09G04G31G01G03G32G02G26G28G16
    -16635.85255      4318.58654  24702421.9614                   24702424.3634
        32.5004         24.2504
 -17202362.55147 -13328000.90645  21856467.7344                   21856465.3364
        46.0004         33.7504
 -24655249.69147 -19153547.40247  20780225.9694                   20780221.6334
        47.5004         47.5004
 -19303421.45347 -15018685.84045  21776810.6564                   21776807.5164
        45.5004         34.5004
 -25354310.27748 -19737332.18448  20184854.4774                   20184852.5744
        49.0004         51.2504
  18764399.58246  14644243.77045  25187844.7974                   25187845.4924
        36.0004         30.0004
 -11315253.10547  -8779041.83644  23565393.2504                   23565389.9104
        43.7504         28.0004
 -17329896.97347 -13402001.61347  21787798.1254                   21787797.4494
        46.2504         42.7504
 -13988003.80546 -10602440.19944  23170157.2424                   23170154.6724
        41.7504         28.5004
  -8279376.12946  -6074168.67243  23308612.9924                   23308610.4144
        40.5004         23.0004
 25  7  1  2  3  0.0000000  0 10G09G04G31G01G03G32G02G26G28G16
    -99404.89545    -60176.63744  24686672.3204                   24686673.7034
        33.0004         25.5004
 -17259436.58647 -13372474.15245  21845607.1564                   21845604.2464
        46.2504         34.2504
 -24599686.03147 -19110251.06247  20790799.3444                   20790795.4224
        47.2504         47.7504
 -19246276.64847 -14974157.46145  21787684.8524                   21787682.0634
        46.0004         34.0004
 -25399006.06248 -19772160.05948  20176349.3134                   20176347.4534
        49.2504         51.0004
  18828917.70745  14694517.62144  25200121.3134                   25200122.6414
        32.7504         27.2504
 -11235520.57447  -8716912.70344  23580565.9534                   23580563.5514
        42.0004         28.0004
 -17382295.53147 -13442831.62947  21777827.1094                   21777826.4064
        46.5004         43.0004
 -13900868.70346 -10534542.79744  23186738.0944                   23186736.1644
        41.5004         28.2504
  -8385479.96946  -6156846.86744  23288422.2974                   23288420.4144
        40.7504         25.5004
 25  7  1  2  3 30.0000000  0 10G09G04G31G01G03G32G02G26G28G16
   -182153.79745   -124656.16444  24670926.5474                   24670926.8794
        34.7504         27.5004
 -17316382.99647 -13416847.94545  21834770.1484                   21834767.8404
        46.5004         34.0004
 -24543690.61347 -19066618.28547  20801455.2034                   20801450.8284
        47.5004         47.5004
 -19188709.85547 -14929300.25445  21798639.6254                   21798636.7974
        45.5004         33.2504
 -25443254.06648 -19806639.01248  20167929.1724                   20167927.0634
        48.5004         51.0004
  18893461.51245  14744811.43844  25212403.6804                   25212405.2234
        33.0004         26.5004
 -11155691.16447  -8654708.06644  23595756.9144                   23595753.6604
        42.0004         27.7504
 -17434182.76247 -13483263.21147  21767953.3364                   21767952.7424
        47.0004         43.5004
 -13813576.57446 -10466522.99644  23203349.7114                   23203346.9344
        40.7504         28.2504
  -8491464.26246  -6239431.91843  23268253.7814                   23268251.6484
        40.0004         22.5004
 25  7  1  2  4  0.0000000  0 10G09G04G31G01G03G32G02G26G28G16
   -264883.96545   -189121.08244  24655182.4384                   24655182.9614
        35.0004         26.7504
 -17373203.12547 -13461123.32845  21823957.9064                   21823955.0124
        46.0004         34.2504
 -24487267.67247 -19022652.36747  20812192.1564                   20812187.6644
        47.7504         47.5004
 -19130725.07847 -14884117.34445  21809673.9224                   21809671.1524
        45.7504         34.2504
 -25487053.59448 -19840768.50448  20159594.2894                   20159592.5824
        49.0004         51.0004
                                  25224690.7584                   25224692.7304
        28.5004         22.0004
 -11075768.80546  -8592431.02744  23610965.3594                   23610962.3984
        41.7504         27.7504
 -17485557.71947 -13523295.60247  21758177.1334                   21758176.5784
        47.0004         43.5004
 -13726131.03146 -10398383.66844  23219990.0084                   23219987.3134
        41.5004         28.0004
  -8597327.19946  -6321922.43044  23248109.0084                   23248105.8874
        40.2504         24.2504
 25  7  1  2  4 30.0000000  0  9G09G04G31G01G03G02G26G28G16
   -347589.46145   -253566.82044  24639444.7504                   24639444.6644
        34.7504         27.7504
 -17429891.04347 -13505295.69545  21813170.2274                   21813167.4694
        45.7504         34.0004
 -24430413.75048 -18978350.62547  20823011.2344                   20823006.7154
        48.2504         47.5004
 -19072318.99247 -14838606.14545  21820788.2814                   21820785.2274
        45.5004         34.5004
 -25530396.64848 -19874542.30948  20151346.3594                   20151344.8364
        49.0004         51.2504
 -10995750.34046  -8530079.10244  23626192.6484                   23626188.9184
        41.7504         28.7504
 -17536412.09847 -13562922.36747  21748499.4454                   21748498.8014
        46.0004         43.0004
 -13638528.41847 -10330121.95344  23236660.2814                   23236657.1604
        42.0004         27.0004
  -8703059.38746  -6404311.02343  23227988.0474                   23227986.1024
        38.2504         22.5004
 25  7  1  2  5  0.0000000  0 10G09G04G31G01G03G32G02G26G28G16
   -430274.34446   -317996.48044  24623709.8674                   24623710.6524
        36.5004         29.0004
 -17486450.70747 -13549368.12945  21802406.9454                   21802404.4574
        45.5004         33.5004
 -24373135.09847 -18933717.91847  20833910.7194                   20833906.2704
        47.7504         47.5004
 -19013498.16447 -14792771.78145  21831981.6484                   21831978.4844
        45.5004         33.5004
 -25573285.21148 -19907961.94948  20143185.3914                   20143183.3554
        49.2504         51.7504
  19087260.98815                  25249281.781
        33.500
 -10915642.62147  -8467657.61744  23641437.1644                   23641433.3094
        42.2504         28.7504
 -17586747.57447 -13602144.77347  21738920.8984                   21738920.2344
        45.7504         43.0004
 -13550774.86747 -10261742.62944  23253359.4224                   23253356.2624
        42.5004         27.7504
  -8808661.28146  -6486598.10244  23207893.6334                   23207890.8554
        39.7504         24.2504
 25  7  1  2  5 30.0000000  0 10G09G04G31G01G03G32G02G26G28G16
   -512936.64546   -382408.54344  24607979.1644                   24607980.8204
        37.0004         28.0004
 -17542880.22347 -13593339.14545  21791668.6644                   21791666.6414
        45.7504         33.7504
 -24315432.57848 -18888754.93047  20844891.3204                   20844886.5744
        48.2504         47.2504
 -18954263.37947 -14746614.85245  21843253.0704                   21843250.0864
        45.5004         34.2504
 -25615715.34848 -19941024.38348  20135111.2114                   20135109.4304
        49.2504         52.0004
  19151916.22746  14909608.82055  25261585.0634                   25261585.8754
        36.0004         30.0004
 -10835446.38747  -8405167.15244  23656698.0314                   23656694.1454
        42.2504         26.7504
 -17636559.95747 -13640959.58647  21729442.0634                   21729441.0164
        46.5004         43.0004
 -13462870.84447 -10193246.03544  23270086.8674                   23270084.3404
        43.5004         29.0004
  -8914127.51246  -6568779.46144  23187823.7814                   23187821.2974
        39.2504         26.2504
 25  7  1  2  6  0.0000000  0 10G09G04G31G01G03G32G02G26G28G16
   -595575.95745   -446802.69144  24592252.6724                   24592254.2934
        35.7504         27.0004
 -17599179.07047 -13637208.33645  21780956.1724                   21780953.4144
        46.0004         34.0004
 -24257307.97348 -18843463.04347  20855951.8134                   20855947.3714
        48.2504         47.2504
 -18894616.71147 -14700136.97745  21854604.0634                   21854601.4104
        45.7504         34.5004
 -25657684.48448 -19973727.59048  20127124.4694                   20127122.6414
        49.0004         51.7504
  19216601.49245  14960012.95344  25273894.7034                   25273895.5314
        35.0004         29.0004
 -10755163.61746  -8342609.24244  23671975.4924                   23671971.5394
        41.5004         27.0004
 -17685846.41447 -13679364.58247  21720062.7664                   21720062.6094
        46.2504         43.5004
 -13374817.95746 -10124633.43444  23286842.8444                   23286840.0474
        41.7504         28.5004
  -9019454.02046  -6650851.98043  23167780.9384                   23167777.6644
        40.0004         21.5004
 25  7  1  2  6 30.0000000  0  9G09G04G31G01G03G02G26G28G16
   -678193.02346   -511179.50844  24576531.3364                   24576533.1804
        36.7504         28.0004
 -17655347.95347 -13680976.26645  21770266.9924                   21770264.8674
        45.0004         34.2504
 -24198764.68048 -18797844.91847  20867093.0234                   20867087.5434
        48.5004         47.0004
 -18834561.65247 -14653340.85945  21866032.0554                   21866029.4694
        45.2504         34.7504
 -25699191.41448 -20006070.63748  20119225.8914                   20119223.6294
        48.7504         51.5004
 -10674798.16046  -8279986.88744  23687268.5004                   23687264.6214
        40.7504         26.5004
 -17734605.48847 -13717358.64847  21710784.6254                   21710784.1844
        46.5004         43.2504
 -13286619.17247 -10055907.16444  23303627.2894                   23303624.1134
        42.5004         28.7504
  -9124638.08646  -6732813.50444  23147764.8984                   23147761.8484
        41.2504         24.5004
 25  7  1  2  7  0.0000000  0  9G09G04G31G01G03G02G26G28G16
   -760790.72746   -575541.23044  24560813.2504                   24560814.8284
        36.2504         27.0004
 -17711389.62547 -13724645.06245  21759602.8364                   21759600.5474
        45.5004         34.5004
 -24139808.34848 -18751904.94147  20878311.8984                   20878306.6914
        48.2504         47.0004
 -18774103.59847 -14606230.73045  21877537.2894                   21877534.1914
        45.7504         34.5004
 -25740236.88748 -20038054.10548  20111415.1334                   20111413.4694
        48.7504         51.5004
 -10594355.10946  -8217304.09844  23702576.5944                   23702572.6724
        40.7504         25.5004
 -17782837.68747 -13754942.14847  21701606.1334                   21701606.0554
        46.0004         43.2504
 -13198279.55147  -9987071.13744  23320437.2734                   23320434.4924
        42.5004         28.2504
  -9229679.06646  -6814663.51644  23127775.9144                   23127773.1954
        41.2504         24.0004
 25  7  1  2  7 30.0000000  0  9G09G04G31G01G03G02G26G28G16
   -843356.01646   -639877.73444  24545101.3284                   24545102.7114
        36.5004         27.2504
 -17767291.10947 -13768204.61745  21748964.8364                   21748962.7114
        45.5004         34.5004
 -24080428.12548 -18705634.65247  20889611.4774                   20889606.2464
        48.5004         47.0004
 -18713232.31647 -14558798.60945  21889120.3284                   21889117.2154
        46.2504         34.0004
 -25780805.96948 -20069666.36748  20103695.3134                   20103693.0044
        48.5004         51.7504
 -10513824.35546  -8154552.99644  23717900.6804                   23717897.2544
        40.0004         24.5004
 -17830527.81247 -13792103.25847  21692530.8054                   21692530.6374
        46.5004         43.0004
 -13109788.25447  -9918116.93044  23337276.9384                   23337273.9884
        42.0004         28.2504
  -9334560.68746  -6896389.35544  23107817.6024                   23107815.5474
        40.0004         24.7504
 25  7  1  2  8  0.0000000  0  9G09G04G31G01G03G02G26G28G16
   -925886.22746   -704186.87544  24529396.4224                   24529397.7584
        38.5004         26.2504
 -17823049.55147 -13811652.72345  21738354.4224                   21738352.2664
        45.0004         34.0004
 -24020623.89147 -18659033.97747  20900991.1414                   20900986.9224
        47.7504         47.0004
 -18651947.68447 -14511044.37545  21900782.0554                   21900779.5394
        45.7504         34.0004
 -25820893.87948 -20100903.69148  20096066.8054                   20096064.8794
        48.7504         51.7504
 -10433206.00846  -8091733.61344  23733242.0004                   23733238.7624
        40.2504         26.0004
 -17877670.84447 -13828838.04747  21683559.8204                   21683559.2034
        46.2504         43.2504
 -13021144.65246  -9849044.05544  23354145.3054                   23354142.1764
        40.7504         28.0004
  -9439276.40646  -6977985.90644  23087890.3444                   23087888.2584
        41.0004         24.0004
 25  7  1  2  8 30.0000000  0  9G09G04G31G01G03G02G26G28G16
  -1008382.23046   -768469.36344  24513698.9774                   24513698.0084
        38.7504         26.0004
 -17878665.92647 -13854990.12945  21727771.0234                   21727768.3284
        44.0004         33.5004
 -23960399.30548 -18612105.74247  20912452.0314                   20912447.1764
        48.5004         47.0004
 -18590253.39847 -14462970.94945  21912522.3914                   21912519.8794
        45.5004         34.2504
 -25860499.67248 -20131765.33648  20088529.8054                   20088527.6484
        48.5004         51.7504
 -10352503.61346  -8028848.73044  23748599.1644                   23748597.0004
        40.2504         27.0004
 -17924265.70747 -13865145.69947  21674693.0394                   21674692.7464
        46.2504         43.2504
 -12932352.03546  -9779855.05144  23371041.9224                   23371039.6914
        41.0004         29.2504
  -9543824.02346  -7059451.50043  23067995.6094                   23067993.2034
        40.5004         23.5004
