     2.11           OBSERVATION DATA    G (GPS)             RINEX VERSION / TYPE
teqc  2019Feb25                         20250820 06:27:41UTCPGM / RUN BY / DATE
Linux 2.6.32-573.12.1.x86_64|x86_64|gcc -static|Linux 64|=+ COMMENT
BIT 2 OF LLI FLAGS DATA COLLECTED UNDER A/S CONDITION       COMMENT
35163550                                                    MARKER NAME
3550                                                        MARKER NUMBER
-Unknown-           -Unknown-                               OBSERVER / AGENCY
0220413516          TRIMBLE R7          2.32                REC # / TYPE / VERS
-Unknown-           TRM39105.00     NONE                    ANT # / TYPE
 -2418101.5775 -4493098.3326  3816345.9932                  APPROX POSITION XYZ
        0.0000        0.0000        0.0000                  ANTENNA: DELTA H/E/N
     1     1                                                WAVELENGTH FACT L1/2
     7    L1    L2    C1    P1    P2    S1    S2            # / TYPES OF OBSERV
    18                                                      LEAP SECONDS
 SNR is mapped to RINEX snr flag value [0-9]                COMMENT
  L1 & L2: min(max(int(snr_dBHz/6), 0), 9)                  COMMENT
  2025     8     6     1    13    0.0000000     GPS         TIME OF FIRST OBS
                                                            END OF HEADER
 25  8  6  1 13  0.0000000  0  3G16G04G26
   -137517.63357    -61328.24256  20784422.3914                   20784417.9924
        46.7504         37.7504
   -145888.60557    -86522.84056  20278541.9614                   20278538.5514
        47.7504         40.0004
    -24146.18757    -11072.20756  22120617.2114                   22120616.9614
        45.0004         41.0004
 25  8  6  1 13 30.0000000  0  8G16G09G07G04G06G31G03G26
   -248828.48448   -148063.93746  20763240.7664                   20763236.1604
        48.0004         37.5004
   -305732.34457   -204129.23457  21684114.7194                   21684113.1954
        47.0004         45.7504
   -267007.19957   -176248.52355  23525012.1724                   23525011.2664
        43.0004         34.2504
   -246768.49247   -165130.54746  20259345.1884                   20259342.1884
        47.2504         39.5004
    -82427.00055    -39116.76255  24314840.4694                   24314843.0394
        35.0004         32.0004
     30719.01256     20251.32855  23825218.5164                   23825215.9804
        41.5004         34.7504
    -27244.67258    -18103.68758  20678347.7114                   20678346.7704
        48.7504         48.5004
    -44594.92247    -27006.31246  22116725.9224                   22116725.7344
        44.7504         40.7504
 25  8  6  1 14  0.0000000  0  8G16G09G07G04G06G31G03G26
   -359835.93447   -234563.20746  20742116.4924                   20742112.5704
        47.5004         37.2504
   -460840.72747   -324992.85947  21654598.1724                   21654596.3954
        47.0004         45.5004
   -420733.10547   -296034.81245  23495759.6174                   23495758.4734
        43.2504         35.0004
   -347741.74247   -243811.00046  20240130.5944                   20240127.4264
        47.5004         40.2504
   -151368.19545    -92837.21145  24301721.5394                   24301723.8244
        34.7504         31.5004
     45490.94147     31761.87545  23828029.0234                   23828026.7074
        42.2504         34.0004
    -42747.65248    -30183.97748  20675397.7344                   20675396.7344
        49.0004         48.7504
    -64893.69547    -42823.56246  22112862.7344                   22112862.8554
        45.5004         40.5004
 25  8  6  1 14 30.0000000  0  8G16G09G07G04G06G31G03G26
   -470473.75047   -320774.44946  20721062.6644                   20721058.8134
        47.7504         37.2504
   -616108.76247   -445980.88747  21625051.4924                   21625049.8244
        46.5004         45.5004
   -574546.23847   -415889.07445  23466489.5234                   23466488.7734
        43.0004         34.2504
   -448742.25448   -322512.69546  20220910.8054                   20220907.7074
        48.5004         40.0004
   -220094.11346   -146389.91445  24288643.5704                   24288645.0164
        37.0004         32.7504
     59993.07047     43062.18445  23830789.1484                   23830786.7704
        42.5004         34.5004
    -58052.25848    -42109.68048  20672485.6174                   20672484.4614
        48.7504         48.7504
    -84979.71947    -58475.03946  22109040.5784                   22109040.3714
        44.7504         40.2504
 25  8  6  1 15  0.0000000  0  8G16G09G07G04G06G31G03G26
   -580710.79347   -406673.41046  20700085.2344                   20700080.8754
        47.7504         37.0004
   -771505.45747   -567069.16847  21595480.3134                   21595479.0824
        47.0004         45.5004
   -728416.54747   -535787.87145  23437209.1564                   23437207.8444
        43.2504         35.2504
   -549739.32448   -401211.71146  20201691.9064                   20201688.3134
        48.0004         40.2504
   -288576.35946   -199752.74245  24275612.0234                   24275613.7384
        36.7504         31.7504
     74253.14846     54173.88345  23833502.9614                   23833500.6214
        41.5004         34.5004
    -73130.66848    -53859.14148  20669615.8674                   20669614.8794
        48.7504         48.7504
   -104825.56647    -73939.35946  22105264.5234                   22105263.7504
        44.7504         40.5004
 25  8  6  1 15 30.0000000  0  8G16G09G07G04G06G31G03G26
    884903.76647    735363.94546  20978982.4304                   20978978.3984
        47.5004         37.0004
    648421.62147    539367.57047  21865684.0234                   21865682.1484
        47.0004         45.7504
    693107.05147    571892.97345  23707715.6804                   23707714.8834
        43.5004         35.7504
    924717.47747    747715.65646  20482271.7034                   20482268.3634
        47.5004         39.5004
   1218632.11746    974695.36745  24562423.8054                   24562425.9264
        36.0004         31.0004
   1663715.43847   1292715.86745  24135967.6724                   24135964.9884
        42.7504         34.5004
   1487461.80147   1162186.89548  20966586.9774                   20966586.1094
        47.5004         48.5004
   1451013.24247   1138402.54346  22401330.5634                   22401330.2934
        44.2504         40.2504
 25  8  6  1 16  0.0000000  0  8G16G09G07G04G06G31G03G26
    775552.99247    650155.59046  20958173.3364                   20958169.4534
        47.2504         37.2504
    492852.44147    418144.87947  21836079.5234                   21836078.0044
        46.5004         45.5004
    539203.93047    451968.62946  23678429.3914                   23678428.4224
        42.5004         36.7504
    823811.59847    669087.69946  20463069.7584                   20463066.6484
        47.0004         39.5004
   1150714.39145    921772.43845  24549499.6094                   24549502.3594
        35.5004         32.2504
   1677568.60946   1303510.48845  24138604.4534                   24138600.9844
        41.5004         34.0004
   1472911.28947   1150848.79748  20963818.0164                   20963817.0514
        47.7504         48.5004
   1431722.13347   1123370.47746  22397659.3984                   22397659.4454
        43.7504         40.0004
 25  8  6  1 16 30.0000000  0  8G16G09G07G04G06G31G03G26
    666690.35247    565327.59846  20937457.8914                   20937453.0554
        47.2504         37.5004
    337242.22347    296890.22347  21806468.3914                   21806466.6134
        46.5004         45.7504
    385328.14847    332065.57046  23649147.3984                   23649146.4264
        44.0004         36.5004
    722996.20347    590530.25046  20443885.3204                   20443881.9024
        47.5004         40.0004
   1083120.25446    869101.66845  24536637.2894                   24536639.4414
        36.5004         32.7504
   1691259.75446   1314178.82845  24141208.9844                   24141206.6724
        41.0004         34.5004
   1458665.17248   1139747.87948  20961107.1414                   20961106.4694
        48.0004         48.2504
   1412748.37947   1108585.70346  22394049.5084                   22394048.9574
        44.7504         40.0004
 25  8  6  1 17  0.0000000  0  8G16G09G07G04G06G31G03G26
    558336.09847    480895.75446  20916838.7894                   20916834.6174
        46.7504         36.7504
    181610.93447    175619.14147  21776852.3444                   21776851.2074
        47.0004         45.7504
    231498.47747    212198.41046  23619874.5634                   23619873.3484
        43.7504         36.5004
    622291.11347    512058.74646  20424721.7114                   20424718.5204
        47.2504         39.7504
   1015866.97346    816696.46145  24523839.7344                   24523841.0004
        36.0004         31.0004
   1704805.95346   1324734.23845  24143786.8914                   24143784.1024
        40.5004         34.5004
   1444740.25048   1128897.24648  20958457.1804                   20958456.4694
        48.0004         48.2504
   1394108.30547   1094060.94946  22390501.8444                   22390501.4574
        44.5004         39.7504
 25  8  6  1 17 30.0000000  0  8G16G09G07G04G06G31G03G26
    450485.35947    396856.26646  20896315.3054                   20896311.2234
        47.2504         36.5004
     25954.13747     54328.19147  21747231.7734                   21747230.5554
        47.0004         46.0004
     77709.82047     92363.23846  23590609.4384                   23590608.3284
        43.7504         37.2504
    521691.56347    433669.50046  20405578.3834                   20405574.9344
        47.0004         39.5004
    948947.43046    764551.32845  24511105.6564                   24511107.0314
        37.0004         33.2504
   1718200.14546   1335171.19945  24146335.8204                   24146333.6764
        41.5004         33.7504
   1431128.80948   1118290.88348  20955867.3834                   20955866.1374
        48.0004         48.2504
   1375793.88347   1079789.94946  22387017.0164                   22387016.4964
        44.0004         39.5004
 25  8  6  1 18  0.0000000  0  8G16G09G07G04G06G31G03G26
    343126.16848    313199.79746  20875885.5634                   20875881.1134
        48.0004         37.2504
   -129740.05947    -66991.91847  21717604.4064                   21717602.5784
        46.5004         46.0004
    -76051.30947    -27450.49246  23561349.5234                   23561347.8404
        44.0004         37.5004
    421185.49647    355353.09046  20386452.4844                   20386449.0274
        47.0004         40.0004
    882346.90246    712654.78545  24498431.3674                   24498433.1994
        36.7504         32.2504
   1731427.87946   1345478.44545  24148852.6724                   24148850.6334
        41.2504         33.0004
   1417815.69548   1107916.98848  20953333.7734                   20953332.8404
        48.7504         48.5004
   1357789.67647   1065760.67646  22383591.3054                   22383590.1374
        44.5004         39.5004
 25  8  6  1 18 30.0000000  0  8G16G09G07G04G06G31G03G26
    236257.40647    229925.48446  20855549.1884                   20855544.5634
        47.5004         36.7504
   -285472.65247   -188341.93447  21687969.7894                   21687967.6954
        46.2504         46.0004
   -229787.05547   -147244.43446  23532094.1804                   23532092.5204
        43.7504         38.0004
    320771.69147    277108.56346  20367344.4774                   20367341.2624
        47.5004         40.0004
    816061.79746    661004.02045  24485818.3444                   24485819.7584
        36.7504         32.0004
   1744485.45346   1355653.08645  24151338.1804                   24151335.7814
        41.2504         33.0004
   1404796.68848   1097772.26248  20950856.4224                   20950855.6294
        48.0004         48.2504
   1340090.96147   1051969.44946  22380222.8674                   22380222.4574
        44.0004         39.2504
 25  8  6  1 19  0.0000000  0  8G16G09G07G04G06G31G03G26
    129890.89547    147042.53546  20835308.1024                   20835303.3954
        47.7504         36.7504
   -441231.51647   -309712.43447  21658329.3204                   21658327.3714
        47.0004         46.0004
   -383485.84047   -267009.57046  23502846.1484                   23502844.4884
        44.5004         38.2504
    220462.04748    198945.21546  20348256.1414                   20348252.9614
        48.0004         40.0004
    750101.39546    609606.26245  24473266.2974                   24473267.6994
        38.0004         32.7504
   1757382.54746   1365702.69545  24153791.8674                   24153789.9734
        40.7504         32.7504
   1392080.65248   1087863.61748  20948436.9144                   20948435.6334
        48.2504         48.0004
   1322706.43047   1038423.03146  22376914.6804                   22376914.5554
        44.2504         39.5004
 25  8  6  1 19 30.0000000  0  8G16G09G07G04G06G31G03G26
     24032.89547     64555.82446  20815164.5004                   20815159.3484
        46.7504         37.0004
   -597010.09447   -431098.28147  21628685.5634                   21628683.8914
        47.0004         46.0004
   -537142.96947   -386742.25046  23473605.7974                   23473604.4614
        45.2504         38.7504
    120262.85247    120867.92646  20329188.7034                   20329185.6414
        46.7504         40.0004
    684469.52046    558464.50045  24460777.4924                   24460778.8554
        37.7504         33.5004
   1770122.87946   1375630.12545  24156216.2344                   24156214.1954
        40.0004         32.5004
   1379670.72347   1078193.50848  20946075.2734                   20946074.5004
        47.2504         48.0004
   1305638.78147   1025123.54346  22373667.0784                   22373666.2114
        44.5004         39.2504
 25  8  6  1 20  0.0000000  0  8G16G09G07G04G06G31G03G26
    -81308.83647    -17528.59846  20795117.8134                   20795113.3244
        47.0004         36.7504
   -752800.00047   -552492.96947  21599039.6094                   21599037.8014
        47.0004         46.7504
   -690751.00447   -506436.68446  23444375.1254                   23444373.8484
        44.5004         38.5004
     20182.20747     42883.01646  20310144.2344                   20310140.6884
        47.5004         40.0004
    619171.60546    507582.96945  24448350.8754                   24448352.9924
        37.5004         33.0004
   1782712.07846   1385439.79745  24158612.6174                   24158610.0274
        39.7504         32.5004
   1367571.96948   1068765.84848  20943772.6724                   20943772.2584
        48.0004         48.0004
   1288892.78147   1012074.69146  22370480.1024                   22370479.7274
        43.7504         39.5004
 25  8  6  1 20 30.0000000  0  8G16G09G07G04G06G31G03G26
   -186127.92647    -99205.77046  20775171.6804                   20775166.9384
        46.5004         37.2504
   -908594.78547   -673891.45347  21569393.0784                   21569391.3674
        47.0004         46.5004
   -844304.32847   -626088.45746  23415154.2664                   23415153.4614
        44.0004         38.5004
    -79773.68447    -35004.68746  20291123.1254                   20291119.7544
        47.0004         40.5004
    554211.27346    456964.49245  24435989.9694                   24435990.9414
        37.7504         32.7504
   1795154.30546   1395134.96545  24160979.4224                   24160977.9494
        39.2504         31.2504
   1355787.50847   1059583.11348  20941530.2814                   20941529.4184
        47.7504         48.0004
   1272471.14547    999278.58246  22367355.4774                   22367355.2194
        44.2504         39.5004
 25  8  6  1 21  0.0000000  0  8G16G09G07G04G06G31G03G26
   -290415.31247   -180468.61746  20755326.1414                   20755321.7114
        47.5004         36.7504
  -1064385.52047   -795286.77347  21539746.8754                   21539744.6684
        46.0004         46.5004
   -997795.42647   -745691.76246  23385947.5314                   23385945.3324
        44.2504         39.0004
   -179596.09047   -112788.37146  20272127.7584                   20272123.7894
        47.0004         40.0004
    489594.71546    406613.88745  24423693.8524                   24423695.1524
        36.5004         32.7504
   1807455.56646   1404720.27045  24163321.3444                   24163318.9224
        41.0004         31.2504
   1344322.85247   1050649.56348  20939348.7584                   20939348.2274
        47.7504         48.0004
   1256379.16047    986739.35246  22364293.5234                   22364292.4884
        44.7504         40.2504
 25  8  6  1 21 30.0000000  0  8G16G09G07G04G06G31G03G26
   -394165.62947   -261312.98446  20735583.3984                   20735578.6684
        47.5004         37.0004
  -1220165.64547   -916673.84047  21510102.7894                   21510100.8404
        46.5004         46.0004
  -1151218.76247   -865242.26246  23356751.1884                   23356749.4024
        45.0004         38.0004
   -279278.78147   -190463.19546  20253158.7194                   20253155.1054
        47.0004         40.5004
    425325.44546    356533.87145  24411463.2114                   24411464.9264
        37.7504         33.5004
   1819620.10246   1414199.04345  24165636.7034                   24165633.6484
        40.0004         32.0004
   1333181.20347   1041967.71947  20937228.3674                   20937227.5704
        47.2504         47.7504
   1240619.58247    974459.14146  22361294.7664                   22361293.9414
        44.2504         40.5004
 25  8  6  1 22  0.0000000  0  8G16G09G07G04G06G31G03G26
   -497374.93447   -341735.78146  20715943.3054                   20715938.3444
        47.0004         37.0004
  -1375930.92247  -1038049.32847  21480461.4774                   21480459.7544
        46.5004         45.7504
  -1304571.68747   -984737.87146  23327568.6024                   23327567.0634
        44.2504         38.0004
   -378817.73447   -268026.00446  20234216.8674                   20234213.4694
        47.5004         40.0004
    361404.77746    306725.52045  24399299.9454                   24399301.6914
        37.0004         33.0004
   1831649.35246   1423572.40245  24167925.1884                   24167922.8444
        40.7504         31.5004
   1322363.33247   1033538.16447  20935170.2664                   20935169.3404
        46.5004         47.7504
   1225192.87947    962438.30546  22358358.7344                   22358358.4384
        44.5004         40.7504
 25  8  6  1 22 30.0000000  0  8G16G09G07G04G06G31G03G26
   -600038.65247   -421733.44946  20696407.1804                   20696402.1844
        47.5004         36.7504
  -1531676.26647  -1159409.28947  21450824.1644                   21450822.4224
        46.5004         46.2504
  -1457849.97347  -1104175.32046  23298400.7194                   23298398.8524
        43.7504         37.0004
   -478208.17247   -345473.10246  20215303.6094                   20215300.2664
        47.2504         40.2504
    297834.82846    257190.44145  24387202.7974                   24387204.4844
        36.2504         33.7504
   1843545.61346   1432842.12945  24170188.7194                   24170186.2234
        41.5004         31.5004
   1311870.87547   1025362.18847  20933173.2424                   20933172.6054
        47.0004         47.2504
   1210100.44947    950677.94146  22355486.5234                   22355486.2814
        43.7504         40.2504
 25  8  6  1 23  0.0000000  0  8G16G09G07G04G06G31G03G26
   -702148.49647   -501299.53546  20676976.2734                   20676971.7624
        46.5004         37.2504
  -1687392.84847  -1280746.82447  21421192.3524                   21421190.2504
        46.0004         46.5004
  -1611046.46146  -1223549.05546  23269248.5164                   23269246.8484
        41.7504         38.2504
   -577441.60947   -422797.84846  20196420.3444                   20196416.6054
        47.0004         39.7504
    234621.41846    207933.18845  24375174.0164                   24375175.5864
        36.5004         32.7504
   1855315.12146   1442013.10245  24172429.2734                   24172426.1134
        41.5004         31.2504
   1301709.16047   1017443.91847  20931239.6334                   20931239.0204
        46.5004         47.5004
   1195347.22747    939181.89546  22352679.1724                   22352679.0084
        44.7504         40.0004
 25  8  6  1 23 30.0000000  0  8G16G09G07G04G06G31G03G26
   -803701.14847   -580431.44146  20657651.0474                   20657646.3794
        45.5004         37.7504
  -1843076.98047  -1402059.08647  21391566.7664                   21391564.6374
        45.5004         47.0004
  -1764158.26646  -1342856.79746  23240111.5004                   23240110.1024
        40.7504         36.2504
   -676514.65247   -499997.62146  20177567.2114                   20177563.3014
        45.5004         40.0004
    171765.20346    158954.24645  24363212.8674                   24363214.6414
        36.7504         33.0004
   1866959.09446   1451086.23845  24174644.5704                   24174642.0944
        41.7504         31.7504
   1291878.36347   1009783.52347  20929369.0164                   20929367.8484
        47.7504         47.2504
   1180933.12947    927950.09846  22349936.3444                   22349935.8524
        44.5004         40.0004
 25  8  6  1 24  0.0000000  0  8G16G09G07G04G06G31G03G26
   -904690.97347   -659124.78546  20638433.5704                   20638429.2234
        45.5004         36.7504
  -1998722.21147  -1523341.03947  21361948.1334                   21361946.4144
        46.5004         47.0004
  -1917180.57847  -1462094.77046  23210992.7734                   23210990.6024
        43.5004         37.0004
   -775421.04347   -577067.53946  20158745.7814                   20158742.3524
        45.0004         40.0004
    109269.68445    110256.37145  24351319.7664                   24351321.2734
        35.5004         32.0004
   1878481.39546   1460064.55145  24176837.3134                   24176834.0394
        40.7504         31.2504
   1282381.45347   1002383.30147  20927561.4844                   20927561.1804
        47.5004         47.0004
   1166860.76647    916984.60546  22347258.8754                   22347258.3914
        45.5004         40.0004
 25  8  6  1 24 30.0000000  0  8G16G09G07G04G06G31G03G26
    570310.42647    490226.96546  20919116.6024                   20919112.1454
        47.5004         37.0004
   -578897.35547   -416983.95347  21632131.7194                   21632129.9414
        45.2504         47.0004
   -494683.33646   -353655.19146  23481684.6724                   23481682.6804
        41.7504         37.0004
    701268.12148    573599.34046  20439750.5164                   20439746.8094
        48.0004         40.5004
   1622559.67246   1289443.35545  24639289.2504                   24639290.9344
        36.7504         33.2504
   3465305.00446   2696550.39145  24478799.9614                   24478797.0044
        41.5004         31.0004
   2848641.18047   2222845.37147  21225611.2584                   21225610.2544
        47.5004         47.2504
   2728552.74647   2133887.42246  22644438.8674                   22644438.3984
        45.2504         40.0004
 25  8  6  1 25  0.0000000  0  8G16G09G07G04G06G31G03G26
    470463.96947    412424.56346  20900116.7274                   20900112.2704
        47.7504         36.7504
   -734444.87147   -538189.75047  21602531.6954                   21602529.9534
        45.7504         46.5004
   -647510.23847   -472740.93746  23452602.6094                   23452600.2384
        44.0004         37.2504
    602713.87147    496803.82446  20420996.5314                   20420992.9064
        47.7504         40.5004
   1560796.02746   1241315.76245  24627536.6254                   24627537.6954
        36.5004         32.0004
   3476595.93446   2705348.40645  24480948.0004                   24480946.2894
        40.5004         30.7504
   2839821.30947   2215972.71147  21223932.9384                   21223932.4144
        47.5004         47.2504
   2715172.21947   2123461.00046  22641892.5084                   22641892.2544
        45.5004         39.7504
 25  8  6  1 25 30.0000000  0  8G16G09G07G04G06G31G03G26
    371197.82047    335074.34046  20881226.7584                   20881222.3284
        47.0004         37.0004
   -889934.16847   -659350.18447  21572943.4694                   21572941.6414
        45.5004         46.7504
   -800232.07047   -591744.76246  23423540.1024                   23423538.2624
        43.5004         37.0004
    504344.60547    420152.44946  20402277.1254                   20402273.5044
        47.0004         40.0004
   1499403.13346   1193477.09045  24615853.7974                   24615855.3364
        36.5004         33.0004
   3487776.60546   2714060.52045  24483075.5004                   24483074.0664
        40.5004         32.0004
   2831343.92648   2209366.90647  21222319.6334                   21222318.9844
        48.0004         47.5004
   2702141.16847   2113306.90246  22639412.9064                   22639412.3244
        44.7504         39.2504
 25  8  6  1 26  0.0000000  0  8G16G09G07G04G06G31G03G26
    272515.33647    258178.91446  20862448.3754                   20862443.5514
        46.5004         37.0004
  -1045360.66847   -780461.70347  21543366.8284                   21543364.7734
        46.0004         47.2504
   -952845.71147   -710664.33246  23394498.6254                   23394496.5744
        43.7504         37.0004
    406164.52047    343648.49246  20383593.9304                   20383590.5824
        47.2504         40.2504
   1438382.21146   1145928.31645  24604241.7274                   24604243.1994
        37.0004         32.7504
   3498848.84846   2722688.14145  24485183.4384                   24485181.0394
        41.5004         32.5004
   2823210.07047   2203028.79347  21220771.6724                   21220771.2464
        47.0004         47.0004
   2689460.24647   2103425.62946  22636999.6804                   22636999.4184
        44.5004         39.0004
 25  8  6  1 26 30.0000000  0  8G16G09G07G04G06G31G03G26
    174416.15247    181738.00446  20843780.6334                   20843776.0594
        47.7504         37.2504
  -1200724.16847   -901524.12147  21513802.2114                   21513799.7274
        46.5004         47.2504
  -1105352.10947   -829500.36346  23365477.8054                   23365475.8134
        43.7504         37.2504
    308173.53947    267291.89546  20364947.0394                   20364943.4534
        47.5004         40.0004
   1377730.36846   1098667.09445  24592700.7664                   24592701.6564
        38.5004         33.0004
   3509810.38747   2731229.51245  24487269.0474                   24487266.7664
        42.0004         32.5004
   2815416.21947   2196955.62147  21219288.6334                   21219287.6374
        47.7504         47.0004
   2677125.80147   2093814.34846  22634652.9384                   22634652.5944
        43.7504         39.0004
 25  8  6  1 27  0.0000000  0  8G16G09G07G04G06G31G03G26
     76901.78947    105752.80546  20825224.4304                   20825220.0354
        47.5004         37.2504
  -1356022.22347  -1022535.54347  21484249.3054                   21484247.8874
        45.7504         47.5004
  -1257749.86347   -948251.71946  23336477.7194                   23336475.6804
        44.0004         37.7504
    210373.77347    191084.28946  20346335.9454                   20346333.0164
        47.2504         40.0004
   1317446.97346   1051692.96945  24581228.6724                   24581230.3094
        38.2504         33.0004
   3520661.14846   2739684.55945  24489334.4614                   24489332.1914
        41.5004         32.0004
   2807961.27347   2191146.52347  21217870.2344                   21217869.3404
        46.7504         46.5004
   2665136.34047   2084471.87946  22632371.1564                   22632370.9344
        44.7504         39.0004
 25  8  6  1 27 30.0000000  0  8G16G09G07G04G06G31G03G26
    -20024.01247     30226.22346  20806779.9454                   20806775.5004
        47.0004         38.0004
  -1511249.97347  -1143492.18747  21454710.7424                   21454708.5904
        46.0004         47.0004
  -1410035.94147  -1066916.06646  23307498.5554                   23307495.9264
        44.5004         37.2504
    112769.68047    115029.14846  20327762.8674                   20327758.8754
        47.5004         39.7504
   1257533.46946   1005007.09045  24569827.9844                   24569829.3054
        38.5004         33.0004
   3531403.19946   2748054.90245  24491377.9694                   24491376.3134
        41.2504         32.7504
   2800846.34847   2185602.38747  21216516.0474                   21216515.5474
        46.7504         46.2504
   2653492.73447   2075398.89846  22630155.4384                   22630155.0664
        44.7504         39.0004
 25  8  6  1 28  0.0000000  0  8G16G09G07G04G06G31G03G26
   -116358.77348    -44839.80546  20788448.5164                   20788443.4804
        48.0004         38.0004
  -1666404.15247  -1264391.49247  21425185.6174                   21425184.4224
        47.0004         47.5004
  -1562208.53147  -1185491.99646  23278540.8754                   23278538.4384
        45.0004         37.2504
     15364.25847     39128.82446  20309226.9614                   20309223.4964
        47.0004         40.0004
   1197989.95346    958609.52345  24558497.1174                   24558498.6484
        39.7504         33.5004
   3542037.58646   2756341.34445  24493402.2424                   24493399.7664
        41.2504         31.7504
   2794071.11347   2180322.93047  21215227.1564                   21215226.4654
        47.0004         46.5004
   2642194.34047   2066594.92646  22628005.4694                   22628004.8054
        44.0004         38.0004
 25  8  6  1 28 30.0000000  0  8G16G09G07G04G06G31G03G26
   -212099.98847   -119443.32846  20770228.9454                   20770224.1564
        47.0004         38.2504
  -1821481.47347  -1385230.91847  21395675.9064                   21395674.0744
        47.0004         47.5004
  -1714265.73447  -1303978.02346  23249604.7344                   23249602.8324
        43.5004         37.0004
    -81839.66047    -36614.46946  20290729.7034                   20290726.2734
        46.5004         40.0004
   1138816.46146    912500.27045  24547236.3674                   24547238.2034
        40.0004         34.2504
   3552564.66447   2764544.18045  24495405.6564                   24495403.1174
        42.0004         32.5004
   2787635.02047   2175307.75047  21214002.4774                   21214001.5514
        46.2504         46.5004
   2631240.36747   2058059.34046  22625921.2114                   22625920.3874
        44.0004         38.0004
 25  8  6  1 29  0.0000000  0  8G16G09G07G04G06G31G03G26
   -307241.27047   -193579.38346  20752123.8914                   20752119.6374
        45.0004         38.0004
  -1976474.37547  -1506004.55947  21366181.6724                   21366179.9344
        47.0004         47.5004
  -1866201.11347  -1422369.10946  23220692.5944                   23220690.1254
        44.5004         36.5004
   -178834.81247   -112195.10546  20272272.3284                   20272268.8674
        45.0004         39.7504
   1080017.17646    866682.60545  24536047.8054                   24536049.2154
        40.2504         33.2504
   3562989.68046   2772667.49245  24497389.3204                   24497387.5204
        41.0004         32.0004
   2781542.04747   2170559.93447  21212842.7034                   21212842.3204
        46.7504         46.2504
   2620634.54347   2049795.03146  22623902.3524                   22623902.3554
        44.0004         38.2504
 25  8  6  1 29 30.0000000  0  9G16G09G07G04G06G27G31G03G26
   -401780.35947   -267246.17246  20734134.3054                   20734129.4344
        46.7504         37.2504
  -2131379.58247  -1626709.87147  21336704.2424                   21336701.6254
        46.0004         47.2504
  -2018013.10547  -1540664.05546  23191803.3204                   23191801.1684
        43.5004         37.2504
   -275618.37547   -187610.85246  20253854.7584                   20253851.6644
        46.5004         40.0004
   1021592.02746    821156.47345  24524930.0394                   24524931.6054
        40.7504         32.5004
   2944871.02756   2357835.08655  25002980.8754                   25002986.3754
        39.7504         31.7504
   3573313.22746   2780711.75445  24499353.6094                   24499351.2504
        41.5004         32.5004
   2775791.66047   2166079.06347  21211748.7504                   21211747.7894
        46.2504         46.0004
   2610375.97747   2041801.32046  22621950.6174                   22621950.1564
        44.0004         38.0004
 25  8  6  1 30  0.0000000  0  9G16G09G07G04G06G27G31G03G26
   -495718.19947   -340444.47346  20716258.3054                   20716253.5594
        47.0004         37.0004
  -2286196.94147  -1747346.72747  21307242.9844                   21307241.4264
        46.5004         47.2504
  -2169702.64147  -1658863.59446  23162938.2424                   23162935.6994
        43.5004         37.5004
   -372190.47347   -262861.82446  20235478.1024                   20235474.5664
        46.5004         40.0004
    963537.89146    775919.43845  24513882.5864                   24513884.1374
        40.0004         33.0004
   2772864.76246   2223804.45345  24970248.6024                   24970253.4734
        38.0004         31.0004
   3583532.81646   2788675.00445  24501298.3364                   24501296.3984
        41.5004         33.2504
   2770380.21547   2161862.30147  21210718.7894                   21210717.5274
        46.2504         46.0004
   2600460.91847   2034075.27346  22620063.5164                   22620063.4264
        43.2504         37.5004
 25  8  6  1 30 30.0000000  0  9G16G09G07G04G06G27G31G03G26
   -589060.37147   -413178.61346  20698495.6334                   20698490.8444
        45.5004         37.2504
  -2440930.64547  -1867918.39847  21277798.0944                   21277796.0864
        46.5004         47.5004
  -2321275.46947  -1776972.18446  23134094.5474                   23134092.2544
        44.5004         38.5004
   -468555.75847   -337951.65246  20217140.2034                   20217136.6024
        46.5004         39.7504
    905847.16446    730965.58645  24502904.2274                   24502906.1994
        39.2504         32.5004
   2600788.02746   2089718.95744  24937503.7734                   24937508.1804
        38.2504         29.7504
   3593641.53546   2796551.84045  24503221.2664                   24503220.3244
        40.5004         32.5004
   2765299.81347   2157903.50447  21209752.1414                   21209751.2664
        45.7504         46.0004
   2590881.09447   2026610.44946  22618240.9454                   22618240.6254
        43.5004         37.7504
 25  8  6  1 31  0.0000000  0  9G16G09G07G04G06G27G31G03G26
   -681802.26647   -485444.99646  20680847.6334                   20680842.6644
        45.5004         36.7504
  -2595575.22347  -1988420.62947  21248370.3674                   21248368.0044
        45.7504         47.5004
  -2472727.68047  -1894986.81246  23105273.8134                   23105271.2154
        44.0004         38.0004
   -564709.18047   -412876.38746  20198843.0394                   20198839.3164
        47.0004         40.0004
    848521.91046    686296.50845  24491996.2344                   24491996.9264
        40.0004         33.0004
   2428647.97346   1955584.07044  24904747.7894                   24904751.2664
        39.5004         29.0004
   3603642.20346   2804344.47345  24505124.5704                   24505123.1684
        40.7504         32.5004
   2760552.05147   2154203.90247  21208848.8914                   21208847.7774
        46.0004         46.0004
   2581637.89847   2019407.94946  22616481.7424                   22616481.8284
        43.2504         37.2504
 25  8  6  1 31 30.0000000  0  9G16G09G07G04G06G27G31G03G26
   -773940.68447   -557241.14146  20663314.2814                   20663309.2974
        45.5004         37.2504
  -2750126.15647  -2108849.88747  21218960.2504                   21218957.8324
        47.0004         47.2504
  -2624056.18447  -2012905.02746  23076477.4384                   23076474.6024
        44.2504         38.0004
   -660646.53947   -487632.76246  20180586.4224                   20180583.1724
        45.7504         40.0004
    791563.27746    641913.10945  24481156.8364                   24481158.7194
        39.0004         32.0004
   2256450.89846   1821404.77344  24871979.7664                   24871982.5124
        38.5004         28.2504
   3613536.97746   2812054.59845  24507008.4144                   24507006.3324
        40.5004         32.7504
   2756137.71147   2150764.11747  21208008.8914                   21208007.6804
        46.0004         45.5004
   2572731.84847   2012468.15246  22614787.2424                   22614786.6174
        43.2504         37.5004
 25  8  6  1 32  0.0000000  0  9G16G09G07G04G06G27G31G03G26
   -865473.34047   -628565.25446  20645896.0704                   20645891.4064
        46.2504         37.5004
  -2904579.84847  -2229203.39147  21189568.3054                   21189566.4654
        46.5004         47.2504
  -2775258.96547  -2130725.25846  23047703.8444                   23047701.9304
        44.0004         38.0004
   -756364.74247   -562218.36746  20162371.5164                   20162368.7384
        46.2504         40.2504
    734971.27046    597815.37945  24470387.2274                   24470389.6054
        39.5004         31.7504
   2084202.10945   1687185.12544  24839199.6174                   24839204.7114
        34.5004         25.7504
   3623326.98846   2819683.07045  24508871.7734                   24508869.3834
        41.0004         32.2504
   2752056.44147   2147583.85947  21207232.5634                   21207231.5664
        46.5004         45.7504
   2564162.34847   2005790.60946  22613156.2894                   22613156.0594
        43.7504         38.7504
 25  8  6  1 32 30.0000000  0  9G16G09G07G04G06G27G31G03G26
   -956395.43047   -699413.61346  20628594.0314                   20628589.5234
        46.5004         37.5004
  -3058930.23447  -2349476.37947  21160196.6334                   21160194.6724
        46.0004         47.5004
  -2926331.43747  -2248443.97746  23018955.7664                   23018952.8954
        43.5004         38.0004
   -851858.11347   -636628.78946  20144200.2194                   20144196.5824
        46.2504         40.0004
    678748.59046    554005.45545  24459689.2734                   24459691.1604
        40.2504         33.2504
   1911909.24645   1552931.23844  24806413.8674                   24806418.0634
        35.0004         24.0004
   3633015.74246   2827232.66845  24510714.4614                   24510713.0904
        39.7504         31.7504
   2748310.48447   2144664.88747  21206519.8984                   21206518.8874
        46.0004         45.7504
   2555931.44547   1999376.91046  22611590.5004                   22611589.7664
        44.0004         39.0004
 25  8  6  1 33  0.0000000  0  9G16G09G07G04G06G27G31G03G26
    528717.28147    457817.09446  20911201.7814                   20911197.1254
        46.0004         37.2504
  -1637749.77347  -1242062.99648  21430638.5004                   21430636.5474
        46.0004         48.0004
  -1501847.67647  -1138456.53546  23290025.6884                   23290023.1414
        42.7504         38.0004
    628298.52747    516740.02746  20425864.7664                   20425861.0984
        46.2504         39.7504
   2198315.88746   1738083.82845  24748852.8754                   24748855.0354
        39.5004         31.5004
   3315002.32045   2646250.79743  25073413.1254                   25073417.2664
        35.2504         22.5004
   5218022.45346   4062302.73445  24812331.5004                   24812329.9144
        39.7504         31.0004
   4320318.50047   3369606.14147  21505662.6724                   21505661.3754
        45.5004         45.5004
   4123457.63747   3220825.87546  22909880.6564                   22909880.6804
        43.5004         38.2504
 25  8  6  1 33 30.0000000  0  9G16G09G07G04G06G27G31G03G26
    439022.03547    387924.72746  20894133.2584                   20894128.6724
        46.5004         37.5004
  -1791883.85547  -1362167.44148  21401307.5314                   21401306.0704
        45.7504         48.0004
  -1652654.14547  -1255967.96946  23261328.4774                   23261325.9344
        44.0004         38.0004
    533263.25447    442686.56646  20407780.1174                   20407776.3874
        46.0004         40.0004
   2142830.92646   1694848.74245  24738294.6094                   24738296.6024
        40.0004         31.0004
   3142636.43846   2511939.95343  25040612.6254                   25040616.9924
        36.7504         23.7504
   5227510.40646   4069695.85945  24814137.9064                   24814135.6024
        39.5004         30.7504
   4317241.25847   3367208.23847  21505077.3444                   21505076.2854
        46.0004         45.7504
   4115901.28147   3214937.78946  22908442.9064                   22908442.5944
        43.5004         38.0004
 25  8  6  1 34  0.0000000  0  9G16G09G07G04G06G27G31G03G26
    349943.77347    318513.12546  20877182.0164                   20877177.3404
        46.5004         37.7504
  -1945904.21147  -1482183.27047  21371998.1884                   21371996.6604
        46.5004         47.7504
  -1803324.43047  -1373373.30946  23232656.6414                   23232653.7234
        43.0004         37.5004
    438461.93447    368815.40646  20389740.0864                   20389736.4804
        45.5004         40.2504
   2087715.10946   1651901.31644  24727806.0784                   24727808.1724
        40.0004         29.7504
   2970242.19546   2377606.98044  25007807.5634                   25007810.7734
        37.0004         25.0004
   5236899.75446   4077012.15644  24815925.3444                   24815922.2814
        40.7504         29.5004
   4314498.11347   3365070.68047  21504555.1644                   21504554.0314
        46.2504         45.5004
   4108681.52047   3209311.96946  22907069.0084                   22907068.5274
        43.2504         38.7504
 25  8  6  1 34 30.0000000  0  9G16G09G07G04G06G27G31G03G26
    261483.96947    249583.43846  20860348.5864                   20860343.8094
        46.0004         37.5004
  -2099807.77047  -1602108.09047  21342711.4224                   21342709.3404
        46.5004         47.7504
  -1953857.07047  -1490671.36746  23204011.3204                   23204008.8244
        43.0004         38.0004
    343897.21147    295128.60546  20371745.0084                   20371741.7274
        46.7504         39.5004
   2032967.90246   1609241.08245  24717388.0084                   24717390.2384
        40.7504         32.0004
   2797824.22346   2243255.50444  24974997.1174                   24975000.2734
        37.0004         26.7504
   5246191.09046   4084252.08644  24817692.3054                   24817690.6024
        40.2504         29.2504
   4312088.15247   3363192.73847  21504097.1884                   21504095.8404
        44.7504         45.2504
   4101797.31347   3203947.63746  22905759.0084                   22905758.8404
        43.5004         38.7504
 25  8  6  1 35  0.0000000  0  9G16G09G07G04G06G27G31G03G26
    173638.91447    181132.76246  20843632.3834                   20843627.5004
        47.2504         36.7504
  -2253596.87147  -1721943.71947  21313446.5084                   21313444.0234
        46.5004         47.5004
  -2104255.90247  -1607865.17646  23175391.1414                   23175388.4884
        43.0004         38.0004
    249566.28147    221623.98446  20353794.1484                   20353790.7664
        46.2504         40.5004
   1978583.41046   1566863.52344  24707039.6254                   24707041.1764
        37.0004         25.5004
   2625381.96146   2108885.10944  24942182.4534                   24942186.4414
        36.7504         26.7504
   5255379.43446   4091411.75044  24819440.1644                   24819439.2584
        38.7504         27.2504
   4310005.10547   3361569.53947  21503700.4144                   21503699.3244
        45.2504         45.2504
   4095242.16847   3198839.70746  22904511.4454                   22904511.3834
        42.5004         38.0004
 25  8  6  1 35 30.0000000  0  9G16G09G07G04G06G27G31G03G26
     86411.90647    113163.69146  20827034.2424                   20827028.7584
        46.0004         37.5004
  -2407266.70747  -1841686.42247  21284204.1884                   21284201.2154
        47.0004         47.5004
  -2254517.41047  -1724951.96546  23146797.4924                   23146795.1374
        44.2504         39.0004
    155473.43447    148304.87946  20335888.5864                   20335885.5004
        46.0004         40.5004
   1924562.87145   1524769.53943  24696759.9774                   24696761.3594
        32.5004         19.5004
   2452921.94146   1974500.95344  24909364.8204                   24909368.0514
        38.7504         27.2504
   5264467.01646   4098492.91044  24821169.5314                   24821167.9654
        38.0004         25.0004
   4308249.81347   3360201.72347  21503366.7734                   21503365.5744
        45.5004         45.2504
   4089016.73047   3193988.69146  22903327.0554                   22903326.8054
        42.0004         38.2504
 25  8  6  1 36  0.0000000  0  9G16G09G07G04G06G27G31G03G26
      -195.02347     45677.79346  20810552.6254                   20810547.9024
        47.7504         37.2504
  -2560813.51247  -1961333.25448  21254985.1484                   21254981.8954
        47.2504         48.0004
  -2404640.15647  -1841930.62546  23118230.0004                   23118227.0084
        43.0004         38.5004
     61622.04747     75173.92646  20318029.9144                   20318025.9884
        45.7504         40.5004
   1870906.22345   1482959.13343  24686550.1724                   24686551.1724
        32.7504         19.0004
   2280449.61746   1840107.13744  24876543.6174                   24876547.1994
        38.0004         27.5004
   5273454.69146   4105496.20744  24822880.4694                   24822878.9224
        37.5004         24.5004
   4306822.07847   3359089.15647  21503094.4224                   21503093.6994
        45.5004         45.0004
   4083120.56347   3189394.24646  22902204.7664                   22902204.3714
        42.2504         38.0004
 25  8  6  1 36 30.0000000  0  9G16G09G07G04G06G27G31G03G26
    -86178.50447    -21322.30546  20794190.6564                   20794185.9064
        46.2504         37.2504
  -2714232.32447  -2080880.35948  21225790.4304                   21225787.6174
        46.2504         48.2504
  -2554620.14547  -1958798.05546  23089689.9224                   23089686.7704
        43.5004         38.7504
    -31983.45347      2234.57046  20300217.6094                   20300213.4844
        46.0004         40.2504
   1817614.89545   1441433.38743  24676408.7974                   24676410.0004
        34.7504         21.5004
   2107971.67646   1705708.92644  24843721.8524                   24843725.5394
        37.7504         29.2504
   5282345.42246   4112423.97744  24824572.1884                   24824570.2934
        36.7504         24.7504
   4305722.80547   3358232.52747  21502885.2034                   21502884.6644
        45.0004         45.0004
   4077554.35247   3185056.91046  22901145.7584                   22901145.4734
        42.0004         38.0004
 25  8  6  1 37  0.0000000  0  9G16G09G07G04G06G27G31G03G26
   -171539.32047    -87837.21146  20777947.3444                   20777942.1484
        46.5004         37.5004
  -2867522.44547  -2200327.17248  21196620.2894                   21196617.5394
        47.0004         48.5004
  -2704458.56247  -2075555.16046  23061176.5784                   23061173.3834
        43.7504         39.2504
   -125342.80947    -70512.98846  20282451.8054                   20282448.0164
        45.5004         40.0004
   1764685.91045   1400190.02742  24666335.6804                   24666338.2584
        31.7504         16.7504
   1935490.45746   1571308.20345  24810900.4224                   24810903.0004
        39.0004         30.5004
   5291137.22746   4119274.66044  24826245.2734                   24826243.6764
        36.2504         24.0004
   4304948.79647   3357629.34947  21502738.2894                   21502737.0824
        45.5004         45.0004
   4072314.74647   3180974.07446  22900148.6254                   22900148.3364
        42.0004         38.0004
 25  8  6  1 37 30.0000000  0  8G16G09G07G04G27G31G03G26
   -256274.61748   -153864.69546  20761822.1414                   20761817.8324
        48.0004         37.2504
  -3020679.38347  -2319670.21548  21167475.3914                   21167473.0084
        47.0004         48.2504
  -2854152.36747  -2192199.59846  23032691.3284                   23032687.7074
        44.0004         39.0004
   -218452.10247   -143065.69146  20264733.0864                   20264729.5204
        46.7504         40.0004
   1763012.22346   1436909.85545  24778078.4064                   24778081.8874
        38.5004         31.2504
   5299832.08246   4126049.77344  24827900.2974                   24827898.7034
        38.5004         25.7504
   4304500.34047   3357279.85547  21502652.8204                   21502652.3554
        45.7504         45.2504
   4067401.92647   3177145.87146  22899214.0234                   22899213.2234
        42.2504         37.2504
 25  8  6  1 38  0.0000000  0  8G16G09G07G04G27G31G03G26
   -340384.33248   -219404.71546  20745816.8594                   20745811.8714
        48.0004         37.0004
  -3173701.16047  -2438907.91848  21138356.2034                   21138354.2664
        46.2504         48.5004
  -3003701.19947  -2308731.04346  23004232.0864                   23004229.0274
        44.2504         38.7504
   -311309.75047   -215422.30146  20247062.8914                   20247059.5664
        47.0004         39.7504
   1590540.71946   1302516.70745  24745256.8984                   24745261.3984
        37.2504         30.5004
   5308429.45346   4132748.94944  24829536.4224                   24829534.5044
        40.0004         29.0004
   4304375.56347   3357182.56347  21502629.2114                   21502628.7154
        44.5004         44.5004
   4062813.68447   3173570.59046  22898340.7894                   22898340.1254
        42.2504         37.7504
 25  8  6  1 38 30.0000000  0  8G16G09G07G04G27G31G03G26
   -423866.54348   -284455.76646  20729930.7734                   20729925.8674
        48.0004         37.0004
  -3326584.45347  -2558037.72348  21109263.0864                   21109261.2274
        46.2504         48.2504
  -3153103.49647  -2425148.30546  22975801.6564                   22975798.7734
        44.5004         39.0004
   -403912.99247   -287580.67246  20229441.4774                   20229437.7114
        46.2504         40.0004
   1418080.84446   1168132.63745  24712439.6804                   24712443.5084
        38.2504         31.5004
   5316929.86346   4139372.56644  24831154.3984                   24831151.7544
        41.0004         29.5004
   4304573.56347   3357336.80547  21502666.7114                   21502666.3674
        46.0004         45.0004
   4058549.07847   3170247.49246  22897529.5474                   22897528.8404
        42.5004         37.2504
 25  8  6  1 39  0.0000000  0  8G16G09G07G04G27G31G03G26
   -506720.91047   -349017.60246  20714164.1804                   20714159.8524
        47.5004         37.7504
  -3479326.87147  -2677057.74248  21080197.6334                   21080195.3834
        46.0004         48.2504
  -3302358.71147  -2541450.95346  22947398.7194                   22947396.6024
        43.0004         39.7504
   -496259.96147   -359539.35246  20211868.3834                   20211864.3014
        45.2504         39.7504
   1245636.77746   1033760.88745  24679624.3834                   24679628.1954
        38.0004         31.0004
   5325333.28946   4145920.59445  24832753.0394                   24832751.0554
        41.2504         30.5004
   4305092.76247   3357741.32047  21502765.7194                   21502765.2074
        45.5004         44.7504
   4054606.24647   3167175.12546  22896778.7734                   22896778.4884
        42.0004         37.2504
 25  8  6  1 39 30.0000000  0  8G16G09G07G04G27G31G03G26
   -588946.19548   -413089.23846  20698517.4844                   20698512.3554
        48.5004         37.5004
  -3631925.27347  -2795965.56248  21051158.9534                   21051156.7774
        47.0004         48.5004
  -3451465.18747  -2657637.68746  22919024.8754                   22919022.0944
        44.2504         39.5004
   -588348.03147   -431296.28546  20194344.8204                   20194341.0124
        46.2504         40.5004
   1073213.24646    899405.11745  24646812.2344                   24646816.0704
        38.7504         31.2504
   5333640.43447   4152393.54745  24834334.8134                   24834332.6484
        42.7504         32.0004
   4305932.12947   3358395.32447  21502925.4384                   21502925.5984
        45.0004         44.5004
   4050984.07847   3164352.61346  22896089.5004                   22896089.2344
        42.0004         36.7504
 25  8  6  1 40  0.0000000  0  8G16G09G07G04G27G31G03G26
   -670544.58647   -476672.38746  20682989.5084                   20682984.8714
        47.7504         38.0004
  -3784380.14147  -2914761.52748  21022148.0704                   21022145.3874
        47.0004         49.0004
  -3600424.98847  -2773710.13346  22890678.6484                   22890676.3674
        44.0004         39.7504
   -680178.22747   -502852.29346  20176869.8364                   20176866.3594
        45.5004         40.7504
    900811.60946    765066.42645  24614005.7424                   24614009.1994
        38.7504         31.0004
   5341848.32446   4158789.18845  24835896.3204                   24835894.2894
        41.2504         31.0004
   4307087.11347   3359295.25047  21503145.5234                   21503145.0234
        45.2504         44.7504
   4047677.79746   3161776.24645  22895460.3204                   22895459.9734
        41.2504         35.5004
 25  8  6  1 40 30.0000000  0  8G16G09G07G04G27G31G03G26
   -751515.20747   -539766.36346  20667581.2974                   20667576.5984
        47.2504         37.2504
  -3936688.52047  -3033443.35948  20993164.5394                   20993162.0234
        46.5004         48.7504
  -3749236.71147  -2889667.19546  22862360.4384                   22862358.3014
        43.7504         39.5004
   -771748.18047   -574205.50046  20159444.7734                   20159441.1414
        47.0004         39.7504
    728436.38346    630748.30144  24581204.2974                   24581207.4064
        38.7504         29.7504
   5349957.32047   4165107.78145  24837440.1804                   24837437.2544
        42.0004         31.7504
   4308556.51647   3360440.18847  21503424.5084                   21503424.1724
        45.5004         44.7504
   4044686.09446   3159445.00045  22894891.5554                   22894890.7384
        41.2504         35.7504
 25  8  6  1 41  0.0000000  0  8G16G09G07G04G27G31G03G26
   -831854.83248   -602368.65246  20652292.9224                   20652288.1914
        48.5004         37.7504
  -4088845.38747  -3152007.11348  20964209.8834                   20964207.5314
        46.7504         49.0004
  -3897897.25047  -3005506.46146  22834071.9614                   22834069.0124
        44.0004         39.7504
   -863053.32447   -645352.36346  20142069.7814                   20142066.0514
        46.5004         40.0004
    556094.36346    496456.02044  24548408.6094                   24548410.9614
        38.2504         29.5004
   5357970.06646   4171351.41045  24838964.3054                   24838962.2974
        41.5004         31.2504
   4310341.23447   3361830.84047  21503764.5164                   21503763.8954
        44.5004         44.0004
   4042009.68446   3157359.44945  22894382.2974                   22894381.4344
        41.5004         35.7504
 25  8  6  1 41 30.0000000  0  8G16G09G07G04G27G31G03G26
   -911565.80947   -664481.09046  20637124.2584                   20637119.6134
        47.5004         37.0004
  -4240851.17247  -3270453.14548  20935283.8524                   20935281.6684
        47.7504         49.0004
  -4046408.77347  -3121229.60246  22805811.1174                   22805807.9964
        44.5004         40.0004
   -954094.65247   -716293.65646  20124744.7974                   20124741.9024
        46.5004         40.2504
    383786.83646    362190.63344  24515618.1724                   24515622.2544
        38.2504         29.0004
   5365883.81346   4177517.87945  24840470.2274                   24840468.2934
        40.7504         30.0004
   4312436.73047   3363463.63347  21504163.3364                   21504163.1414
        44.5004         44.5004
   4039643.91446   3155515.94546  22893931.6094                   22893931.6174
        41.2504         36.0004
 25  8  6  1 42  0.0000000  0  8G16G09G07G04G27G31G03G26
    584778.75847    501501.69946  20921869.4144                   20921864.2424
        47.7504         36.7504
  -2817274.38747  -2161172.50448  21206181.9694                   21206179.8094
        46.5004         49.2504
  -2619341.71947  -2009229.17646  23077372.9534                   23077369.7274
        45.0004         41.0004
    530556.65247    440577.49646  20407264.6644                   20407261.6764
        46.2504         40.0004
   1786947.66846   1455562.93045  24782630.2894                   24782634.6024
        37.0004         30.0004
   6949121.62946   5411209.57445  25141750.8284                   25141748.4064
        41.5004         30.0004
   5890265.08247   4592940.21947  21804414.2894                   21804413.8404
        45.0004         44.5004
   5613010.83246   4381516.09045  23193332.8364                   23193333.3484
        41.2504         35.5004
 25  8  6  1 42 30.0000000  0  8G16G09G07G04G27G31G03G26
    506333.09048    440375.22346  20906942.1954                   20906937.0354
        48.2504         37.2504
  -2968963.51247  -2279371.79348  21177316.1644                   21177314.0234
        46.5004         49.2504
  -2767546.01647  -2124712.91446  23049170.3364                   23049167.2154
        44.5004         40.5004
    440055.64847    370057.23846  20390043.2894                   20390040.0664
        46.0004         40.7504
   1614728.64146   1321366.48444  24749859.5084                   24749862.3554
        38.2504         29.5004
   6956843.80146   5417226.75044  25143219.8594                   25143218.1454
        40.5004         28.0004
   5892983.96147   4595058.76247  21804931.7664                   21804931.4614
        44.7504         44.7504
   5611267.75046   4380157.80145  23193001.8984                   23193001.4884
        41.2504         35.2504
 25  8  6  1 43  0.0000000  0  8G16G09G07G04G27G31G03G26
    428517.43448    379739.66046  20892133.8754                   20892129.3164
        48.2504         37.2504
  -3120493.97347  -2397447.44948  21148481.1484                   21148478.8364
        47.2504         49.5004
  -2915599.01247  -2240078.76246  23020996.6094                   23020993.6414
        43.7504         40.0004
    349824.23847    299747.05546  20372872.5944                   20372869.0164
        46.5004         40.5004
   1442556.68446   1187206.68444  24717094.6484                   24717098.3244
        36.7504         28.5004
   6964466.58246   5423166.47744  25144670.5234                   25144668.3364
        39.5004         26.2504
   5896008.55547   4597415.52347  21805507.0704                   21805506.8244
        45.0004         44.0004
   5609829.77346   4379037.25845  23192727.7194                   23192727.5824
        41.2504         34.5004
 25  8  6  1 43 30.0000000  0  8G16G09G07G04G27G31G03G26
    351331.74648    319594.97746  20877445.9924                   20877441.3134
        48.5004         37.7504
  -3271863.79347  -2515397.93448  21119676.2734                   21119673.7814
        47.5004         49.5004
  -3063500.24247  -2355326.32846  22992851.7274                   22992848.7934
        43.7504         39.5004
    259863.93847    229648.12546  20355753.8444                   20355750.4064
        46.5004         40.0004
   1270435.59445   1053086.58244  24684340.2274                   24684345.1604
        34.7504         28.5004
   6971989.65246   5429028.53944  25146102.3754                   25146100.1954
        39.5004         25.2504
   5899336.76247   4600008.87947  21806140.5234                   21806140.0274
        46.2504         44.2504
   5608694.73046   4378152.77345  23192512.2734                   23192511.9494
        41.2504         34.7504
 25  8  6  1 44  0.0000000  0  8G16G09G07G04G27G31G03G26
    274780.44948    259944.62146  20862878.6804                   20862873.9614
        48.5004         38.0004
  -3423066.27347  -2633218.02348  21090903.5394                   21090900.8244
        47.5004         49.2504
  -3211245.12147  -2470452.08246  22964736.8674                   22964734.0394
        44.5004         40.0004
    170180.71947    159765.10546  20338687.7584                   20338683.8984
        47.7504         40.2504
   1098373.72746    919012.65644  24651599.5554                   24651602.0554
        37.0004         29.7504
   6979417.27746   5434816.22344  25147515.0784                   25147514.1214
        39.5004         27.0004
   5902970.94547   4602840.64847  21806832.0394                   21806831.9384
        45.2504         44.2504
   5607864.85946   4377506.08245  23192354.5394                   23192354.0234
        40.5004         35.0004
 25  8  6  1 44 30.0000000  0  8G16G09G07G04G27G31G03G26
    198862.26248    200787.59846  20848432.1174                   20848426.9264
        48.5004         37.5004
  -3574100.53147  -2750907.05148  21062162.6884                   21062160.3874
        47.5004         49.2504
  -3358834.47747  -2585456.65646  22936651.2194                   22936647.8834
        44.5004         40.0004
     80774.87947     90098.22346  20321674.1724                   20321670.8954
        45.5004         40.2504
    926373.58646    784986.78144  24618867.3444                   24618871.1684
        36.0004         27.5004
   6986747.56646   5440528.07844  25148911.2194                   25148909.3484
        39.5004         27.7504
   5906907.71147   4605908.18847  21807581.3284                   21807581.5594
        45.7504         44.0004
   5607336.65646   4377094.44945  23192253.5864                   23192253.5274
        41.5004         34.7504
 25  8  6  1 45  0.0000000  0  8G16G09G07G04G27G31G03G26
    123574.48048    142121.80146  20834105.2894                   20834100.3444
        48.2504         37.2504
  -3724966.92247  -2868465.26248  21033453.3754                   21033451.2114
        47.5004         49.5004
  -3506270.31647  -2700341.60946  22908595.2424                   22908591.9184
        45.0004         40.2504
     -8354.53547     20646.74246  20304713.4694                   20304709.9574
        46.2504         40.5004
    754436.52046    651010.05144  24586149.2584                   24586152.7974
        37.0004         29.0004
   6993978.29346   5446162.34444  25150286.1094                   25150285.2274
        38.2504         25.7504
   5911142.50847   4609207.97747  21808387.1484                   21808386.6024
        45.7504         43.7504
   5607105.49646   4376914.29745  23192209.5864                   23192209.0744
        41.2504         35.2504
 25  8  6  1 45 30.0000000  0  8G16G09G07G04G27G31G03G26
     48920.18047     83949.62546  20819898.7734                   20819893.7504
        47.7504         36.7504
  -3875660.28147  -2985888.64548  21004777.5474                   21004774.9304
        47.5004         49.2504
  -3653549.18747  -2815104.25046  22880568.7974                   22880565.7584
        45.2504         41.0004
    -97202.96147    -48585.77746  20287806.3674                   20287802.8324
        45.7504         40.2504
    582569.46146    517087.82844  24553444.6174                   24553446.9694
        37.5004         29.0004
   7001111.45746   5451720.58244  25151644.0864                   25151643.0204
        38.5004         28.2504
   5915676.25847   4612740.71547  21809250.0864                   21809249.6134
        46.0004         43.0004
   5607172.14846   4376966.19145  23192223.0394                   23192222.4344
        41.2504         35.5004
 25  8  6  1 46  0.0000000  0  8G16G09G07G04G27G31G03G26
    -25101.74248     26270.21946  20805813.0164                   20805808.0394
        48.5004         36.7504
  -4026179.12947  -3103176.04748  20976134.9144                   20976132.4494
        46.0004         49.5004
  -3800671.71147  -2929745.05946  22852572.0164                   22852569.2464
        44.0004         40.5004
   -185769.57047   -117598.71546  20270952.5314                   20270949.0704
        46.2504         40.2504
    410775.44946    383222.57444  24520752.5554                   24520755.5274
        38.2504         29.5004
   7008146.35946   5457202.23844  25152982.4844                   25152981.4104
        37.5004         27.0004
   5920506.07447   4616504.15247  21810168.9534                   21810168.6524
        44.7504         43.5004
   5607533.67646   4377247.86346  23192291.7344                   23192291.0634
        41.0004         36.5004
 25  8  6  1 46 30.0000000  0  8G16G09G07G04G27G31G03G26
    -98487.66848    -30913.62146  20791848.0784                   20791843.2504
        48.2504         37.0004
  -4176517.76647  -3220323.02748  20947526.2974                   20947523.7034
        46.7504         49.2504
  -3947633.87947  -3044260.93046  22824606.0164                   22824602.6524
        44.0004         40.5004
   -274049.37947   -186388.16446  20254153.5784                   20254149.9534
        46.0004         40.7504
    239061.86746    249419.95744  24488076.3984                   24488079.7544
        37.2504         29.5004
   7015086.14146   5462609.78145  25154303.8984                   25154302.3444
        39.0004         30.5004
   5925633.39847   4620499.41047  21811144.7664                   21811144.5124
        45.5004         43.5004
   5608191.34847   4377760.28146  23192417.0394                   23192416.5274
        42.0004         36.5004
 25  8  6  1 47  0.0000000  0  8G16G09G07G04G27G31G03G26
   -171239.32048    -87603.19946  20778004.1644                   20777998.6564
        48.5004         37.2504
  -4326675.37147  -3337328.93748  20918951.9224                   20918949.5124
        46.0004         49.2504
  -4094436.63347  -3158652.57846  22796670.4534                   22796666.7624
        44.0004         39.7504
   -362042.06647   -254953.87946  20237408.9144                   20237405.2344
        45.5004         40.2504
     67431.37146    115682.11345  24455416.7034                   24455419.8094
        39.0004         30.7504
   7021929.19946   5467941.98845  25155606.0474                   25155604.2894
        40.5004         31.0004
   5931054.79747   4624723.81647  21812176.7894                   21812176.0784
        45.0004         43.2504
   5609141.76647   4378500.81346  23192597.8204                   23192597.3164
        42.0004         36.5004
 25  8  6  1 47 30.0000000  0  8G16G09G07G04G27G31G03G26
   -243358.33248   -143799.82846  20764280.2034                   20764275.4774
        48.7504         37.2504
  -4476651.30947  -3454193.30148  20890412.8204                   20890410.1214
        46.7504         49.5004
  -4241081.21547  -3272921.01246  22768764.6644                   22768761.5314
        44.2504         39.7504
   -449747.79347   -323295.99646  20220719.2664                   20220715.5044
        45.0004         40.2504
   -104113.87946    -17989.32444  24422771.5474                   24422774.4454
        37.7504         28.5004
   7028673.62546   5473197.33645  25156888.8204                   25156888.0944
        39.5004         30.0004
   5936766.51647   4629174.44947  21813264.2814                   21813262.7344
        45.7504         42.7504
   5610380.93846   4379466.35246  23192833.6254                   23192833.2344
        41.2504         36.7504
 25  8  6  1 48  0.0000000  0  8G16G09G07G04G27G31G03G26
   -314845.42248   -199504.05146  20750676.6484                   20750672.0554
        49.0004         37.5004
  -4626443.65247  -3570914.59848  20861908.2114                   20861905.6094
        46.5004         49.5004
  -4387567.50847  -3387066.07446  22740888.7424                   22740885.5474
        44.5004         39.7504
   -537165.18047   -391413.43046  20204084.2114                   20204080.5314
        46.5004         40.0004
   -275570.13746   -151591.44544  24390144.3594                   24390146.9534
        37.2504         28.5004
   7035319.25446   5478375.68445  25158153.9534                   25158152.6054
        39.2504         30.0004
   5942766.25447   4633849.52047  21814404.8204                   21814404.6174
        45.5004         43.0004
   5611906.60246   4380655.13345  23193123.1884                   23193123.4574
        40.7504         35.7504
 25  8  6  1 48 30.0000000  0  8G16G09G07G04G27G31G03G26
   -385698.48848   -254714.22346  20737193.7504                   20737188.7504
        48.7504         37.5004
  -4776047.96947  -3687489.37948  20833439.7194                   20833436.9224
        47.0004         49.5004
  -4533893.21947  -3501086.01246  22713044.4454                   22713041.0784
        44.0004         40.2504
   -624290.60947   -459303.37146  20187504.6954                   20187501.1804
        45.7504         39.7504
   -446931.43046   -285119.54345  24357535.6724                   24357538.1254
        38.5004         30.5004
   7041867.60546   5483478.21945  25159399.6174                   25159398.5984
        38.5004         30.0004
   5949053.93847   4638748.95747  21815601.7274                   21815601.6334
        46.2504         43.5004
   5613718.59446   4382067.00845  23193468.3524                   23193468.3594
        40.5004         35.5004
 25  8  6  1 49  0.0000000  0  8G16G09G07G04G27G31G03G26
   -455916.36348   -309429.43446  20723831.8754                   20723827.0204
        48.5004         37.2504
  -4925460.31647  -3803914.57048  20805007.0554                   20805004.5944
        47.2504         49.5004
  -4680056.00447  -3614979.00046  22685230.5004                   22685226.8484
        45.5004         40.5004
   -711120.69547   -526963.17646  20170981.2734                   20170977.8404
        46.5004         39.5004
   -618192.07846   -418569.18745  24324946.7034                   24324948.7114
        39.7504         32.2504
   7048320.44146   5488506.34444  25160628.4384                   25160627.0904
        37.2504         28.2504
   5955629.32447   4643872.56647  21816853.0864                   21816852.5554
        45.0004         42.7504
   5615816.60946   4383701.76645  23193868.0944                   23193867.6524
        40.0004         35.0004
 25  8  6  1 49 30.0000000  0  8G16G09G07G04G27G31G03G26
   -525500.47748   -363650.82046  20710590.3444                   20710585.4454
        48.7504         37.5004
  -5074679.89847  -3920189.56248  20776611.5474                   20776609.1334
        46.5004         49.5004
  -4826056.90647  -3728745.86746  22657447.8134                   22657443.9454
        43.7504         40.5004
   -797655.41847   -594392.83246  20154514.4304                   20154510.5514
        47.2504         40.0004
   -789349.62946   -551938.52745  24292376.0704                   24292377.8134
        39.2504         31.5004
   7054676.02346   5493458.63744  25161837.9534                   25161836.2274
        37.0004         27.0004
   5962488.73847   4649217.51247  21818158.4144                   21818157.7544
        45.5004         42.5004
   5618196.87146   4385556.44545  23194321.0084                   23194320.9384
        40.5004         35.2504
 25  8  6  1 50  0.0000000  0  7G16G09G07G04G27G03G26
   -594450.52048   -417378.11746  20697469.4774                   20697464.5704
        48.0004         36.7504
  -5223703.81647  -4036312.08648  20748252.9144                   20748250.7504
        46.2504         49.7504
  -4971895.33247  -3842386.12146  22629695.4534                   22629691.7034
        43.5004         40.5004
   -883892.53947   -661590.58646  20138103.7504                   20138100.5004
        46.2504         39.7504
   -960399.53546   -685223.99245  24259825.8134                   24259828.3914
        39.0004         31.5004
   5969630.75047   4654782.67247  21819517.7194                   21819517.0434
        45.5004         42.5004
   5620857.96546   4387629.96545  23194827.3754                   23194827.0594
        40.7504         35.5004
 25  8  6  1 50 30.0000000  0  7G16G09G07G04G27G03G26
    912656.32847    756990.87546  20984262.5634                   20984257.5164
        47.0004         36.7504
  -3797103.79747  -2924675.69548  21019726.1174                   21019723.9454
        47.7504         50.0004
  -3542144.77047  -2728294.69146  22901767.6954                   22901764.1764
        45.2504         40.2504
    605593.35547    499047.76646  20421543.9694                   20421540.0164
        47.0004         40.0004
    444088.89046    409182.77945  24527090.9774                   24527093.0634
        39.0004         30.7504
   7552473.96947   5888166.93847  22120723.2814                   22120722.7504
        45.2504         42.2504
   7199218.56346   5617521.28145  23495179.5164                   23495178.9924
        39.7504         35.0004
 25  8  6  1 51  0.0000000  0  7G16G09G07G04G27G03G26
    844978.30948    704254.77046  20971383.8054                   20971378.4304
        48.0004         37.0004
  -3945724.33247  -3040483.88348  20991444.8674                   20991442.1764
        47.5004         50.0004
  -3687651.33247  -2841676.37546  22874078.6804                   22874074.9224
        46.0004         39.7504
    519961.33247    432321.51646  20405248.5394                   20405245.1374
        46.2504         40.0004
    273271.38746    276078.44545  24494585.8054                   24494587.3484
        39.5004         31.2504
   7560179.98447   5894171.57447  22122189.2504                   22122188.9264
        45.2504         43.0004
   7202439.91846   5620031.36345  23495792.4694                   23495792.2854
        39.5004         33.7504
 25  8  6  1 51 30.0000000  0  8G16G09G07G04G27G08G03G26
    777934.73447    652013.03946  20958625.6884                   20958620.6994
        47.7504         37.2504
  -4094140.69947  -3156132.98448  20963202.3134                   20963199.6094
        47.0004         50.0004
  -3832992.40247  -2954929.09846  22846421.3674                   22846417.3874
        45.7504         40.0004
    434633.23847    365832.07846  20389011.2974                   20389007.5314
        46.7504         41.0004
    102575.08646    143068.52345  24462102.5314                   24462104.8754
        39.5004         32.0004
   7631812.59856   6007459.00454  24991099.6414                   24991105.2384
        38.0004         29.2504
   7568163.88747   5900392.74647  22123708.2894                   22123708.7344
        45.0004         42.5004
   7205937.27046   5622756.48845  23496458.1484                   23496457.7504
        39.5004         35.0004
 25  8  6  1 52  0.0000000  0  8G16G09G07G04G27G08G03G26
    711522.14848    600262.97746  20945988.1804                   20945982.7814
        48.0004         37.0004
  -4242353.67647  -3271623.59848  20934997.9144                   20934995.7304
        47.7504         50.0004
  -3978170.54747  -3068054.86746  22818794.7034                   22818790.8794
        47.0004         41.0004
    349607.57847    299578.31346  20372831.3054                   20372827.8554
        46.2504         39.5004
    -67999.22346     10153.68845  24429643.8914                   24429645.8014
        39.2504         32.5004
   7452149.60246   5867462.18044  24956911.6024                   24956916.8054
        37.0004         29.0004
   7576420.47347   5906826.38747  22125279.6254                   22125279.4534
        45.0004         42.0004
   7209705.31346   5625692.53946  23497175.0394                   23497175.1524
        40.7504         36.0004
 25  8  6  1 52 30.0000000  0  8G16G09G07G04G27G08G03G26
    645735.62547    549000.76246  20933469.1334                   20933464.0084
        47.5004         36.7504
  -4390365.50448  -3386957.46548  20906832.5784                   20906830.0664
        48.0004         50.2504
  -4123190.20347  -3181057.13346  22791198.1884                   22791194.8874
        46.5004         41.5004
    264881.36747    233557.87946  20356708.2974                   20356704.9104
        46.7504         40.2504
   -238451.99246   -122666.44945  24397207.2504                   24397209.4384
        39.5004         31.7504
   7272351.05146   5727359.68444  24922696.8754                   24922701.3834
        39.0004         27.0004
   7584943.08247   5913467.33247  22126901.4774                   22126901.6484
        44.5004         42.2504
   7213737.41846   5628834.38346  23497942.9534                   23497942.5204
        41.2504         36.5004
 25  8  6  1 53  0.0000000  0  8G16G09G07G04G27G08G03G26
    580572.21947    498224.09846  20921068.7974                   20921063.9264
        47.2504         37.5004
  -4538176.02048  -3502134.46548  20878704.8204                   20878702.2114
        48.7504         50.2504
  -4268053.06247  -3293937.19947  22763631.9224                   22763628.3594
        46.2504         42.0004
    180453.98047    167770.30546  20340642.4924                   20340638.9454
        47.0004         39.7504
   -408781.52746   -255390.55945  24364795.1254                   24364796.6134
        40.7504         33.0004
   7092418.05146   5587152.45344  24888455.9224                   24888461.1134
        38.5004         28.5004
   7593727.40647   5920312.19947  22128573.4304                   22128573.2814
        45.0004         42.5004
   7218029.23847   5632178.59446  23498759.4384                   23498759.0514
        42.0004         36.5004
 25  8  6  1 53 30.0000000  0  8G16G09G07G04G27G08G03G26
    516035.04747    447935.39846  20908787.9064                   20908783.0434
        47.2504         36.7504
  -4685779.66448  -3617150.27348  20850616.7114                   20850614.3204
        48.0004         50.2504
  -4412755.37147  -3406692.17646  22736095.2274                   22736092.3444
        46.5004         41.7504
     96330.28547    102219.36746  20324634.4774                   20324630.8914
        46.5004         40.2504
   -578980.55946   -388012.98845  24332406.8204                   24332408.4024
        40.5004         33.5004
   6912357.22746   5446845.57044  24854190.5554                   24854196.0984
        37.2504         26.5004
   7602774.53547   5927361.86747  22130294.3674                   22130294.5164
        44.5004         42.0004
   7222581.89546   5635726.07046  23499626.3674                   23499625.6954
        41.0004         36.0004
 25  8  6  1 54  0.0000000  0  8G16G09G07G04G27G08G03G26
    452123.91447    398134.53146  20896625.9304                   20896621.2304
        47.5004         37.5004
  -4833173.52347  -3732002.60948  20822568.6884                   20822566.1684
        47.7504         50.2504
  -4557296.37547  -3519321.48847  22708590.7894                   22708587.4774
        45.7504         42.2504
     12512.38747     36906.71546  20308684.2664                   20308680.8164
        46.0004         40.2504
   -749044.57046   -520530.18745  24300043.9924                   24300046.4614
        39.5004         33.0004
   6732172.68045   5306442.32444  24819902.6954                   24819907.8134
        35.7504         25.5004
   7612082.98847   5934615.14147  22132066.0314                   22132066.4344
        43.7504         42.0004
   7227393.85546   5639475.59845  23500541.4064                   23500541.1454
        40.2504         34.2504
 25  8  6  1 54 30.0000000  0  8G16G09G07G04G27G08G03G26
    388837.61747    348820.53546  20884582.8594                   20884578.2034
        46.5004         37.5004
  -4980355.94547  -3846690.18048  20794561.0004                   20794558.3594
        46.2504         50.2504
  -4701676.15247  -3631825.12946  22681115.6954                   22681112.2664
        44.0004         41.7504
    -70998.88747    -28167.00446  20292792.6414                   20292789.2424
        46.2504         39.5004
   -918970.26246   -652939.61345  24267708.5084                   24267710.1374
        39.0004         32.0004
   6551867.00446   5165944.70743  24785592.2814                   24785596.2544
        36.5004         22.2504
   7621649.87147   5942069.78946  22133886.6564                   22133886.6604
        44.0004         41.5004
   7232462.27746   5643424.96145  23501506.0634                   23501505.5704
        40.7504         33.5004
 25  8  6  1 55  0.0000000  0  8G16G09G07G04G27G08G03G26
    326178.35947    299995.14846  20872659.3284                   20872654.3204
        47.2504         36.7504
  -5127322.01247  -3961209.16048  20766593.8204                   20766591.8164
        47.5004         50.5004
  -4845891.85947  -3744200.95747  22653672.9384                   22653669.1174
        46.5004         42.2504
   -154199.30547    -92998.49646  20276959.8834                   20276956.7584
        46.7504         40.0004
  -1088750.97746   -785236.07445  24235399.9614                   24235401.7344
        38.2504         31.2504
   6371446.43445   5025357.57043  24751259.5864                   24751262.8134
        35.0004         22.7504
   7631475.66847   5949726.19946  22135756.9454                   22135756.7304
        45.0004         41.7504
   7237787.64846   5647574.55945  23502519.3444                   23502519.1094
        40.7504         33.5004
 25  8  6  1 55 30.0000000  0  8G16G09G07G04G27G08G03G26
    264146.77047    251658.85546  20860855.0864                   20860849.9614
        46.2504         37.0004
  -5274067.85948  -4075556.53148  20738669.0944                   20738666.7544
        48.0004         50.2504
  -4989941.76647  -3856447.57846  22626260.7274                   22626256.4224
        46.7504         41.7504
   -237085.86347   -157585.42246  20261187.4454                   20261183.7074
        46.7504         40.0004
  -1258381.28946   -917415.31645  24203120.3054                   24203121.6884
        38.2504         30.7504
   6190915.87545   4884684.69543  24716904.7734                   24716908.6684
        35.7504         22.0004
   7641559.78147   5957583.88746  22137675.5704                   22137675.6214
        45.2504         41.5004
   7243369.33246   5651923.87545  23503581.3834                   23503581.2504
        40.2504         33.5004
 25  8  6  1 56  0.0000000  0  8G16G09G07G04G27G08G03G26
    202743.22347    203811.94146  20849170.0944                   20849165.2894
        47.5004         36.7504
  -5420590.39548  -4189729.89148  20710786.9454                   20710784.5984
        48.0004         50.5004
  -5133824.40247  -3968563.86747  22598880.7274                   22598877.4104
        47.2504         42.0004
   -319656.24647   -221925.97746  20245474.5004                   20245471.0824
        47.0004         40.0004
  -1427856.45346  -1049473.68045  24170870.2814                   24170871.4494
        38.5004         30.5004
   6010279.43845   4743929.31343  24682529.8364                   24682534.9884
        34.5004         22.0004
   7651900.80547   5965641.75846  22139643.6954                   22139643.1174
        44.5004         41.5004
   7249205.93046   5656471.82045  23504691.9224                   23504691.1564
        40.0004         32.7504
 25  8  6  1 56 30.0000000  0  8G16G09G07G04G27G08G03G26
    141968.32447    156454.87946  20837605.3134                   20837600.2894
        47.0004         36.2504
  -5566885.99648  -4303726.43448  20682947.8204                   20682945.3594
        48.7504         50.5004
  -5277538.79747  -4080549.05547  22571532.2814                   22571529.2114
        46.5004         42.2504
   -401907.69547   -286018.01246  20229822.9534                   20229819.2274
        47.0004         40.5004
  -1597171.20746  -1181407.09445  24138649.4144                   24138651.7544
        37.7504         31.0004
   5829541.89545   4603095.12143  24648137.1024                   24648142.2894
        34.2504         22.0004
   7662497.81347   5973899.10246  22141660.3134                   22141660.0904
        45.5004         41.7504
   7255296.58646   5661217.73445  23505851.3054                   23505850.8324
        40.5004         33.5004
 25  8  6  1 57  0.0000000  0  8G16G09G07G04G27G08G03G26
     81820.27047    109586.26646  20826159.5474                   20826154.1724
        46.5004         36.2504
  -5712953.19948  -4417544.98848  20655152.0554                   20655149.7234
        48.7504         50.5004
  -5421085.23447  -4192403.36747  22544216.7114                   22544213.0744
        47.0004         42.5004
   -483839.50447   -349860.97746  20214231.7274                   20214228.2704
        46.5004         40.0004
  -1766322.46546  -1313213.09445  24106462.2504                   24106463.1334
        39.5004         31.5004
   5648705.78145   4462184.18844  24613724.2344                   24613729.2234
        33.2504         24.2504
   7673347.73847   5982353.52346  22143725.0314                   22143724.2974
        44.5004         41.5004
   7261638.22746   5666159.22345  23507058.1644                   23507057.9454
        40.5004         32.2504
 25  8  6  1 57 30.0000000  0  8G16G09G07G04G27G08G03G26
     22297.53947     63204.91846  20814832.8914                   20814827.8014
        46.2504         37.2504
  -5858790.62548  -4531184.50848  20627400.1334                   20627397.5314
        48.5004         50.5004
  -5564464.03547  -4304127.06247  22516932.6254                   22516928.6844
        46.5004         42.5004
   -565451.17247   -413454.47746  20198701.5084                   20198698.1294
        46.7504         39.7504
  -1935307.21946  -1444889.33245  24074305.8594                   24074306.6684
        40.0004         31.7504
   5467773.71145   4321198.49644  24579294.6564                   24579299.0634
        34.2504         25.0004
   7684447.46947   5991002.59046  22145837.3284                   22145836.2814
        45.0004         41.2504
   7268227.84846   5671293.96145  23508311.9304                   23508312.0354
        39.7504         32.2504
 25  8  6  1 58  0.0000000  0  8G16G09G07G04G27G08G03G26
    -36597.14547     17312.96946  20803625.5314                   20803620.3754
        45.5004         36.7504
  -6004392.37548  -4644640.38348  20599692.7504                   20599689.8914
        48.2504         50.5004
  -5707671.50847  -4415717.25447  22489680.8754                   22489677.5704
        46.5004         42.2504
   -646737.60947   -476794.55146  20183233.0554                   20183229.5744
        46.7504         39.5004
  -2104117.87946  -1576429.93445  24042181.2584                   24042182.5984
        38.2504         32.7504
   5286752.69145   4180143.44944  24544846.8284                   24544851.2584
        34.0004         26.0004
   7695798.45347   5999847.43446  22147997.0704                   22147997.0594
        45.0004         41.5004
   7275066.80146   5676622.96945  23509613.9454                   23509613.3164
        40.2504         32.5004
 25  8  6  1 58 30.0000000  0  8G16G09G07G04G27G08G03G26
    -94869.10547    -28093.74246  20792536.7274                   20792531.3364
        46.5004         36.7504
  -6149760.47348  -4757914.18748  20572030.0234                   20572027.6134
        48.7504         50.5004
  -5850712.04347  -4527177.36347  22462461.1254                   22462457.4964
        46.5004         42.0004
   -727701.70347   -539883.45346  20167825.7664                   20167822.6054
        46.0004         40.0004
  -2272754.87746  -1707835.20145  24010090.5474                   24010091.9304
        39.0004         31.5004
   5105641.85545   4039018.41444  24510382.1724                   24510386.9654
        35.7504         26.7504
   7707394.02347   6008882.86746  22150204.2424                   22150203.6334
        44.7504         41.0004
   7282148.59446   5682141.22345  23510960.0704                   23510961.0394
        38.7504         32.0004
 25  8  6  1 59  0.0000000  0  8G16G09G07G04G27G08G03G26
   1422905.02047   1154587.40246  21081358.9304                   21081354.1724
        46.2504         36.5004
  -4719465.62948  -3643398.69948  20844206.2974                   20844204.1564
        48.0004         50.7504
  -4418157.95747  -3410901.42247  22735067.2344                   22735063.7624
        46.5004         42.0004
    767082.82047    624883.71146  20452274.1484                   20452270.6094
        46.7504         40.0004
   -865786.63746   -611496.12145  24277827.3524                   24277828.9534
        38.7504         31.0004
   6499872.72745   5125432.36344  24775695.7664                   24775700.4064
        35.5004         27.2504
   9294653.72747   7245708.53146  22452249.4064                   22452249.1414
        44.0004         41.2504
   8864892.85946   6915448.39845  23812147.0394                   23812147.4144
        39.0004         32.2504
 25  8  6  1 59 30.0000000  0  8G16G09G07G04G27G08G03G26
   1365880.60947   1110152.80546  21070508.1334                   21070502.8244
        46.7504         37.0004
  -4864355.12548  -3756299.57048  20816634.5634                   20816632.0664
        48.7504         50.7504
  -4560858.77047  -3522096.81646  22707911.8594                   22707908.3014
        46.0004         41.7504
    686772.13347    562303.95746  20436991.6254                   20436988.0944
        46.5004         40.2504
  -1034060.21946   -742618.22745  24245805.9304                   24245806.9574
        39.2504         32.5004
   6318596.79745   4984178.65644  24741199.2424                   24741204.3444
        35.5004         26.7504
   9306736.21147   7255123.35946  22454548.6094                   22454548.5274
        44.5004         41.5004
   8872458.07046   6921343.32445  23813586.3204                   23813587.2974
        38.2504         31.7504
 25  8  6  2  0  0.0000000  0  8G16G09G07G04G27G08G03G26
   1309479.50847   1066203.90246  21059775.4614                   21059770.3594
        47.0004         36.2504
  -5009000.84048  -3869010.48048  20789109.6564                   20789107.2114
        48.5004         51.0004
  -4703388.36747  -3633158.78547  22680789.5164                   22680785.8524
        46.5004         42.0004
    606791.30547    499981.23046  20421771.8364                   20421768.2774
        47.5004         39.7504
  -1202145.18746   -873593.35245  24213819.4774                   24213821.7274
        38.2504         31.7504
   6137244.64846   4842865.60544  24706690.0944                   24706694.5704
        36.0004         27.0004
   9319059.76647   7264726.04746  22456893.6024                   22456893.8714
        45.0004         40.7504
   8880262.76646   6927424.85245  23815071.5164                   23815071.9804
        38.0004         32.0004
 25  8  6  2  0 30.0000000  0  8G16G09G07G04G27G08G03G26
   1253699.65247   1022739.07846  21049161.0164                   21049155.4534
        47.2504         36.7504
  -5153401.58247  -3981530.52048  20761630.8914                   20761628.1174
        46.5004         51.0004
  -4845747.64547  -3744088.02746  22653699.3524                   22653695.8634
        44.2504         41.7504
    527140.64147    437915.77746  20406614.6254                   20406611.0164
        47.2504         39.5004
  -1370038.70746  -1004419.26645  24181870.4774                   24181872.5474
        38.2504         31.7504
   5955818.50045   4701494.84844  24672164.7344                   24672169.3284
        35.7504         27.0004
   9331621.05147   7274513.96946  22459283.6804                   22459284.1884
        45.0004         40.5004
   8888303.62546   6933690.39545  23816602.3834                   23816602.4774
        38.5004         32.7504
 25  8  6  2  1  0.0000000  0  8G16G09G07G04G27G08G03G26
   1198541.79347    979758.93446  21038664.9844                   21038659.3714
        47.0004         36.2504
  -5297553.51248  -4093856.67648  20734199.7734                   20734197.1564
        49.0004         51.0004
  -4987934.82447  -3854883.17246  22626642.0164                   22626638.4304
        44.7504         41.7504
    447823.10947    376109.90646  20391521.4304                   20391517.5704
        46.5004         39.5004
  -1537735.36346  -1135091.81645  24149959.1414                   24149960.7384
        37.7504         32.5004
   5774323.51646   4560070.47344  24637627.6334                   24637631.2194
        39.0004         29.5004
   9344419.29347   7284486.53146  22461720.4064                   22461719.8444
        44.7504         41.0004
   8896579.94946   6940139.43045  23818177.1884                   23818177.5474
        38.7504         33.5004
 25  8  6  2  1 30.0000000  0  8G16G09G07G04G27G08G03G26
   1144004.31347    937262.20346  21028286.2274                   21028280.7384
        47.7504         36.5004
  -5441454.81247  -4205987.53548  20706815.8984                   20706813.7424
        46.5004         50.7504
  -5129949.53147  -3965543.91447  22599617.2344                   22599614.0784
        44.2504         42.0004
    368839.65647    314564.35546  20376491.2114                   20376487.5204
        47.2504         39.7504
  -1705231.67646  -1265608.21945  24118085.8674                   24118086.7584
        38.7504         31.2504
   5592762.59046   4418594.66844  24603077.2424                   24603081.0164
        38.5004         28.5004
   9357451.80547   7294641.64846  22464199.9924                   22464199.3164
        44.2504         39.7504
   8905089.11746   6946769.89145  23819796.9694                   23819796.5984
        38.7504         34.5004
 25  8  6  2  2  0.0000000  0  8G16G09G07G04G27G08G03G26
   1090086.67247    895248.46546  21018026.1414                   21018020.7624
        46.0004         36.5004
  -5585102.66848  -4317920.90648  20679480.9774                   20679478.3594
        49.0004         51.0004
  -5271792.13347  -4076070.54747  22572625.3524                   22572622.1454
        45.2504         42.2504
    290192.12947    253280.55946  20361524.9534                   20361521.0164
        47.5004         39.5004
  -1872523.32846  -1395965.14145  24086251.2814                   24086252.0704
        38.7504         32.0004
   5411139.71546   4277070.61744  24568515.6644                   24568518.9964
        37.5004         27.2504
   9370716.76647   7304977.89546  22466724.4924                   22466723.6844
        44.2504         39.7504
   8913829.42646   6953580.47345  23821460.2814                   23821460.2074
        38.5004         34.7504
 25  8  6  2  2 30.0000000  0  8G16G09G07G04G27G08G03G26
   1036787.55547    853716.67646  21007883.5944                   21007878.0434
        47.5004         36.0004
  -5728494.83248  -4429655.03548  20652194.1884                   20652191.3284
        49.5004         51.0004
  -5413462.12547  -4186462.68047  22545666.6414                   22545662.9494
        46.0004         42.0004
    211881.87547    192259.57046  20346622.9454                   20346619.3754
        47.0004         40.0004
  -2039606.37946  -1526159.52745  24054455.3054                   24054456.4454
        39.2504         32.5004
   5229458.40246   4135501.00044  24533942.5554                   24533945.9224
        39.5004         29.5004
   9384211.85247   7315493.45746  22469291.4844                   22469292.1604
        44.5004         40.5004
   8922798.59446   6960569.37545  23823166.1254                   23823166.7504
        38.7504         33.7504
 25  8  6  2  3  0.0000000  0  8G16G09G07G04G27G08G03G26
    984107.73447    812667.45346  20997858.9614                   20997854.1094
        47.0004         36.0004
  -5871627.53148  -4541186.99248  20624957.1564                   20624954.2344
        49.2504         51.2504
  -5554957.71947  -4296718.91446  22518740.6884                   22518737.1684
        45.5004         41.7504
    133911.70747    131503.59046  20331786.0704                   20331782.5904
        47.0004         39.0004
  -2206475.55546  -1656187.27745  24022702.0084                   24022702.4184
        39.5004         32.7504
   5047723.38346   3993889.57045  24499359.3984                   24499363.1214
        38.7504         31.2504
   9397936.21147   7326187.67246  22471904.1804                   22471903.8874
        43.2504         40.0004
   8931995.92246   6967736.05945  23824916.7194                   23824916.8874
        38.2504         34.0004
 25  8  6  2  3 30.0000000  0  8G16G09G07G04G27G08G03G26
    932041.09447    772096.04746  20987951.2034                   20987946.3914
        47.5004         36.5004
  -6014503.09847  -4652518.58248  20597768.6024                   20597766.3244
        47.5004         51.2504
  -5696283.24247  -4406842.62146  22491847.3594                   22491843.6024
        44.5004         41.7504
     56278.43847     71010.12946  20317012.6644                   20317009.1724
        47.7504         40.0004
  -2373131.52046  -1786048.88745  23990988.1414                   23990988.6454
        40.5004         32.7504
   4865933.77046   3852235.58645  24464765.7424                   24464769.5824
        39.5004         31.0004
   9411882.96947   7337055.18446  22474558.4924                   22474558.0594
        44.0004         40.5004
   8941414.55546   6975075.18445  23826709.4384                   23826710.1914
        39.0004         33.5004
 25  8  6  2  4  0.0000000  0  8G16G09G07G04G27G08G03G26
    880588.66047    732003.23446  20978160.0784                   20978154.8524
        47.5004         36.2504
  -6157116.87548  -4763646.18048  20570630.3594                   20570627.6644
        48.7504         51.5004
  -5837436.21947  -4516831.87947  22464986.7424                   22464983.0474
        47.2504         42.5004
    -21014.27747     10782.03946  20302304.9384                   20302301.2384
        46.5004         39.5004
  -2539568.13746  -1915739.60545  23959316.5004                   23959316.4844
        41.5004         33.0004
   4684095.33646   3710543.57845  24430162.4614                   24430166.9924
        38.7504         31.7504
   9426052.10247   7348095.97346  22477254.5944                   22477254.3284
        43.5004         40.0004
   8951054.69146   6982586.91845  23828543.6644                   23828544.0434
        39.2504         33.2504
 25  8  6  2  4 30.0000000  0  8G16G09G07G04G27G08G03G26
    829750.04747    692388.71546  20968485.5784                   20968480.6054
        47.0004         36.5004
  -6299466.23448  -4874567.73048  20543541.9614                   20543539.4184
        49.2504         51.2504
  -5978415.93747  -4626686.11347  22438159.4694                   22438155.6524
        47.5004         43.0004
    -97964.77047    -49179.37946  20287661.3754                   20287657.4344
        47.5004         39.0004
  -2705781.11346  -2045256.06245  23927686.5634                   23927687.5274
        40.5004         33.5004
   4502211.86446   3568816.49445  24395551.1884                   24395555.4264
        39.2504         31.2504
   9440441.66847   7359308.53146  22479992.7814                   22479992.5984
        44.2504         39.5004
   8960914.46946   6990269.77745  23830420.2664                   23830420.8594
        40.0004         33.0004
 25  8  6  2  5  0.0000000  0  8G16G09G07G04G27G08G03G26
    779523.33247    653251.00046  20958927.8834                   20958922.8874
        46.2504         36.5004
  -6441549.44948  -4985281.91048  20516504.1954                   20516501.5634
        49.0004         51.5004
  -6119223.04348  -4736405.85547  22411364.3204                   22411360.6174
        48.0004         42.7504
   -174572.27747   -108873.54746  20273083.6724                   20273079.7274
        47.0004         39.2504
  -2871767.27046  -2174595.75845  23896100.2274                   23896101.3674
        39.7504         32.7504
   4320286.39146   3427056.64145  24360930.7344                   24360935.0354
        38.0004         31.0004
   9455048.75447   7370690.60246  22482772.4844                   22482772.4494
        44.0004         39.7504
   8970991.06646   6998121.61345  23832337.6414                   23832338.3324
        39.5004         33.7504
 25  8  6  2  5 30.0000000  0  8G16G09G07G04G27G08G03G26
    729908.90647    614590.39846  20949486.6414                   20949482.0234
        45.2504         36.2504
  -6583362.55548  -5095785.60948  20489518.5314                   20489515.5314
        48.5004         51.5004
  -6259855.68747  -4845989.64147  22384602.9304                   22384599.4064
        47.5004         42.7504
   -250833.80147   -168298.09846  20258571.0864                   20258567.3914
        47.7504         39.5004
  -3037520.91446  -2303754.29345  23864559.2344                   23864559.1334
        40.5004         33.5004
   4138324.03146   3285268.06345  24326304.9844                   24326308.3874
        37.0004         30.2504
   9469872.74647   7382241.66846  22485593.2814                   22485593.4224
        44.0004         40.0004
   8981284.02046   7006142.02045  23834296.5314                   23834296.8594
        40.7504         33.2504
 25  8  6  2  6  0.0000000  0  8G16G09G07G04G27G08G03G26
    680905.50847    576405.93046  20940161.7424                   20940156.9024
        46.2504         36.5004
  -6724903.18748  -5206076.99648  20462583.9694                   20462581.0394
        48.7504         51.5004
  -6400313.61747  -4955437.29347  22357874.3204                   22357871.1644
        46.2504         42.5004
   -326747.96147   -227451.98446  20244125.1804                   20244121.7114
        47.0004         39.5004
  -3203038.18046  -2432728.66445  23833061.4384                   23833062.1914
        41.0004         33.5004
   3956328.38346   3143453.55944  24291672.5234                   24291675.2854
        36.5004         27.5004
   9484911.30947   7393959.94946  22488454.9144                   22488454.8714
        44.2504         40.0004
   8991791.12546   7014329.32045  23836296.0634                   23836295.8984
        40.0004         33.5004
 25  8  6  2  6 30.0000000  0  8G16G09G07G04G27G08G03G26
    632510.84047    538695.79346  20930952.5704                   20930947.0274
        46.2504         36.0004
  -6866170.19148  -5316155.15248  20435701.6414                   20435699.1604
        48.2504         51.2504
  -6540597.37947  -5064749.22747  22331179.0554                   22331175.4224
        46.7504         42.5004
   -402314.55547   -286335.04746  20229745.5234                   20229741.9804
        47.7504         39.5004
  -3368316.39846  -2561516.74245  23801610.3524                   23801610.9494
        40.2504         34.2504
   3774301.78945   3001614.94944  24257032.9534                   24257036.4024
        34.7504         26.0004
   9500161.04347   7405842.76246  22491356.6804                   22491356.6684
        43.0004         39.2504
   9002509.14846   7022680.98445  23838335.7034                   23838335.9304
        40.5004         33.2504
 25  8  6  2  7  0.0000000  0  8G16G09G07G04G27G08G03G26
    584725.58647    501460.52746  20921858.9384                   20921854.0664
        46.0004         36.2504
  -7007159.18448  -5426016.68448  20408872.1724                   20408869.5124
        48.7504         51.2504
  -6680705.43747  -5173924.25447  22304517.7894                   22304514.0864
        47.0004         42.7504
   -477530.24247   -344944.67646  20215432.1564                   20215428.4694
        47.2504         39.2504
  -3533349.53146  -2690113.84445  23770206.1174                   23770206.0634
        40.2504         33.7504
   3592249.91845   2859756.66444  24222389.3594                   24222392.8754
        33.0004         24.5004
   9515621.65647   7417889.89546  22494298.8594                   22494300.0704
        43.0004         39.0004
   9013437.85246   7031196.80945  23840415.8054                   23840415.1524
        40.5004         32.5004
 25  8  6  2  7 30.0000000  0  8G16G09G07G04G27G08G03G26
    537546.68047    464697.74246  20912880.9774                   20912876.1604
        45.7504         36.0004
  -7147869.50848  -5535661.06648  20382096.0944                   20382093.3754
        49.0004         51.2504
  -6820639.06647  -5282963.35947  22277889.2974                   22277885.6914
        47.2504         43.2504
   -552395.35947   -403281.13746  20201185.5474                   20201182.4844
        47.2504         39.5004
  -3698135.40646  -2818518.28945  23738847.3204                   23738848.0124
        40.0004         33.0004
   3410174.62545   2717880.10244  24187742.3594                   24187745.2274
        35.0004         26.0004
   9531289.17247   7430098.25846  22497280.1414                   22497281.1884
        43.0004         39.2504
   9024573.50846   7039873.91845  23842534.8364                   23842534.5084
        40.5004         31.2504
 25  8  6  2  8  0.0000000  0  8G16G09G07G04G27G08G03G26
   2066394.96147   1656008.08646  21203811.3594                   21203806.5984
        45.5004         36.0004
  -5712873.48448  -4417482.32048  20655166.8674                   20655164.1884
        49.5004         51.5004
  -5384972.43747  -4164262.00447  22551087.6094                   22551083.8134
        47.5004         43.5004
    948514.52747    766259.04746  20486799.5704                   20486796.0204
        47.0004         39.0004
  -2287244.00846  -1719122.25445  24007330.9534                   24007331.4304
        39.5004         32.5004
   4803506.29746   3803593.37144  24452883.0004                   24452887.7344
        36.0004         27.5004
  11122581.38347   8670066.11346  22800094.1484                   22800093.3554
        43.7504         38.5004
  10611334.23446   8276310.79745  24144485.0944                   24144484.8674
        39.2504         30.5004
 25  8  6  2  8 30.0000000  0  8G16G09G07G04G27G08G03G26
   2020424.67247   1620187.07445  21195063.5084                   21195058.4924
        46.0004         35.7504
  -5853019.62948  -4526687.09448  20628497.8594                   20628495.0204
        49.7504         51.5004
  -5524556.40647  -4273028.65647  22524525.3984                   22524521.3984
        47.7504         43.2504
    874354.34847    708471.90246  20472687.2504                   20472684.0004
        47.2504         39.5004
  -2451523.86346  -1847132.39845  23976069.3364                   23976069.7304
        41.0004         34.2504
   4621394.84846   3661688.64144  24418228.5864                   24418232.5084
        37.0004         27.5004
  11138655.64847   8682591.41446  22803153.2664                   22803152.6454
        43.0004         38.5004
  10622877.18846   8285305.25445  24146681.1724                   24146681.5904
        37.2504         30.2504
 25  8  6  2  9  0.0000000  0  8G16G09G07G04G27G08G03G26
   1975054.19547   1584833.44946  21186429.7344                   21186425.0944
        46.7504         36.2504
  -5992882.51648  -4635671.14148  20601882.8984                   20601880.3444
        49.7504         51.5004
  -5663967.67647  -4381660.74247  22497996.1804                   22497992.4574
        47.2504         43.2504
    800546.21147    650959.07446  20458641.9844                   20458638.7464
        47.5004         39.0004
  -2615547.25046  -1974942.69945  23944856.5474                   23944857.5704
        40.2504         33.0004
   4439268.37946   3519772.16844  24383571.4144                   24383574.6524
        36.5004         27.5004
  11154927.41047   8695270.63346  22806249.0554                   22806248.6524
        43.5004         38.5004
  10634618.17246   8294454.00044  24148915.8984                   24148915.7274
        37.0004         29.7504
 25  8  6  2  9 30.0000000  0  8G16G09G07G04G27G08G03G26
   1930284.11747   1549947.67246  21177910.5634                   21177905.4884
        47.2504         36.5004
  -6132457.88348  -4744431.14548  20575322.1174                   20575319.7464
        50.0004         51.7504
  -5803204.26648  -4490156.71947  22471500.4454                   22471496.4614
        48.0004         43.2504
    727093.39147    593723.10946  20444664.2664                   20444660.9884
        47.5004         39.2504
  -2779308.34446  -2102548.59045  23913693.5704                   23913694.5514
        40.5004         34.7504
   4257132.41046   3377848.30944  24348912.3054                   24348914.3134
        37.7504         25.7504
  11171396.39847   8708103.49646  22809383.1174                   22809383.0514
        43.0004         38.0004
  10646556.99646   8303756.92644  24151186.8134                   24151187.7274
        37.5004         28.2504
 25  8  6  2 10  0.0000000  0  8G16G09G07G04G27G08G03G26
   1886112.14847   1515527.94146  21169504.6334                   21169499.8524
        47.7504         36.0004
  -6271744.45748  -4852966.11748  20548816.8204                   20548814.5594
        49.5004         51.7504
  -5942266.93447  -4598517.17247  22445037.5474                   22445033.6134
        47.5004         43.0004
    653996.06647    536764.16046  20430754.6884                   20430751.0554
        47.7504         39.7504
  -2942804.34046  -2229947.89545  23882582.3054                   23882582.7074
        41.2504         33.7504
   4074989.40246   3235918.89144  24314251.1564                   24314252.9774
        39.2504         27.5004
  11188059.12947   8721087.32046  22812554.2424                   22812554.0314
        43.7504         39.0004
  10658690.45746   8313211.51644  24153496.1414                   24153496.6334
        38.2504         29.0004
 25  8  6  2 10 30.0000000  0  8G16G09G07G04G27G08G03G26
   1842534.90647   1481571.64145  21161212.1484                   21161207.0124
        47.7504         35.5004
  -6410741.70348  -4961275.63748  20522366.9064                   20522364.4264
        49.7504         52.0004
  -6081157.11348  -4706743.23447  22418607.8444                   22418603.9454
        48.5004         44.2504
    581253.73847    480081.82046  20416912.1564                   20416908.5704
        47.5004         39.5004
  -3106033.23446  -2357139.08645  23851520.1484                   23851520.3634
        40.7504         34.0004
   3892841.29746   3093985.55944  24279589.3054                   24279591.9844
        39.0004         27.2504
  11204911.48847   8734218.93446  22815761.1024                   22815761.5984
        43.5004         39.0004
  10671014.63746   8322814.77044  24155841.7034                   24155841.6334
        39.0004         28.2504
 25  8  6  2 11  0.0000000  0  8G16G09G07G04G27G08G03G26
   1799552.02747   1448078.48445  21153032.8204                   21153028.0044
        47.7504         35.5004
  -6549445.94148  -5069356.83648  20495972.1174                   20495969.6524
        50.0004         52.0004
  -6219873.51248  -4814833.87947  22392210.9144                   22392206.4734
        48.7504         43.7504
    508869.03147    423678.14546  20403137.7734                   20403134.1054
        47.7504         39.0004
  -3268989.74646  -2484118.03945  23820509.9454                   23820510.4734
        40.5004         34.2504
   3710692.96946   2952052.05145  24244926.2194                   24244929.7274
        38.7504         30.5004
  11221952.57847   8747497.59446  22819004.2344                   22819003.8134
        43.7504         39.0004
  10683528.74246   8332565.99244  24158223.5474                   24158223.4224
        39.0004         28.0004
 25  8  6  2 11 30.0000000  0  8G16G09G07G04G27G08G03G26
   1757160.71147   1415046.28145  21144966.1484                   21144960.8594
        47.5004         35.0004
  -6687856.16048  -5177208.93448  20469633.5784                   20469630.6604
        50.0004         52.0004
  -6358417.26648  -4922790.00847  22365846.8984                   22365843.0274
        48.2504         43.5004
    436841.81348    367553.04346  20389431.3984                   20389428.1724
        48.0004         39.5004
  -3431671.40646  -2610882.83645  23789552.3204                   23789553.4574
        39.7504         34.7504
   3528546.75046   2810120.22345  24210266.2584                   24210268.3364
        39.7504         30.7504
  11239178.67647   8760920.40246  22822281.8284                   22822282.8554
        42.5004         38.5004
  10696229.29746   8342462.49644  24160640.2894                   24160640.1484
        38.5004         28.7504
 25  8  6  2 12  0.0000000  0  8G16G09G07G04G27G08G03G26
   1715361.26247   1382475.27745  21137012.1254                   21137006.9804
        46.7504         35.5004
  -6825968.41048  -5284828.83248  20443351.6254                   20443349.1054
        50.5004         51.7504
  -6496786.63347  -5030610.24247  22339515.8674                   22339511.6094
        47.7504         42.7504
    365175.03947    311708.80546  20375793.8914                   20375790.2384
        47.7504         39.7504
  -3594072.84446  -2737429.25845  23758648.8364                   23758649.3014
        40.5004         34.7504
   3346407.82046   2668194.07045  24175605.6954                   24175609.2424
        39.0004         31.2504
  11256589.12547   8774486.88746  22825594.8054                   22825595.6374
        42.5004         38.5004
  10709115.84046   8352503.93045  24163092.6884                   24163092.7504
        38.2504         30.5004
 25  8  6  2 12 30.0000000  0  8G16G09G07G04G27G08G03G26
   1674151.27047   1350363.59845  21129170.1024                   21129164.7034
        47.0004         34.7504
  -6963781.25448  -5392215.44548  20417126.8834                   20417124.0004
        49.5004         52.0004
  -6634982.34047  -5138295.16847  22313218.0394                   22313213.9224
        47.7504         43.0004
    293869.03147    256145.67246  20362224.7424                   20362221.3714
        47.5004         39.5004
  -3756190.91446  -2863754.87945  23727798.1884                   23727799.2774
        39.2504         34.7504
   3164279.08246   2526275.80945  24140947.5234                   24140950.0824
        38.7504         30.2504
  11274180.65246   8788194.46146  22828943.0394                   22828943.3834
        41.2504         38.5004
  10722185.30546   8362687.87945  24165579.1484                   24165580.0554
        37.5004         30.2504
 25  8  6  2 13  0.0000000  0  8G16G09G07G04G27G08G03G26
   1633531.28547   1318711.64545  21121440.1414                   21121435.2734
        47.5004         35.5004
  -7101290.24248  -5499365.27748  20390959.4614                   20390957.0004
        50.2504         51.7504
  -6773002.27747  -5245843.13747  22286953.8444                   22286949.6054
        47.7504         43.0004
    222927.09447    200866.23846  20348724.8834                   20348721.5354
        47.0004         39.5004
  -3918019.84846  -2989855.21145  23697003.6334                   23697003.9024
        40.2504         34.7504
   2982166.10546   2384369.87145  24106293.5394                   24106294.6374
        40.5004         30.7504
  11291953.12547   8802043.02046  22832324.7344                   22832325.2814
        42.2504         38.0004
  10735437.71546   8373014.37145  24168101.2664                   24168102.2074
        39.0004         31.5004
 25  8  6  2 13 30.0000000  0  8G16G09G07G04G27G08G03G26
   1593498.90647   1287517.58246  21113822.2344                   21113817.2194
        47.0004         36.0004
  -7238493.78548  -5606277.09848  20364850.7274                   20364848.1454
        50.2504         52.0004
  -6910846.90648  -5353254.50047  22260722.8204                   22260718.4964
        48.5004         43.2504
    152349.71147    145870.87146  20335294.3834                   20335290.7774
        47.7504         39.7504
  -4079556.44946  -3115727.75445  23666264.0864                   23666264.7544
        39.7504         35.0004
   2800071.86346   2242478.48045  24071641.2894                   24071643.1414
        40.0004         32.0004
  11309903.38747   8816030.11346  22835741.4534                   22835741.8204
        42.5004         39.2504
  10748870.20746   8383481.19545  24170658.2034                   24170657.9694
        39.5004         32.0004
 25  8  6  2 14  0.0000000  0  8G16G09G07G04G27G08G03G26
   1554049.27347   1256777.61346  21106315.4224                   21106310.7504
        47.5004         36.0004
  -7375392.75448  -5712951.59048  20338799.5784                   20338796.7894
        50.0004         52.0004
  -7048519.15247  -5460531.53547  22234524.8364                   22234520.4494
        47.7504         43.5004
     82134.91447     91158.04346  20321933.1804                   20321929.4064
        47.5004         38.5004
  -4240800.14546  -3241372.06245  23635580.4694                   23635580.5084
        40.5004         34.5004
   2617996.89546   2100602.12145  24036993.6174                   24036995.3634
        40.7504         32.5004
  11328025.89546   8830151.42246  22839189.3674                   22839189.9884
        41.7504         37.7504
  10762477.47346   8394084.21145  24173247.2734                   24173247.3714
        39.5004         33.0004
 25  8  6  2 14 30.0000000  0  8G16G09G07G04G27G08G03G26
   1515181.83247   1226491.29745  21098919.3364                   21098913.9414
        46.7504         35.5004
  -7511983.87948  -5819386.20748  20312807.0474                   20312804.6524
        49.2504         52.0004
  -7186017.81648  -5567673.31647  22208359.5084                   22208355.3984
        48.0004         43.5004
     12284.87147     36729.42646  20308640.7974                   20308637.5514
        47.5004         39.0004
  -4401746.13346  -3366784.40245  23604953.0084                   23604953.1644
        39.0004         35.2504
   2435945.69146   1958744.27045  24002349.0164                   24002352.0004
        38.2504         31.7504
  11346319.31646   8844405.92246  22842670.3674                   22842671.5664
        41.2504         36.7504
  10776258.39146   8404822.54745  24175868.6724                   24175869.8204
        40.5004         33.2504
 25  8  6  2 15  0.0000000  0  8G16G09G07G04G27G08G03G26
   1476894.83647   1196657.26645  21091633.6414                   21091628.7304
        47.0004         35.5004
  -7648264.68748  -5925579.01248  20286873.8594                   20286870.9694
        50.0004         52.0004
  -7323342.90248  -5674679.83647  22182227.4694                   22182223.2194
        48.0004         44.0004
    -57199.16447    -17413.97746  20295418.7734                   20295415.0434
        46.5004         39.0004
  -4562390.52046  -3491961.71545  23574383.6414                   23574384.0274
        40.2504         35.2504
   2253922.04746   1816907.92645  23967710.9384                   23967713.5434
        39.5004         32.5004
  11364781.37146   8858791.83646  22846184.0084                   22846184.4574
        41.5004         37.2504
  10790210.89546   8415694.58645  24178525.0164                   24178524.7344
        40.5004         34.0004
 25  8  6  2 15 30.0000000  0  8G16G09G07G04G27G08G03G26
   1439187.29347   1167274.76645  21084457.3444                   21084453.4454
        47.2504         35.5004
  -7784232.15248  -6031527.66448  20260999.9844                   20260997.1414
        50.0004         52.0004
  -7460493.67648  -5781550.53947  22156128.2424                   22156124.1214
        48.0004         44.5004
   -126315.21147    -71270.64846  20282266.4844                   20282262.8594
        47.2504         39.2504
  -4722728.73446  -3616900.46146  23543871.5234                   23543872.5474
        40.0004         36.0004
   2071930.48446   1675096.55945  23933080.0394                   23933081.5744
        39.5004         32.5004
  11383410.51646   8873307.94146  22849729.0394                   22849729.8164
        41.2504         37.2504
  10804333.66446   8426699.29345  24181211.3364                   24181212.3634
        41.0004         32.5004
 25  8  6  2 16  0.0000000  0  8G16G09G07G04G27G08G03G26
   1402056.26247   1138341.49645  21077392.1094                   21077387.1024
        46.2504         35.7504
  -7919885.48048  -6137231.52748  20235185.8674                   20235183.1214
        50.0004         52.0004
  -7597471.14148  -5888286.18047  22130062.6804                   22130058.3094
        48.5004         44.5004
   -195063.70747   -124840.92246  20269184.1094                   20269180.0314
        47.0004         39.0004
  -4882758.56646  -3741598.91846  23513418.9384                   23513419.2704
        39.7504         36.0004
   1889972.96546   1533311.71545  23898454.3364                   23898456.4144
        39.7504         32.5004
  11402202.82446   8887951.17646  22853305.1804                   22853306.2234
        40.7504         37.5004
  10818623.02746   8437833.82045  24183931.3524                   24183931.6334
        41.0004         33.2504
 25  8  6  2 16 30.0000000  0  9G16G09G07G04G27G08G03G21G26
   2940918.21547   2337454.70345  21370227.9694                   21370222.8794
        46.5004         35.7504
  -6479800.64548  -5015087.47748  20509225.0314                   20509222.4264
        49.5004         52.0004
  -6158853.68748  -4767285.52347  22403822.3284                   22403818.2544
        48.5004         44.0004
   1311976.02747   1049475.74646  20555963.9924                   20555960.5824
        47.0004         39.2504
  -3467053.72746  -2638452.15646  23782819.2584                   23782818.6254
        41.2504         36.0004
   3283476.50846   2619158.82845  24163629.1024                   24163630.7194
        40.0004         32.7504
  12996572.51246  10130317.06346  23156704.1414                   23156704.4844
        41.0004         37.2504
  12238605.87556   9596401.65253  25299070.0004                   25299067.1414
        36.2504         19.2504
  12408493.64146   9676694.00045  24486474.0704                   24486474.1994
        40.2504         32.0004
 25  8  6  2 17  0.0000000  0  9G16G09G07G04G27G08G03G21G26
   2904926.42647   2309409.16046  21363379.0784                   21363373.7814
        46.5004         36.0004
  -6614826.86348  -5120302.68748  20483530.3984                   20483527.5864
        50.0004         52.0004
  -6295492.70748  -4873757.44947  22377820.5554                   22377816.3754
        48.0004         43.7504
   1243958.04347    996474.70746  20543020.7034                   20543016.6374
        46.7504         38.5004
  -3626463.59046  -2762667.52046  23752484.4924                   23752483.9694
        40.7504         36.7504
   3101590.16046   2477429.43445  24129017.0474                   24129019.1954
        38.5004         31.2504
  13015676.02346  10145202.81646  23160339.1334                   23160339.7894
        41.5004         37.5004
  12050252.57446   9449632.93043  25263227.9144                   25263225.4614
        36.0004         18.5004
  12423101.92646   9688077.03945  24489253.4774                   24489253.9414
        40.0004         31.0004
 25  8  6  2 17 30.0000000  0  9G16G09G07G04G27G08G03G21G26
   2869497.68047   2281802.34846  21356637.1334                   21356631.9774
        46.2504         36.0004
  -6749540.14147  -5225274.05148  20457895.2734                   20457892.5784
        47.5004         52.0004
  -6431966.16047  -4980100.35247  22351850.3284                   22351846.5204
        45.0004         43.7504
   1176302.97147    943756.45746  20530146.0784                   20530142.6214
        46.0004         38.7504
  -3785561.89846  -2886640.11746  23722208.9454                   23722208.7464
        41.0004         37.0004
   2919740.73446   2335728.80945  24094411.5704                   24094414.0204
        36.5004         30.5004
  13034927.44146  10160203.81346  23164002.4304                   23164003.6414
        41.7504         37.0004
  11862122.59846   9303038.17643  25227426.7194                   25227424.5514
        36.0004         18.2504
  12437862.35946   9699578.61745  24492062.3284                   24492062.9574
        39.2504         31.2504
 25  8  6  2 18  0.0000000  0  9G16G09G07G04G27G08G03G21G26
   2834630.35247   2254633.00045  21350001.8914                   21349997.0084
        46.0004         35.2504
  -6883938.02048  -5329999.65248  20432320.3754                   20432317.2114
        50.0004         52.2504
  -6568274.08247  -5086314.27347  22325911.9304                   22325907.7814
        47.7504         44.0004
   1109011.98047    891321.90646  20517341.2114                   20517337.6884
        46.7504         38.5004
  -3944344.73846  -3010366.88346  23691993.0784                   23691992.9454
        41.5004         36.7504
   2737932.21146   2194060.03145  24059814.0164                   24059816.9534
        37.2504         31.5004
  13054324.66446  10175318.42246  23167693.5394                   23167694.4454
        41.5004         36.5004
  11674219.37946   9156620.14143  25191670.6174                   25191667.8914
        36.0004         19.0004
  12452773.09046   9711197.31645  24494900.1174                   24494901.0044
        38.0004         30.0004
 25  8  6  2 18 30.0000000  0  9G16G09G07G04G27G08G03G21G26
   2800324.37147   2227901.06645  21343473.7504                   21343468.4494
        46.2504         35.5004
  -7018016.44948  -5434476.33648  20406805.9454                   20406802.7934
        49.7504         52.2504
  -6704414.42248  -5192397.60547  22300005.5004                   22300001.1994
        48.2504         44.0004
   1042088.03547    839173.36346  20504605.9224                   20504602.4264
        46.5004         38.7504
  -4102806.63746  -3133843.57046  23661839.1414                   23661839.1414
        41.0004         37.0004
   2556169.84046   2052427.23845  24025226.4224                   24025228.0434
        38.7504         31.5004
  13073867.03546  10190546.14846  23171412.9774                   23171413.3914
        41.5004         36.7504
  11486547.86345   9010382.55943  25155958.4304                   25155955.5864
        35.2504         19.2504
  12467833.78146   9722932.88744  24497765.2114                   24497766.3094
        37.5004         29.0004
 25  8  6  2 19  0.0000000  0  9G16G09G07G04G27G08G03G21G26
   2766579.44947   2201606.32045  21337052.1804                   21337047.5514
        46.0004         35.0004
  -7151771.34847  -5538700.91848  20381353.2814                   20381350.5864
        47.2504         52.2504
  -6840385.48447  -5298349.03147  22274131.0004                   22274126.6954
        45.0004         43.7504
    975533.98447    787313.05146  20491940.9844                   20491937.3324
        46.7504         39.2504
  -4260942.01646  -3257065.82446  23631746.2584                   23631746.4614
        41.5004         36.0004
   2374459.30546   1910834.80345  23990646.9384                   23990649.8594
        38.2504         31.5004
  13093553.99646  10205886.53146  23175159.1884                   23175159.7624
        41.2504         37.2504
  11299112.90246   8864329.36343  25120290.3674                   25120288.1994
        36.7504         19.0004
  12483044.12546   9734785.04744  24500660.1564                   24500660.8984
        38.2504         27.5004
 25  8  6  2 19 30.0000000  0  9G16G09G07G04G27G08G03G21G26
   2733394.04347   2175747.55945  21330737.3674                   21330732.2974
        47.0004         35.2504
  -7285200.25448  -5642671.48048  20355962.6954                   20355959.7344
        48.2504         52.2504
  -6976187.06647  -5404168.39147  22248288.2344                   22248284.7154
        46.0004         43.7504
    909351.08247    735741.94146  20479347.0234                   20479343.3554
        47.0004         38.2504
  -4418747.09446  -3380030.72745  23601717.1724                   23601716.9574
        40.2504         35.7504
   2192804.41846   1769285.74245  23956080.0164                   23956081.3984
        38.5004         30.2504
  13113383.30146  10221337.83646  23178932.5944                   23178933.4344
        41.0004         36.7504
  11111917.65246   8718462.94543  25084667.5864                   25084666.2664
        37.2504         19.2504
  12498402.13346   9746752.28544  24503582.1564                   24503582.9614
        36.5004         28.7504
 25  8  6  2 20  0.0000000  0  9G16G09G07G04G27G08G03G21G26
   2700773.93847   2150329.28145  21324529.5864                   21324525.2894
        46.2504         35.5004
  -7418293.12548  -5746380.18748  20330635.6954                   20330632.5594
        48.2504         52.5004
  -7111810.99247  -5509849.32847  22222480.1884                   22222475.7304
        46.0004         43.7504
    843548.12147    684466.90246  20466825.5784                   20466821.6724
        46.7504         38.7504
  -4576210.36746  -3502729.25846  23571752.8674                   23571752.5594
        41.5004         36.2504
   2011216.50846   1627788.85545  23921524.4844                   23921526.0594
        38.5004         30.5004
  13133360.34846  10236904.25446  23182734.5634                   23182735.1454
        41.2504         36.7504
  10924973.07046   8572791.82443  25049093.4844                   25049091.4844
        37.5004         20.0004
  12513913.58246   9758839.06344  24506534.4144                   24506535.1484
        37.0004         26.7504
 25  8  6  2 20 30.0000000  0  9G16G09G07G04G27G08G03G21G26
   2668716.46147   2125349.41445  21318429.6094                   21318424.7154
        46.2504         35.7504
  -7551048.63748  -5849826.02748  20305373.1094                   20305370.2934
        49.7504         52.0004
  -7247258.14547  -5615392.51647  22196705.2734                   22196700.8484
        47.7504         44.0004
    778125.19547    633487.99646  20454375.5234                   20454372.0784
        45.7504         39.0004
  -4733329.08646  -3625159.32445  23541853.8984                   23541853.4694
        41.5004         35.7504
   1829698.40346   1486346.37845  23886982.8364                   23886983.7814
        38.2504         30.5004
  13153481.78546  10252583.19146  23186563.1414                   23186564.3054
        40.5004         36.7504
  10738281.32846   8427317.72743  25013567.6644                   25013565.3364
        37.0004         19.5004
  12529575.36346   9771042.99244  24509515.5704                   24509515.4534
        36.7504         28.2504
 25  8  6  2 21  0.0000000  0  9G16G09G07G04G27G08G03G21G26
   2637218.90647   2100805.85945  21312435.8674                   21312431.2734
        46.0004         35.0004
  -7683465.10248  -5953007.66848  20280174.9924                   20280172.2384
        49.5004         52.2504
  -7382529.36748  -5720798.62147  22170963.7194                   22170959.3794
        48.0004         43.7504
    713082.80947    582805.60946  20441998.6484                   20441994.9344
        47.0004         39.2504
  -4890100.15246  -3747318.49245  23512020.9694                   23512020.8984
        41.0004         35.5004
   1648253.02346   1344960.54745  23852455.1094                   23852455.9804
        39.0004         30.5004
  13173744.72346  10268372.37946  23190418.9224                   23190419.7664
        40.5004         36.5004
  10551844.93846   8282042.64543  24978089.7894                   24978087.2384
        37.0004         19.5004
  12545384.88746   9783362.05944  24512522.9454                   24512523.5904
        37.5004         26.5004
 25  8  6  2 21 30.0000000  0  9G16G09G07G04G27G08G03G21G26
   2606276.78147   2076695.10945  21306547.5164                   21306542.6254
        45.5004         34.5004
  -7815542.86348  -6055925.39548  20255041.4844                   20255038.6844
        50.0004         52.2504
  -7517627.08648  -5826069.52047  22145255.7814                   22145251.4964
        48.2504         43.2504
    648419.34047    532418.48846  20429693.7814                   20429689.6994
        45.7504         39.5004
  -5046522.53946  -3869205.95345  23482255.0164                   23482255.1684
        41.5004         35.2504
   1466881.66446   1203632.39545  23817940.7814                   23817942.0514
        39.2504         31.5004
  13194144.02746  10284267.83646  23194300.7274                   23194302.2704
        40.7504         36.2504
  10365664.45346   8136966.98443  24942660.8054                   24942658.0904
        37.0004         19.5004
  12561337.32846   9795792.50444  24515559.1024                   24515559.5274
        37.0004         27.5004
 25  8  6  2 22  0.0000000  0  9G16G09G07G04G27G08G03G21G26
   2575886.77347   2053014.57445  21300764.7974                   21300759.3594
        45.5004         34.7504
  -7947281.07848  -6158578.53548  20229972.7894                   20229969.6564
        49.5004         52.2504
  -7652552.55548  -5931206.19947  22119580.0084                   22119575.8794
        48.2504         43.7504
    584134.41447    482326.33646  20417460.5004                   20417456.8364
        46.7504         39.2504
  -5202593.98846  -3990819.96146  23452555.4844                   23452555.3244
        41.0004         36.0004
   1285586.55046   1062363.65245  23783441.6094                   23783442.5944
        38.5004         30.2504
  13214675.99646  10300266.66846  23198208.5554                   23198209.6054
        40.7504         37.0004
  10179741.50846   7992091.99243  24907280.8834                   24907278.7544
        36.2504         20.2504
  12577429.38746   9808331.71544  24518622.0394                   24518621.4614
        37.7504         28.0004
 25  8  6  2 22 30.0000000  0  9G16G09G07G04G27G08G03G21G26
   2546046.81347   2029762.64545  21295086.2734                   21295081.7074
        46.2504         34.2504
  -8078677.58648  -6260965.40248  20204968.6484                   20204966.0204
        49.7504         52.2504
  -7787305.80548  -6036208.68447  22093937.6024                   22093933.1024
        48.0004         44.0004
    520228.93047    432529.85946  20405299.6804                   20405296.1054
        47.0004         38.7504
  -5358310.94546  -4112157.76245  23422923.8054                   23422923.0744
        41.2504         35.7504
   1104371.18046    921157.04745  23748956.9144                   23748958.3444
        39.0004         31.7504
  13235338.13746  10316366.91845  23202140.0704                   23202140.7704
        40.2504         35.5004
   9994079.13346   7847420.03943  24871950.7034                   24871948.2544
        36.5004         20.5004
  12593658.82846   9820978.00444  24521709.3754                   24521710.5554
        38.0004         28.0004
 25  8  6  2 23  0.0000000  0  9G16G09G07G04G27G08G03G21G26
   2516755.41447   2006938.16445  21289512.7424                   21289507.3324
        46.2504         34.5004
  -8209729.44548  -6363083.72348  20180030.3834                   20180027.6254
        50.0004         52.2504
  -7921886.19148  -6141076.46547  22068327.7424                   22068323.3874
        48.7504         44.2504
    456704.48847    383030.30146  20393211.6094                   20393208.1604
        45.7504         39.0004
  -5513669.11746  -4233215.99245  23393359.1724                   23393359.5434
        40.0004         34.7504
    923239.99646    780016.03945  23714488.8364                   23714490.0594
        39.2504         31.7504
  13256128.68446  10332567.25046  23206096.7814                   23206097.8594
        41.5004         36.0004
   9808680.94946   7702953.92643  24836669.7974                   24836667.9884
        36.0004         19.2504
  12610024.21146   9833730.21944  24524824.2734                   24524824.3754
        37.0004         27.0004
 25  8  6  2 23 30.0000000  0  9G16G09G07G04G27G08G03G21G26
   2488008.60247   1984538.03945  21284042.2034                   21284036.7854
        46.5004         34.5004
  -8340436.41448  -6464933.29348  20155157.2894                   20155154.2664
        49.7504         52.2504
  -8056295.56248  -6245810.99247  22042750.4144                   22042746.0474
        48.5004         44.2504
    393560.13347    333826.91446  20381195.3834                   20381192.0704
        46.2504         39.0004
  -5668666.88346  -4353993.38746  23363864.4534                   23363863.8554
        40.5004         36.0004
    742194.67346    638941.95645  23680036.7734                   23680037.7774
        38.7504         32.5004
  13277043.32446  10348864.25845  23210076.9614                   23210077.5744
        40.7504         35.7504
   9623548.09845   7558694.64543  24801440.1564                   24801438.3284
        35.5004         19.5004
  12626521.46146   9846585.18444  24527963.6644                   24527963.8014
        36.7504         28.0004
 25  8  6  2 24  0.0000000  0  9G16G09G07G04G27G08G03G21G26
   2459803.59447   1962560.10945  21278674.7504                   21278669.5744
        46.7504         34.2504
  -8470797.01648  -6566512.96148  20130350.7814                   20130348.1994
        50.2504         52.2504
  -8190534.80948  -6350412.95347  22017205.5864                   22017201.3094
        48.2504         44.5004
    330796.05147    284919.82846  20369251.7584                   20369248.3324
        47.0004         39.2504
  -5823301.41046  -4474487.73445  23334438.2814                   23334438.1844
        40.5004         35.5004
    561238.25046    497937.10245  23645601.6954                   23645603.2774
        38.2504         32.5004
  13298078.78546  10365255.39845  23214079.6414                   23214080.9884
        40.5004         35.5004
   9438682.95345   7414643.91843  24766262.2734                   24766259.2624
        34.2504         19.7504
  12643147.79746   9859540.72344  24531127.3054                   24531126.9694
        38.5004         26.7504
 25  8  6  2 24 30.0000000  0  9G16G09G07G04G27G08G03G21G26
   2432139.09847   1941003.34845  21273410.4614                   21273405.2774
        46.7504         34.7504
  -8600808.17248  -6667820.34448  20105610.3284                   20105607.5824
        49.7504         52.2504
  -8324602.79348  -6454881.44947  21991693.2194                   21991689.1294
        48.0004         44.2504
    268413.98447    236310.42646  20357381.2814                   20357377.4064
        47.5004         39.5004
  -5977568.20746  -4594695.53545  23305082.1724                   23305082.3014
        40.5004         35.2504
    380375.09446    357004.98445  23611184.9844                   23611185.9024
        38.2504         32.0004
  13319233.60946  10381739.53546  23218106.1484                   23218106.5554
        41.7504         36.2504
   9254089.45745   7270804.88743  24731135.0004                   24731132.4454
        35.5004         19.5004
  12659902.07046   9872595.96944  24534316.2194                   24534315.5984
        38.5004         28.0004
 25  8  6  2 25  0.0000000  0  9G16G09G07G04G27G08G03G21G26
   3980433.35947   3147466.39545  21568041.2894                   21568036.2704
        46.7504         35.2504
  -7155044.05548  -5541250.88748  20380729.9844                   20380727.3284
        49.5004         52.2504
  -6883075.93048  -5331613.70747  22266006.6334                   22266002.3674
        48.2504         44.0004
   1781836.27047   1415600.52046  20645375.5004                   20645371.8634
        46.5004         38.7504
  -4556039.32446  -3487010.59045  23575590.5634                   23575589.6214
        39.7504         35.7504
   1775034.34646   1443752.61345  23876579.3364                   23876580.6724
        39.0004         31.7504
  14915923.89146  11625913.63745  23521944.9534                   23521946.8524
        40.0004         34.2504
  10645195.95745   8354784.03943  24995853.1804                   24995851.5044
        34.7504         20.2504
  14252200.82846  11113348.22744  24837320.0634                   24837320.1724
        38.2504         27.5004
 25  8  6  2 25 30.0000000  0  9G16G09G07G04G27G08G03G21G26
   3953842.01247   3126745.85545  21562980.7734                   21562975.8444
        46.5004         34.7504
  -7284351.47748  -5642009.90648  20356123.8674                   20356120.7814
        49.7504         52.2504
  -7016803.42248  -5435816.89847  22240559.1414                   22240554.6374
        48.5004         43.7504
   1720219.25847   1367587.25846  20633650.3364                   20633646.7234
        47.0004         39.0004
  -4709561.87146  -3606638.46945  23546376.2034                   23546375.2304
        40.2504         35.0004
   1594367.08246   1302973.05545  23842199.0784                   23842200.0944
        38.7504         31.0004
  14937308.32046  11642576.69545  23526015.2344                   23526016.3244
        41.7504         35.5004
  10461152.88745   8211373.93843  24960831.7344                   24960829.4224
        34.2504         19.5004
  14269202.82846  11126596.50844  24840555.3284                   24840555.6524
        38.7504         28.0004
 25  8  6  2 26  0.0000000  0  9G16G09G07G04G27G08G03G21G26
   3927782.60247   3106439.80145  21558021.9924                   21558016.4774
        47.2504         34.5004
  -7413304.95748  -5742493.12948  20331584.7734                   20331581.2934
        49.5004         52.2504
  -7150361.84048  -5539888.35247  22215143.3444                   22215138.9454
        48.7504         43.7504
   1658984.88347   1319872.16446  20621997.6724                   20621994.4184
        47.0004         38.5004
  -4862708.16846  -3725973.16446  23517233.1884                   23517232.6764
        40.2504         36.7504
   1413802.11746   1162273.22745  23807838.8914                   23807840.0904
        40.0004         31.5004
  14958802.57446  11659325.33246  23530105.4454                   23530106.8134
        41.7504         36.0004
  10277388.42645   8068180.91043  24925861.9924                   24925860.0474
        34.2504         19.0004
  14286324.35546  11139937.93844  24843813.7664                   24843813.6724
        39.0004         28.5004
 25  8  6  2 26 30.0000000  0  9G16G09G07G04G27G08G03G21G26
   3902252.83647   3086546.46545  21553163.9614                   21553158.6414
        47.2504         33.7504
  -7541902.74248  -5842699.17648  20307113.4144                   20307110.6054
        50.2504         52.2504
  -7283751.61348  -5643828.38747  22189760.4694                   22189755.7544
        48.7504         44.0004
   1598133.55547   1272455.53946  20610417.8754                   20610414.6254
        46.2504         38.2504
  -5015475.16846  -3845012.30146  23488162.6724                   23488161.7424
        40.5004         36.0004
   1233342.67646   1021655.63345  23773497.8524                   23773499.5434
        38.5004         32.2504
  14980404.00046  11676157.45746  23534215.4534                   23534217.6024
        40.7504         36.2504
  10093905.15245   7925206.97343  24890945.6414                   24890943.6254
        34.7504         19.0004
  14303562.94946  11153370.57444  24847093.7034                   24847094.8794
        38.5004         29.7504
 25  8  6  2 27  0.0000000  0  9G16G09G07G04G27G08G03G21G26
   3877253.93047   3067066.79345  21548407.0084                   21548401.5554
        47.0004         34.2504
  -7670139.10248  -5942623.60248  20282710.9224                   20282708.2384
        49.0004         52.5004
  -7416969.02348  -5747634.10247  22164409.7194                   22164405.3404
        48.7504         44.2504
   1537669.73447   1225340.87146  20598911.9844                   20598908.8404
        47.0004         38.5004
  -5167855.80146  -3963750.36746  23459164.5944                   23459165.1884
        40.2504         36.0004
   1052995.93446    881125.84045  23739179.7194                   23739180.4104
        40.5004         32.5004
  15002113.60246  11693073.84845  23538347.1094                   23538348.4144
        41.5004         34.7504
   9910709.60545   7782457.26243  24856085.8134                   24856083.4654
        35.0004         19.2504
  14320920.10246  11166895.58645  24850397.2034                   24850397.7734
        39.7504         31.5004
 25  8  6  2 27 30.0000000  0  9G16G09G07G04G27G08G03G21G26
   3852782.27047   3047997.95745  21543750.1804                   21543745.1524
        47.0004         33.7504
  -7798013.25448  -6042265.77748  20258377.1414                   20258374.1884
        49.5004         52.0004
  -7550015.80948  -5851306.86347  22139091.8364                   22139087.5124
        49.0004         44.7504
   1477592.83647   1178527.69146  20587479.8444                   20587476.5744
        46.0004         39.0004
  -5319847.96546  -4082185.71545  23430241.4064                   23430241.8054
        40.0004         35.5004
    872764.29746    740685.74645  23704882.9924                   23704883.3164
        40.5004         33.0004
  15023927.57446  11710071.60245  23542499.2034                   23542499.5434
        41.5004         34.7504
   9727803.46146   7639933.05943  24821278.9844                   24821277.3984
        36.7504         19.5004
  14338392.34046  11180510.25845  24853722.0474                   24853722.2304
        40.2504         30.5004
 25  8  6  2 28  0.0000000  0  9G16G09G07G04G27G08G03G21G26
   3828833.28547   3029336.40245  21539192.6724                   21539187.9024
        46.7504         33.2504
  -7925525.33648  -6141625.82848  20234112.6954                   20234109.5044
        49.2504         52.2504
  -7682894.07048  -5954848.31647  22113806.1484                   22113801.7664
        48.5004         45.0004
   1417901.34447   1132014.82846  20576121.1564                   20576117.4024
        47.0004         38.5004
  -5471450.46146  -4200317.44946  23401392.8984                   23401392.3674
        40.0004         36.5004
    692648.96946    600336.25445  23670607.2664                   23670608.1374
        39.2504         31.7504
  15045841.11346  11727146.92645  23546668.2814                   23546669.8014
        40.7504         35.2504
   9545187.27346   7497634.71543  24786528.0474                   24786526.1094
        36.7504         19.7504
  14355975.29746  11194211.22345  24857068.2894                   24857068.6564
        40.5004         31.2504
 25  8  6  2 28 30.0000000  0 10G16G09G07G04G27G30G08G03G21G26
   3805405.35547   3011080.86345  21534734.0634                   21534729.5704
        47.2504         33.5004
  -8052672.54348  -6240701.56248  20209917.5314                   20209914.0864
        49.7504         52.5004
  -7815603.15648  -6058257.93447  22088552.3364                   22088547.9064
        48.5004         44.7504
   1358596.80547   1085803.48846  20564835.9064                   20564832.5824
        45.7504         38.0004
  -5622659.24246  -4318142.37546  23372619.3364                   23372618.4694
        41.0004         36.7504
  13877679.23056  10879303.54355  24262935.6334                   24262936.5204
        41.7504         33.5004
    512654.39846    460080.89545  23636355.1644                   23636356.5434
        38.2504         32.0004
  15067852.53546  11744298.49246  23550857.8054                   23550859.5704
        40.5004         36.0004
   9362864.82446   7355565.28143  24751833.7584                   24751831.5514
        37.2504         20.0004
  14373667.62546  11207997.41845  24860434.8594                   24860435.3364
        39.7504         31.7504
 25  8  6  2 29  0.0000000  0 10G16G09G07G04G27G30G08G03G21G26
   3782496.78147   2993230.01645  21530375.1884                   21530369.9454
        47.5004         34.0004
  -8179452.25448  -6339490.94148  20185791.7424                   20185788.6454
        49.2504         52.5004
  -7948142.43047  -6161535.23447  22063330.6804                   22063326.7304
        47.7504         44.2504
   1299680.45747   1039894.62946  20553624.1024                   20553620.7624
        46.7504         38.2504
  -5773470.34046  -4435657.41446  23343920.0634                   23343919.8444
        40.0004         36.5004
  13711710.39847  10749977.21545  24231353.0164                   24231354.0044
        42.0004         34.7504
    332784.68446    319922.83245  23602127.0004                   23602128.8554
        38.7504         33.2504
  15089959.85546  11761524.78146  23555064.6954                   23555066.2504
        41.0004         36.2504
   9180839.59446   7213727.50843  24717195.6174                   24717193.5554
        36.5004         19.5004
  14391467.75846  11221867.59845  24863822.3914                   24863822.6214
        39.7504         31.2504
 25  8  6  2 29 30.0000000  0 10G16G09G07G04G27G30G08G03G21G26
   3760104.71147   2975781.63745  21526114.0234                   21526108.7974
        46.2504         33.0004
  -8305863.08248  -6437992.87548  20161736.6954                   20161733.4414
        50.0004         52.2504
  -8080513.04348  -6264681.10247  22038141.5004                   22038137.2544
        48.0004         44.7504
   1241152.28147    994288.25446  20542487.1954                   20542483.6374
        46.7504         38.7504
  -5923881.10946  -4552860.51646  23315297.6884                   23315297.9264
        39.5004         36.5004
  13545851.23046  10620736.45345  24199791.2814                   24199791.3954
        41.2504         33.2504
    153042.77346    179864.35245  23567923.0784                   23567925.1994
        39.0004         33.7504
  15112159.83646  11778823.32846  23559289.6094                   23559290.7974
        41.0004         37.0004
   8999113.77346   7072122.94943  24682614.1804                   24682611.7734
        37.7504         18.2504
  14409372.79346  11235819.53545  24867229.5314                   24867229.6644
        39.0004         30.5004
 25  8  6  2 30  0.0000000  0 10G16G09G07G04G27G30G08G03G21G26
   3738225.19147   2958732.64845  21521950.7034                   21521945.5234
        47.0004         33.5004
  -8431904.20748  -6536206.72348  20137751.6484                   20137748.6454
        49.2504         52.2504
  -8212716.32847  -6367696.59047  22012984.0784                   22012979.4774
        47.7504         45.0004
   1183011.71147    948983.89846  20531423.1644                   20531419.5554
        46.7504         38.2504
  -6073889.46946  -4669750.05546  23286752.3134                   23286751.8874
        40.5004         37.0004
  13380100.91846  10491580.39145  24168249.1724                   24168249.9344
        41.2504         31.5004
    -26568.98846     39907.27345  23533743.7734                   23533746.2344
        38.2504         33.0004
  15134448.71546  11796191.09845  23563530.2814                   23563532.5354
        39.2504         34.0004
   8817688.85246   6930752.87543  24648090.6564                   24648088.2304
        38.0004         19.5004
  14427379.34046  11249850.56344  24870655.3134                   24870657.2734
        37.5004         29.5004
 25  8  6  2 30 30.0000000  0 10G16G09G07G04G27G30G08G03G21G26
   3716857.10247   2942082.17645  21517884.1484                   21517879.3404
        47.0004         33.2504
  -8557572.41448  -6634129.99248  20113837.8674                   20113834.7584
        50.0004         52.5004
  -8344751.00048  -6470580.69947  21987858.4844                   21987854.0864
        49.0004         45.0004
   1125260.71947    903983.11346  20520433.6094                   20520429.5704
        46.0004         37.7504
  -6223490.91046  -4786322.50846  23258283.7034                   23258283.8284
        39.7504         36.2504
  13214460.99646  10362510.39145  24136728.8364                   24136729.7974
        40.5004         32.5004
   -206045.86746    -99944.68745  23499590.9304                   23499592.3524
        38.0004         33.7504
  15156825.21946  11813627.22745  23567789.0164                   23567790.1644
        39.0004         33.5004
   8636569.23446   6789620.71543  24613624.3444                   24613621.5554
        38.7504         20.7504
  14445486.75846  11263960.18044  24874101.4384                   24874102.5044
        37.2504         27.5004
 25  8  6  2 31  0.0000000  0 10G16G09G07G04G27G30G08G03G21G26
   3695996.00047   2925826.76245  21513914.6094                   21513909.5744
        47.5004         33.0004
  -8682867.96148  -6731762.86748  20089994.8284                   20089991.7074
        50.0004         52.5004
  -8476619.63348  -6573335.43747  21962765.0474                   21962760.3244
        48.2504         45.2504
   1067897.52047    859284.50846  20509517.8524                   20509513.8594
        47.5004         38.0004
  -6372684.43046  -4902577.09846  23229893.3674                   23229892.6254
        40.5004         37.2504
  13048929.43046  10233524.85545  24105229.5944                   24105229.7934
        41.5004         30.2504
   -385386.60246   -239690.58245  23465462.9384                   23465464.3244
        39.0004         33.5004
  15179284.46146  11831127.73445  23572062.6644                   23572065.2154
        38.5004         34.0004
   8455755.24646   6648726.71943  24579216.2504                   24579214.5044
        38.0004         20.2504
  14463690.28145  11278144.71144  24877564.9534                   24877565.9774
        35.5004         26.7504
 25  8  6  2 31 30.0000000  0 10G16G09G07G04G27G30G08G03G21G26
   3675638.81347   2909964.00445  21510040.6484                   21510035.6564
        47.0004         33.7504
  -8807789.19948  -6829104.07848  20066223.2034                   20066219.9534
        49.0004         52.5004
  -8608322.68448  -6675961.14547  21937702.6414                   21937698.3014
        48.2504         45.0004
   1010922.43047    814888.31646  20498675.5474                   20498672.2624
        46.7504         37.5004
  -6521467.13746  -5018511.58246  23201581.0634                   23201580.1094
        41.2504         37.7504
  12883506.26246  10104623.75445  24073750.0554                   24073751.2424
        41.2504         32.5004
   -564587.90246   -379327.82045  23431362.3364                   23431363.4384
        40.7504         34.5004
  15201823.53146  11848690.52745  23576351.1954                   23576353.5274
        39.5004         34.7504
   8275249.55946   6508072.92243  24544867.6094                   24544865.4384
        39.2504         20.5004
  14481987.59045  11292402.33244  24881046.6564                   24881048.3594
        35.5004         25.5004
 25  8  6  2 32  0.0000000  0 10G16G09G07G04G27G30G08G03G21G26
   3655782.98447   2894491.90645  21506262.1644                   21506256.7704
        46.7504         33.7504
  -8932334.38748  -6926152.26648  20042523.4384                   20042519.7194
        49.5004         52.5004
  -8739860.34848  -6778457.98047  21912671.6334                   21912667.2664
        49.0004         45.0004
    954335.82047    770794.84046  20487907.5554                   20487904.2034
        46.2504         38.0004
  -6669836.05146  -5134123.62546  23173347.2424                   23173346.4304
        41.2504         38.2504
  12718191.41046   9975807.07045  24042292.2194                   24042292.8634
        41.2504         34.2504
   -743646.52046   -518853.88745  23397288.3594                   23397289.3634
        39.2504         33.5004
  15224439.61746  11866313.28945  23580655.9924                   23580658.2304
        40.5004         35.7504
   8095054.61746   6367661.30943  24510577.9064                   24510575.3594
        38.5004         20.5004
  14500376.27346  11306731.13344  24884546.5164                   24884547.4384
        36.0004         24.5004
 25  8  6  2 32 30.0000000  0 10G16G09G07G04G27G30G08G03G21G26
   3636428.20747   2879410.25845  21502579.0474                   21502574.1724
        47.0004         34.0004
  -9056499.17248  -7022904.03148  20018895.6174                   20018892.1804
        48.7504         52.5004
  -8871230.67648  -6880824.43047  21887672.3914                   21887668.1994
        48.5004         45.0004
    898140.64547    727006.38346  20477213.9454                   20477210.6054
        46.7504         38.0004
  -6817785.53547  -5249408.84046  23145193.4224                   23145192.8244
        42.0004         38.0004
  12552987.61346   9847076.93445  24010854.9454                   24010855.3164
        41.0004         32.7504
   -922556.49246   -658264.12545  23363242.7504                   23363243.7704
        39.0004         34.2504
  15247132.56646  11883996.01645  23584974.1564                   23584976.2304
        39.0004         32.7504
   7915175.75046   6227495.96943  24476347.7034                   24476345.2854
        38.2504         20.2504
  14518856.62545  11321131.37544  24888062.0474                   24888063.7704
        35.0004         25.5004
 25  8  6  2 33  0.0000000  0 10G16G09G07G04G27G30G08G03G21G26
   3617569.14847   2864714.86345  21498990.6094                   21498985.3984
        46.2504         33.5004
  -9180284.54348  -7119360.14848  19995339.5634                   19995336.6644
        50.0004         52.5004
  -9002436.72348  -6983062.87147  21862705.1884                   21862700.4224
        48.5004         44.7504
    842334.49647    683521.05546  20466594.4224                   20466590.9804
        47.0004         37.7504
  -6965315.42646  -5364367.10246  23117119.1724                   23117118.8594
        41.2504         38.5004
  12387892.15646   9718431.18845  23979438.3834                   23979438.4924
        40.7504         33.0004
  -1101317.23846   -797558.06645  23329226.2734                   23329227.3364
        40.0004         34.0004
  15269896.75446  11901734.23045  23589306.7114                   23589307.9924
        39.7504         34.5004
   7735612.70346   6087576.75043  24442177.8594                   24442175.4494
        38.5004         20.0004
  14537423.45346  11335598.96944  24891596.0634                   24891597.6334
        36.0004         25.5004
 25  8  6  2 33 30.0000000  0 10G16G09G07G04G27G30G08G03G21G26
   5174621.49647   4078002.39145  21795287.7034                   21795282.6334
        46.5004         33.7504
  -7728266.71548  -5987917.67248  20271649.6174                   20271646.8364
        49.2504         52.5004
  -7558056.41847  -5857571.68447  22137561.1094                   22137556.8204
        47.5004         44.7504
   2362337.46147   1867938.93846  20755841.7274                   20755837.8524
        47.7504         37.7504
  -5536999.82446  -4251393.82046  23388918.6804                   23388918.1764
        41.5004         37.7504
  13798328.50046  10817472.59445  24247834.7344                   24247835.3484
        40.0004         34.0004
    295498.47746    290869.88745  23595031.5944                   23595031.7934
        39.7504         34.5004
  16868146.66846  13147123.66845  23893442.7034                   23893445.0354
        38.7504         32.2504
   9131792.02746   7175508.69943  24707861.4694                   24707859.4224
        39.0004         22.0004
  16131491.71146  12577730.06343  25194937.7114                   25194938.4574
        36.2504         23.5004
 25  8  6  2 34  0.0000000  0 10G16G09G07G04G27G30G08G03G21G26
   5156746.00847   4064073.43045  21791885.8594                   21791881.1134
        46.0004         33.5004
  -7851287.44148  -6083777.95348  20248239.0704                   20248236.4924
        49.5004         52.5004
  -7688934.46147  -5959554.53547  22112656.0234                   22112651.5824
        47.7504         44.5004
   2307310.93447   1825061.11346  20745370.1564                   20745366.6994
        47.5004         37.7504
  -5683680.91446  -4365690.66446  23361005.6954                   23361005.3284
        41.7504         38.0004
  13633450.43046  10688996.26245  24216459.5314                   24216460.2194
        38.5004         32.7504
    117046.80146    151816.75045  23561072.1484                   23561073.2234
        39.2504         33.2504
  16891045.71546  13164966.97345  23897800.8834                   23897803.3404
        40.0004         33.7504
   8952869.03946   7036088.23043  24673814.0474                   24673812.0354
        39.5004         22.5004
  16150225.14846  12592327.53544  25198501.8834                   25198503.0784
        36.7504         24.5004
 25  8  6  2 34 30.0000000  0 10G16G09G07G04G27G30G08G03G21G26
   5139360.38347   4050526.17245  21788577.5784                   21788573.0314
        46.0004         32.5004
  -7973921.26248  -6179336.75448  20224903.1254                   20224900.0314
        49.0004         52.7504
  -7819647.19148  -6061408.58647  22087782.0864                   22087777.5744
        48.0004         45.0004
   2252676.64847   1782488.93446  20734973.8524                   20734970.1484
        47.0004         38.0004
  -5829931.25046  -4479651.87546  23333175.2034                   23333174.5004
        40.7504         37.2504
  13468683.08646  10560606.26245  24185104.6884                   24185106.2504
        38.5004         32.0004
    -61243.45746     12889.40245  23527144.9694                   23527145.3914
        39.2504         33.0004
  16914009.95346  13182861.02745  23902170.4384                   23902172.6844
        38.7504         32.5004
   8774271.96146   6896921.70743  24639828.5394                   24639825.8874
        39.0004         21.7504
  16169040.38346  12606988.73844  25202083.1024                   25202083.2544
        38.0004         25.0004
 25  8  6  2 35  0.0000000  0 10G16G09G07G04G27G30G08G03G21G26
   5122460.57447   4037357.47745  21785361.6334                   21785356.6054
        45.7504         32.5004
  -8096167.52348  -6274593.55948  20201639.9614                   20201636.9534
        48.7504         52.7504
  -7950196.03148  -6163134.93047  22062939.8364                   22062935.1134
        48.0004         45.5004
   2198433.84847   1740221.81346  20724651.3984                   20724648.0124
        47.0004         38.0004
  -5975748.98847  -4593275.98846  23305426.9224                   23305426.0164
        42.0004         37.0004
  13304025.45746  10432301.71945  24153772.2114                   24153772.3164
        39.5004         33.5004
   -239369.88346   -125910.30145  23493248.4384                   23493248.7624
        39.5004         33.0004
  16937035.59446  13200802.93445  23906552.7974                   23906553.6954
        40.2504         33.0004
   8596002.25846   6758010.26643  24605904.5004                   24605901.6294
        39.0004         22.5004
  16187933.91846  12621710.98044  25205678.2664                   25205678.8094
        38.5004         24.7504
 25  8  6  2 35 30.0000000  0 10G16G09G07G04G27G30G08G03G21G26
   5106042.61747   4024564.25045  21782237.7424                   21782232.4104
        46.2504         33.2504
  -8218025.69148  -6369547.94948  20178451.0164                   20178448.1604
        49.2504         52.7504
  -8080582.30548  -6264734.59447  22038127.6884                   22038123.4454
        48.0004         45.0004
   2144581.59047   1698259.00846  20714403.8524                   20714400.5314
        46.2504         38.0004
  -6121132.37946  -4706561.66846  23277761.8834                   23277760.6214
        41.5004         37.5004
  13139476.31346  10304081.73845  24122459.4384                   24122459.3754
        39.2504         33.5004
   -417330.40646   -264580.70745  23459383.4144                   23459383.7624
        38.5004         33.5004
  16960118.58646  13218789.53145  23910945.0084                   23910946.8554
        40.2504         32.0004
   8418061.38346   6619355.07443  24572043.1804                   24572041.1914
        39.2504         22.5004
  16206902.31346  12636491.53943  25209287.5634                   25209288.1174
        37.7504         22.7504
 25  8  6  2 36  0.0000000  0 10G16G09G07G04G27G30G08G03G21G26
   5090105.36747   4012145.59845  21779204.7194                   21779199.7234
        46.7504         32.5004
  -8339492.42648  -6464197.32848  20155336.8834                   20155333.9534
        49.0004         52.7504
  -8210805.00848  -6366206.79747  22013347.2114                   22013342.9694
        48.2504         45.0004
   2091121.84047   1656602.04346  20704231.3594                   20704227.9614
        47.5004         37.2504
  -6266076.90647  -4819505.36746  23250179.3364                   23250178.7544
        42.2504         37.5004
  12975037.40646  10175947.63345  24091167.3524                   24091167.9574
        38.5004         33.0004
   -595120.06246   -403117.97345  23425552.2894                   23425551.7114
        39.5004         33.7504
  16983257.82446  13236819.96545  23915348.9924                   23915350.4774
        40.7504         33.5004
   8240453.49646   6480959.34043  24538245.7114                   24538243.4064
        39.2504         22.5004
  16225945.04746  12651330.00843  25212911.8754                   25212912.1484
        38.5004         23.0004
 25  8  6  2 36 30.0000000  0 10G16G09G07G04G27G30G08G03G21G26
   5074644.83247   4000098.41045  21776262.6484                   21776257.8984
        46.2504         33.0004
  -8460567.43048  -6558541.46548  20132297.2034                   20132294.1214
        49.5004         52.7504
  -8340865.75848  -6467552.80947  21988597.8834                   21988593.0204
        49.0004         45.7504
   2038053.43447   1615250.03146  20694131.8984                   20694128.5474
        47.5004         37.5004
  -6410581.07447  -4932105.93446  23222680.9614                   23222680.3284
        42.0004         37.5004
  12810707.37546  10047898.41045  24059896.6334                   24059896.9264
        38.2504         33.5004
   -772736.89846   -541520.59445  23391751.5704                   23391752.7194
        39.5004         34.0004
  17006449.11746  13254890.99245  23919762.3834                   23919764.3054
        40.7504         33.7504
   8063179.76646   6342823.99243  24504511.9384                   24504509.4024
        39.7504         22.5004
  16245058.27346  12666223.42644  25216549.0864                   25216549.0784
        38.5004         24.2504
 25  8  6  2 37  0.0000000  0 10G16G09G07G04G27G30G08G03G21G26
   5059658.10947   3988420.43045  21773410.7424                   21773405.9574
        46.5004         32.5004
  -8581248.76648  -6652578.85248  20109332.1484                   20109329.0084
        49.2504         53.0004
  -8470764.69548  -6568772.73447  21963878.7194                   21963874.0904
        48.2504         45.5004
   1985376.82047   1574203.30946  20684108.1484                   20684104.8914
        47.5004         38.2504
  -6554641.83247  -5044360.97746  23195267.3674                   23195266.4494
        42.5004         37.7504
  12646486.42246   9919934.16845  24028645.7034                   24028646.8244
        40.0004         35.2504
   -950177.35946   -679785.77045  23357986.2424                   23357986.4844
        39.5004         33.7504
  17029689.90246  13273000.51645  23924184.5474                   23924187.0664
        38.7504         32.7504
   7886242.93446   6204951.22343  24470841.7894                   24470839.4224
        38.2504         23.0004
  16264239.86346  12681170.09443  25220197.9924                   25220199.1844
        38.7504         22.0004
 25  8  6  2 37 30.0000000  0 10G16G09G07G04G27G30G08G03G21G26
   5045142.25847   3977109.36345  21770648.5704                   21770643.6334
        46.5004         32.5004
  -8701534.69148  -6746308.12548  20086442.2894                   20086440.0164
        49.0004         53.0004
  -8600502.07848  -6669866.77047  21939190.1254                   21939186.0124
        48.5004         45.7504
   1933092.30947   1533462.12546  20674159.0474                   20674155.4414
        47.2504         37.7504
  -6698256.23447  -5156268.20746  23167938.3364                   23167937.2544
        42.5004         37.7504
  12482374.59446   9792054.97745  23997416.8204                   23997416.8954
        40.0004         35.5004
  -1127438.02746   -817910.82445  23324254.3674                   23324255.1414
        39.0004         34.5004
  17052977.58246  13291146.55945  23928616.2344                   23928618.0084
        39.5004         31.2504
   7709645.58646   6067342.92643  24437235.9534                   24437233.9734
        38.5004         22.0004
  16283487.65646  12696168.33643  25223861.2114                   25223862.2194
        37.2504         22.7504
 25  8  6  2 38  0.0000000  0 10G16G09G07G04G27G30G08G03G21G26
   5031097.27347   3966165.20745  21767976.1094                   21767971.0474
        46.5004         32.0004
  -8821421.23048  -6839726.18048  20063628.9144                   20063625.8284
        48.0004         53.0004
  -8730076.02048  -6770833.43747  21914533.1644                   21914528.9844
        48.0004         45.2504
   1881202.36747   1493028.39846  20664284.4844                   20664280.9534
        47.5004         37.5004
  -6841419.20347  -5267823.67246  23140695.7424                   23140694.3014
        42.5004         37.5004
  12318374.23846   9664262.66446  23966208.0234                   23966209.0864
        40.7504         37.0004
  -1304513.31246   -955891.44945  23290557.7814                   23290557.8554
        40.5004         34.5004
  17076311.59446  13309328.72345  23933057.3134                   23933058.0044
        40.5004         30.7504
   7533392.60246   5930003.00443  24403696.1254                   24403694.2504
        40.0004         23.7504
  16302801.68846  12711218.24244  25227536.5234                   25227536.9884
        38.0004         25.0004
 25  8  6  2 38 30.0000000  0  9G16G09G07G04G27G30G08G03G21
   5017519.40247   3955585.03945  21765392.6884                   21765387.3204
        46.2504         33.0004
  -8940907.48848  -6932832.34048  20040891.5634                   20040888.3554
        48.7504         53.0004
  -8859488.07448  -6871673.97347  21889907.0944                   21889902.7074
        48.2504         45.5004
   1829706.42647   1452901.68046  20654485.2894                   20654481.8914
        47.5004         38.0004
  -6984128.69547  -5379025.79746  23113538.6564                   23113537.3794
        42.7504         37.5004
  12154484.53946   9536556.55146  23935021.2194                   23935021.4654
        41.5004         37.7504
  -1481400.61346  -1093725.57845  23256896.9384                   23256897.9844
        40.0004         33.2504
  17099688.30146  13327544.19945  23937505.3594                   23937507.3204
        39.5004         32.5004
   7357485.69546   5792932.73843  24370222.1174                   24370220.3094
        38.7504         22.5004
 25  8  6  2 39  0.0000000  0  9G16G09G07G04G27G30G08G03G21
   5004403.53947   3945364.87145  21762896.2974                   21762891.7624
        46.0004         32.5004
  -9059993.92248  -7025626.94548  20018229.8594                   20018226.6954
        49.0004         53.0004
  -8988740.78948  -6972390.35547  21865310.9064                   21865306.3984
        48.0004         45.2504
   1778602.58247   1413080.48846  20644760.2814                   20644756.6604
        47.0004         38.0004
  -7126384.03546  -5489874.02046  23086467.5234                   23086466.8324
        41.5004         37.7504
  11990703.37546   9408935.00046  23903854.2114                   23903854.4844
        41.5004         37.7504
  -1658098.79746  -1231412.33645  23223272.9064                   23223273.0514
        39.5004         34.5004
  17123103.01646  13345789.26645  23941961.5554                   23941963.1564
        39.0004         31.5004
   7181925.27346   5656132.48043  24336814.4064                   24336811.8714
        40.0004         22.2504
 25  8  6  2 39 30.0000000  0  9G16G09G07G04G27G30G08G03G21
   4991751.25447   3935505.93445  21760488.8754                   21760483.9654
        45.5004         32.5004
  -9178674.40648  -7118105.23048  19995645.5554                   19995642.5824
        49.0004         53.0004
  -9117829.87147  -7072979.21147  21840746.2814                   21840741.8524
        47.7504         45.7504
   1727895.51247   1373568.47346  20635111.2034                   20635107.7894
        47.5004         37.5004
  -7268177.92247  -5600362.66446  23059485.4064                   23059484.2464
        42.5004         38.2504
  11827035.25846   9281401.57046  23872708.6334                   23872709.8204
        41.7504         37.0004
  -1834599.93746  -1368945.58645  23189685.6414                   23189686.5204
        40.5004         34.2504
  17146557.34846  13364065.27745  23946424.5004                   23946426.3164
        37.7504         32.2504
   7006718.25846   5519607.57443  24303473.3054                   24303470.6024
        39.0004         22.0004
 25  8  6  2 40  0.0000000  0  9G16G09G07G04G27G30G08G03G21
   4979564.14147   3926009.46945  21758169.7584                   21758164.9344
        45.5004         32.7504
  -9296942.92648  -7210262.51248  19973139.9384                   19973136.8134
        49.0004         52.7504
  -9246751.17248  -7173437.32447  21816212.8524                   21816208.5314
        48.0004         45.2504
   1677589.66847   1334369.10246  20625537.9454                   20625534.7344
        47.0004         37.2504
  -7409503.35947  -5710486.27346  23032592.3524                   23032591.1724
        43.0004         38.0004
  11663484.52047   9153959.59046  23841585.8674                   23841586.7584
        42.0004         37.5004
  -2010896.47346  -1506319.37145  23156137.8754                   23156138.3984
        39.0004         35.0004
  17170052.97346  13382373.32045  23950895.8284                   23950897.8404
        37.5004         31.7504
   6831871.60546   5383363.48443  24270201.5474                   24270198.7274
        38.0004         22.7504
 25  8  6  2 40 30.0000000  0  9G16G09G07G04G27G30G08G03G21
   4967843.33247   3916876.35945  21755939.7034                   21755934.2504
        45.0004         32.2504
  -9414793.52348  -7302094.14548  19950713.3364                   19950710.7344
        48.5004         52.7504
  -9375501.10947  -7273761.91447  21791713.2114                   21791708.4534
        47.5004         45.7504
   1627689.58647   1295485.90246  20616042.4454                   20616039.2304
        47.0004         36.7504
  -7550353.18047  -5820239.30546  23005789.1484                   23005787.9844
        42.2504         38.2504
  11500055.49247   9026612.42246  23810486.9304                   23810487.0314
        42.5004         37.0004
  -2186980.69146  -1643527.70745  23122630.1564                   23122630.7974
        40.7504         35.2504
  17193591.30546  13400714.71545  23955374.6954                   23955377.2274
        37.5004         32.5004
   6657392.07446   5247405.44543  24236999.3524                   24236996.3634
        38.2504         22.5004
 25  8  6  2 41  0.0000000  0  9G16G09G07G04G27G30G08G03G21
   4956579.52047   3908099.35545  21753795.6884                   21753790.7304
        45.5004         32.2504
  -9532231.12948  -7393603.96948  19928365.9304                   19928363.2774
        49.5004         52.7504
  -9504086.38748  -7373958.19547  21767244.0474                   21767239.4804
        48.0004         46.0004
   1578188.75847   1256913.82446  20606623.1724                   20606619.8364
        46.7504         37.2504
  -7690731.28547  -5929624.73846  22979076.2504                   22979075.1134
        42.7504         37.7504
  11336741.56347   8899354.96146  23779408.8914                   23779409.3754
        43.0004         37.2504
  -2362855.80946  -1780573.13345  23089161.6174                   23089162.3674
        40.5004         34.5004
  17217163.14145  13419082.23845  23959859.5704                   23959863.4494
        35.7504         31.2504
   6483275.57046   5111730.28143  24203864.9384                   24203863.1994
        37.5004         22.2504
 25  8  6  2 41 30.0000000  0  9G16G09G07G04G27G30G08G03G21
   4945772.91847   3899678.61345  21751739.7344                   21751734.4454
        45.2504         33.0004
  -9649251.12148  -7484788.37948  19906098.0554                   19906094.6054
        50.0004         53.0004
  -9632504.44547  -7474024.15647  21742806.6414                   21742802.4224
        47.7504         46.0004
   1529090.41047   1218655.34846  20597279.8834                   20597276.4884
        47.2504         37.5004
  -7830631.94147  -6038638.16046  22952453.7974                   22952452.5704
        43.5004         38.5004
  11173545.76247   8772189.53146  23748353.8754                   23748353.8554
        42.2504         36.2504
  -2538515.52046  -1917450.70345  23055734.6094                   23055734.8204
        40.2504         35.0004
  17240768.68446  13437476.00445  23964352.3914                   23964355.4184
        36.0004         31.5004
   6309527.60946   4976342.29743  24170802.1724                   24170799.9614
        36.7504         21.0004
 25  8  6  2 42  0.0000000  0  9G16G09G07G04G27G30G08G03G21
   6510836.01247   5119208.28145  22049561.1484                   22049555.9924
        45.5004         31.7504
  -8190432.92248  -6348046.93048  20183702.1954                   20183699.0004
        50.0004         53.0004
  -8185336.41047  -6346360.69547  22018193.4774                   22018189.0234
        47.5004         46.0004
   3055811.25047   2408307.93846  20887805.2114                   20887801.6564
        47.5004         37.2504
  -6394632.77747  -4919677.68446  23225714.8444                   23225714.2934
        43.2504         38.2504
  12585888.51647   9872716.48045  24017113.3524                   24017113.8324
        42.0004         35.5004
  -1138535.58246   -826557.12546  23322141.7734                   23322142.1884
        41.5004         36.0004
  18839819.41445  14683489.35244  24268641.8984                   24268644.3284
        33.7504         28.0004
   7711571.55546   6068844.12943  24437602.4534                   24437600.0744
        36.5004         22.0004
 25  8  6  2 42 30.0000000  0  9G16G09G07G04G27G30G08G03G21
   6500928.32047   5111487.99245  22047675.9224                   22047670.7154
        45.5004         32.2504
  -8306619.53948  -6438581.96548  20161592.4534                   20161589.4734
        49.7504         53.0004
  -8313428.08247  -6446172.32847  21993818.1804                   21993814.0204
        47.5004         45.7504
   3007511.35247   2370671.63746  20878613.9844                   20878610.3984
        47.5004         38.0004
  -6533577.23047  -5027946.01646  23199274.9694                   23199273.9224
        43.2504         38.7504
  12422922.16046   9745729.83645  23986101.9844                   23986102.1334
        41.7504         34.2504
  -1313761.19147   -963096.43445  23288798.0784                   23288797.7894
        42.2504         35.7504
  18863477.49646  14701924.03945  24273143.8364                   24273147.0004
        37.5004         33.0004
   7538561.43846   5934031.08643  24404679.2734                   24404677.6254
        37.7504         22.5004
 25  8  6  2 43  0.0000000  0  9G16G09G07G04G27G30G08G03G21
   6491462.64147   5104112.11745  22045874.5234                   22045869.4304
        45.2504         32.0004
  -8422389.89848  -6528792.63748  20139562.1724                   20139559.0784
        50.0004         53.2504
  -8441360.00447  -6545859.47747  21969473.7734                   21969469.1994
        47.7504         45.7504
   2959607.96947   2333344.30146  20869498.4614                   20869494.6454
        47.7504         38.0004
  -6672042.41447  -5135840.88346  23172925.8834                   23172924.1884
        43.2504         37.5004
  12260067.60947   9618830.30545  23955111.8134                   23955111.9534
        42.0004         33.0004
  -1488767.60546  -1099464.95345  23255495.0314                   23255495.0864
        41.0004         35.0004
  18887154.76246  14720373.70345  24277650.1174                   24277653.0004
        40.0004         35.5004
   7365921.01246   5799506.12943  24371828.0004                   24371824.7194
        37.5004         22.0004
 25  8  6  2 43 30.0000000  0  9G16G09G07G04G27G30G08G03G21
   6482436.48447   5097078.73445  22044156.5164                   22044151.8554
        45.2504         31.2504
  -8537742.12148  -6618677.47748  20117611.1094                   20117608.1414
        50.0004         53.2504
  -8569132.33247  -6645422.27747  21945159.4774                   21945154.7034
        47.7504         45.5004
   2912101.43447   2296326.21146  20860458.0944                   20860454.6844
        47.7504         37.7504
  -6810025.46147  -5243360.05946  23146669.3594                   23146667.4494
        43.5004         38.2504
  12097325.20746   9492018.14545  23924143.4844                   23924142.5864
        41.5004         32.5004
  -1663551.31246  -1235659.91845  23222233.9774                   23222234.2544
        41.5004         34.2504
  18910848.79346  14738836.41846  24282159.4844                   24282161.7774
        41.0004         36.5004
   7193653.10946   5665271.42643  24339045.4924                   24339043.0434
        38.7504         22.7504
 25  8  6  2 44  0.0000000  0  9G16G09G07G04G27G30G08G03G21
   6473848.55547   5090386.82445  22042522.6484                   22042517.4964
        45.2504         31.2504
  -8652672.91848  -6708233.94148  20095740.6484                   20095737.6294
        50.0004         53.2504
  -8696743.70347  -6744859.65247  21920876.1484                   21920871.2424
        47.7504         46.0004
   2864993.55547   2259618.75446  20851493.8754                   20851490.2464
        47.5004         37.7504
  -6947521.98447  -5350500.13346  23120504.3204                   23120502.4144
        43.2504         38.5004
  11934696.56346   9365294.64545  23893195.5084                   23893195.0784
        41.5004         32.2504
  -1838107.13747  -1371677.32445  23189017.2814                   23189017.4734
        42.2504         35.2504
  18934558.61346  14757311.43445  24286670.7814                   24286673.9304
        40.2504         34.2504
   7021761.80946   5531330.20343  24306336.2424                   24306332.7504
        38.5004         23.0004
 25  8  6  2 44 30.0000000  0  9G16G09G07G04G27G30G08G03G21
   6465696.20347   5084034.31645  22040971.2664                   22040966.3324
        45.0004         31.5004
  -8767180.57448  -6797460.68748  20073950.7894                   20073947.7424
        49.7504         53.0004
  -8824194.35248  -6844171.77347  21896622.6024                   21896617.9614
        48.0004         45.5004
   2818284.53947   2223222.09446  20842605.5314                   20842601.8484
        47.2504         37.0004
  -7084529.24247  -5457258.96146  23094432.0784                   23094430.9024
        43.5004         38.2504
  11772181.91446   9238659.95345  23862270.3984                   23862269.6644
        40.5004         32.0004
  -2012431.65647  -1507514.49645  23155844.6564                   23155843.7544
        42.0004         34.5004
  18958281.65246  14775796.75045  24291185.4304                   24291188.2194
        38.2504         33.5004
   6850249.78146   5397684.52343  24273699.1174                   24273695.6724
        38.7504         23.5004
 25  8  6  2 45  0.0000000  0  9G16G09G07G04G27G30G08G03G21
   6457974.98447   5078017.75845  22039501.9534                   22039497.3444
        45.0004         31.0004
  -8881264.73448  -6886357.43748  20052241.2344                   20052238.0124
        50.0004         53.0004
  -8951485.74648  -6943359.83647  21872399.4844                   21872395.4534
        48.5004         46.0004
   2771973.19547   2187135.32046  20833792.8134                   20833789.1134
        47.0004         36.7504
  -7221045.84047  -5563635.44946  23068453.5084                   23068452.2734
        43.2504         38.5004
  11609779.94946   9112113.09445  23831366.4384                   23831365.2974
        41.0004         33.0004
  -2186522.77347  -1643169.80545  23122715.4144                   23122715.6334
        42.0004         35.0004
  18982013.98046  14794289.29345  24295701.6414                   24295704.7544
        39.5004         32.7504
   6679118.18046   5264335.27344  24241133.2344                   24241130.4574
        40.0004         24.5004
 25  8  6  2 45 30.0000000  0  9G16G09G07G04G27G30G08G03G21
   6450683.55947   5072336.10245  22038114.3204                   22038109.4304
        45.0004         30.2504
  -8994922.28148  -6974921.75048  20030612.7274                   20030609.9454
        50.0004         53.0004
  -9078616.78948  -7042422.90247  21848207.8134                   21848203.2074
        48.5004         46.0004
   2726061.05947   2151359.61746  20825055.9144                   20825052.1954
        47.2504         37.2504
  -7357067.81647  -5669626.53946  23042570.1254                   23042568.2584
        43.2504         38.0004
  11447492.10546   8985655.11745  23800483.6334                   23800483.3524
        41.0004         33.0004
  -2360375.68747  -1778639.48045  23089633.3984                   23089633.2624
        42.2504         34.7504
  19005754.31346  14812788.10245  24300219.1334                   24300222.1524
        39.5004         31.0004
   6508370.87146   5131285.49243  24208640.4614                   24208637.8094
        39.2504         22.7504
 25  8  6  2 46  0.0000000  0  9G16G09G07G04G27G30G08G03G21
   6443818.33247   5066986.54745  22036808.2814                   22036803.0354
        45.5004         31.0004
  -9108152.54348  -7063153.12548  20009065.6414                   20009062.7234
        50.0004         53.2504
  -9205588.86348  -7141362.13747  21824045.5634                   21824040.8754
        48.2504         46.0004
   2680547.29347   2115894.32846  20816394.9144                   20816391.3834
        47.2504         37.5004
  -7492593.29747  -5775230.72746  23016780.0314                   23016778.1294
        43.7504         38.0004
  11285317.59046   8859285.49245  23769622.6484                   23769622.5274
        41.7504         34.0004
  -2533987.85946  -1913921.57845  23056595.1254                   23056595.0944
        41.2504         34.7504
  19029499.23446  14831290.44945  24304738.6804                   24304741.2074
        40.5004         32.2504
   6338009.55946   4998536.48443  24176221.9614                   24176219.4064
        40.0004         22.7504
 25  8  6  2 46 30.0000000  0  9G16G09G07G04G27G30G08G03G21
   6437372.77747   5061964.00845  22035581.7344                   22035576.3014
        45.2504         31.0004
  -9220957.02348  -7151052.71148  19987599.7344                   19987596.5864
        50.0004         53.0004
  -9332405.42647  -7240180.19147  21799913.1484                   21799908.4804
        47.7504         45.5004
   2635428.84448   2080737.08246  20807808.9774                   20807805.8134
        48.0004         37.2504
  -7627622.93747  -5880448.55546  22991085.0554                   22991082.7774
        43.7504         38.0004
  11123253.28546   8733001.72745  23738782.5394                   23738782.2304
        40.0004         33.2504
  -2707359.04346  -2049015.89545  23023603.7974                   23023603.5314
        41.2504         34.0004
  19053242.84046  14849791.82045  24309256.5004                   24309259.2544
        40.5004         30.7504
   6168033.49246   4866087.66843  24143876.1804                   24143873.6484
        39.5004         22.7504
 25  8  6  2 47  0.0000000  0  9G16G09G07G04G27G30G08G03G21
   6431346.25847   5057268.00044  22034434.9694                   22034430.1134
        44.5004         29.7504
  -9333332.25048  -7238617.81248  19966215.6804                   19966212.3444
        50.0004         53.2504
  -9459064.84048  -7338875.80147  21775810.7584                   21775806.1524
        48.0004         45.7504
   2590707.63347   2045889.37946  20799298.7584                   20799295.4884
        47.0004         37.0004
  -7762152.28147  -5985276.54346  22965484.6414                   22965482.7274
        44.2504         38.0004
  10961301.08646   8606805.32845  23707963.5634                   23707963.8324
        39.7504         34.7504
  -2880484.02047  -2183918.36346  22990659.1954                   22990659.2114
        42.0004         36.2504
  19076984.34846  14868291.55544  24313774.5784                   24313776.8754
        38.0004         26.0004
   5998447.00046   4733942.42643  24111605.3674                   24111602.3954
        40.0004         22.5004
 25  8  6  2 47 30.0000000  0  9G16G09G07G04G27G30G08G03G21
   6425736.43847   5052896.66845  22033367.1094                   22033362.1484
        44.5004         31.0004
  -9445276.03548  -7325846.72748  19944913.5084                   19944910.0394
        50.0004         53.2504
  -9585566.58248  -7437448.55147  21751738.1484                   21751733.5704
        48.2504         46.0004
   2546384.30547   2011351.70346  20790864.5474                   20790861.2624
        47.0004         37.2504
  -7896178.09847  -6089712.17246  22939979.7424                   22939978.7584
        43.5004         38.2504
  10799461.67246   8480696.81345  23677166.7344                   23677166.6174
        39.5004         34.5004
  -3053358.80946  -2318625.87945  22957761.7424                   22957761.8594
        41.5004         35.5004
  19100721.87546  14886788.20744  24318290.5164                   24318293.9774
        36.0004         25.0004
   5829253.16046   4602103.11344  24079409.0634                   24079406.6564
        41.5004         24.5004
 25  8  6  2 48  0.0000000  0  9G16G09G07G04G27G30G08G03G21
   6420539.66847   5048847.20745  22032378.6174                   22032373.7274
        43.5004         30.2504
  -9556787.49248  -7412738.75048  19923693.2274                   19923690.3794
        50.0004         53.0004
  -9711912.05147  -7535899.52747  21727695.5474                   21727690.3014
        47.5004         46.0004
   2502458.19947   1977123.55546  20782505.6804                   20782502.2304
        47.2504         37.0004
  -8029698.64547  -6193754.09046  22914572.0864                   22914570.6294
        43.7504         38.2504
  10637734.27346   8354675.57445  23646391.8524                   23646390.7704
        41.7504         35.5004
  -3225980.71146  -2453136.34445  22924913.4064                   22924912.8954
        41.5004         35.5004
  19124451.98845  14905279.01643  24322807.0634                   24322809.9384
        33.5004         23.2504
   5660453.66847   4470571.09044  24047287.6334                   24047284.3444
        42.0004         24.7504
 25  8  6  2 48 30.0000000  0  9G16G09G07G04G27G30G08G03G21
   6415753.59447   5045117.75845  22031467.3284                   22031462.5474
        43.5004         30.7504
  -9667864.21948  -7499292.02748  19902556.1804                   19902552.7194
        49.5004         53.0004
  -9838100.63748  -7634228.27747  21703682.1884                   21703677.5124
        48.5004         45.5004
   2458930.09847   1943205.54346  20774222.5394                   20774218.8094
        47.0004         36.5004
  -8162710.53147  -6297399.64846  22889260.6884                   22889259.1334
        43.0004         37.7504
  10476119.84847   8228742.35246  23615637.3834                   23615636.7464
        42.5004         37.2504
  -3398345.53547  -2587446.49646  22892113.4064                   22892113.3984
        42.2504         36.7504
  19148172.82445  14923762.58644  24327321.3204                   24327323.8284
        35.0004         26.0004
   5492051.78546   4339348.89143  24015241.5474                   24015238.3914
        41.7504         23.5004
 25  8  6  2 49  0.0000000  0  9G16G09G07G04G27G30G08G03G21
   6411373.10247   5041704.35245  22030633.9694                   22030628.9224
        43.5004         30.2504
  -9778507.01248  -7585507.17648  19881501.6094                   19881498.2274
        50.0004         53.0004
  -9964134.79347  -7732436.68447  21679699.0634                   21679694.5234
        47.5004         45.5004
   2415797.69947   1909595.87546  20766014.8364                   20766011.1994
        47.0004         36.5004
  -8295213.60947  -6400648.72346  22864046.2664                   22864044.5944
        43.0004         37.7504
  10314616.03946   8102895.30146  23584903.8914                   23584903.0514
        41.7504         37.5004
  -3570452.24246  -2721555.50445  22859362.1724                   22859362.2934
        40.7504         35.7504
  19171879.46945  14942235.19143  24331831.9144                   24331834.4964
        34.7504         23.0004
   5324047.61347   4208436.59043  23983271.4454                   23983268.5354
        42.0004         23.7504
 25  8  6  2 49 30.0000000  0  9G16G09G07G04G27G30G08G03G21
   6407398.23847   5038607.01645  22029877.3754                   22029872.5084
        43.0004         31.0004
  -9888711.40248  -7671380.71148  19860530.1174                   19860527.1914
        49.7504         53.0004
 -10090011.73048  -7830522.59047  21655745.4304                   21655740.0824
        48.2504         45.7504
   2373063.89147   1876296.78946  20757883.2504                   20757879.5274
        47.0004         36.5004
  -8427202.48847  -6503497.12946  22838929.5944                   22838928.2384
        43.0004         38.0004
  10153225.76647   7977136.75046  23554192.3054                   23554191.6414
        42.0004         37.5004
  -3742294.60546  -2855458.53545  22826662.3134                   22826660.6994
        41.5004         35.7504
  19195572.12546  14960696.82844  24336341.8054                   24336344.2664
        37.0004         28.5004
   5156446.43047   4077838.28944  23951378.4924                   23951375.2624
        43.0004         24.5004
 25  8  6  2 50  0.0000000  0  9G16G09G07G04G27G30G08G03G21
   6403821.70347   5035820.06645  22029197.3674                   22029192.5164
        43.2504         30.5004
  -9998480.10248  -7756914.73848  19839641.6254                   19839638.6334
        49.7504         52.7504
 -10215736.83647  -7928490.18447  21631820.3134                   21631815.8284
        47.7504         46.0004
   2330724.43447   1843305.00046  20749825.9454                   20749822.0514
        46.7504         36.5004
  -8558678.94547  -6605946.25046  22813909.7974                   22813908.7664
        43.0004         37.7504
   9991944.85247   7851463.39846  23523501.5474                   23523500.6484
        42.5004         37.7504
  -3913873.39546  -2989156.20346  22794011.1564                   22794010.9614
        40.5004         36.2504
  19219244.08246  14979142.33645  24340846.5314                   24340849.3634
        37.5004         30.0004
   4989246.45347   3947552.60944  23919560.9454                   23919558.1844
        42.2504         24.0004
 25  8  6  2 50 30.0000000  0  9G16G09G07G04G27G30G08G03G21
   6400645.30947   5033344.91845  22028592.7504                   22028587.7504
        43.0004         31.7504
 -10107806.54348  -7842104.14848  19818837.6564                   19818834.5664
        48.7504         52.7504
 -10341304.82448  -8026335.35547  21607926.0474                   21607920.9384
        48.5004         46.0004
   2288784.21947   1810624.30546  20741845.1024                   20741841.6764
        47.5004         36.2504
  -8689635.59047  -6707990.30946  22788989.6884                   22788988.6844
        43.0004         38.5004
   9830778.28147   7725879.15246  23492831.5084                   23492831.9964
        42.0004         37.5004
  -4085180.34846  -3122642.02746  22761412.5634                   22761412.2464
        41.0004         36.5004
  19242897.63446  14997573.49145  24345347.8134                   24345350.5514
        38.5004         30.2504
   4822455.00046   3817585.26243  23887821.8984                   23887818.1484
        41.7504         22.5004
 25  8  6  2 51  0.0000000  0  9G16G09G07G04G27G30G08G03G21
   7973285.07847   6258778.46945  22327856.1414                   22327851.3324
        43.0004         30.5004
  -8641267.37948  -6699346.34048  20097910.7734                   20097907.9224
        49.5004         53.0004
  -8891293.88747  -6896456.69947  21883853.9144                   21883848.7194
        47.7504         45.7504
   3822662.88347   3005854.42246  21033732.3444                   21033728.5434
        47.7504         36.5004
  -7244647.37947  -5582025.39846  23063961.8284                   23063960.6994
        42.5004         38.5004
  11245149.66846   8827986.82046  23761977.9534                   23761977.8244
        41.5004         38.2504
  -2680788.11746  -2028310.30946  23028659.5474                   23028659.5864
        41.2504         37.0004
  20841947.66446  16243586.35945  24649637.5394                   24649639.3914
        39.7504         33.7504
   6231498.26247   4915541.09444  24155953.4454                   24155950.5864
        42.2504         24.5004
 25  8  6  2 51 30.0000000  0  9G16G09G07G04G27G30G08G03G21
   7970895.99647   6256916.81645  22327401.7344                   22327396.5634
        44.5004         31.0004
  -8749709.91848  -6783847.00048  20077274.8834                   20077272.2814
        49.0004         53.0004
  -9016554.09447  -6994062.04747  21860017.4694                   21860012.2814
        47.7504         45.7504
   3781516.00047   2973791.90246  21025902.2194                   21025898.4264
        47.0004         36.2504
  -7374562.21147  -5683257.66046  23039239.2194                   23039239.0274
        42.5004         38.0004
  11084206.78547   8702576.88746  23731351.2584                   23731351.5004
        42.5004         39.0004
  -2851546.35546  -2161368.56246  22996165.0634                   22996165.2584
        40.7504         37.2504
  20865551.62146  16261978.87145  24654129.0164                   24654131.9264
        40.5004         34.2504
   6065525.96546   4786212.00843  24124369.7504                   24124367.0634
        41.5004         22.7504
 25  8  6  2 52  0.0000000  0  9G16G09G07G04G27G30G08G03G21
   7968895.44147   6255357.91845  22327020.7814                   22327016.1604
        43.7504         30.5004
  -8857708.59848  -6868001.80148  20056723.3674                   20056719.8984
        49.5004         53.2504
  -9141661.11347  -7091548.04747  21836210.3364                   21836205.2774
        47.7504         45.7504
   3740765.30947   2942038.10545  21018147.8914                   21018144.0904
        47.0004         35.5004
  -7503952.87947  -5784081.50846  23014617.4454                   23014616.4344
        42.0004         38.0004
  10923375.43047   8577253.84046  23700746.0314                   23700746.1844
        42.7504         38.2504
  -3022025.53146  -2294209.37946  22963723.7584                   22963724.1484
        40.7504         37.2504
  20889126.46946  16280348.74245  24658614.7504                   24658618.1174
        39.0004         33.5004
   5899966.44146   4657204.60944  24092865.1024                   24092861.6564
        41.7504         24.5004
 25  8  6  2 52 30.0000000  0  9G16G09G07G04G27G30G08G03G21
   7967278.74247   6254098.14145  22326713.3054                   22326708.6604
        44.0004         31.5004
  -8965263.64848  -6951810.91048  20036256.1414                   20036253.3404
        50.0004         53.2504
  -9266617.00447  -7188916.27747  21812432.2114                   21812427.2074
        46.7504         45.5004
   3700408.96947   2910591.60246  21010468.5784                   21010464.5704
        46.5004         36.5004
  -7632818.87946  -5884496.49646  22990094.6724                   22990093.9144
        41.5004         38.5004
  10762653.81647   8452016.29746  23670162.2194                   23670161.7894
        42.5004         38.5004
  -3192224.12146  -2426831.53946  22931335.7424                   22931336.0474
        40.5004         36.7504
  20912667.85246  16298692.52345  24663095.4064                   24663098.0904
        40.0004         35.2504
   5734820.27747   4528519.27744  24061438.9454                   24061435.5984
        42.0004         24.5004
 25  8  6  2 53  0.0000000  0  9G16G09G07G04G27G30G08G03G21
   7966045.19947   6253136.92645  22326478.8674                   22326473.9184
        44.2504         30.7504
  -9072371.49648  -7035271.55948  20015874.6644                   20015871.0044
        50.0004         53.2504
  -9391419.74647  -7286165.16847  21788682.5474                   21788677.6564
        47.0004         45.5004
   3660448.97347   2879453.92246  21002864.4304                   21002860.7504
        46.5004         36.5004
  -7761155.67646  -5984499.11746  22965674.0004                   22965672.1374
        40.7504         38.0004
  10602044.14147   8326865.96946  23639599.1024                   23639597.9534
        42.5004         38.2504
  -3362136.57846  -2559230.75846  22899003.0314                   22899003.1254
        41.2504         37.0004
  20936175.36746  16317009.92245  24667568.2034                   24667571.6174
        39.0004         32.7504
   5570091.95747   4400159.57043  24030092.0784                   24030089.0784
        42.5004         23.2504
 25  8  6  2 53 30.0000000  0  9G16G09G07G04G27G30G08G03G21
   7965191.01247   6252471.30945  22326316.3754                   22326311.1994
        44.0004         31.0004
  -9179031.23448  -7118383.02748  19995577.7274                   19995574.6134
        49.7504         53.2504
  -9516070.37147  -7383295.52347  21764962.2734                   21764957.6414
        47.7504         45.7504
   3620884.65247   2848624.57046  20995335.3284                   20995332.1604
        47.0004         36.2504
  -7888961.52046  -6084088.02046  22941353.0474                   22941351.1214
        41.5004         38.0004
  10441545.85547   8201802.43446  23609057.3444                   23609056.6524
        42.2504         38.0004
  -3531760.16846  -2691404.89846  22866724.2194                   22866724.1804
        41.7504         37.0004
  20959645.84045  16335298.48444  24672034.1884                   24672037.6024
        35.7504         27.5004
   5405783.21146   4272126.79344  23998824.8674                   23998822.1214
        39.2504         24.5004
 25  8  6  2 54  0.0000000  0  9G16G09G07G04G27G30G08G03G21
   7964711.88347   6252097.95345  22326224.9774                   22326220.2814
        44.2504         30.2504
  -9285242.63348  -7201145.14548  19975366.3204                   19975363.1054
        50.0004         53.2504
  -9640570.39547  -7480308.52747  21741271.4144                   21741266.2074
        47.7504         46.0004
   3581714.68847   2818102.50445  20987881.5084                   20987877.9184
        46.5004         35.7504
  -8016235.46146  -6183262.43746  22917133.4224                   22917131.3094
        41.5004         37.7504
  10281157.68447   8076824.70346  23578536.7974                   23578536.1254
        42.7504         38.5004
  -3701092.82447  -2823352.32446  22834501.6254                   22834501.2974
        42.0004         36.5004
  20983075.46145  16353555.25444  24676492.4924                   24676495.6094
        33.2504         26.0004
   5241895.15246   4144421.83243  23967637.7584                   23967635.2114
        40.5004         23.2504
 25  8  6  2 54 30.0000000  0  9G16G09G07G04G27G30G08G03G21
   7964606.81647   6252016.08645  22326204.4844                   22326200.0594
        44.2504         30.5004
  -9391002.96948  -7283555.78148  19955241.0004                   19955237.7424
        50.0004         53.0004
  -9764918.74647  -7577203.35947  21717608.4304                   21717603.6254
        47.7504         46.0004
   3542940.14547   2787888.56346  20980503.1094                   20980499.2664
        46.0004         37.0004
  -8142973.82047  -6282019.53546  22893015.9774                   22893014.1024
        43.0004         38.0004
  10120881.00447   7951933.85246  23548036.2664                   23548035.7584
        43.2504         38.5004
  -3870129.86347  -2955069.39146  22802334.3674                   22802334.5704
        42.2504         37.5004
  21006463.04355  16371779.12553  24680943.6564                   24680946.7234
        32.5004         21.2504
   5078431.35946   4017047.50044  23936532.1024                   23936529.2544
        39.5004         24.0004
 25  8  6  2 55  0.0000000  0  9G16G09G07G04G27G30G08G03G21
   7964874.44947   6252224.63745  22326255.8754                   22326251.2894
        44.0004         30.2504
  -9496308.88748  -7365612.33248  19935201.8444                   19935198.5084
        49.7504         53.0004
  -9889114.00447  -7673978.87547  21693974.7734                   21693970.1764
        47.0004         46.2504
   3504562.77047   2757984.09446  20973200.0004                   20973196.4494
        47.0004         36.2504
  -8269172.55146  -6380356.13346  22869000.5164                   22868998.7774
        41.0004         38.2504
   9960717.65647   7827131.28146  23517558.0234                   23517558.0084
        43.2504         38.5004
  -4038866.14846  -3086552.11746  22770224.9844                   22770224.7894
        41.7504         36.7504
  21029807.82854  16389969.74253  24685385.0474                   24685388.8364
        28.2504         19.2504
   4915396.01246   3890007.02043  23905506.5314                   23905504.3594
        38.5004         22.2504
 25  8  6  2 55 30.0000000  0  9G16G09G07G04G27G30G08G03G21
   7965509.52047   6252719.52044  22326376.2894                   22326371.9184
        44.0004         29.2504
  -9601160.96148  -7447315.23448  19915248.9384                   19915246.0004
        49.7504         53.0004
 -10013158.27748  -7770636.74247  21670370.1644                   21670365.6844
        48.5004         46.5004
   3466580.46547   2728387.47746  20965972.2734                   20965968.6524
        45.7504         36.2504
  -8394831.35947  -6478272.02046  22845088.6334                   22845087.0164
        43.0004         37.7504
   9800665.70747   7702415.52046  23487102.0314                   23487101.0704
        42.5004         38.2504
  -4207300.28547  -3217799.41046  22738172.8364                   22738172.5704
        42.0004         37.2504
  21053105.08645  16408123.25044  24689819.1804                   24689823.0594
        34.5004         24.5004
   4752789.38746   3763300.61743  23874563.6954                   23874560.9654
        37.7504         23.5004
 25  8  6  2 56  0.0000000  0  9G16G09G07G04G27G30G08G03G21
   7966509.62547   6253498.81344  22326567.0084                   22326562.4534
        43.5004         29.2504
  -9705557.42248  -7528663.11748  19895382.9064                   19895380.0784
        50.0004         52.7504
 -10137051.67647  -7867177.05147  21646794.0554                   21646789.1724
        47.5004         46.5004
   3428993.37947   2699098.82846  20958819.7114                   20958816.1294
        46.0004         36.5004
  -8519947.71547  -6575765.21546  22821279.7504                   22821277.7154
        42.2504         38.0004
   9640725.50047   7577786.84046  23456666.0474                   23456665.5704
        43.5004         39.0004
  -4375428.59447  -3348808.39146  22706179.1024                   22706178.6564
        42.7504         37.0004
  21076352.84446  16426238.30944  24694243.8834                   24694246.4574
        36.5004         24.0004
   4590614.17646   3636930.37943  23843702.9534                   23843700.4844
        40.0004         23.7504
 25  8  6  2 56 30.0000000  0  9G16G09G07G04G27G30G08G03G21
   7967871.12947   6254559.73044  22326825.4614                   22326821.3164
        42.5004         29.0004
  -9809497.48448  -7609655.36748  19875603.7194                   19875600.8484
        49.2504         53.0004
 -10260794.81647  -7963600.28147  21623246.7424                   21623241.2194
        47.0004         45.7504
   3391800.67247   2670117.47346  20951742.2034                   20951739.1954
        46.2504         36.0004
  -8644520.09047  -6672834.51646  22797574.8674                   22797572.5664
        43.0004         38.0004
   9480896.50047   7453244.81646  23426252.0554                   23426251.0944
        42.5004         39.7504
  -4543248.38347  -3479576.96146  22674243.4694                   22674243.1214
        42.2504         36.5004
  21099547.87146  16444312.21544  24698657.8754                   24698661.1804
        38.5004         29.2504
   4428871.97346   3510897.55944  23812924.2114                   23812921.6564
        37.7504         25.5004
 25  8  6  2 57  0.0000000  0  9G16G09G07G04G27G30G08G03G21
   7969590.29747   6255899.35244  22327152.8284                   22327147.7584
        43.0004         28.5004
  -9912980.12148  -7690291.18048  19855911.9534                   19855908.8014
        49.5004         53.0004
 -10384388.54347  -8059907.06247  21599726.9064                   21599722.2854
        46.2504         45.5004
   3355001.79747   2641443.01246  20944739.5634                   20944736.2934
        45.2504         36.5004
  -8768546.60547  -6769478.48046  22773972.4454                   22773971.1174
        42.2504         38.7504
   9321178.26247   7328789.10546  23395857.6094                   23395857.2894
        42.5004         39.2504
  -4710756.73447  -3610102.85246  22642368.6724                   22642367.5124
        43.2504         37.5004
  21122687.23046  16462342.81344  24703061.5314                   24703063.7584
        39.0004         25.2504
   4267564.62146   3385203.61744  23782228.9924                   23782226.1174
        39.0004         26.5004
 25  8  6  2 57 30.0000000  0  9G16G09G07G04G27G30G08G03G21
   7971665.27047   6257516.21544  22327547.5554                   22327543.1954
        42.5004         28.0004
 -10016003.17248  -7770568.87148  19836307.2194                   19836304.0594
        50.0004         53.0004
 -10507832.48447  -8156097.12547  21576236.6804                   21576232.0864
        47.0004         45.7504
   3318597.31347   2613075.85546  20937812.6334                   20937808.8284
        46.2504         37.0004
  -8892024.42647  -6865694.89546  22750475.4614                   22750473.8444
        42.7504         39.2504
   9161571.62147   7204420.35946  23365486.0784                   23365484.7114
        42.2504         38.0004
  -4877949.52747  -3740382.85246  22610552.3594                   22610551.7894
        42.7504         37.2504
  21145769.20746  16480328.69944  24707452.9454                   24707456.8554
        38.7504         29.5004
   4106695.25046   3259850.94544  23751615.8834                   23751614.0204
        39.5004         26.0004
 25  8  6  2 58  0.0000000  0  9G16G09G07G04G27G30G08G03G21
   7974091.74247   6259406.97344  22328009.8914                   22328004.6334
        43.2504         28.5004
 -10118566.74648  -7850488.52748  19816789.9844                   19816786.7234
        48.7504         53.0004
 -10631128.08247  -8252171.59847  21552774.1724                   21552769.3874
        46.5004         46.0004
   3282585.44947   2585014.63746  20930959.3594                   20930955.7304
        45.7504         36.5004
  -9014952.94947  -6961483.28146  22727083.3594                   22727081.5204
        42.7504         39.0004
   9002075.09046   7080137.43846  23335134.5164                   23335134.0004
        40.7504         38.0004
  -5044825.02347  -3870415.60946  22578796.7424                   22578796.1844
        43.7504         37.5004
  21168789.79345  16498266.65244  24711834.2504                   24711837.4884
        35.5004         25.5004
   3946264.41446   3134839.99244  23721087.0784                   23721084.5984
        40.7504         26.2504
 25  8  6  2 58 30.0000000  0  9G16G09G07G04G27G30G08G03G21
   7976866.80947   6261569.36344  22328537.7114                   22328532.6914
        44.0004         28.5004
 -10220669.15648  -7930048.84048  19797360.7664                   19797357.5044
        50.0004         53.0004
 -10754275.16047  -8348130.34047  21529340.3284                   21529335.3284
        47.0004         46.0004
   3246966.40247   2557259.51246  20924181.2194                   20924177.7194
        46.2504         36.5004
  -9137329.66847  -7056841.68746  22703796.0314                   22703794.0514
        42.2504         38.2504
   8842689.05146   6955940.61346  23304803.9534                   23304803.7194
        40.5004         38.0004
  -5211379.53547  -4000198.24246  22547102.6254                   22547102.0044
        43.5004         37.7504
  21191746.82045  16516155.17644  24716203.2114                   24716205.7464
        35.0004         27.5004
   3786274.85546   3010172.89844  23690641.7664                   23690639.3914
        40.7504         26.2504
 25  8  6  2 59  0.0000000  0  9G16G09G07G04G27G30G08G03G21
   7979989.77747   6264002.84844  22329132.2344                   22329126.6644
        43.7504         28.0004
 -10322306.96548  -8009247.12148  19778019.7194                   19778016.4224
        50.0004         53.0004
 -10877272.30947  -8443972.24247  21505934.6174                   21505929.4494
        47.0004         46.0004
   3211741.93047   2529811.84846  20917478.3284                   20917475.3204
        45.0004         36.2504
  -9259150.50447  -7151766.94946  22680613.7734                   22680611.9384
        42.7504         38.0004
   8683415.61346   6831831.52046  23274495.3524                   23274494.7664
        41.5004         36.7504
  -5377607.71947  -4129726.59446  22515470.3524                   22515469.7194
        43.7504         37.5004
  21214639.78146  16533993.69544  24720558.7734                   24720562.1024
        36.5004         27.5004
   3626730.72346   2885852.87944  23660281.1804                   23660279.0044
        40.7504         27.0004
 25  8  6  2 59 30.0000000  0  9G16G09G07G04G27G30G08G03G21
   9558875.95747   7494303.76244  22629583.8834                   22629578.9494
        44.0004         28.5004
  -8848057.00048  -6860480.91048  20058559.7734                   20058556.6174
        49.5004         53.0004
  -9424697.16847  -7312095.47347  21782350.0864                   21782345.2194
        47.0004         45.5004
   4752331.40247   3730271.14546  21210642.6414                   21210639.4574
        46.0004         36.5004
  -7804990.85947  -6018655.46546  22957330.8594                   22957329.0204
        42.7504         38.5004
  10099678.45746   7935413.04346  23544001.0234                   23544000.7974
        40.2504         37.5004
  -3968082.27747  -3031394.98846  22783693.4924                   22783693.1454
        43.5004         38.0004
  22812883.86746  17779378.62544  25024694.7504                   25024697.9064
        36.0004         26.0004
   5043058.06646   3989484.68044  23929799.6334                   23929797.1174
        40.2504         27.0004
 25  8  6  3  0  0.0000000  0  9G16G09G07G04G27G30G08G03G21
   9562683.78947   7497270.88744  22630308.7424                   22630304.0044
        44.0004         27.7504
  -8948763.38348  -6938953.39848  20039396.1954                   20039393.3134
        48.7504         52.7504
  -9547396.71947  -7407705.47347  21759001.2664                   21758996.4344
        47.5004         46.2504
   4717893.51247   3703436.40246  21204089.2584                   21204085.6914
        45.2504         36.2504
  -7925695.52347  -6112710.98046  22934361.3914                   22934359.3954
        42.0004         38.5004
   9940628.38747   7811478.00446  23513735.0084                   23513734.0634
        42.0004         36.5004
  -4133649.72347  -3160408.49246  22752187.2034                   22752186.8164
        43.5004         37.5004
  22835639.41046  17797110.10244  25029025.3524                   25029028.6134
        36.0004         29.2504
   4884409.56646   3865862.57044  23899610.1414                   23899606.9574
        39.7504         27.2504
 25  8  6  3  0 30.0000000  0  9G16G09G07G04G27G30G08G03G21
   9566828.93047   7500500.84844  22631097.7274                   22631092.7664
        44.0004         28.0004
  -9049002.73048  -7017061.97748  20020321.4384                   20020318.0004
        50.0004         53.0004
  -9669948.38747  -7503200.24647  21735680.9224                   21735676.0474
        47.2504         46.5004
   4683847.82847   3676907.27746  21197610.7034                   21197607.1254
        46.0004         36.0004
  -8045839.75047  -6206329.79346  22911498.9304                   22911497.1254
        42.5004         38.0004
   9781689.40247   7687629.53946  23483489.7894                   23483488.8914
        42.0004         36.7504
  -4298882.51647  -3289161.23046  22720744.8754                   22720744.3954
        44.2504         38.0004
  22858321.93045  17814784.65644  25033341.4924                   25033345.5204
        35.5004         28.5004
   4726211.57046   3742591.49244  23869505.5944                   23869502.6954
        40.7504         26.7504
 25  8  6  3  1  0.0000000  0  9G16G09G07G04G27G30G08G03G21
   9571306.20747   7503989.62144  22631949.3134                   22631944.5314
        44.0004         28.5004
  -9148775.82848  -7094807.23448  20001335.3204                   20001332.0514
        50.0004         53.0004
  -9792354.70347  -7598581.73847  21712387.3284                   21712382.4064
        46.2504         46.2504
   4650191.96147   3650681.90246  21191206.7194                   21191202.8244
        45.5004         36.5004
  -8165423.64546  -6299511.99246  22888743.1334                   22888741.1484
        41.5004         38.2504
   9622859.41046   7563865.98445  23453264.6724                   23453264.0704
        40.7504         35.5004
  -4463779.52747  -3417652.34046  22689366.1414                   22689365.2734
        43.5004         37.5004
  22880926.80145  17832398.72744  25037642.4304                   25037646.7854
        34.0004         28.2504
   4568464.02346   3619671.41844  23839487.1094                   23839484.8164
        39.7504         26.5004
 25  8  6  3  1 30.0000000  0  9G16G09G07G04G27G30G08G03G21
   9576115.05147   7507736.77044  22632864.6954                   22632859.6094
        44.0004         28.0004
  -9248078.99648  -7172186.32048  19982438.3054                   19982434.9574
        49.0004         53.2504
  -9914613.39147  -7693848.19547  21689122.2664                   21689117.2304
        46.5004         46.0004
   4616928.00047   3624761.91446  21184876.2114                   21184872.8674
        45.0004         36.0004
  -8284442.87546  -6392254.18446  22866094.1564                   22866092.1294
        41.5004         38.2504
   9464140.81646   7440189.26246  23423061.7274                   23423060.8914
        40.0004         36.0004
  -4628335.09447  -3545877.36746  22658051.8444                   22658051.6054
        44.2504         38.5004
  22903453.86345  17849952.14844  25041930.4064                   25041934.5864
        34.5004         29.7504
   4411171.52346   3497105.93444  23809555.6884                   23809552.3014
        41.0004         27.2504
 25  8  6  3  2  0.0000000  0  9G16G09G07G04G27G30G08G03G21
   9581256.29347   7511742.92644  22633842.7974                   22633838.1414
        44.5004         28.0004
  -9346907.15248  -7249195.27048  19963632.0704                   19963628.7624
        50.0004         53.0004
 -10036721.08647  -7788997.01247  21665885.8204                   21665880.5274
        47.2504         46.2504
   4584059.39147   3599149.98846  21178621.5634                   21178618.3364
        46.2504         36.0004
  -8402891.70747  -6484551.92246  22843554.1644                   22843552.1954
        42.5004         38.7504
   9305537.47346   7316602.33445  23392880.7424                   23392879.9224
        40.2504         34.2504
  -4792542.12547  -3673830.81646  22626804.4534                   22626803.8134
        45.0004         38.2504
  22925904.55145  17867446.04744  25046202.7584                   25046206.7544
        32.0004         24.7504
   4254340.02046   3374899.64544  23779711.5554                   23779708.5904
        41.2504         26.5004
 25  8  6  3  2 30.0000000  0  9G16G09G07G04G27G30G08G03G21
   9586722.14147   7516002.02744  22634883.1954                   22634878.0744
        43.7504         29.2504
  -9445263.96948  -7325836.93448  19944915.4224                   19944911.9454
        49.7504         53.0004
 -10158682.87147  -7884032.12947  21642677.4614                   21642672.4264
        47.0004         46.0004
   4551580.85247   3573842.01245  21172441.1724                   21172437.5784
        46.0004         35.7504
  -8520773.19547  -6576407.57446  22821121.9384                   22821120.8874
        43.0004         38.5004
   9147044.40246   7193101.35245  23362720.6804                   23362719.5944
        41.2504         34.2504
  -4956402.36747  -3801514.03946  22595622.5084                   22595621.9964
        44.0004         38.0004
  22948271.45355  17884874.66053  25050458.1884                   25050462.2814
        32.2504         21.0004
   4097966.59046   3253050.30144  23749955.0084                   23749951.4654
        40.5004         26.5004
 25  8  6  3  3  0.0000000  0  9G16G09G07G04G27G30G08G03G21
   9592509.80947   7520511.87544  22635985.0864                   22635979.9614
        44.7504         29.5004
  -9543147.81648  -7402110.06248  19926288.5864                   19926285.2114
        49.7504         53.0004
 -10280498.09847  -7978953.04747  21619496.6024                   21619491.7234
        47.5004         46.2504
   4519492.40647   3548838.01246  21166334.5944                   21166331.8874
        46.2504         36.0004
  -8638085.04747  -6667819.35946  22798798.6804                   22798796.2734
        43.7504         38.5004
   8988662.03946   7069686.61345  23332580.8204                   23332579.5744
        40.2504         33.5004
  -5119912.15247  -3928924.18746  22564507.1174                   22564507.1024
        44.0004         39.0004
  22970552.48045  17902236.38344  25054698.7664                   25054703.0204
        34.2504         25.2504
   3942053.80146   3131559.85544  23720285.7584                   23720282.2344
        40.5004         26.5004
 25  8  6  3  3 30.0000000  0  9G16G09G07G04G27G30G08G03G21
   9598617.23447   7525270.89844  22637146.4224                   22637142.3594
        44.2504         28.7504
  -9640556.76648  -7478013.13348  19907752.6254                   19907749.0514
        49.7504         53.2504
 -10402166.91447  -8073759.87147  21596343.2734                   21596338.6374
        47.2504         46.5004
   4487794.41047   3524138.26246  21160303.4224                   21160300.1294
        46.7504         36.0004
  -8754824.69147  -6758785.27046  22776583.4454                   22776581.6454
        42.5004         38.7504
   8830391.14147   6946358.73445  23302463.4844                   23302462.3914
        42.2504         35.5004
  -5283067.59447  -4056058.20746  22533460.1484                   22533459.6254
        44.2504         38.7504
  22992745.76246  17919529.76244  25058923.4614                   25058926.3874
        37.7504         24.5004
   3786604.35546   3010430.47744  23690704.4384                   23690700.9064
        41.5004         25.7504
 25  8  6  3  4  0.0000000  0  9G16G09G07G04G27G30G08G03G21
   9605040.33247   7530275.88344  22638369.2974                   22638364.3284
        43.0004         29.0004
  -9737490.71548  -7553546.08248  19889306.2114                   19889302.9414
        48.7504         53.2504
 -10523690.64547  -8168453.64547  21573218.1724                   21573213.5984
        47.5004         46.5004
   4456485.34847   3499741.56645  21154345.3444                   21154341.7424
        46.5004         35.5004
  -8870991.46547  -6849304.79746  22754476.9384                   22754475.9064
        42.7504         38.7504
   8672230.53147   6823116.77746  23272366.1254                   23272364.9774
        42.7504         36.0004
  -5445866.53547  -4182914.44546  22502480.5704                   22502479.9344
        44.5004         38.5004
  23014847.73846  17936752.04744  25063128.2194                   25063132.1844
        38.2504         24.5004
   3631619.25046   2889662.93044  23661210.8054                   23661208.1134
        41.0004         25.7504
 25  8  6  3  4 30.0000000  0  9G16G09G07G04G27G30G08G03G21
   9611778.33647   7535526.24644  22639651.1724                   22639646.5354
        43.2504         28.2504
  -9833946.12948  -7628706.14148  19870951.4144                   19870948.3444
        49.0004         53.2504
 -10645067.10947  -8263032.66847  21550121.2894                   21550115.9264
        47.5004         46.5004
   4425567.11747   3475649.41846  21148461.4614                   21148458.8954
        46.0004         36.0004
  -8986581.20347  -6939374.68046  22732481.7584                   22732479.8754
        44.2504         39.0004
   8514182.62947   6699962.66446  23242290.9694                   23242289.1724
        43.2504         37.0004
  -5608303.50847  -4309488.62546  22471569.6644                   22471569.0234
        43.7504         37.7504
  23036858.44546  17953903.16844  25067316.1174                   25067320.6764
        37.2504         26.5004
   3477102.82846   2769260.57444  23631807.9144                   23631804.7504
        40.7504         26.0004
 25  8  6  3  5  0.0000000  0  9G16G09G07G04G27G30G08G03G21
   9618826.70347   7541018.45344  22640992.3914                   22640987.7894
        42.5004         28.0004
  -9929923.39148  -7703493.60948  19852687.3754                   19852684.4534
        49.0004         53.2504
 -10766298.12948  -8357498.35947  21527052.0084                   21527047.1564
        48.0004         47.0004
   4395037.73847   3451860.27346  21142652.2734                   21142648.4694
        47.5004         36.0004
  -9101593.75847  -7028994.80546  22710595.1954                   22710593.2544
        43.5004         39.0004
   8356245.78547   6576895.05146  23212236.0314                   23212235.1724
        43.2504         37.7504
  -5770376.88747  -4435779.49246  22440728.0164                   22440727.3134
        43.2504         38.7504
  23058773.73846  17970979.89844  25071487.6024                   25071491.3364
        38.0004         26.5004
   3323055.51646   2649223.74644  23602494.0554                   23602490.4184
        40.5004         24.7504
 25  8  6  3  5 30.0000000  0  9G16G09G07G04G27G30G08G03G21
   9626184.37947   7546751.69544  22642392.5554                   22642388.0314
        43.2504         27.7504
 -10025419.34048  -7777906.03548  19834515.1954                   19834512.0084
        49.5004         53.0004
 -10887381.57448  -8451849.05947  21504010.1334                   21504005.4924
        48.0004         47.0004
   4364898.79347   3428375.35945  21136917.0394                   21136913.5514
        45.7504         35.2504
  -9216025.36347  -7118162.23846  22688819.8594                   22688817.9924
        44.0004         39.0004
   8198422.02047   6453915.57846  23182203.8284                   23182202.4184
        43.7504         38.7504
  -5932081.43047  -4561782.95746  22409956.3834                   22409955.9104
        43.7504         39.0004
  23080593.22346  17987982.05144  25075640.0164                   25075643.5164
        37.0004         28.0004
   3169481.38746   2529555.63744  23573269.1564                   23573266.2544
        40.2504         25.0004
 25  8  6  3  6  0.0000000  0  9G16G09G07G04G27G30G08G03G21
   9633845.35547   7552721.26644  22643850.5784                   22643846.0234
        43.2504         28.5004
 -10120436.13348  -7851945.09448  19816434.4614                   19816430.9494
        49.2504         53.2504
 -11008321.26647  -8546087.73447  21480996.0634                   21480991.3554
        47.5004         47.0004
   4335146.50847   3405191.74245  21131255.4384                   21131251.8634
        45.7504         35.2504
  -9329877.63347  -7206878.23846  22667154.4224                   22667152.3364
        44.2504         39.0004
   8040708.00447   6331021.60246  23152191.8754                   23152190.2304
        43.7504         38.5004
  -6093417.31647  -4687499.13746  22379255.1174                   22379254.9024
        44.0004         39.0004
  23102311.23446  18004905.10544  25079772.4224                   25079776.5474
        36.5004         28.0004
   3016379.06646   2410255.19544  23544134.6884                   23544132.0514
        39.5004         25.5004
 25  8  6  3  6 30.0000000  0  8G16G09G07G04G27G30G08G21
   9641801.65647   7558920.96544  22645364.3914                   22645359.6764
        43.2504         27.0004
 -10214977.19148  -7925613.44548  19798443.5554                   19798440.4344
        49.0004         53.0004
 -11129122.13347  -8640218.23847  21458008.8754                   21458003.6884
        47.5004         46.7504
   4305775.80147   3382305.45345  21125665.9224                   21125662.6884
        45.2504         35.2504
  -9443153.41847  -7295145.03946  22645598.6254                   22645596.4774
        44.0004         38.5004
   7883099.23047   6208209.63346  23122199.7664                   23122198.4534
        43.2504         38.5004
  -6254385.98447  -4812929.18446  22348623.8364                   22348623.0554
        43.5004         38.5004
   2863745.99646   2291320.37544  23515089.5004                   23515086.6884
        40.0004         24.2504
 25  8  6  3  7  0.0000000  0  8G16G09G07G04G27G30G08G21
   9650050.17647   7565348.37544  22646934.1174                   22646929.1994
        43.2504         26.2504
 -10309041.87148  -7998910.59848  19780543.5704                   19780540.6374
        49.7504         53.2504
 -11249784.52347  -8734240.84847  21435047.3524                   21435041.8984
        47.5004         46.5004
   4276785.78147   3359715.80545  21120149.6884                   21120146.0274
        46.0004         35.7504
  -9555851.55547  -7382961.73046  22624152.8674                   22624150.7424
        44.5004         39.2504
   7725595.18447   6085479.25446  23092227.3754                   23092226.0124
        43.7504         39.0004
  -6414984.72747  -4938070.98446  22318062.5784                   22318062.1644
        44.2504         38.5004
   2711583.70346   2172752.38744  23486134.4064                   23486131.6414
        40.2504         26.0004
 25  8  6  3  7 30.0000000  0  8G16G09G07G04G27G30G08G21
   9658591.07047   7572003.60944  22648559.8444                   22648554.7384
        43.0004         24.2504
 -10402625.68048  -8071833.03548  19762735.7114                   19762732.0124
        48.7504         53.2504
 -11370305.61347  -8828153.35947  21412112.7344                   21412107.3674
        47.0004         46.2504
   4248179.32447   3337425.03145  21114706.0394                   21114703.1254
        45.5004         35.5004
  -9667967.00447  -7470324.36746  22602817.8674                   22602816.0234
        44.5004         39.0004
   7568199.25447   5962833.14146  23062275.7584                   23062275.0634
        44.0004         39.7504
  -6575206.99647  -5062919.42246  22287573.4304                   22287572.3094
        44.0004         39.0004
   2559897.40646   2054555.29344  23457269.1804                   23457266.3554
        40.2504         24.5004
 25  8  6  3  8  0.0000000  0  8G16G09G07G04G27G30G08G21
  11242847.78547   8806489.35944  22950033.7814                   22950028.7544
        43.5004         26.5004
  -8920297.68748  -6916772.26248  20044813.1094                   20044809.7384
        48.5004         53.2504
  -9915254.85247  -7694347.53147  21688999.7664                   21688994.9024
        46.5004         46.7504
   5795383.57847   4543038.71146  21409129.5554                   21409125.6054
        45.5004         36.0004
  -8204067.76647  -6329623.62946  22881388.8054                   22881387.0314
        43.7504         39.0004
   8986343.48047   7067880.65646  23332139.8364                   23332139.2424
        44.5004         40.5004
  -5159617.61347  -3959862.67646  22556951.0554                   22556950.3364
        43.7504         39.2504
   3984120.90246   3164339.87944  23728289.9774                   23728286.9884
        40.0004         24.5004
 25  8  6  3  8 30.0000000  0  8G16G09G07G04G27G30G08G21
  11251977.36747   8813603.31644  22951771.1804                   22951765.9924
        43.7504         25.0004
  -9012903.72748  -6988932.80548  20027190.7894                   20027187.4384
        49.7504         53.2504
 -10035481.07847  -7788030.27747  21666121.3594                   21666116.6054
        46.2504         47.0004
   5767555.46947   4521354.44145  21403833.4614                   21403830.2624
        45.2504         35.5004
  -8315000.34047  -6416064.55146  22860278.7894                   22860276.8754
        44.0004         39.5004
   8829176.60547   6945413.02746  23302232.0704                   23302230.9694
        45.0004         41.0004
  -5319064.80947  -4084107.15246  22526609.1094                   22526608.2734
        43.5004         38.5004
   3833405.25046   3046899.11743  23699609.4924                   23699606.5044
        40.7504         23.5004
 25  8  6  3  9  0.0000000  0  8G16G09G07G04G27G30G08G21
  11261394.66047   8820941.46144  22953562.8054                   22953558.0864
        43.5004         27.5004
  -9105021.50048  -7060712.87548  20009661.4304                   20009657.7544
        49.7504         53.0004
 -10155562.31247  -7881600.03147  21643270.7584                   21643265.8164
        46.2504         47.0004
   5740113.48047   4499971.03545  21398611.7274                   21398608.3054
        45.0004         35.2504
  -8425341.36747  -6502044.53146  22839282.1254                   22839279.9574
        44.2504         39.2504
   8672122.01647   6823032.89146  23272345.0004                   23272344.2974
        45.0004         41.0004
  -5478122.06247  -4208047.77746  22496341.9384                   22496340.7734
        44.2504         38.5004
   3683175.50846   2929837.00844  23671022.1174                   23671018.7074
        39.2504         25.0004
 25  8  6  3  9 30.0000000  0  8G16G09G07G04G27G30G08G21
  11271098.96547   8828503.23844  22955410.1804                   22955404.8874
        43.5004         27.2504
  -9196647.85548  -7132110.02348  19992224.9534                   19992221.7424
        49.0004         53.0004
 -10275496.73047  -7975055.35947  21620447.9614                   21620442.9454
        47.0004         47.0004
   5713059.22347   4478889.76645  21393463.5004                   21393459.8244
        45.7504         35.5004
  -8535087.16047  -6587560.68446  22818397.6094                   22818395.8164
        44.5004         39.5004
   8515181.93847   6700742.00046  23242480.7274                   23242479.7664
        45.0004         40.7504
  -5636784.06647  -4331680.41046  22466149.5554                   22466148.1994
        44.0004         39.2504
   3533435.72746   2813156.67644  23642528.2114                   23642523.8634
        40.0004         25.0004
 25  8  6  3 10  0.0000000  0  8G16G09G07G04G27G30G08G21
  11281085.55947   8836284.99244  22957310.2344                   22957304.9844
        44.0004         26.5004
  -9287783.22747  -7203124.58648  19974882.6174                   19974879.6294
        47.7504         53.0004
 -10395285.77747  -8068397.44547  21597652.7814                   21597647.9064
        47.0004         46.7504
   5686390.63347   4458109.01645  21388388.8054                   21388385.5514
        45.2504         35.0004
  -8644237.73447  -6672613.03146  22797627.1254                   22797625.3164
        43.7504         39.7504
   8358354.75447   6578539.05946  23212637.3284                   23212636.0744
        44.0004         40.0004
  -5795049.32447  -4455003.91046  22436032.8834                   22436031.5474
        43.5004         39.5004
   3384186.29746   2696858.43844  23614126.0634                   23614123.1764
        39.5004         24.5004
 25  8  6  3 10 30.0000000  0  8G16G09G07G04G27G30G08G21
  11291350.97347   8844284.00044  22959263.7114                   22959258.8674
        44.0004         27.0004
  -9378427.18047  -7273756.22348  19957633.7114                   19957630.5434
        47.7504         53.0004
 -10514930.54747  -8161627.10547  21574885.5164                   21574880.4144
        46.0004         46.5004
   5660106.57847   4437627.90645  21383386.8754                   21383383.4104
        45.5004         35.0004
  -8752792.21547  -6757200.90646  22776969.3674                   22776967.9694
        43.5004         39.2504
   8201639.87547   6456423.62546  23182815.4144                   23182813.8164
        43.0004         39.0004
  -5952915.27347  -4578016.23846  22405991.6334                   22405990.3794
        43.7504         39.2504
   3235428.38746   2580943.20344  23585819.1254                   23585815.2544
        40.5004         26.5004
 25  8  6  3 11  0.0000000  0  8G16G09G07G04G27G30G08G21
  11301892.48447   8852498.16444  22961269.5474                   22961265.2034
        43.7504         26.0004
  -9468578.46948  -7344003.96948  19940478.8754                   19940475.4574
        48.7504         53.0004
 -10634430.42247  -8254743.85547  21552144.9224                   21552140.2194
        47.0004         47.0004
   5634206.71947   4417446.16045  21378458.1644                   21378455.1254
        45.5004         35.5004
  -8860748.86347  -6841322.93746  22756426.3674                   22756424.3324
        44.0004         39.5004
   8045037.67247   6334395.99646  23153014.0394                   23153013.9414
        43.2504         38.7504
  -6110378.57847  -4700714.82846  22376026.6724                   22376026.0084
        43.2504         39.2504
   3087164.37146   2465412.82044  23557604.9064                   23557601.6334
        40.0004         26.0004
 25  8  6  3 11 30.0000000  0  8G16G09G07G04G27G30G08G21
  11312707.91447   8860925.75444  22963327.6804                   22963323.2624
        43.5004         27.5004
  -9558235.37148  -7413866.46548  19923417.2814                   19923414.2504
        50.0004         53.0004
 -10753785.85547  -8347748.06247  21529432.1804                   21529427.1954
        47.5004         46.7504
   5608691.17647   4397563.89145  21373602.9534                   21373599.5984
        46.5004         35.2504
  -8968105.54747  -6924977.45346  22735997.1174                   22735995.0044
        44.2504         39.7504
   7888548.83247   6212456.70346  23123236.3674                   23123234.7384
        43.5004         39.5004
  -6267435.48847  -4823096.74246  22346139.8834                   22346139.4304
        44.5004         39.7504
   2939396.35246   2350268.93444  23529485.7814                   23529482.1684
        40.0004         25.2504
 25  8  6  3 12  0.0000000  0  8G16G09G07G04G27G30G08G21
  11323791.46947   8869562.26244  22965436.7894                   22965432.7774
        43.2504         27.7504
  -9647399.68447  -7483345.13748  19906450.0314                   19906446.4884
        47.7504         53.0004
 -10872999.25847  -8440641.59047  21506747.0004                   21506741.9804
        46.5004         47.0004
   5583556.60547   4377978.48045  21368820.3984                   21368817.0044
        45.5004         34.7504
  -9074863.66047  -7008165.54746  22715681.5704                   22715679.3714
        43.7504         39.0004
   7732170.57047   6090603.57846  23093478.1484                   23093477.1914
        43.7504         39.7504
  -6424085.73047  -4945161.77046  22316330.5944                   22316329.2704
        44.0004         39.7504
   2792123.55146   2235510.93444  23501460.0314                   23501457.1484
        40.5004         24.0004
 25  8  6  3 12 30.0000000  0  8G16G09G07G04G27G30G08G21
  11335139.56647   8878404.90644  22967596.2504                   22967591.4534
        42.5004         25.7504
  -9736071.28148  -7552439.87548  19889576.3524                   19889573.4184
        49.0004         53.0004
 -10992071.35947  -8533425.01647  21484088.1804                   21484082.7814
        46.7504         46.7504
   5558801.49247   4358688.74645  21364109.5394                   21364106.0634
        46.0004         34.7504
  -9181022.65647  -7090886.80546  22695480.3524                   22695477.8914
        44.2504         39.0004
   7575902.09847   5968836.00446  23063740.9844                   23063739.9414
        43.7504         40.2504
  -6580327.04347  -5066908.16446  22286598.7974                   22286597.9184
        44.0004         39.5004
   2645346.97746   2121139.60544  23473530.0394                   23473526.5594
        39.5004         25.2504
 25  8  6  3 13  0.0000000  0  8G16G09G07G04G27G30G08G21
  11346751.93047   8887453.47344  22969805.9844                   22969801.1684
        43.2504         27.0004
  -9824246.43748  -7621147.77048  19872797.1414                   19872794.0044
        48.5004         53.0004
 -11111000.15647  -8626096.77747  21461456.9144                   21461451.5234
        46.7504         46.7504
   5534428.00047   4339696.39145  21359471.2504                   21359468.1724
        46.2504         35.0004
  -9286578.37947  -7173137.97346  22675393.5864                   22675391.1334
        44.2504         39.5004
   7419746.17247   5847156.11346  23034025.2114                   23034024.3054
        43.7504         39.7504
  -6736153.72347  -5188331.45746  22256945.6334                   22256944.7504
        43.7504         39.0004
   2499071.09046   2007158.43443  23445694.2974                   23445690.6644
        39.5004         23.7504
 25  8  6  3 13 30.0000000  0  8G16G09G07G04G27G30G08G21
  11358624.52747   8896704.82444  22972065.1804                   22972060.6134
        42.0004         26.0004
  -9911925.14148  -7689468.82048  19856112.1564                   19856109.1844
        49.5004         53.2504
 -11229786.36347  -8718657.43047  21438852.6094                   21438847.2154
        47.7504         46.7504
   5510434.58647   4321000.20345  21354905.6804                   21354902.2624
        46.0004         34.7504
  -9391530.44147  -7254918.75046  22655421.5474                   22655419.4494
        44.0004         39.0004
   7263701.92647   5725563.25846  23004330.8054                   23004330.3914
        43.5004         40.2504
  -6891563.55547  -5309429.94146  22227372.3834                   22227371.0004
        43.7504         39.2504
   2353296.78946   1893568.13344  23417954.7504                   23417950.5474
        39.2504         24.7504
 25  8  6  3 14  0.0000000  0  8G16G09G07G04G27G30G08G21
  11370754.10247   8906156.41844  22974373.2424                   22974368.7114
        43.0004         26.5004
  -9999107.01248  -7757402.73048  19839522.0314                   19839519.0944
        50.0004         53.0004
 -11348430.82447  -8811107.63747  21416275.1484                   21416269.9384
        47.0004         46.7504
   5486820.01647   4302599.21545  21350411.6644                   21350408.4614
        46.2504         34.2504
  -9495878.18447  -7336228.63346  22635564.5004                   22635562.6374
        43.7504         39.5004
   7107768.78147   5604056.96946  22974658.0784                   22974657.2504
        43.0004         40.0004
  -7046554.18047  -5430201.76646  22197878.7344                   22197877.4844
        44.0004         39.5004
   2208025.18046   1780369.50844  23390310.2274                   23390306.8914
        39.5004         26.0004
 25  8  6  3 14 30.0000000  0  8G16G09G07G04G27G30G08G21
  11383141.25847   8915808.72744  22976730.5554                   22976726.1844
        42.2504         25.7504
 -10085787.43048  -7824945.90248  19823027.5004                   19823024.5554
        48.5004         53.2504
 -11466929.76647  -8903444.45747  21393725.3914                   21393720.3594
        47.2504         47.0004
   5463587.40247   4284495.84845  21345990.6884                   21345987.3984
        45.7504         34.5004
  -9599616.49647  -7417063.64146  22615824.3594                   22615821.8014
        44.5004         39.0004
   6951950.60947   5482640.27346  22945007.0554                   22945005.7464
        43.2504         40.0004
  -7201118.77347  -5550641.62146  22168465.8204                   22168464.3874
        44.2504         40.2504
   2063261.79346   1667566.91844  23362761.9774                   23362758.6524
        38.7504         24.0004
 25  8  6  3 15  0.0000000  0  8G16G09G07G04G27G30G08G21
  11395781.44146   8925658.18844  22979135.9454                   22979131.4884
        41.7504         26.5004
 -10171967.24648  -7892098.99248  19806628.2344                   19806624.9654
        48.7504         53.0004
 -11585285.18447  -8995669.43747  21371203.2504                   21371197.7854
        47.0004         46.7504
   5440734.26647   4266688.18445  21341641.7734                   21341638.6294
        45.2504         34.5004
  -9702745.96547  -7497424.22746  22596199.4614                   22596197.0704
        44.0004         39.2504
   6796245.54347   5361311.70346  22915377.2034                   22915376.1994
        44.0004         40.2504
  -7355256.15247  -5670748.59046  22139134.0864                   22139132.7704
        44.0004         40.2504
   1919006.57446   1555160.31844  23335311.4924                   23335308.5044
        39.2504         26.0004
 25  8  6  3 15 30.0000000  0  8G16G09G07G04G27G30G08G21
  11408670.10246   8935701.27044  22981588.7114                   22981584.4534
        41.0004         26.5004
 -10257647.37547  -7958862.71948  19790323.6094                   19790320.3594
        47.7504         53.0004
 -11703499.22347  -9087784.24647  21348707.9384                   21348703.0594
        47.0004         47.0004
   5418258.16047   4249174.31345  21337364.7584                   21337361.6214
        46.0004         34.0004
  -9805267.11747  -7577310.79746  22576689.5474                   22576687.8134
        44.2504         39.0004
   6640651.93847   5240069.98446  22885768.7734                   22885767.4804
        44.5004         39.5004
  -7508965.11347  -5790521.72346  22109884.2424                   22109882.9384
        44.0004         40.0004
   1775259.33246   1443149.53544  23307957.1644                   23307954.3874
        39.7504         25.7504
 25  8  6  3 16  0.0000000  0  8G16G09G07G04G27G30G08G21
  11421803.46947   8945935.02744  22984088.0944                   22984083.1414
        42.0004         26.0004
 -10342827.83248  -8025237.08648  19774114.5944                   19774111.0354
        49.0004         53.0004
 -11821572.74248  -9179789.57447  21326239.3984                   21326234.2034
        48.7504         47.2504
   5396157.53147   4231953.02045  21333159.5084                   21333155.9344
        45.7504         34.5004
  -9907179.64547  -7656723.10946  22557296.6174                   22557294.3874
        44.0004         39.2504
   6485168.90647   5118914.42646  22856181.0784                   22856180.2774
        43.0004         40.0004
  -7662243.52347  -5909959.36746  22080716.6644                   22080715.0394
        43.2504         40.5004
   1632020.94546   1331535.27044  23280699.9304                   23280696.6254
        39.0004         24.0004
 25  8  6  3 16 30.0000000  0  8G16G09G07G04G27G30G08G21
  13010598.94146  10183957.43044  23286425.4614                   23286421.1684
        41.0004         25.0004
  -8852083.90248  -6863618.43048  20057793.5004                   20057789.9614
        48.7504         53.0004
 -10364080.91447  -8044081.63747  21603590.8134                   21603585.7274
        47.2504         47.2504
   6949853.34847   5442625.06345  21628817.7034                   21628814.7074
        45.5004         34.7504
  -8433058.00047  -6508056.84046  22837812.8984                   22837810.7664
        44.0004         39.7504
   7905222.70747   6225449.91446  23126408.5314                   23126407.2464
        43.7504         39.2504
  -6239662.37547  -4801454.49246  22351424.9064                   22351423.3284
        43.5004         41.2504
   3064718.82846   2447923.28944  23553332.9924                   23553329.8874
        40.2504         26.5004
 25  8  6  3 17  0.0000000  0  8G16G09G07G04G27G30G08G21
  13024217.06646  10194568.91044  23289016.6094                   23289012.7344
        41.5004         25.5004
  -8936258.00048  -6929208.63348  20041775.5634                   20041772.3714
        49.2504         53.0004
 -10481869.16447  -8135864.67647  21581176.3914                   21581171.0554
        47.5004         47.0004
   6928505.93847   5425990.69145  21624755.6334                   21624752.5784
        45.7504         34.7504
  -8533745.36347  -6586514.47746  22818652.4774                   22818650.8284
        44.0004         39.5004
   7749965.44147   6104470.28946  23096864.1024                   23096862.8914
        43.2504         39.2504
  -6392066.43747  -4920210.82046  22322423.0554                   22322421.7814
        44.2504         39.7504
   2922507.50846   2337109.32844  23526271.1644                   23526267.4264
        40.5004         25.7504
 25  8  6  3 17 30.0000000  0  8G16G09G07G04G27G30G08G21
  13038071.51647  10205364.55544  23291653.5634                   23291649.1914
        42.5004         25.5004
  -9019929.41848  -6994407.13348  20025853.4774                   20025850.1954
        48.7504         53.0004
 -10599516.70748  -8227538.07847  21558788.4844                   21558783.1884
        48.0004         47.0004
   6907532.27747   5409647.55145  21620764.6804                   21620761.3134
        45.2504         34.7504
  -8633820.26647  -6664494.87546  22799608.8674                   22799606.7424
        44.2504         40.0004
   7594819.37547   5983577.31346  23067340.5864                   23067339.3324
        43.2504         39.2504
  -6544030.69947  -5038624.45746  22293504.8134                   22293503.9104
        44.7504         40.5004
   2780810.41846   2226696.07044  23499307.1094                   23499303.5314
        40.0004         25.2504
 25  8  6  3 18  0.0000000  0  8G16G09G07G04G27G30G08G21
  13052160.35247  10216342.83244  23294334.7504                   23294330.1564
        42.5004         25.2504
  -9103096.61348  -7059212.73848  20010027.2114                   20010023.8364
        49.5004         53.0004
 -10717022.78948  -8319101.25047  21536427.8984                   21536422.9454
        48.7504         47.0004
   6886932.44947   5393595.71145  21616844.4534                   21616841.5004
        45.0004         34.0004
  -8733280.76247  -6741996.50846  22780681.7504                   22780679.9924
        44.5004         39.7504
   7439785.30147   5862771.62146  23037838.4844                   23037836.9494
        43.5004         39.5004
  -6695551.43447  -5156692.48046  22264671.2974                   22264670.1414
        44.2504         40.5004
   2639629.89846   2116685.34444  23472441.4454                   23472438.1604
        41.7504         27.5004
 25  8  6  3 18 30.0000000  0  8G16G09G07G04G27G30G08G21
  13066480.53947  10227501.39144  23297059.3524                   23297055.3874
        42.5004         26.0004
  -9185758.76248  -7123624.80148  19994297.4224                   19994293.5984
        49.5004         53.0004
 -10834387.53548  -8410554.28147  21514094.2194                   21514089.3244
        48.2504         47.0004
   6866705.61747   5377834.53145  21612995.6954                   21612992.0634
        45.5004         34.2504
  -8832125.87947  -6819018.63346  22761872.1174                   22761870.8754
        43.0004         39.5004
   7284863.29747   5742053.23846  23008357.4924                   23008356.2344
        44.7504         40.0004
  -6846625.69947  -5274412.61746  22235922.9224                   22235921.7194
        43.7504         41.2504
   2498967.57447   2007078.38344  23445674.6564                   23445671.1094
        42.0004         28.0004
 25  8  6  3 19  0.0000000  0  8G16G09G07G04G27G30G08G21
  13081027.22347  10238836.44144  23299828.1564                   23299823.4414
        43.0004         25.5004
  -9267917.21548  -7187644.37548  19978663.1174                   19978659.6214
        48.5004         53.0004
 -10951613.42647  -8501899.12547  21491786.6414                   21491781.7114
        47.5004         46.7504
   6846848.99247   5362361.80945  21609217.1334                   21609213.7304
        44.2504         34.2504
  -8930356.60547  -6895562.00846  22743179.5944                   22743177.7344
        43.0004         39.2504
   7130051.34047   5621420.62946  22978897.5474                   22978896.4534
        42.7504         40.2504
  -6997252.75447  -5391784.26646  22207259.4534                   22207258.1994
        43.5004         40.5004
   2358822.89546   1897874.78544  23419005.5314                   23419002.3204
        41.5004         29.5004
 25  8  6  3 19 30.0000000  0  8G16G09G07G04G27G30G08G21
  13095799.18847  10250347.03944  23302638.7274                   23302634.2034
        42.5004         25.7504
  -9349569.55148  -7251269.57048  19963125.3054                   19963121.5084
        48.5004         53.0004
 -11068698.93048  -8593134.57847  21469506.3524                   21469500.7544
        48.2504         47.0004
   6827363.43447   5347178.23045  21605508.8134                   21605505.8954
        44.7504         33.7504
  -9027970.38347  -6971624.65646  22724604.5634                   22724602.3954
        43.7504         39.7504
   6975351.13347   5500875.10246  22949459.1724                   22949458.0204
        44.2504         41.2504
  -7147428.05947  -5508803.89146  22178682.1484                   22178680.8754
        43.7504         40.7504
   2219199.00447   1789077.00444  23392435.9064                   23392432.2774
        42.0004         29.2504
 25  8  6  3 20  0.0000000  0  8G16G09G07G04G27G30G08G21
  13110793.42247  10262030.83644  23305492.0784                   23305487.2234
        42.0004         25.5004
  -9430715.19948  -7314499.94548  19947683.7584                   19947680.2114
        49.5004         53.0004
 -11185644.11348  -8684260.68747  21447252.1414                   21447247.2504
        48.0004         46.7504
   6808247.96147   5332283.02745  21601871.2504                   21601868.1214
        46.2504         34.0004
  -9124966.28947  -7047205.84046  22706146.5004                   22706144.6994
        43.0004         39.7504
   6820762.57047   5380416.57046  22920041.9924                   22920040.8874
        44.5004         41.0004
  -7297148.85947  -5625469.36346  22150191.2424                   22150190.0744
        44.0004         41.0004
   2080097.35947   1680686.15644  23365965.6884                   23365962.3914
        42.0004         28.5004
 25  8  6  3 20 30.0000000  0  8G16G09G07G04G27G30G08G21
  13126006.39847  10273885.07843  23308387.0164                   23308382.1914
        42.0004         23.0004
  -9511354.18748  -7377335.52048  19932338.4224                   19932335.1844
        49.5004         52.7504
 -11302449.88748  -8775278.17247  21425024.8834                   21425020.0554
        48.0004         47.0004
   6789501.00447   5317674.98445  21598304.0004                   21598300.9614
        45.0004         34.5004
  -9221344.21147  -7122305.48446  22687806.8674                   22687803.8404
        43.5004         39.2504
   6666284.91847   5260044.47746  22890645.6254                   22890644.4224
        44.0004         39.7504
  -7446413.12147  -5741779.10546  22121786.9064                   22121785.3794
        43.7504         40.5004
   1941518.61747   1572702.75844  23339594.6954                   23339591.8714
        42.0004         28.7504
 25  8  6  3 21  0.0000000  0  8G16G09G07G04G27G30G08G21
  13141435.57846  10285907.76643  23311323.3754                   23311318.9264
        41.5004         23.0004
  -9591485.19148  -7439775.26248  19917090.1804                   19917086.7304
        49.5004         52.7504
 -11419115.64547  -8866186.55547  21402824.2114                   21402819.0474
        47.7504         47.2504
   6771122.35547   5303353.93445  21594806.5004                   21594803.3874
        45.7504         34.0004
  -9317102.64147  -7196922.39546  22669584.2664                   22669582.2274
        43.5004         39.7504
   6511918.82847   5139759.30946  22861271.0394                   22861269.3444
        45.0004         40.2504
  -7595217.35547  -5857730.38346  22093470.3674                   22093469.0904
        43.2504         41.0004
   1803464.94547   1465128.50445  23313324.5004                   23313320.8554
        43.0004         30.0004
 25  8  6  3 21 30.0000000  0  8G16G09G07G04G27G30G08G21
  13157079.52347  10298097.81643  23314299.9924                   23314295.0164
        42.0004         23.0004
  -9671105.89148  -7501817.35948  19901938.8524                   19901935.6994
        49.5004         52.7504
 -11535639.71948  -8956984.53147  21380650.2974                   21380645.4884
        48.0004         47.2504
   6753112.90247   5289320.56345  21591379.7194                   21591376.4184
        46.2504         34.0004
  -9412239.00847  -7271054.58246  22651480.4774                   22651478.0944
        43.5004         39.5004
   6357666.05147   5019562.43446  22831917.5704                   22831915.8094
        44.7504         40.0004
  -7743557.11747  -5973319.73046  22065242.1724                   22065241.2154
        43.5004         41.2504
   1665939.45746   1357965.82444  23287153.1414                   23287150.4104
        41.2504         29.7504
 25  8  6  3 22  0.0000000  0  8G16G09G07G04G27G30G08G21
  13172935.45746  10310453.05944  23317317.4694                   23317312.7734
        41.5004         24.2504
  -9750216.47748  -7563461.97748  19886884.5004                   19886881.3014
        49.0004         52.7504
 -11652023.32048  -9047673.05147  21358503.5784                   21358498.3634
        48.2504         47.2504
   6735470.82847   5275573.46145  21588022.7664                   21588019.4654
        44.7504         34.0004
  -9506753.36347  -7344702.10546  22633495.1884                   22633493.0124
        44.5004         39.2504
   6203525.74647   4899453.19946  22802585.5394                   22802583.8134
        43.5004         40.0004
  -7891430.48447  -6088545.65646  22037102.6484                   22037101.6054
        44.2504         40.5004
   1528942.66847   1251215.11345  23261084.7034                   23261081.0904
        42.5004         30.7504
 25  8  6  3 22 30.0000000  0  8G16G09G07G04G27G30G08G21
  13188998.54746  10322969.72743  23320373.9924                   23320369.2194
        41.2504         22.5004
  -9828817.94148  -7624709.86348  19871927.2584                   19871923.9264
        49.2504         52.7504
 -11768267.65648  -9138253.05147  21336382.8914                   21336377.6054
        48.2504         47.0004
   6718193.74247   5262110.77045  21584734.5234                   21584731.4694
        44.5004         34.0004
  -9600646.41447  -7417865.48446  22615627.5704                   22615625.4104
        42.2504         39.2504
   6049496.38347   4779430.43046  22773274.7974                   22773273.0514
        44.2504         39.7504
  -8038836.23447  -6203407.21146  22009052.1484                   22009050.9654
        44.2504         41.2504
   1392474.45347   1144876.25045  23235115.6954                   23235112.5164
        43.0004         30.7504
 25  8  6  3 23  0.0000000  0  8G16G09G07G04G27G30G08G21
  13205265.44546  10335645.20743  23323469.3594                   23323465.0434
        41.2504         22.2504
  -9906909.84048  -7685560.68448  19857066.5004                   19857063.3524
        49.5004         52.5004
 -11884373.20347  -9228724.90247  21314288.5864                   21314283.3794
        47.7504         47.0004
   6701280.53547   5248931.61745  21581516.8914                   21581512.9734
        45.0004         34.2504
  -9693917.69147  -7490544.35946  22597878.5634                   22597876.4654
        44.0004         39.7504
   5895577.80947   4659493.98046  22743984.7974                   22743982.8484
        45.0004         40.0004
  -8185771.84447  -6317902.42646  21981091.5394                   21981090.3164
        44.5004         41.0004
   1256536.02347   1038950.21145  23209246.7584                   23209243.9884
        43.0004         30.2504
 25  8  6  3 23 30.0000000  0  8G16G09G07G04G27G30G08G21
  13221734.56346  10348478.23843  23326603.8134                   23326598.7934
        39.7504         21.2504
  -9984490.34048  -7746013.02048  19842303.7734                   19842300.2934
        49.5004         52.5004
 -12000339.07048  -9319087.91047  21292220.9304                   21292215.6684
        48.5004         47.0004
   6684731.53547   5236036.26645  21578366.7584                   21578363.8874
        45.0004         34.0004
  -9786565.10946  -7562737.11746  22580248.2274                   22580246.4104
        41.5004         39.2504
   5741771.28547   4539644.84046  22714716.2894                   22714714.3714
        44.7504         40.7504
  -8332233.30147  -6432028.16446  21953220.4454                   21953219.3284
        44.7504         41.0004
   1121129.91847    933438.97745  23183480.2734                   23183476.8094
        42.0004         30.5004
 25  8  6  3 24  0.0000000  0  8G16G09G07G04G27G30G08G21
  13238403.49246  10361466.99243  23329775.0474                   23329770.8794
        39.0004         22.5004
 -10061559.01248  -7806066.51648  19827638.1024                   19827634.4264
        49.2504         52.5004
 -12116165.41447  -9409342.19547  21270180.2664                   21270175.1214
        47.7504         47.0004
   6668545.67247   5223423.86745  21575287.1334                   21575283.9804
        44.2504         33.5004
  -9878588.15647  -7634443.34846  22562737.1024                   22562734.5204
        43.2504         39.7504
   5588076.73847   4419882.94946  22685469.3204                   22685467.6484
        45.2504         41.2504
  -8478218.09447  -6545782.47346  21925440.7894                   21925439.2234
        44.5004         41.7504
    986257.32447    828343.45345  23157815.2034                   23157811.7384
        42.5004         30.7504
 25  8  6  3 24 30.0000000  0  8G16G09G07G04G27G30G08G21
  13255268.46546  10374608.47343  23332985.4144                   23332980.6764
        38.5004         21.2504
 -10138116.02748  -7865721.32848  19813069.8054                   19813066.3094
        49.2504         52.5004
 -12231853.10548  -9499488.43047  21248165.2194                   21248160.6024
        48.0004         47.0004
   6652721.31647   5211093.17245  21572275.7194                   21572272.7114
        45.0004         32.7504
  -9969986.86347  -7705663.08246  22545344.6024                   22545342.0044
        43.7504         39.5004
   5434493.44547   4300207.75046  22656243.4224                   22656241.6914
        44.5004         41.5004
  -8623724.19947  -6659163.77347  21897752.0314                   21897750.4344
        44.5004         42.0004
    851918.86347    723664.14145  23132251.5394                   23132247.7304
        43.0004         30.2504
 25  8  6  3 25  0.0000000  0  8G16G09G07G04G27G30G08G21
  13272327.61746  10387901.27343  23336231.0394                   23336226.7034
        39.0004         21.5004
 -10214159.61348  -7924976.05148  19798599.0784                   19798595.6174
        49.2504         52.7504
 -12347400.69148  -9589525.50047  21226177.4844                   21226172.6564
        48.0004         47.2504
   6637258.71547   5199044.36345  21569333.2664                   21569330.3094
        45.5004         33.0004
 -10060759.36747  -7776394.87146  22528070.7274                   22528068.8404
        43.2504         40.2504
   5281022.77047   4180620.29746  22627039.0474                   22627037.1174
        45.0004         41.0004
  -8768747.67247  -6772168.99646  21870154.7974                   21870153.5514
        45.5004         41.7504
    718117.09847    619403.02045  23106789.1094                   23106786.3054
        42.5004         31.2504
 25  8  6  3 25 30.0000000  0  8G16G09G07G04G27G30G08G21
  14864997.03146  11628942.32044  23639306.0474                   23639302.1414
        38.7504         24.5004
  -8714267.49248  -6756228.93448  20084019.0634                   20084015.8634
        49.5004         52.5004
 -10887385.22747  -8451851.09447  21504009.1094                   21504004.0164
        47.7504         47.2504
   8197576.70747   6414876.53145  21866251.8364                   21866249.0204
        45.0004         32.7504
  -8575482.69547  -6619036.39846  22810709.9304                   22810707.6054
        44.2504         40.5004
   6703089.05547   5288723.96946  22897648.8524                   22897647.0704
        44.2504         41.5004
  -7337861.83647  -5657192.94546  22142443.0704                   22142441.3954
        45.0004         41.7504
   2160276.95747   1743163.93845  23381223.4534                   23381220.3714
        43.2504         31.7504
 25  8  6  3 26  0.0000000  0  8G16G09G07G04G27G30G08G21
  14882433.67246  11642529.27744  23642624.2584                   23642620.5904
        39.5004         24.2504
  -8789285.43448  -6814684.46548  20069743.3364                   20069740.2034
        48.7504         52.5004
 -11002656.00448  -8541672.44947  21482073.6804                   21482068.7704
        48.2504         47.0004
   8182832.04347   6403387.15645  21863446.5784                   21863443.2854
        44.7504         33.2504
  -8665003.66447  -6688792.96146  22793674.2584                   22793672.2624
        43.7504         39.5004
   6549840.90647   5169309.92246  22868486.9384                   22868484.8244
        44.0004         41.5004
  -7481914.91847  -5769442.02047  22115030.6254                   22115029.2074
        44.5004         42.0004
   2027549.59447   1639740.00845  23355966.5474                   23355962.7344
        43.0004         31.2504
 25  8  6  3 26 30.0000000  0  8G16G09G07G04G27G30G08G21
  14900056.19946  11656261.08644  23645978.4694                   23645974.0944
        40.0004         26.2504
  -8863788.53948  -6872738.81648  20055566.2664                   20055562.6994
        48.5004         52.5004
 -11117786.60948  -8631384.58647  21460164.7734                   21460159.7034
        48.0004         47.0004
   8168446.21147   6392177.38745  21860708.7194                   21860706.1054
        45.5004         33.5004
  -8753896.63747  -6758060.18046  22776758.3444                   22776756.0744
        43.5004         40.2504
   6396705.41847   5049983.64547  22839345.5474                   22839344.5664
        44.2504         42.0004
  -7625477.50847  -5881308.89847  22087711.1954                   22087709.9534
        45.5004         42.0004
   1895362.61347   1536737.15645  23330811.7344                   23330808.6134
        43.7504         31.0004
 25  8  6  3 27  0.0000000  0  8G16G09G07G04G27G30G08G21
  14917861.02346  11670134.93044  23649366.0944                   23649362.1644
        39.7504         24.5004
  -8937777.19548  -6930392.30548  20041486.3364                   20041483.2504
        49.7504         52.5004
 -11232778.54347  -8720988.66847  21438282.9774                   21438277.7034
        47.7504         47.0004
   8154417.30147   6381245.74245  21858039.5394                   21858035.9654
        45.0004         33.2504
  -8842162.04747  -6826838.38346  22759962.2114                   22759959.7854
        43.5004         39.5004
   6243681.76647   4930744.52046  22810226.3204                   22810224.9414
        44.0004         41.7504
  -7768547.90647  -5992792.24246  22060486.2974                   22060484.6764
        45.5004         41.7504
   1763716.30947   1434155.59845  23305760.7664                   23305756.8524
        43.7504         30.7504
 25  8  6  3 27 30.0000000  0  8G16G09G07G04G27G30G08G21
  14935845.29346  11684148.59043  23652788.2114                   23652784.6094
        39.5004         23.2504
  -9011251.07448  -6987644.66848  20027504.8594                   20027501.6644
        48.5004         52.5004
 -11347631.84047  -8810484.71547  21416426.8914                   21416421.7774
        47.7504         47.0004
   8140744.17647   6370591.34445  21855436.8444                   21855434.5474
        45.0004         33.0004
  -8929799.39547  -6895127.20346  22743285.2504                   22743283.1994
        43.2504         40.0004
   6090769.89847   4811592.49646  22781128.2114                   22781126.3164
        44.5004         41.7504
  -7911123.59447  -6103890.09847  22033354.9694                   22033353.2114
        45.2504         42.2504
   1632611.81646   1331996.24645  23280811.4614                   23280808.6174
        41.5004         30.0004
 25  8  6  3 28  0.0000000  0  8G16G09G07G04G27G30G08G21
  14954006.75446  11698300.30943  23656244.5234                   23656239.9694
        39.5004         22.2504
  -9084208.98848  -7044494.98848  20013621.7814                   20013618.0394
        49.5004         52.7504
 -11462346.02747  -8899872.36347  21394597.5554                   21394592.4184
        46.7504         47.2504
   8127426.61747   6360213.98845  21852902.7424                   21852899.7384
        45.5004         33.2504
  -9016807.54747  -6962925.72346  22726728.4844                   22726725.9494
        42.0004         39.5004
   5937970.64147   4692528.21546  22752051.3914                   22752049.9964
        44.5004         41.0004
  -8053201.25447  -6214599.88346  22006318.1954                   22006316.2584
        44.2504         41.5004
   1502051.07847   1230260.58645  23255967.0864                   23255963.6644
        42.7504         30.7504
 25  8  6  3 28 30.0000000  0  8G16G09G07G04G27G30G08G21
  14972343.10246  11712588.32043  23659733.7584                   23659729.6484
        40.5004         22.7504
  -9156649.82448  -7100942.39148  19999836.2814                   19999833.2344
        49.5004         52.5004
 -11576920.08647  -8989150.82047  21372794.6564                   21372789.6214
        47.7504         47.0004
   8114464.30147   6350113.46145  21850436.4614                   21850433.0944
        44.7504         33.5004
  -9103185.28147  -7030233.01246  22710291.4384                   22710288.8714
        43.7504         39.5004
   5785284.77347   4573552.27046  22722996.0944                   22722994.3554
        45.2504         41.5004
  -8194777.61747  -6324919.04747  21979377.2274                   21979374.6454
        45.2504         42.2504
   1372035.87547   1128950.02045  23231225.8204                   23231223.1524
        42.7504         31.5004
 25  8  6  3 29  0.0000000  0  8G16G09G07G04G27G30G08G21
  14990850.34046  11727009.52743  23663255.9304                   23663251.6174
        40.2504         22.7504
  -9228574.70748  -7156987.74248  19986149.5084                   19986146.4224
        49.0004         52.5004
 -11691355.52747  -9078321.26247  21351018.1564                   21351013.0824
        47.2504         47.2504
   8101854.62147   6340287.72745  21848037.0234                   21848033.2344
        45.5004         33.2504
  -9188933.76247  -7097049.97746  22693973.6414                   22693971.3594
        44.0004         39.2504
   5632710.79347   4454663.49647  22693961.9694                   22693960.4224
        45.0004         42.5004
  -8335851.64547  -6434846.78947  21952532.0704                   21952529.6214
        44.7504         42.0004
   1242565.82847   1028064.26644  23206588.9224                   23206585.7814
        42.2504         29.7504
 25  8  6  3 29 30.0000000  0  8G16G09G07G04G27G30G08G21
  15009525.68846  11741561.71543  23666808.8674                   23666804.9304
        40.2504         22.5004
  -9299983.71948  -7212631.12948  19972560.7114                   19972557.6604
        49.5004         52.7504
 -11805653.17247  -9167384.33247  21329268.3204                   21329263.2304
        47.2504         47.2504
   8089596.11347   6330735.60545  21845704.2424                   21845701.1684
        44.0004         32.2504
  -9274052.97747  -7163376.61346  22677776.0234                   22677774.0744
        43.5004         39.0004
   5480248.37547   4335861.66447  22664949.6564                   22664947.5824
        45.0004         42.5004
  -8476421.30947  -6544381.52347  21925781.9064                   21925780.0474
        45.5004         42.0004
   1113641.68447    927603.85245  23182055.1724                   23182052.0514
        42.0004         30.2504
 25  8  6  3 30  0.0000000  0  8G16G09G07G04G27G30G08G21
  15028364.90246  11756241.58643  23670394.6954                   23670390.5904
        41.0004         22.5004
  -9370877.44548  -7267872.98848  19959070.1954                   19959066.7584
        49.0004         52.7504
 -11919813.66848  -9256340.53147  21307543.9144                   21307538.6484
        48.5004         47.0004
   8077686.67247   6321455.50445  21843437.7814                   21843434.9844
        44.5004         32.7504
  -9358543.55147  -7229213.39546  22661697.7424                   22661695.6174
        43.5004         39.5004
   5327896.61347   4217146.04347  22635957.9924                   22635956.3164
        45.2504         42.2504
  -8616485.03547  -6653522.00847  21899128.7664                   21899126.7894
        45.0004         42.0004
    985263.49247    827568.88744  23157625.9534                   23157622.5514
        42.0004         29.2504
 25  8  6  3 30 30.0000000  0  8G16G09G07G04G27G30G08G21
  15047366.94946  11771048.35243  23674010.0944                   23674006.0394
        40.5004         22.0004
  -9441254.36748  -7322712.14848  19945678.0864                   19945674.6454
        49.0004         52.5004
 -12033835.83247  -9345188.93747  21285846.3594                   21285841.3634
        47.7504         47.2504
   8066126.59447   6312447.61745  21841238.4144                   21841235.1024
        44.7504         32.5004
  -9442403.92247  -7294559.11746  22645740.1644                   22645737.5704
        43.2504         39.5004
   5175656.83247   4098517.68847  22606987.6954                   22606985.7814
        44.7504         43.0004
  -8756039.05547  -6762265.32847  21872572.2114                   21872570.4884
        45.5004         42.0004
    857433.56646    727961.13344  23133301.0784                   23133297.2584
        41.0004         28.5004
 25  8  6  3 31  0.0000000  0  8G16G09G07G04G27G30G08G21
  15066528.79146  11785979.66143  23677657.2424                   23677652.6914
        41.5004         22.0004
  -9511113.91848  -7377148.15648  19932383.9384                   19932381.1374
        48.7504         52.5004
 -12147719.71148  -9433929.59847  21264175.3134                   21264170.0124
        48.5004         47.2504
   8054914.84847   6303711.17645  21839104.1564                   21839101.5744
        44.5004         32.5004
  -9525633.64847  -7359413.42246  22629901.8674                   22629898.9104
        43.7504         40.0004
   5023529.25447   3979976.76647  22578038.5944                   22578037.2194
        44.0004         43.0004
  -8895080.80947  -6870609.47347  21846113.2034                   21846112.1054
        45.5004         42.2504
    730153.10246    628781.53944  23109080.2894                   23109076.6414
        40.7504         28.0004
 25  8  6  3 31 30.0000000  0  8G16G09G07G04G27G30G08G21
  15085847.94146  11801033.55543  23681332.6804                   23681328.0394
        40.7504         22.5004
  -9580455.86348  -7431180.83648  19919188.8444                   19919185.3674
        49.0004         52.5004
 -12261465.32048  -9522562.50047  21242530.1804                   21242525.1214
        48.5004         47.7504
   8044050.34447   6295245.28945  21837037.2034                   21837034.4414
        45.5004         33.0004
  -9608232.44947  -7423776.08246  22614183.7424                   22614181.1334
        44.0004         39.7504
   4871513.92647   3861523.30947  22549111.2274                   22549109.4184
        43.5004         42.2504
  -9033607.82047  -6978552.51647  21819752.5554                   21819750.9734
        45.7504         42.0004
    603423.10946    530030.91444  23084963.7424                   23084960.6954
        40.2504         28.2504
 25  8  6  3 32  0.0000000  0  8G16G09G07G04G27G30G08G21
  15105322.14146  11816208.24243  23685039.0704                   23685034.2274
        39.5004         22.0004
  -9649279.42648  -7484809.57448  19906092.1094                   19906088.7544
        48.7504         52.5004
 -12375072.12548  -9611087.25847  21220911.6094                   21220906.1214
        48.2504         47.5004
   8033532.43447   6287049.48445  21835035.4454                   21835032.8014
        44.0004         32.5004
  -9690199.60947  -7487646.56246  22598585.8754                   22598583.3874
        43.7504         39.5004
   4719611.50847   3743157.83647  22520205.1564                   22520203.3014
        43.7504         42.0004
  -9171617.19147  -7086092.20747  21793490.3594                   21793488.8754
        45.5004         42.5004
    477245.07046    431710.37944  23060952.6724                   23060949.5434
        40.7504         28.0004
 25  8  6  3 32 30.0000000  0  8G16G09G07G04G27G30G08G21
  15124948.90246  11831501.81343  23688774.2114                   23688769.5204
        39.7504         20.7504
  -9717583.93748  -7538033.87148  19893093.9304                   19893090.9144
        48.7504         52.5004
 -12488539.59048  -9699503.43747  21199319.1024                   21199314.2464
        48.5004         47.5004
   8023360.47347   6279123.25045  21833100.0634                   21833096.7544
        44.0004         32.0004
  -9771534.46947  -7551024.35546  22583107.7194                   22583106.0474
        43.0004         39.2504
   4567822.46547   3624880.69547  22491320.4454                   22491318.8914
        44.0004         42.0004
  -9309106.06647  -7193226.32847  21767326.8444                   21767325.0864
        46.0004         42.0004
    351620.39546    333821.05144  23037046.9144                   23037044.5824
        40.7504         27.7504
 25  8  6  3 33  0.0000000  0  8G16G09G07G04G27G30G08G21
  15144725.11746  11846911.85243  23692537.1724                   23692532.3364
        38.5004         20.2504
  -9785369.87148  -7590854.07048  19880194.7034                   19880191.1724
        49.2504         52.5004
 -12601868.52348  -9787811.68047  21177753.4304                   21177748.3634
        48.0004         47.5004
   8013532.56647   6271465.11745  21831229.6334                   21831227.0514
        44.5004         32.0004
  -9852237.59047  -7613909.87946  22567751.0314                   22567748.1094
        42.7504         39.2504
   4416146.11747   3506691.36747  22462457.2734                   22462455.6884
        44.5004         42.0004
  -9446072.76647  -7299953.54746  21741263.0864                   21741260.9804
        46.0004         41.7504
    226549.34846    236363.12544  23013246.8134                   23013243.8244
        40.7504         27.0004
 25  8  6  3 33 30.0000000  0  8G16G09G07G04G27G30G08G21
  15164647.61746  11862435.82443  23696328.0704                   23696323.4614
        37.2504         19.2504
  -9852637.30948  -7643270.25448  19867394.3594                   19867390.8364
        48.7504         52.5004
 -12715058.92648  -9876011.96547  21156213.9694                   21156208.8524
        48.7504         47.7504
   8004047.30947   6264073.96545  21829424.9924                   21829422.1414
        44.5004         31.7504
  -9932309.02347  -7676303.16846  22552513.7034                   22552511.1294
        43.5004         39.7504
   4264582.39547   3388589.79747  22433616.0314                   22433613.9884
        45.0004         42.0004
  -9582515.20347  -7406272.25847  21715298.6644                   21715296.5394
        46.2504         42.5004
    102032.53146    139337.05944  22989552.4534                   22989549.2504
        39.7504         27.2504
 25  8  6  3 34  0.0000000  0  8G16G09G07G04G27G30G08G21
  16760132.84446  13105671.02343  23999939.1024                   23999934.4654
        37.5004         20.0004
  -8343963.98048  -6467680.64548  20154485.3204                   20154481.8164
        48.5004         52.7504
 -11252687.48848  -8736501.73847  21434493.9774                   21434488.7704
        48.7504         47.7504
   9570323.57047   7484548.94145  22127477.7194                   22127474.4344
        44.0004         32.5004
  -8436326.36747  -6510602.35946  22837190.0554                   22837186.9574
        43.7504         39.0004
   5688556.05947   4498179.68447  22704588.9384                   22704587.2304
        45.0004         42.5004
  -8143006.78147  -6284577.31647  21989228.0704                   21989225.7814
        45.2504         42.5004
   1553494.69146   1270346.59444  23265756.5944                   23265753.1724
        40.0004         27.2504
 25  8  6  3 34 30.0000000  0  8G16G09G07G04G27G30G08G21
  16780336.23446  13121413.90643  24003784.0084                   24003779.3054
        38.0004         18.2504
  -8410197.45348  -6519291.13348  20141881.1644                   20141878.3794
        49.0004         52.7504
 -11365604.66048  -8824489.11747  21413006.2974                   21413001.6724
        48.2504         47.7504
   9561516.32847   7477686.13745  22125801.8364                   22125798.1844
        43.7504         31.5004
  -8515138.00047  -6572013.98046  22822192.3524                   22822189.9184
        43.5004         39.0004
   5537213.95347   4380250.80947  22675789.6254                   22675787.7074
        45.5004         43.0004
  -8278397.46947  -6390076.48047  21963464.2814                   21963462.0704
        46.0004         42.5004
   1430085.21946   1174183.41044  23242272.4064                   23242269.4144
        39.7504         28.2504
 25  8  6  3 35  0.0000000  0  8G16G09G07G04G27G30G08G21
  16800677.09046  13137263.92243  24007654.5314                   24007649.5904
        38.5004         19.0004
  -8475912.73448  -6570497.84848  20129376.2664                   20129373.0744
        49.0004         52.5004
 -11478384.68448  -8912369.62548  21391545.3524                   21391539.9614
        48.5004         48.0004
   9553047.25447   7471086.83245  22124190.3674                   22124186.6954
        44.2504         31.5004
  -8593318.64547  -6632933.93746  22807315.2584                   22807312.7074
        44.2504         39.0004
   5385983.79347   4262409.14547  22647011.1414                   22647009.4384
        45.5004         42.7504
  -8413257.85247  -6495162.42647  21937801.1564                   21937799.1334
        45.5004         42.5004
   1307231.70746   1078453.46144  23218893.3444                   23218890.6844
        40.5004         27.0004
 25  8  6  3 35 30.0000000  0  9G16G09G07G04G27G30G08G05G21
  16821151.77346  13153218.23443  24011549.9144                   24011545.9654
        38.2504         19.7504
  -8541110.93048  -6621301.62548  20116969.5944                   20116966.3284
        49.0004         52.5004
 -11591028.28948  -9000143.84447  21370109.9224                   21370104.6414
        48.5004         47.5004
   9544914.01647   7464749.20745  22122642.0004                   22122639.1174
        44.0004         32.5004
  -8670869.49247  -6693363.14546  22792557.7424                   22792555.4264
        43.7504         39.0004
   5234864.46547   4144653.85547  22618254.2034                   22618252.5944
        45.5004         43.0004
  -8547586.80547  -6599834.27347  21912238.5004                   21912236.9884
        45.7504         42.2504
  26588501.51256  20777083.35954  25236762.3524                   25236760.6214
        38.7504         28.2504
   1184933.80146    983156.45344  23195620.6094                   23195618.2344
        40.5004         26.0004
 25  8  6  3 36  0.0000000  0  9G16G09G07G04G27G30G08G05G21
  16841756.10246  13169273.51643  24015471.1724                   24015467.2234
        38.0004         19.5004
  -8605793.01248  -6671703.24248  20104661.1484                   20104657.6954
        48.2504         52.5004
 -11703536.51248  -9087812.58247  21348700.3984                   21348694.8524
        48.2504         47.7504
   9537114.19147   7458671.39845  22121157.8594                   22121154.9384
        43.2504         31.5004
  -8747791.63347  -6753302.46146  22777919.3754                   22777917.2894
        44.0004         39.5004
   5083854.95347   4026984.12947  22589518.2344                   22589516.1334
        44.7504         42.7504
  -8681383.23447  -6704091.16047  21886778.1954                   21886776.7734
        46.5004         42.5004
  26427479.11346  20651611.41444  25206121.4614                   25206118.7934
        38.7504         29.0004
   1063191.13746    888292.10244  23172453.9534                   23172451.1214
        40.5004         26.5004
 25  8  6  3 36 30.0000000  0  9G16G09G07G04G27G30G08G05G21
  16862487.32846  13185427.69143  24019416.5784                   24019411.5704
        38.0004         20.2504
  -8669959.24648  -6721702.89848  20092450.3984                   20092447.1094
        49.0004         52.5004
 -11815910.01248  -9175376.32047  21327315.9534                   21327310.7504
        48.7504         47.7504
   9529646.24647   7452852.20745  22119736.7584                   22119733.7854
        43.7504         31.5004
  -8824085.51247  -6812752.20346  22763401.8364                   22763399.1454
        43.7504         39.5004
   4932954.97747   3909399.76247  22560802.6024                   22560800.3794
        45.0004         42.5004
  -8814645.27347  -6807931.64147  21861419.3284                   21861417.2664
        45.0004         42.5004
  26266891.80546  20526478.53944  25175562.7734                   25175560.2504
        39.5004         29.2504
    942004.10546    793860.71544  23149393.9144                   23149390.1414
        39.7504         25.5004
 25  8  6  3 37  0.0000000  0  9G16G09G07G04G27G30G08G05G21
  16883338.41046  13201675.24243  24023384.4774                   24023379.7734
        37.0004         21.5004
  -8733613.82448  -6771303.85548  20080337.7504                   20080334.3674
        48.0004         52.7504
 -11928152.93448  -9262838.31247  21305957.0784                   21305951.3914
        48.5004         47.5004
   9522504.64847   7447287.30145  22118377.8674                   22118374.5784
        44.0004         31.0004
  -8899755.45347  -6871715.77046  22749002.0234                   22748999.0204
        44.0004         38.5004
   4782160.40247   3791897.52347  22532107.3834                   22532105.4024
        44.0004         42.5004
  -8947374.95347  -6911357.30947  21836161.4614                   21836159.8364
        45.5004         42.5004
  26106737.71946  20401683.22744  25145086.2114                   25145083.6684
        38.7504         27.7504
    821369.23946    699859.56943  23126437.0004                   23126434.0124
        39.2504         22.7504
 25  8  6  3 37 30.0000000  0  9G16G09G07G04G27G30G08G05G21
  16904307.28546  13218014.58643  24027375.1174                   24027370.6994
        38.0004         22.5004
  -8796756.09048  -6820505.61348  20068321.7274                   20068318.6524
        48.2504         52.5004
 -12040264.25448  -9350197.73447  21284622.8984                   21284617.6604
        48.2504         47.5004
   9515688.74647   7441976.19545  22117080.7274                   22117078.0984
        43.7504         31.0004
  -8974800.91847  -6930192.72346  22734721.3054                   22734718.3794
        43.5004         38.7504
   4631471.87147   3674477.93447  22503432.5864                   22503430.5784
        44.0004         42.2504
  -9079569.50847  -7014365.98447  21811005.7664                   21811003.6094
        44.7504         42.0004
  25947019.39146  20277227.48444  25114693.1884                   25114690.3954
        38.7504         26.7504
    701287.79346    606289.68044  23103586.0084                   23103582.9144
        40.5004         25.5004
 25  8  6  3 38  0.0000000  0  9G16G09G07G04G27G30G08G05G21
  16925392.20346  13234444.34843  24031387.4384                   24031382.7894
        38.7504         22.0004
  -8859385.04748  -6869307.39548  20056403.8444                   20056400.2894
        48.2504         52.5004
 -12152243.16848  -9437454.00847  21263314.0704                   21263308.9494
        48.2504         47.7504
   9509198.24647   7436918.64145  22115845.5474                   22115842.7624
        43.7504         32.0004
  -9049221.09047  -6988182.44546  22720559.5474                   22720557.1644
        44.0004         39.5004
   4480890.52347   3557141.85547  22474777.6564                   22474775.8134
        44.0004         42.7504
  -9211225.75047  -7116955.21947  21785952.6024                   21785950.9494
        45.5004         42.2504
  25787740.28146  20153113.98444  25084383.1954                   25084380.6374
        38.0004         26.0004
    581761.51646    513152.37944  23080841.3054                   23080838.0354
        39.5004         24.7504
 25  8  6  3 38 30.0000000  0  9G16G09G07G04G27G30G08G05G21
  16946593.86746  13250965.10243  24035421.8444                   24035417.4064
        39.5004         22.5004
  -8921497.61347  -6917706.79348  20044584.3674                   20044580.9344
        47.7504         52.5004
 -12264086.72748  -9524604.81247  21242030.9844                   21242025.9304
        48.7504         47.5004
   9503034.93047   7432116.04345  22114672.6954                   22114670.3164
        45.0004         31.2504
  -9123013.07447  -7045682.67646  22706517.7734                   22706515.5704
        43.7504         39.2504
   4330419.52747   3439891.76647  22446143.9384                   22446141.9344
        44.5004         42.0004
  -9342338.54347  -7219120.96947  21761002.2504                   21761000.7154
        45.5004         42.7504
  25628905.49646  20029346.68844  25054157.7734                   25054155.2234
        37.7504         27.7504
    462794.12546    420450.58243  23058202.3674                   23058199.2734
        39.7504         23.5004
 25  8  6  3 39  0.0000000  0  9G16G09G07G04G27G30G08G05G21
  16967906.75846  13267572.48843  24039477.6094                   24039473.2814
        40.0004         22.5004
  -8983096.52048  -6965705.93748  20032862.4534                   20032859.0744
        48.7504         52.5004
 -12375797.41848  -9611652.07447  21220773.1884                   21220767.5744
        48.7504         47.7504
   9497194.77047   7427565.23445  22113561.8364                   22113559.2114
        44.2504         30.5004
  -9196179.76247  -7102695.66846  22692594.3914                   22692592.2114
        43.0004         39.0004
   4180056.22747   3322725.59447  22417530.4454                   22417528.4964
        45.2504         42.2504
  -9472908.43747  -7320863.69547  21736155.7194                   21736154.0164
        45.5004         42.7504
  25470514.15646  19905924.92244  25024016.8054                   25024014.2234
        37.5004         27.0004
    344383.49246    328182.61344  23035669.4844                   23035665.7424
        39.0004         24.2504
 25  8  6  3 39 30.0000000  0  9G16G09G07G04G27G30G08G05G21
  16989330.37546  13284266.20743  24043554.5234                   24043550.3014
        40.7504         22.2504
  -9044179.87548  -7013303.35948  20021238.6724                   20021235.4104
        48.7504         52.2504
 -12487373.09048  -9698594.13747  21199540.9224                   21199535.6094
        48.2504         47.7504
   9491678.38747   7423266.73045  22112511.9384                   22112508.5634
        44.0004         31.5004
  -9268719.44547  -7159220.07046  22678791.0944                   22678788.6724
        43.7504         39.7504
   4029802.67247   3205644.93847  22388938.3054                   22388936.0274
        44.7504         42.2504
  -9602931.44547  -7422180.26247  21711412.9844                   21711410.8674
        46.5004         43.0004
  25312570.52346  19782852.04744  24993961.1804                   24993958.0944
        37.2504         25.0004
    226532.19546    236350.48444  23013243.2814                   23013239.2074
        39.0004         25.2504
 25  8  6  3 40  0.0000000  0  9G16G09G07G04G27G30G08G05G21
  17010862.84046  13301044.72743  24047652.1564                   24047648.0904
        40.7504         22.5004
  -9104746.84448  -7060498.40248  20009713.1254                   20009709.7664
        49.0004         52.5004
 -12598813.22348  -9785430.57447  21178334.8834                   21178329.5664
        48.2504         47.7504
   9486485.31347   7419220.16445  22111524.0164                   22111520.7854
        44.5004         31.0004
  -9340631.53147  -7215255.44546  22665105.5474                   22665103.5784
        43.0004         39.0004
   3879659.88747   3088650.59447  22360367.1024                   22360365.2734
        45.2504         42.2504
  -9732404.60247  -7523068.37947  21686775.0704                   21686773.0704
        45.5004         42.5004
  25155077.42246  19660130.22344  24963991.0634                   24963988.4844
        37.7504         27.0004
    109241.71146    144955.32844  22990923.0394                   22990919.9104
        39.5004         25.5004
 25  8  6  3 40 30.0000000  0  9G16G09G07G04G27G30G08G05G21
  17032504.14546  13317908.05943  24051769.9844                   24051765.2854
        40.2504         22.7504
  -9164794.73848  -7107288.97348  19998286.4454                   19998283.2384
        49.0004         52.2504
 -12710114.70348  -9872158.97747  21157154.6804                   21157149.6484
        48.5004         47.7504
   9481617.02747   7415426.67645  22110596.8914                   22110594.2624
        43.5004         31.0004
  -9411913.52047  -7270799.83646  22651541.4454                   22651538.9414
        43.0004         38.5004
   3729630.68847   2971744.76247  22331817.3284                   22331815.6724
        46.5004         42.7504
  -9861323.10247  -7623524.30147  21662242.1254                   21662240.4774
        45.2504         42.7504
  24998039.70346  19537763.21544  24934108.1884                   24934105.2154
        38.2504         27.5004
     -7484.62546     53999.77744  22968711.6804                   22968707.6564
        41.2504         25.5004
