     2.11           OBSERVATION DATA    G (GPS)             RINEX VERSION / TYPE
teqc  2019Feb25     K Rivera            20250821 01:11:40UTCPGM / RUN BY / DATE
Linux 2.6.32-573.12.1.x86_64|x86_64|gcc -static|Linux 64|=+ COMMENT
teqc  2019Feb25                         20250821 01:03:35UTCCOMMENT
BIT 2 OF LLI FLAGS DATA COLLECTED UNDER A/S CONDITION       COMMENT
6034                                                        MARKER NAME
                                                            MARKER NUMBER
KMR & KB            University of California, Riverside     OBSERVER / AGENCY
0220340422          TRIMBLE 5700        2.32                REC # / TYPE / VERS
1441040465          TRM57971.00                             ANT # / TYPE
 -2430804.2988 -4657392.9143  3606068.8729                  APPROX POSITION XYZ
        1.2651        0.0000        0.0000                  ANTENNA: DELTA H/E/N
     1     1                                                WAVELENGTH FACT L1/2
     7    L1    L2    C1    P1    P2    S1    S2            # / TYPES OF OBSERV
    18                                                      LEAP SECONDS
 SNR is mapped to RINEX snr flag value [0-9]                COMMENT
  L1 & L2: min(max(int(snr_dBHz/6), 0), 9)                  COMMENT
  2025     7     1    20    10    0.0000000     GPS         TIME OF FIRST OBS
                                                            END OF HEADER
 25  7  1 20 10  0.0000000  0  6G10G15G18G23G27G32
    -44584.40258    -29008.52358  21638657.1954                   21638656.2584
        48.2504         49.7504
    114149.73057     74447.50056  22807082.3364                   22807079.6804
        43.0004         38.0004
     32806.29757     20446.62556  21264815.2894                   21264812.0824
        46.5004         38.0004
     34297.91057     19816.28156  20848965.8364                   20848962.2624
        46.5004         39.0004
    -75504.20357    -48031.26257  22141777.2664                   22141775.8794
        46.2504         44.5004
   -135929.75857    -85438.16456  23083653.6724                   23083654.3524
        45.7504         40.7504
 25  7  1 20 10 30.0000000  0 10G10G15G08G18G23G16G27G24G32G29
    -78560.52348    -55483.42248  21632191.7664                   21632190.8554
        48.0004         50.0004
    202732.94547    143473.36346  22823939.3054                   22823936.4144
        42.2504         36.5004
   -117047.41456    -71539.81654  24751560.6254                   24751563.5314
        36.5004         29.7504
     56649.68847     39025.83646  21269352.3524                   21269349.2464
        46.0004         38.0004
     61711.68847     41177.63746  20854182.6174                   20854179.1524
        46.0004         38.5004
     69780.28555     40411.00452  24575359.1254                   24575358.4144
        35.2504         17.2504
   -132808.62147    -92684.05147  22130872.0784                   22130871.0314
        45.7504         44.5004
    -71635.62956    -43546.03955  23975637.3834                   23975639.3364
        37.5004         30.7504
   -238605.34847   -165445.01646  23064114.8594                   23064116.0434
        45.7504         41.0004
    132734.36755     81178.97354  24701165.0554                   24701168.9614
        35.7504         28.5004
 25  7  1 20 11  0.0000000  0  9G10G15G08G18G23G27G24G32G29
    -18094.44958    -75376.34858  21625746.1564                   21625745.1724
        48.0004         49.7504
     48564.50057    195136.46956  22840832.7344                   22840829.3754
        43.0004         37.7504
                                  24733125.719
        35.750
     11151.33657     51009.29756  21273922.1724                   21273918.9574
        46.2504         39.2504
     14503.54357     56457.03156  20859412.1414                   20859408.6174
        46.0004         39.5004
    -28407.71557   -121952.72757  22120038.8364                   22120037.1804
        45.7504         45.0004
    -15897.32056    -56112.58255  23964445.8914                   23964446.0904
        36.5004         30.5004
    -58098.53557   -227769.75057  23044593.0944                   23044593.9694
        45.7504         42.0004
                                  24722096.258
        38.000
 25  7  1 20 11 30.0000000  0 10G10G15G08G18G23G16G27G24G32G29
    -51743.88347   -101596.68748  21619343.1804                   21619341.9184
        47.7504         49.7504
    137642.70347    264547.98446  22857783.3914                   22857780.5044
        42.7504         36.5004
   -114005.52346   -159957.19954  24714733.2734                   24714736.0784
        36.2504         29.7504
     35456.89847     69948.65646  21278547.5634                   21278544.3014
        46.0004         38.0004
     42169.26647     78014.70746  20864676.7814                   20864673.3634
        46.0004         38.2504
     71316.72355     85902.89552  24597696.5394                   24597697.3754
        34.7504         17.7504
    -84848.63747   -165932.65247  22109298.3444                   22109297.2464
        45.5004         44.2504
    -74369.41046   -101675.19945  23953318.5784                   23953319.9304
        37.2504         30.7504
   -160479.90647   -307547.34446  23025110.3754                   23025111.4184
        46.0004         41.7504
    131693.10946    173196.93054  24743034.4534                   24743036.6954
        37.7504         28.5004
 25  7  1 20 12  0.0000000  0 10G10G15G08G18G23G16G27G24G32G29
    -85158.25848   -127633.85948  21612984.4694                   21612983.3204
        48.2504         50.0004
    227037.02747    334205.83246  22874794.7274                   22874791.9734
        43.2504         37.5004
   -210407.20745   -235075.32844  24696390.1024                   24696391.8204
        35.5004         29.0004
     60067.18047     89125.46946  21283230.8134                   21283227.4924
        47.2504         38.0004
     70031.83247     99725.76646  20869978.9924                   20869975.2424
        46.5004         39.0004
    130337.95745    131893.34442  24608927.8594                   24608929.3554
        34.5004         17.7504
   -140782.40647   -209517.40247  22098654.3914                   22098653.6334
        46.2504         44.5004
   -132481.83246   -146957.52344  23942260.8754                   23942261.5744
        38.7504         29.5004
   -262637.89147   -387150.86746  23005669.9534                   23005671.1844
        46.0004         41.7504
    241764.87146    258966.80544  24763980.3204                   24763983.4844
        38.2504         29.0004
 25  7  1 20 12 30.0000000  0 10G10G15G08G18G23G16G27G24G32G29
   -118332.58248   -153483.98848  21606671.5474                   21606670.3834
        48.0004         50.0004
    316749.66447    404111.69946  22891866.9224                   22891863.4344
        43.0004         36.2504
   -306554.18746   -309994.97744  24678092.8444                   24678095.1884
        36.0004         28.7504
     84988.56347    108544.68846  21287973.5394                   21287969.8014
        46.5004         38.0004
     98095.71147    121593.69946  20875319.3284                   20875316.0704
        46.0004         38.7504
    189584.69945    178059.44142  24620202.3984                   24620203.1214
        35.2504         17.2504
   -196201.46147   -252701.07047  22088108.6094                   22088107.1254
        45.7504         44.5004
   -190225.91045   -191952.85545  23931271.7274                   23931273.4774
        35.7504         31.2504
   -364564.33647   -466573.96946  22986274.5634                   22986275.2854
        46.0004         41.7504
    351886.24246    344775.34844  24784936.3984                   24784938.9384
        38.7504         29.5004
 25  7  1 20 13  0.0000000  0 10G10G15G08G18G23G16G27G24G32G29
   -151253.23848   -179136.44548  21600407.1024                   21600405.8284
        49.0004         50.0004
    406792.18446    474274.63746  22909001.1254                   22908998.3834
        41.7504         36.2504
   -402429.66846   -384703.09444  24659849.0164                   24659850.5234
        36.7504         28.5004
    110235.93847    128217.93846  21292777.7584                   21292774.1914
        46.5004         37.7504
    126374.02047    143628.71546  20880700.2344                   20880697.1454
        46.0004         39.0004
    249068.13746    224410.08642  24631521.5084                   24631522.2194
        36.2504         16.7504
   -251089.73447   -295471.14147  22077663.9614                   22077662.4184
        45.5004         44.5004
   -247584.38946   -236647.71145  23920356.8984                   23920358.5044
        38.2504         31.5004
   -466242.59447   -545803.68746  22966925.3204                   22966926.3134
        45.5004         41.5004
    462068.67646    430631.47745  24805902.7034                   24805906.2704
        39.0004         30.7504
 25  7  1 20 13 30.0000000  0 10G10G15G08G18G23G16G27G24G32G29
   -183927.43748   -204596.85948  21594189.1564                   21594188.3014
        48.0004         50.0004
    497155.14846    544687.27045  22926196.3204                   22926193.7934
        41.5004         35.7504
   -498037.65245   -459202.74644  24641654.7194                   24641656.7034
        35.0004         26.2504
    135803.37147    148140.57846  21297642.8364                   21297639.5744
        45.7504         37.7504
    154858.96147    165824.75046  20886120.9224                   20886117.1684
        47.5004         38.5004
    308778.83246    270937.74642  24642884.6024                   24642884.9884
        36.2504         17.2504
   -305452.00047   -337831.33647  22067318.8914                   22067317.4104
        46.0004         44.2504
   -304561.02346   -281045.01645  23909514.0084                   23909515.8094
        36.7504         32.2504
   -567676.84447   -624843.25446  22947623.0164                   22947624.0784
        46.2504         41.7504
    572303.15246    516528.14144  24826880.6334                   24826883.1414
        39.7504         29.7504
 25  7  1 20 14  0.0000000  0 10G10G15G08G18G23G16G27G24G32G29
   -216356.18748   -229866.01248  21588018.1804                   21588016.9734
        48.0004         50.2504
    587835.49647    615347.21145  22943452.6254                   22943450.2584
        42.0004         35.5004
   -593375.89545   -533492.19144  24623512.5164                   24623514.4104
        35.2504         27.0004
    161691.21947    168312.89146  21302569.2734                   21302565.8954
        46.5004         38.5004
    183549.03947    188180.62946  20891580.8204                   20891576.7074
        46.0004         38.2504
    368713.54346    317639.98042  24654290.2274                   24654289.7814
        37.0004         17.2504
   -359286.82047   -379780.53147  22057074.3054                   22057072.7854
        45.7504         44.2504
   -361153.10546   -325142.66445  23898745.2034                   23898747.1254
        39.0004         32.5004
   -668864.95747   -703691.03946  22928367.3444                   22928368.2814
        46.0004         41.5004
    682587.32046    602463.53544  24847866.6954                   24847869.8794
        39.5004         29.0004
 25  7  1 20 14 30.0000000  0 10G10G15G08G18G23G16G27G24G32G29
   -248557.79348   -254958.16848  21581890.6484                   21581889.2344
        48.5004         50.5004
    678812.63346    686238.37946  22960765.1804                   22960762.6884
        40.7504         36.0004
   -688459.40645   -607583.17644  24605418.6884                   24605420.2074
        35.2504         28.0004
    187882.46547    188721.62146  21307553.2894                   21307550.3954
        47.0004         38.0004
    212425.48047    210681.73846  20897075.5164                   20897071.9574
        47.0004         38.7504
    428851.65646    364500.71142  24665734.1954                   24665733.6524
        37.0004         16.2504
   -412610.03147   -421331.07447  22046926.9614                   22046925.9734
        46.7504         45.5004
   -417375.50046   -368952.25445  23888045.6024                   23888048.5394
        38.5004         33.0004
   -769822.19947   -782358.90646  22909155.6334                   22909156.5314
        45.0004         41.5004
    792901.06646    688421.93444  24868858.9534                   24868862.6334
        39.0004         29.0004
 25  7  1 20 15  0.0000000  0 10G10G15G08G18G23G16G27G24G32G29
   -280506.04348   -279852.89848  21575811.1414                   21575810.0394
        48.5004         50.2504
    770110.49246    757379.48846  22978138.5084                   22978136.5164
        41.0004         36.5004
   -783258.94545   -681452.91044  24587379.2664                   24587380.5904
        35.7504         26.0004
    214404.54747    209388.14546  21312600.2034                   21312597.1644
        46.5004         38.0004
    241513.91847    233348.03146  20902610.7664                   20902607.3054
        47.7504         38.7504
    489216.79346    411538.35243  24677220.2194                   24677221.2624
        36.7504         19.0004
   -465393.07047   -462460.68747  22036883.2734                   22036881.8874
        46.5004         45.2504
   -473198.30546   -412450.49645  23877423.0004                   23877425.0044
        41.2504         34.0004
   -870519.29347   -860824.07846  22889994.0864                   22889994.3754
        45.7504         41.0004
    903268.44146    774422.17244  24889861.3134                   24889864.1334
        38.5004         27.0004
 25  7  1 20 15 30.0000000  0 10G10G15G08G18G23G16G27G24G32G29
   -312198.59848   -304548.38748  21569780.1094                   21569778.8554
        48.0004         50.5004
    861729.15647    828770.56346  22995572.9454                   22995570.5274
        42.0004         37.7504
   -877768.91845   -755096.97744  24569394.0554                   24569396.0664
        35.5004         27.5004
    241261.14847    230315.34046  21317711.0234                   21317707.9414
        46.2504         37.7504
    270816.23847    256180.99646  20908186.9614                   20908183.5004
        47.5004         38.7504
    549809.28546    458753.13342  24688751.3594                   24688751.7504
        37.0004         17.7504
   -517631.18447   -503165.70347  22026942.6094                   22026941.1764
        47.5004         45.5004
   -528615.68746   -455632.82045  23866878.3364                   23866879.2034
        41.5004         34.7504
   -970950.85247   -939082.34446  22870882.0394                   22870882.7624
        45.5004         41.2504
   1013690.12946    860464.70744  24910873.4144                   24910876.8914
        39.0004         26.7504
 25  7  1 20 16  0.0000000  0 10G10G15G08G18G23G16G27G24G32G29
   -343632.82448   -329042.57848  21563798.4384                   21563797.1914
        49.2504         50.5004
    953669.07846    900411.98046  23013068.9224                   23013066.5164
        41.2504         36.7504
   -971983.37545   -828510.75844  24551465.7974                   24551467.5944
        35.5004         26.7504
    268456.18047    251506.24646  21322886.3364                   21322883.1294
        45.7504         38.0004
    300334.63747    279182.32046  20913804.2734                   20913800.6134
        46.0004         39.0004
    610629.62946    506145.48843  24700325.5704                   24700324.9734
        37.0004         18.2504
   -569319.30547   -543442.15247  22017106.6174                   22017105.0984
        46.5004         45.2504
   -583621.43746   -498494.38745  23856410.9064                   23856411.9614
        41.2504         35.5004
  -1071111.14547  -1017129.23046  22851822.0234                   22851822.7704
        45.7504         41.5004
   1124167.44946    946550.59444  24931897.3054                   24931900.5864
        39.5004         27.0004
 25  7  1 20 16 30.0000000  0 10G10G15G08G18G23G16G27G24G32G29
   -374812.16848   -353338.16448  21557864.8914                   21557863.9064
        49.2504         50.2504
   1045924.50846    972299.23846  23030624.0864                   23030621.8954
        41.7504         37.5004
  -1065902.66845   -901694.52744  24533593.8134                   24533595.4104
        35.5004         26.5004
    295987.48847    272959.17646  21328125.2034                   21328121.7194
        45.7504         37.7504
    330065.14847    302348.93446  20919461.9224                   20919458.1644
        46.2504         38.5004
    671671.81346    553710.66043  24711941.2974                   24711941.4694
        37.5004         19.5004
   -620458.56647   -583290.91447  22007375.1174                   22007373.5234
        46.5004         45.2504
   -638215.49246   -541035.18045  23846021.7664                   23846022.6564
        41.7504         35.2504
  -1171000.58247  -1094965.06246  22832814.2734                   22832814.8284
        46.0004         41.7504
   1234694.87546   1032675.51644  24952930.2344                   24952933.6484
        40.0004         26.5004
 25  7  1 20 17  0.0000000  0 10G10G15G08G18G23G16G27G24G32G29
   -405745.02048   -377441.67648  21551978.9454                   21551977.9964
        48.2504         50.2504
   1138485.05547   1044424.25846  23048237.6414                   23048235.7504
        42.2504         38.0004
  -1159531.83246   -974652.24644  24515776.0864                   24515778.1024
        36.0004         28.2504
    323847.96947    294668.60546  21333426.9694                   21333423.5554
        46.0004         37.5004
    359998.92247    325673.93446  20925157.7424                   20925154.4064
        46.7504         38.5004
    732925.01646    601440.29343  24723597.8834                   24723597.9414
        37.5004         18.5004
   -671054.97347   -622716.67647  21997746.9614                   21997745.4144
        47.0004         45.2504
   -692402.65646   -583258.90245  23835709.8054                   23835711.1214
        40.2504         35.7504
  -1270624.48047  -1172593.98447  22813856.3444                   22813856.1954
        46.2504         42.0004
   1345262.44146   1118831.73844  24973970.9224                   24973974.9844
        39.5004         28.0004
 25  7  1 20 17 30.0000000  0 10G10G15G08G18G23G16G27G24G32G29
   -436431.57848   -401353.27348  21546139.1644                   21546138.1564
        48.7504         50.5004
   1231348.05947   1116784.95346  23065909.3754                   23065907.4064
        42.5004         37.7504
  -1252868.03945  -1047381.68044  24498015.1174                   24498016.7814
        35.7504         28.0004
    352038.64847    316635.34446  21338791.1174                   21338788.0704
        45.7504         38.2504
    390135.27047    349156.78146  20930892.7034                   20930889.0204
        46.0004         38.5004
    794386.85246    649332.46543  24735293.6884                   24735293.8324
        37.5004         19.2504
   -721106.47347   -661717.83247  21988222.5634                   21988220.9454
        47.0004         45.0004
   -746179.68446   -625163.02345  23825476.3984                   23825477.8634
        41.0004         35.5004
  -1369980.07447  -1250013.83246  22794949.3444                   22794949.3554
        46.0004         41.2504
   1455868.16446   1205017.66044  24995019.1484                   24995023.0084
        39.5004         29.0004
 25  7  1 20 18  0.0000000  0 10G10G15G08G18G23G16G27G24G32G29
   -466874.60948   -425075.10548  21540346.3364                   21540345.1604
        49.5004         50.2504
   1324508.73447   1189377.60546  23083637.2424                   23083635.2234
        43.0004         38.0004
  -1345910.67646  -1119882.36344  24480309.1884                   24480311.0554
        36.5004         27.7504
    380558.06647    338858.23846  21344218.3444                   21344215.3834
        46.7504         37.7504
    420470.98047    372794.98046  20936665.1484                   20936662.0394
        47.2504         38.2504
    856052.17246    697383.22343  24747028.4224                   24747028.3874
        37.7504         19.7504
   -770613.41847   -700294.66847  21978801.2584                   21978800.0594
        47.0004         45.2504
   -799545.82046   -666746.99245  23815320.9694                   23815322.2384
        41.0004         35.0004
  -1469066.99247  -1327224.32846  22776093.5314                   22776093.8014
        45.5004         41.2504
   1566507.32446   1291229.60244  25016072.9384                   25016077.5394
        38.5004         28.7504
 25  7  1 20 18 30.0000000  0 10G10G15G08G18G23G16G27G24G32G29
   -497075.58648   -448608.33648  21534598.9774                   21534597.6914
        48.7504         50.2504
   1417963.22347   1262199.20346  23101421.3674                   23101419.3484
        43.0004         37.7504
  -1438658.09846  -1192152.99644  24462660.5944                   24462662.3484
        36.7504         29.7504
    409405.99647    361337.12146  21349707.8364                   21349704.3364
        46.2504         38.0004
    451004.16847    396587.05546  20942475.5784                   20942472.5704
        46.5004         38.5004
    917917.33246    745589.69943  24758800.7194                   24758800.7624
        38.0004         19.5004
   -819575.04747   -738446.58247  21969484.3134                   21969482.9804
        47.0004         45.2504
   -852499.03946   -708009.19545  23805244.3834                   23805245.4654
        41.5004         35.7504
  -1567883.75047  -1404224.31646  22757289.4614                   22757289.7274
        45.2504         41.7504
   1677176.81346   1377465.17644  25037132.9924                   25037137.3674
        38.7504         28.7504
 25  7  1 20 19  0.0000000  0 10G10G15G08G18G23G16G27G24G32G29
   -527032.10948   -471951.07448  21528898.5004                   21528897.2234
        49.5004         50.5004
   1511711.93447   1335250.07446  23119261.4454                   23119259.0944
        43.0004         37.5004
  -1531104.68746  -1264189.23444  24445068.0234                   24445069.7734
        37.0004         29.2504
    438586.10247    384074.83646  21355260.5944                   21355257.6024
        46.0004         37.7504
    481736.68047    420534.44146  20948323.8284                   20948320.5394
        46.5004         39.0004
    979982.60946    793952.10543  24770611.8284                   24770611.9264
        37.5004         20.0004
   -867986.67647   -776169.91447  21960272.0474                   21960270.8164
        47.0004         45.2504
   -905033.43746   -748945.04345  23795247.5164                   23795248.6374
        40.2504         35.2504
  -1666424.89147  -1481009.53546  22738537.1954                   22738537.7704
        45.5004         41.7504
   1787877.48446   1463725.06644  25058198.9384                   25058203.3954
        37.5004         27.7504
 25  7  1 20 19 30.0000000  0 10G10G15G08G18G23G16G27G24G32G29
   -556745.85248   -495104.62948  21523244.4144                   21523243.0664
        49.2504         50.2504
   1605750.80147   1408527.03946  23137155.9534                   23137154.0314
        43.5004         37.7504
  -1623248.83646  -1335989.77344  24427534.0394                   24427534.9574
        37.2504         29.2504
    468097.94147    407071.03946  21360876.7584                   21360873.3834
        47.0004         38.0004
    512666.55947    444635.62546  20954209.5234                   20954206.3714
        46.7504         38.2504
   1042243.74246    842467.09043  24782459.6024                   24782459.9024
        37.0004         19.5004
   -915847.69147   -813464.19947  21951164.3444                   21951163.0234
        47.5004         45.2504
   -957147.16446   -789553.10245  23785330.8984                   23785331.6804
        40.7504         35.7504
  -1764689.03547  -1557578.90647  22719838.1954                   22719838.4344
        45.2504         42.2504
   1898606.09046   1550006.72744  25079270.5554                   25079274.1174
        36.5004         26.5004
 25  7  1 20 20  0.0000000  0 10G10G15G08G18G23G16G27G24G32G29
   -586218.78548   -518070.54748  21517635.5704                   21517634.2464
        49.2504         50.2504
   1700075.78947   1482026.96146  23155105.6414                   23155103.8324
        43.2504         36.7504
  -1715089.42646  -1407553.77744  24410057.1334                   24410058.2584
        37.2504         29.2504
    497940.80947    430325.19146  21366555.6334                   21366552.4884
        45.7504         37.7504
    543791.29347    468888.64846  20960132.1724                   20960129.2074
        46.0004         38.5004
   1104696.42246    891131.37943  24794343.9924                   24794344.4224
        37.0004         19.0004
   -963157.84447   -850329.24647  21942161.2274                   21942159.7344
        47.0004         45.5004
  -1008838.83246   -829832.26645  23775494.2034                   23775495.2274
        41.0004         35.5004
  -1862675.16047  -1633931.64847  22701191.9454                   22701192.4844
        45.0004         42.7504
   2009358.60946   1636306.99644  25100346.3134                   25100350.5314
        37.0004         26.7504
 25  7  1 20 20 30.0000000  0 10G10G15G08G18G23G16G27G24G32G29
   -615453.98048   -540851.20348  21512072.5314                   21512071.0864
        50.0004         50.5004
   1794681.57847   1555745.68846  23173108.4774                   23173106.2234
        42.7504         36.0004
  -1806626.21546  -1478881.06245  24392638.0784                   24392639.6914
        37.2504         30.0004
    528112.84847    453835.84046  21372297.3524                   21372294.0704
        47.0004         38.0004
    575107.41047    493290.79746  20966091.9064                   20966088.1604
        47.5004         38.0004
   1167335.41846    939940.83243  24806264.3364                   24806264.7814
        36.5004         18.5004
  -1009917.96947   -886765.69547  21933263.2894                   21933261.9064
        47.0004         45.5004
  -1060107.97346   -869782.18045  23765737.4304                   23765738.9144
        41.5004         35.5004
  -1960383.26647  -1710067.75047  22682598.6564                   22682598.6914
        45.2504         42.5004
   2120130.15645   1722622.06344  25121425.9694                   25121429.8954
        34.7504         27.2504
 25  7  1 20 21  0.0000000  0 10G10G15G08G18G23G16G27G24G32G29
   -644450.72348   -563446.06648  21506554.2584                   21506553.3444
        50.2504         50.5004
   1889566.81347   1629682.14545  23191164.2814                   23191162.3754
        42.2504         35.0004
  -1897855.34046  -1549968.60245  24375278.2194                   24375278.8674
        38.2504         30.5004
    558616.02048    477604.51246  21378101.9844                   21378098.7704
        48.0004         38.0004
    606615.28147    517842.37146  20972087.6174                   20972084.0864
        46.5004         38.5004
   1230159.10546    988894.21543  24818218.8134                   24818219.3484
        36.2504         18.5004
  -1056125.14147   -922771.27347  21924470.2584                   21924468.9384
        46.5004         45.5004
  -1110950.42646   -909399.60545  23756062.8834                   23756064.0434
        40.5004         35.5004
  -2057809.67247  -1785984.34047  22664059.3984                   22664059.1724
        45.5004         42.7504
   2230920.22745   1808951.58244  25142508.4844                   25142512.8794
        34.5004         25.7504
 25  7  1 20 21 30.0000000  0 10G10G15G08G18G23G16G27G24G32G29
   -673209.90648   -585855.80948  21501081.8984                   21501080.3324
        49.7504         50.5004
   1984728.19946   1703833.80545  23209273.4224                   23209271.1954
        41.5004         34.5004
  -1988774.55946  -1620814.66444  24357975.9844                   24357977.2704
        37.5004         29.0004
    589450.69547    501631.49646  21383969.3444                   21383966.4414
        47.2504         37.5004
    638313.52347    542542.28546  20978119.4924                   20978115.7274
        47.2504         38.5004
   1293164.36345   1037989.00443  24830208.7274                   24830209.6724
        35.0004         18.5004
  -1101778.08647   -958344.98047  21915782.6724                   21915781.4614
        47.0004         45.5004
  -1161363.73446   -948682.63345  23746469.1094                   23746470.3794
        39.7504         34.7504
  -2154952.27747  -1861679.79347  22645573.6804                   22645573.4964
        46.2504         42.7504
   2341725.83645   1895293.17644  25163594.9304                   25163599.1174
        35.0004         26.0004
 25  7  1 20 22  0.0000000  0 10G10G15G08G18G23G16G27G24G32G29
   -701730.42648   -608079.58248  21495654.4774                   21495653.0204
        50.0004         50.5004
   2080164.64846   1778199.80145  23227433.9384                   23227431.6604
        41.5004         33.7504
  -2079379.50846  -1691415.84444  24340734.5474                   24340735.9494
        37.2504         29.7504
    620619.17247    525918.58646  21389900.5864                   21389897.5594
        46.7504         37.5004
    670202.86347    567391.11346  20984187.9924                   20984184.3674
        47.5004         38.5004
   1356349.87145   1087224.32042  24842232.3364                   24842233.2034
        35.5004         17.2504
  -1146873.53147   -993484.27047  21907201.4614                   21907200.2034
        47.0004         45.5004
  -1211343.32046   -987627.67245  23736958.6804                   23736959.1254
        40.7504         34.7504
  -2251806.94947  -1937150.87947  22627142.6254                   22627142.5744
        46.2504         43.2504
   2452546.74645   1981646.69544  25184682.4384                   25184687.9774
        34.0004         26.5004
 25  7  1 20 22 30.0000000  0 10G10G15G08G18G23G16G27G24G32G29
   -730012.24648   -630117.35548  21490272.9774                   21490271.0234
        50.0004         50.5004
   2175874.11347   1852778.54745  23245647.3524                   23245644.4344
        42.0004         33.0004
  -2169666.96946  -1761769.62544  24323552.9694                   24323554.9844
        36.0004         29.2504
    652122.68447    550466.74646  21395895.8134                   21395892.4064
        47.0004         37.2504
    702282.96547    592388.57446  20990292.2974                   20990288.9264
        47.5004         38.0004
   1419713.53545   1136598.41443  24854290.9384                   24854291.3834
        35.5004         19.0004
  -1191409.31247  -1028187.46147  21898726.8054                   21898725.3364
        47.0004         45.5004
  -1260885.84446  -1026232.13745  23727530.9924                   23727532.1214
        40.7504         34.5004
  -2348370.68747  -2012395.26647  22608767.1254                   22608767.0204
        46.7504         43.5004
   2563381.00445   2068010.60544  25205774.8674                   25205779.3794
        32.5004         24.7504
 25  7  1 20 23  0.0000000  0 10G10G15G08G18G23G16G27G24G32G29
   -758055.62148   -651969.32848  21484936.4774                   21484935.0164
        50.5004         50.5004
   2271854.21546   1927568.17645  23263911.7974                   23263909.3484
        40.7504         32.5004
  -2259634.06245  -1831873.75844  24306432.7504                   24306434.7624
        35.5004         28.5004
    683962.18847    575276.71946  21401954.6094                   21401951.2814
        47.2504         37.5004
    734553.16447    617534.17646  20996433.5864                   20996429.6844
        47.5004         38.0004
   1483252.80545   1186109.39142  24866380.9384                   24866382.3984
        35.7504         17.2504
  -1235383.51247  -1062453.05947  21890358.3834                   21890357.0664
        46.2504         45.7504
  -1309988.03146  -1064493.50445  23718186.5864                   23718187.9454
        40.0004         34.2504
  -2444640.72347  -2087410.79747  22590447.4694                   22590447.3204
        46.5004         43.7504
   2674226.57845   2154383.33244  25226867.8754                   25226872.9924
        33.7504         25.2504
 25  7  1 20 23 30.0000000  0 10G10G15G08G18G23G16G27G24G32G29
   -785862.79748   -673637.24648  21479644.8594                   21479643.4964
        50.2504         50.5004
   2368100.63346   2002565.28945  23282227.0864                   23282224.9844
        40.5004         32.5004
  -2349279.69146  -1901727.41044  24289374.2974                   24289375.6334
        36.5004         28.7504
    716136.68847    600347.72746  21408076.4694                   21408073.8134
        47.5004         37.0004
    767010.85548    642825.86746  21002609.7344                   21002606.1884
        48.0004         38.0004
   1546962.88346   1235753.45343  24878504.8594                   24878506.8484
        36.0004         18.2504
  -1278796.25447  -1096281.15647  21882097.2664                   21882096.2154
        46.5004         46.0004
  -1358648.87946  -1102410.97745  23708926.5004                   23708927.8714
        40.5004         34.0004
  -2540616.32447  -2162196.89147  22572183.5634                   22572183.6644
        47.0004         43.2504
   2785080.04345   2240762.19544  25247963.3134                   25247968.4804
        34.5004         28.2504
 25  7  1 20 24  0.0000000  0 10G10G15G08G18G23G16G27G24G32G29
   -813431.00448   -695118.95348  21474398.5084                   21474397.5474
        50.0004         50.7504
   2464613.89146   2077770.34045  23300592.6334                   23300590.4694
        40.5004         33.5004
  -2438598.07446  -1971326.05944  24272377.0004                   24272379.0784
        36.0004         29.5004
    748650.07047    625682.80146  21414264.8364                   21414260.9844
        47.7504         37.0004
    799658.39847    668265.48846  21008822.1414                   21008818.9694
        47.7504         38.2504
   1610844.36345   1285531.02342  24890661.8524                   24890662.8364
        35.0004         17.2504
  -1321642.76647  -1129668.03547  21873943.7974                   21873942.9264
        47.0004         46.0004
  -1406862.19946  -1139979.71945  23699751.9774                   23699753.4454
        40.7504         35.0004
  -2636291.80947  -2236749.11747  22553977.3284                   22553977.2974
        46.0004         43.7504
   2895942.16046   2327147.79344  25269059.6724                   25269065.2934
        36.5004         29.7504
 25  7  1 20 24 30.0000000  0 10G10G15G08G18G23G16G27G24G32G29
   -840763.89848   -716417.29748  21469197.1954                   21469195.8054
        50.5004         50.5004
   2561388.21946   2153178.82045  23319008.2664                   23319006.4454
        40.5004         33.5004
  -2527589.59045  -2040670.02744  24255442.4064                   24255444.3364
        35.7504         29.5004
    781499.93447    651280.06646  21420515.4384                   21420512.2194
        47.5004         37.7504
    832491.84047    693849.97346  21015070.6254                   21015067.2114
        47.7504         38.5004
   1674891.38345   1335437.60943  24902849.8594                   24902850.8054
        34.5004         18.5004
  -1363924.55147  -1162614.86747  21865897.9844                   21865896.5434
        46.5004         46.0004
  -1454628.36346  -1177200.03145  23690662.4534                   23690663.4414
        41.5004         34.5004
  -2731667.75847  -2311067.94547  22535827.5084                   22535827.8794
        46.7504         43.7504
   3006807.59046   2413535.96545  25290157.7194                   25290162.8524
        38.2504         30.0004
 25  7  1 20 25  0.0000000  0 10G10G15G08G18G23G16G27G24G32G29
   -867864.89848   -737534.94548  21464039.9534                   21464038.5944
        50.0004         50.5004
   2658417.86346   2228786.25045  23337472.4694                   23337470.4224
        41.0004         33.5004
  -2616254.49646  -2109759.47745  24238569.9844                   24238572.1214
        36.5004         31.0004
    814684.01647    677137.76246  21426830.0944                   21426826.8754
        47.5004         37.2504
    865507.37548    719576.35246  21021353.3914                   21021349.4694
        48.0004         38.0004
   1739098.30945   1385468.76642  24915068.1564                   24915068.7814
        34.7504         17.7504
  -1405642.97347  -1195122.72747  21857959.2664                   21857957.9344
        46.5004         46.0004
  -1501947.37946  -1214071.91445  23681657.9304                   23681658.9384
        41.0004         34.0004
  -2826744.68747  -2385153.77047  22517735.1644                   22517735.2704
        46.0004         44.0004
   3117671.30146   2499922.81645  25311254.5474                   25311260.0084
        38.2504         31.2504
 25  7  1 20 25 30.0000000  0 10G10G15G08G18G23G16G27G24G32G29
   -894733.99648   -758471.89148  21458927.1414                   21458925.7894
        50.0004         50.5004
   2755701.21146   2304591.37545  23355985.1024                   23355982.8834
        41.2504         34.2504
  -2704589.60546  -2178591.94545  24221760.1024                   24221762.0744
        37.2504         31.0004
    848203.52047    703256.83246  21433208.6174                   21433205.9184
        47.5004         37.2504
    898704.59847    745444.30146  21027670.3594                   21027666.8674
        47.2504         38.0004
   1803462.66445   1435622.68442  24927317.0394                   24927317.3054
        34.7504         17.7504
  -1446796.06247  -1227190.05147  21850127.8914                   21850126.9884
        46.7504         46.5004
  -1548816.01646  -1250592.84845  23672738.4454                   23672739.8984
        41.5004         33.2504
  -2921519.65247  -2459004.30547  22499699.9924                   22499699.8484
        46.5004         44.0004
   3228531.60246   2586307.00845  25332350.2194                   25332356.4144
        39.5004         31.5004
 25  7  1 20 26  0.0000000  0 10G10G15G08G18G23G16G27G24G32G29
   -921369.83248   -779227.07848  21453858.9384                   21453857.2624
        50.5004         50.5004
   2853236.64147   2380592.93045  23374545.8754                   23374543.3244
        42.5004         35.7504
  -2792590.36346  -2247163.89545  24205015.1484                   24205015.6054
        38.0004         32.5004
    882060.97347    729639.22746  21439651.5704                   21439648.3794
        47.0004         37.2504
    932084.62948    771454.70746  21034021.6644                   21034018.6174
        48.2504         38.0004
   1867983.51245   1485898.47743  24939593.7424                   24939595.5664
        34.0004         18.2504
  -1487380.40247  -1258814.19547  21842404.6954                   21842403.6804
        47.0004         46.0004
  -1595229.48046  -1286759.10945  23663907.2034                   23663907.6884
        41.0004         33.2504
  -3015988.30947  -2532616.14847  22481723.2194                   22481723.5664
        46.5004         44.0004
   3339388.35546   2672688.44945  25353446.0864                   25353452.4454
        40.7504         30.0004
 25  7  1 20 26 30.0000000  0 10G10G15G08G18G23G16G27G24G32G29
   -947778.93748   -799805.58248  21448833.0474                   21448831.8014
        49.7504         50.5004
   2951015.86347   2456784.44946  23393152.3754                   23393150.4384
        43.0004         36.5004
  -2880260.19146  -2315477.99245  24188331.5314                   24188332.9224
        38.7504         32.0004
    916250.94947    756280.73846  21446157.8594                   21446154.8204
        47.0004         37.0004
    965640.55148    797602.16046  21040407.6334                   21040404.1764
        48.0004         38.0004
   1932652.14845   1536289.39542  24951900.3054                   24951901.8794
        34.2504         16.2504
  -1527400.57847  -1289998.73847  21834789.3834                   21834788.1454
        46.5004         46.2504
  -1641191.15646  -1322573.34845  23655159.6564                   23655161.1884
        40.5004         33.0004
  -3110154.27747  -2605992.12947  22463804.1804                   22463803.5744
        46.5004         44.0004
   3450232.99646   2759060.46544  25374539.4614                   25374545.8244
        41.5004         28.2504
 25  7  1 20 27  0.0000000  0 10G10G15G08G18G23G16G27G24G32G29
   -973962.61348   -820208.43748  21443850.5314                   21443849.0554
        50.0004         50.7504
   3049035.34047   2533163.18446  23411805.1644                   23411802.6764
        43.0004         36.7504
  -2967597.14146  -2383532.68045  24171711.5474                   24171713.0044
        38.2504         31.5004
    950773.35547    783181.28946  21452727.3284                   21452724.0004
        47.5004         37.2504
    999370.72748    823885.39846  21046826.4534                   21046823.0704
        48.0004         38.0004
   1997464.95345   1586792.73042  24964234.3134                   24964235.3954
        35.0004         16.7504
  -1566855.84847  -1320743.09447  21827281.3444                   21827280.1684
        47.0004         46.0004
  -1686698.94146  -1358033.90245  23646500.4304                   23646501.2734
        40.5004         33.5004
  -3204015.87947  -2679130.94547  22445942.3284                   22445942.6334
        46.5004         43.7504
   3561062.93446   2845421.02344  25395630.3054                   25395636.4804
        40.5004         27.5004
 25  7  1 20 27 30.0000000  0 10G10G15G08G18G23G16G27G24G32G29
   -999917.39848   -840432.92648  21438911.2584                   21438910.1024
        50.0004         50.7504
   3147296.48847   2609730.23845  23430503.6884                   23430501.6804
        42.2504         35.7504
  -3054594.74646  -2451322.95345  24155156.5314                   24155157.4384
        39.5004         32.5004
    985632.75047    810344.42246  21459360.7114                   21459357.7544
        46.5004         37.5004
   1033278.23048    850306.82046  21053279.0864                   21053275.8484
        48.0004         38.2504
   2062422.96145   1637409.18042  24976594.5634                   24976596.3014
        34.7504         16.2504
  -1605740.94947  -1351043.16447  21819881.8914                   21819880.1214
        47.0004         46.0004
  -1731746.25046  -1393135.64545  23637928.5004                   23637928.9614
        40.5004         33.0004
  -3297566.85247  -2752027.70747  22428140.2194                   22428140.4964
        46.0004         44.0004
   3671879.76246   2931771.38343  25416718.4064                   25416724.3094
        40.5004         22.0004
 25  7  1 20 28  0.0000000  0  9G10G15G08G18G23G16G27G24G32
  -1025645.85248   -860481.06248  21434015.5394                   21434013.7974
        50.0004         50.7504
   3245794.99247   2686482.24646  23449247.1884                   23449244.8874
        42.0004         36.0004
  -3141252.29346  -2518848.25445  24138666.4534                   24138667.2734
        39.7504         32.2504
   1020827.73447    837769.05546  21466058.5314                   21466055.1764
        46.0004         37.2504
   1067360.26247    876864.23046  21059764.4454                   21059761.1644
        47.7504         38.0004
   2127521.34446   1688134.98042  24988984.2274                   24988985.2774
        36.0004         16.7504
  -1644056.40247  -1380899.35947  21812590.4924                   21812589.0314
        46.2504         46.2504
  -1776332.39146  -1427878.02745  23629442.7424                   23629444.3914
        38.7504         31.7504
  -3390806.72747  -2824682.07047  22410397.4454                   22410396.9614
        46.2504         44.2504
 25  7  1 20 28 30.0000000  0  9G10G15G08G18G23G16G27G24G32
  -1051149.13748   -880353.74248  21429162.2114                   21429161.0984
        50.5004         50.7504
   3344527.17646   2763416.32045  23468035.1804                   23468033.4654
        41.7504         35.7504
  -3227567.78546  -2586107.01645  24122240.8834                   24122242.1094
        39.7504         31.5004
   1056358.28947    865455.16846  21472819.4304                   21472816.2074
        45.2504         36.7504
   1101615.41047    903556.54346  21066283.2344                   21066279.7544
        46.0004         38.0004
   2192757.12945   1738967.92642  25001398.0554                   25001399.2664
        35.7504         16.2504
  -1681801.48447  -1410311.10247  21805407.8984                   21805406.8094
        46.7504         46.0004
  -1820455.19146  -1462259.36345  23621047.3674                   23621048.5474
        39.0004         31.5004
  -3483733.78147  -2897092.67647  22392713.8054                   22392713.4344
        47.0004         44.2504
 25  7  1 20 29  0.0000000  0  9G10G15G08G18G23G16G27G24G32
  -1076423.33648   -900047.91448  21424352.8754                   21424351.3444
        50.5004         50.5004
   3443494.98047   2840534.00045  23486868.3594                   23486866.6484
        42.0004         35.7504
  -3313534.25046  -2653093.79745  24105881.9144                   24105883.3914
        39.7504         30.7504
   1092229.46547    893406.71146  21479645.3984                   21479642.4344
        46.5004         37.2504
   1136047.22348    930386.50846  21072835.2584                   21072832.1764
        48.0004         37.7504
   2258131.42245   1789908.70742  25013838.7814                   25013840.4064
        35.0004         14.7504
  -1718970.41447  -1439273.89847  21798334.7274                   21798333.4844
        45.5004         46.0004
  -1864107.59846  -1496274.16845  23612740.8914                   23612741.1724
        38.5004         31.5004
  -3576341.17247  -2969254.19547  22375090.8594                   22375090.9304
        47.0004         44.2504
 25  7  1 20 29 30.0000000  0  9G10G15G08G18G23G16G27G24G32
  -1101466.53548   -919562.09448  21419587.0004                   21419585.9534
        50.0004         50.7504
   3542697.87146   2917834.85545  23505745.9384                   23505744.2974
        40.7504         35.0004
  -3399146.62546  -2719804.67645  24089590.3674                   24089591.6844
        39.5004         31.0004
   1128444.23047    921625.97746  21486536.8524                   21486533.7544
        45.5004         36.7504
   1170657.28947    957355.37546  21079421.3134                   21079418.0004
        45.7504         37.5004
   2323644.04345   1840957.32042  25026304.9924                   25026306.6024
        35.5004         15.5004
  -1755559.43047  -1467784.81247  21791372.1804                   21791370.8134
        46.2504         46.0004
  -1907284.62946  -1529918.54745  23604523.8754                   23604524.6214
        38.0004         30.7504
  -3668624.18047  -3041162.95747  22357530.2664                   22357529.9264
        46.2504         44.5004
 25  7  1 20 30  0.0000000  0  9G10G15G08G18G23G16G27G24G32
  -1126277.56248   -938895.35248  21414865.9144                   21414864.7234
        50.0004         50.7504
   3642135.16846   2995318.36345  23524668.1644                   23524666.5554
        40.7504         34.0004
  -3484400.52746  -2786236.23444  24073366.9064                   24073368.2034
        39.0004         29.5004
   1165004.86747    950114.75446  21493494.6884                   21493491.5554
        46.2504         37.5004
   1205446.51648    984463.84446  21086041.5944                   21086038.1054
        48.2504         38.0004
   2389293.81645   1892112.81642  25038797.9064                   25038800.3874
        35.2504         15.5004
  -1791565.55947  -1495841.52747  21784520.4694                   21784519.0044
        46.7504         46.0004
  -1949981.75846  -1563188.97345  23596398.9384                   23596400.4494
        38.5004         31.2504
  -3760578.68747  -3112815.73847  22340031.8284                   22340031.5744
        47.5004         44.2504
 25  7  1 20 30 30.0000000  0  9G10G15G08G18G23G16G27G24G32
  -1150863.79348   -958053.44548  21410187.2664                   21410186.1374
        49.5004         50.7504
   3741797.34446   3072977.10545  23543633.1884                   23543631.5594
        41.0004         33.2504
  -3569300.28646  -2852391.83144  24057211.1644                   24057211.5904
        38.0004         27.0004
   1201905.16847    978868.21146  21500516.2194                   21500513.3404
        45.2504         36.7504
   1240407.25447   1011705.96546  21092694.7504                   21092690.9344
        46.0004         38.2504
   2455071.05546   1943367.62542  25051314.3834                   25051316.6024
        36.2504         16.2504
  -1826994.27047  -1523448.30147  21777778.7894                   21777777.2704
        47.0004         46.2504
  -1992203.20746  -1596088.74645  23588364.7034                   23588365.5394
        39.0004         32.5004
  -3852209.19947  -3184216.07047  22322595.1954                   22322594.9924
        46.7504         44.7504
 25  7  1 20 31  0.0000000  0  9G10G15G08G18G23G16G27G24G32
  -1175225.69148   -977036.73448  21405551.2424                   21405549.8444
        49.0004         50.5004
   3841682.14146   3150809.33245  23562640.4534                   23562639.1414
        39.2504         32.0004
  -3653843.41046  -2918269.52344  24041123.0314                   24041124.0164
        37.7504         28.0004
   1239145.71547   1007886.78146  21507603.0634                   21507599.7854
        45.5004         36.7504
   1275538.72747   1039081.12546  21099379.3674                   21099376.0824
        47.5004         37.5004
   2520973.20746   1994719.77342  25063855.7584                   25063857.9614
        36.5004         16.7504
  -1861844.28147  -1550604.14847  21771146.8674                   21771145.4694
        46.2504         46.0004
  -2033946.39546  -1628615.85945  23580420.8834                   23580422.0944
        37.5004         31.5004
  -3943513.27747  -3255362.02747  22305220.3754                   22305220.0084
        46.5004         45.0004
 25  7  1 20 31 30.0000000  0  9G10G15G08G18G23G16G27G24G32
  -1199367.42248   -995848.47348  21400957.2114                   21400955.8794
        49.0004         50.7504
   3941782.86346   3228809.80545  23581689.6564                   23581687.9614
        40.5004         31.7504
  -3738030.62146  -2983869.87944  24025102.5164                   24025103.6294
        36.2504         28.0004
   1276723.43447   1037168.09446  21514753.5554                   21514750.8134
        45.2504         37.0004
   1310836.53147   1066585.89546  21106096.4694                   21106093.3204
        46.0004         38.0004
   2586993.58246   2046163.99642  25076419.7504                   25076421.7734
        36.5004         16.2504
  -1896118.03147  -1577310.96147  21764624.6724                   21764623.5234
        46.0004         46.2504
  -2075212.35246  -1660771.11745  23572568.2504                   23572568.9734
        38.2504         30.5004
  -4034492.34847  -3326254.73047  22287907.4144                   22287907.2734
        47.2504         44.7504
 25  7  1 20 32  0.0000000  0  9G10G15G08G18G23G16G27G24G32
  -1223291.71148  -1014490.77048  21396404.3524                   21396403.2624
        50.0004         50.7504
   4042095.15246   3306975.14545  23600778.0704                   23600776.8094
        40.0004         31.0004
  -3821861.74246  -3049192.75044  24009149.2114                   24009151.1684
        37.0004         27.5004
   1314636.62147   1066710.81346  21521968.3674                   21521965.6884
        45.0004         36.5004
   1346297.67247   1094217.93846  21112844.5704                   21112841.1334
        45.7504         38.2504
   2653127.48046   2097696.68442  25089004.3674                   25089006.7154
        37.0004         16.2504
  -1929816.46547  -1603569.47347  21758212.3834                   21758210.8244
        46.0004         46.2504
  -2116000.68746  -1692554.18045  23564806.3594                   23564806.9344
        38.5004         30.7504
  -4125146.19947  -3396894.02047  22270656.6334                   22270656.4534
        47.0004         45.0004
 25  7  1 20 32 30.0000000  0  9G10G15G08G18G23G16G27G24G32
  -1246997.89548  -1032963.11348  21391893.3914                   21391892.3984
        49.5004         51.0004
   4142617.26646   3385303.99645  23619906.9534                   23619905.0704
        39.5004         31.2504
  -3905333.03946  -3114235.26244  23993265.9844                   23993266.8094
        37.2504         27.7504
   1352887.00447   1096516.27746  21529247.3364                   21529244.0824
        46.2504         36.2504
   1381922.51647   1121977.53546  21119624.1884                   21119620.4454
        47.5004         37.7504
   2719372.94146   2149316.30942  25101611.9224                   25101612.7234
        36.2504         14.7504
  -1962937.26247  -1629377.88347  21751909.4144                   21751908.1134
        46.5004         46.5004
  -2156307.67646  -1723962.17244  23557136.7894                   23557136.8094
        39.0004         29.7504
  -4215471.41447  -3467277.22747  22253468.2814                   22253468.0744
        46.7504         45.0004
 25  7  1 20 33  0.0000000  0  9G10G15G08G18G23G16G27G24G32
  -1270488.17248  -1051267.21948  21387423.4844                   21387421.9964
        49.5004         50.7504
   4243344.96946   3463793.02745  23639074.3594                   23639073.0084
        39.2504         31.5004
  -3988443.47346  -3178996.57844  23977450.0944                   23977451.6644
        36.5004         29.5004
   1391473.43047   1126583.59046  21536589.5314                   21536586.7154
        46.0004         36.7504
   1417708.66447   1149862.83246  21126433.5234                   21126430.2544
        47.5004         37.7504
   2785725.77346   2201019.63742  25114236.5864                   25114239.2344
        36.0004         14.7504
  -1995480.90247  -1654736.56247  21745716.2894                   21745715.4024
        45.7504         46.5004
  -2196132.42246  -1754994.39145  23549557.3914                   23549558.5704
        38.2504         31.0004
  -4305467.27347  -3537403.79747  22236342.3284                   22236342.3594
        46.5004         45.0004
 25  7  1 20 33 30.0000000  0  9G10G15G08G18G23G16G27G24G32
  -1293764.96548  -1069404.97348  21382993.8524                   21382992.4804
        50.0004         50.7504
   4344273.97346   3542438.92245  23658281.9064                   23658279.7234
        40.7504         32.2504
  -4071192.51246  -3243476.28144  23961703.5784                   23961704.9774
        37.0004         29.5004
   1430394.55147   1156911.71546  21543996.2664                   21543993.0234
        46.0004         36.2504
   1453653.45347   1177871.74246  21133273.6724                   21133270.3714
        47.7504         37.7504
   2852181.21946   2252802.91042  25126883.0704                   25126885.9024
        37.7504         14.7504
  -2027448.09047  -1679646.05947  21739633.0004                   21739632.0204
        45.2504         46.2504
  -2235474.27346  -1785650.33645  23542070.4454                   23542072.0864
        38.2504         31.0004
  -4395133.40647  -3607273.43747  22219279.7194                   22219279.1724
        47.2504         45.2504
 25  7  1 20 34  0.0000000  0  9G10G15G08G18G23G16G27G24G32
  -1316829.84448  -1087377.60248  21378604.7034                   21378603.5554
        49.5004         50.7504
   4445400.41046   3621238.64145  23677525.1644                   23677523.5394
        41.0004         33.5004
  -4153578.64146  -3307673.19545  23946026.0554                   23946027.3444
        37.7504         30.2504
   1469649.82447   1187500.20746  21551466.1414                   21551463.0864
        46.0004         36.2504
   1489755.08247   1206002.86746  21140143.5474                   21140140.2304
        46.7504         37.5004
   2918735.54746   2304663.19942  25139547.9774                   25139551.1484
        36.7504         15.5004
  -2058838.75447  -1704106.31647  21733660.0474                   21733658.6454
        46.0004         46.5004
  -2274331.80546  -1815928.88345  23534676.9454                   23534677.7464
        39.0004         30.7504
  -4484468.60947  -3676885.21547  22202279.6724                   22202279.2544
        47.2504         45.2504
 25  7  1 20 34 30.0000000  0  9G10G15G08G18G23G16G27G24G32
  -1339687.18448  -1105188.50848  21374255.1174                   21374253.7234
        48.7504         51.0004
   4546717.64547   3700187.05545  23696805.3754                   23696803.6644
        42.0004         32.7504
  -4235603.13346  -3371588.32845  23930416.9064                   23930418.5044
        38.0004         31.5004
   1509235.87147   1218346.44946  21558999.3284                   21558996.6024
        45.2504         36.2504
   1526008.88347   1234252.56646  21147042.4454                   21147039.2344
        47.0004         37.5004
   2985382.12146   2356595.46542  25152230.7274                   25152233.1024
        37.0004         14.7504
  -2089655.71947  -1728119.53547  21727795.8054                   21727794.5124
        46.2504         46.5004
  -2312706.42646  -1845831.14845  23527375.2814                   23527375.3714
        39.0004         31.0004
  -4573474.46947  -3746240.35547  22185342.3984                   22185341.8484
        47.2504         45.2504
 25  7  1 20 35  0.0000000  0  9G10G15G08G18G23G16G27G24G32
  -1362334.00048  -1122835.37148  21369945.7894                   21369944.2464
        49.0004         50.7504
   4648226.60947   3779284.87545  23716121.6954                   23716119.8364
        42.5004         34.0004
  -4317260.03146  -3435217.00045  23914878.0234                   23914879.6374
        38.5004         32.2504
   1549156.65247   1249453.52046  21566596.1644                   21566592.9454
        46.0004         36.2504
   1562417.63748   1262623.00846  21153970.7894                   21153967.5904
        48.0004         37.5004
   3052121.17246   2408599.72742  25164931.3914                   25164935.0234
        36.5004         16.2504
  -2119894.36347  -1751682.11747  21722041.6644                   21722040.3164
        46.7504         46.5004
  -2350592.17646  -1875352.44945  23520165.0394                   23520165.6724
        39.2504         30.2504
  -4662145.20748  -3815334.36747  22168468.6564                   22168468.1334
        48.0004         45.5004
 25  7  1 20 35 30.0000000  0  9G10G15G08G18G23G16G27G24G32
  -1384776.35948  -1140322.91848  21365674.7734                   21365673.5554
        49.5004         50.7504
   4749919.91847   3858526.33645  23735473.4384                   23735472.0394
        42.2504         34.0004
  -4398552.25446  -3498561.52045  23899408.7814                   23899410.3794
        38.2504         33.2504
   1589407.21947   1280817.57046  21574255.6174                   21574252.3674
        46.7504         36.5004
   1598975.07847   1291109.31346  21160927.4454                   21160924.1954
        47.2504         37.2504
   3118944.84846   2460669.87942  25177646.8754                   25177650.7974
        36.5004         14.7504
  -2149559.13347  -1774797.52747  21716395.9774                   21716395.0204
        46.2504         46.5004
  -2387992.05146  -1904495.16445  23513047.6484                   23513048.4884
        38.5004         30.7504
  -4750484.07447  -3884169.78547  22151658.3284                   22151658.2504
        47.5004         45.5004
 25  7  1 20 36  0.0000000  0  9G10G15G08G18G23G16G27G24G32
  -1407013.17248  -1157650.29748  21361443.1884                   21361442.0044
        49.2504         50.7504
   4851795.86347   3937910.11745  23754860.0314                   23754858.3674
        42.0004         34.5004
  -4479475.78146  -3561618.72345  23884009.4774                   23884011.1564
        39.2504         34.0004
   1629989.52047   1312440.11746  21581978.2584                   21581975.2274
        46.7504         36.7504
   1635681.99247   1319712.09446  21167912.9924                   21167909.4144
        47.0004         37.5004
   3185851.85546   2512804.97742  25190379.2504                   25190381.9884
        36.7504         14.7504
  -2178647.49647  -1797463.77747  21710860.9144                   21710859.8324
        46.7504         46.5004
  -2424902.15246  -1933256.25045  23506024.7194                   23506024.7274
        38.0004         30.7504
  -4838487.36747  -3952743.70347  22134911.2504                   22134911.2664
        47.2504         45.7504
 25  7  1 20 36 30.0000000  0  9G10G15G08G18G23G16G27G24G32
  -1429040.26248  -1174814.25848  21357251.8984                   21357250.7114
        50.0004         50.7504
   4953856.98446   4017438.18045  23774281.8364                   23774279.8444
        41.5004         34.2504
  -4560023.32446  -3624382.96945  23868682.1414                   23868683.2034
        39.0004         34.0004
   1670908.78147   1344325.22346  21589764.7664                   21589761.8984
        46.7504         36.0004
   1672542.45747   1348434.51646  21174927.0944                   21174923.8954
        47.2504         37.2504
   3252844.34046   2565006.74642  25203127.7584                   25203130.0784
        36.5004         14.7504
  -2207153.62547  -1819676.35247  21705436.5394                   21705435.0164
        47.0004         46.5004
  -2461315.30146  -1961630.09845  23499095.2114                   23499095.4024
        39.2504         31.0004
  -4926147.96547  -4021050.59847  22118230.7274                   22118230.1684
        47.2504         45.5004
 25  7  1 20 37  0.0000000  0  9G10G15G08G18G23G16G27G24G32
  -1450858.03948  -1191815.11748  21353100.2734                   21353098.4884
        49.2504         51.0004
   5056100.72746   4097108.53545  23793737.8054                   23793736.3794
        41.0004         34.2504
  -4640192.31246  -3686852.23045  23853425.9614                   23853427.6884
        39.7504         34.0004
   1712165.54747   1376473.31346  21597615.5634                   21597612.9144
        46.7504         36.0004
   1709555.80547   1377276.07046  21181970.0944                   21181967.1604
        46.7504         37.7504
   3319919.37546   2617272.83642  25215891.5944                   25215894.2934
        37.0004         15.5004
  -2235076.53947  -1841434.47347  21700123.2424                   21700121.6374
        47.0004         46.5004
  -2497229.05946  -1989614.80145  23492260.9844                   23492261.4964
        38.5004         31.2504
  -5013463.68748  -4089088.75447  22101614.8674                   22101614.2384
        48.2504         45.7504
 25  7  1 20 37 30.0000000  0  9G10G15G08G18G23G16G27G24G32
  -1472471.87548  -1208657.06248  21348987.4454                   21348986.0044
        49.2504         51.0004
   5158519.37946   4176915.17645  23813227.7344                   23813226.0594
        40.0004         33.2504
  -4719985.07846  -3749028.34045  23838242.0474                   23838243.1524
        40.5004         35.5004
   1753755.41047   1408880.98046  21605529.8284                   21605526.9844
        45.2504         36.5004
   1746716.47747   1406232.41846  21189042.0704                   21189038.2734
        47.5004         37.7504
   3387069.50046   2669597.34842  25228670.3054                   25228672.5474
        36.7504         16.7504
  -2262420.09447  -1862741.14147  21694919.8054                   21694918.4224
        47.2504         46.5004
  -2532645.84446  -2017212.27045  23485520.8524                   23485521.7934
        38.7504         31.5004
  -5100437.10548  -4156860.18047  22085063.8204                   22085063.8164
        48.2504         46.0004
 25  7  1 20 38  0.0000000  0  9G10G15G08G18G23G16G27G24G32
  -1493883.74248  -1225341.62548  21344912.6094                   21344911.2114
        49.5004         50.7504
   5261109.35946   4256855.32045  23832749.6804                   23832748.5944
        39.2504         32.7504
  -4799400.62946  -3810910.52045  23823129.4224                   23823131.0824
        38.7504         35.0004
   1795677.34047   1441547.39146  21613507.7894                   21613504.3914
        46.2504         36.0004
   1784022.32847   1435301.89546  21196141.1644                   21196137.5204
        46.0004         37.5004
   3454290.19546   2721976.87142  25241461.1414                   25241464.7344
        36.0004         16.7504
  -2289184.81647  -1883596.77047  21689826.7584                   21689825.1134
        46.7504         46.7504
  -2567564.76646  -2044421.78545  23478875.9304                   23478877.3444
        39.7504         31.2504
  -5187067.51647  -4224364.32447  22068578.9144                   22068578.7424
        47.7504         46.0004
 25  7  1 20 38 30.0000000  0  9G10G15G08G18G23G16G27G24G32
  -1515094.46948  -1241869.45348  21340876.0084                   21340875.1524
        49.0004         51.0004
   5363867.59446   4336926.58645  23852303.8284                   23852302.8794
        39.5004         32.2504
  -4878436.84446  -3872497.09845  23808089.9144                   23808090.8594
        39.5004         34.5004
   1837931.48847   1474472.67246  21621548.7274                   21621545.0314
        46.5004         36.0004
   1821472.32047   1464483.69146  21203267.4144                   21203264.0274
        45.7504         37.5004
   3521578.50445   2774409.06342  25254267.5394                   25254270.0354
        35.0004         16.2504
  -2315370.10247  -1904000.89147  21684843.6724                   21684842.4734
        47.5004         46.7504
  -2601983.81646  -2071241.81645  23472327.4924                   23472327.5084
        40.0004         31.5004
  -5273353.01248  -4291599.71147  22052159.2734                   22052158.9344
        48.0004         46.2504
 25  7  1 20 39  0.0000000  0  9G10G15G08G18G23G16G27G24G32
  -1536098.46148  -1258236.19548  21336879.6954                   21336878.4024
        49.7504         51.0004
   5466797.71946   4417131.79745  23871891.1484                   23871889.5944
        39.2504         32.0004
  -4957085.08246  -3933781.36345  23793123.2814                   23793124.4574
        40.0004         34.7504
   1880524.32447   1507661.86745  21629653.1804                   21629650.2304
        46.5004         35.5004
   1859071.88747   1493782.03946  21210422.3674                   21210419.5554
        46.2504         37.5004
   3588937.95345   2826896.75842  25267085.0004                   25267088.2664
        35.5004         16.7504
  -2340968.98847  -1923948.07447  21679972.3524                   21679971.3524
        47.2504         46.7504
  -2635894.64846  -2097665.82445  23465873.8524                   23465874.3244
        39.0004         32.0004
  -5359285.33247  -4358559.89547  22035807.2734                   22035806.6644
        47.5004         46.2504
 25  7  1 20 39 30.0000000  0  9G10G15G08G18G23G16G27G24G32
  -1556899.78948  -1274445.02048  21332920.8984                   21332919.3874
        49.0004         50.7504
   5569893.73846   4497466.26245  23891509.7194                   23891508.2974
        38.2504         31.2504
  -5035346.48846  -3994764.21145  23778230.3834                   23778231.6994
        39.7504         34.0004
   1923452.67647   1541112.50045  21637822.5864                   21637819.4694
        46.5004         35.5004
   1896816.76247   1523193.61746  21217605.0084                   21217602.0434
        46.0004         38.0004
   3656362.08245   2879434.82042  25279915.2584                   25279918.6764
        34.5004         13.7504
  -2365984.15247  -1943440.41847  21675212.3834                   21675210.8094
        46.5004         47.0004
  -2669298.55146  -2123694.82045  23459516.5394                   23459517.1804
        38.5004         32.5004
  -5444865.85947  -4425245.95347  22019521.6254                   22019520.7424
        47.5004         46.2504
 25  7  1 20 40  0.0000000  0  9G10G15G08G18G23G16G27G24G32
  -1577500.75048  -1290497.69948  21329000.7584                   21328999.5004
        48.5004         50.7504
   5673151.51246   4577926.76245  23911159.3674                   23911158.3014
        38.0004         31.0004
  -5113220.40646  -4055445.12145  23763411.7504                   23763412.7114
        39.7504         33.2504
   1966715.15247   1574823.49646  21646055.0864                   21646051.8054
        47.0004         36.0004
   1934704.52047   1552716.53146  21224814.8524                   21224811.3834
        46.0004         37.7504
   3723846.48045   2932019.75042  25292757.2664                   25292760.1684
        34.0004         16.2504
  -2390416.56647  -1962478.66847  21670562.7814                   21670561.6214
        45.5004         47.0004
  -2702194.90246  -2149328.32045  23453257.0164                   23453257.5664
        39.7504         32.5004
  -5530094.23047  -4491657.60247  22003302.9774                   22003302.3554
        47.2504         46.2504
 25  7  1 20 40 30.0000000  0  9G10G15G08G18G23G16G27G24G32
  -1597901.35948  -1306394.27048  21325118.4844                   21325117.7114
        49.5004         51.0004
   5776568.94946   4658511.66845  23930838.7584                   23930837.5004
        38.2504         31.5004
  -5190703.90646  -4115821.81245  23748667.0704                   23748667.9144
        38.2504         32.5004
   2010312.73047   1608795.59846  21654351.3674                   21654348.5084
        47.0004         36.0004
   1972734.95747   1582350.62146  21232051.8834                   21232049.0274
        46.5004         38.0004
   3791388.75445   2984649.87542  25305610.7034                   25305614.3134
        32.5004         16.2504
  -2414264.88747  -1981061.78547  21666025.0004                   21666023.3914
        46.2504         47.0004
  -2734581.06646  -2174564.27345  23447094.2114                   23447095.1414
        40.0004         33.0004
  -5614967.77347  -4557792.75847  21987151.7894                   21987151.4184
        47.7504         46.0004
 25  7  1 20 41  0.0000000  0  9G10G15G08G18G23G16G27G24G32
  -1618105.42648  -1322137.69948  21321273.8284                   21321272.3794
        48.0004         51.0004
   5880139.81346   4739216.14145  23950547.3674                   23950546.1414
        38.5004         31.2504
  -5267797.86346  -4175894.97745  23733996.4534                   23733996.9264
        37.7504         31.5004
   2054242.40647   1643026.48446  21662710.9384                   21662707.9264
        46.7504         36.0004
   2010904.09847   1612092.79346  21239315.3364                   21239312.0434
        46.5004         37.2504
   3858982.78145   3037320.28942  25318473.1174                   25318477.3324
        32.2504         16.7504
  -2437531.65647  -1999191.74247  21661597.1174                   21661596.0274
        45.5004         47.0004
  -2766458.11746  -2199403.53545  23441028.2974                   23441029.3014
        39.7504         33.0004
  -5699487.69947  -4623652.37547  21971068.5784                   21971067.8914
        47.5004         46.5004
 25  7  1 20 41 30.0000000  0  9G10G15G08G18G23G16G27G24G32
  -1638113.28948  -1337728.23048  21317466.4774                   21317464.9494
        49.0004         51.0004
   5983862.35546   4820038.79745  23970286.4144                   23970284.1334
        40.0004         32.2504
  -5344499.71146  -4235662.61345  23719400.4304                   23719401.4184
        38.2504         30.7504
   2098504.69947   1677516.54746  21671134.0004                   21671130.9964
        47.0004         36.0004
   2049211.50447   1641942.69546  21246604.8134                   21246601.5004
        45.7504         37.2504
   3926626.50855   3090029.42652  25331346.5314                   25331349.2194
        31.7504         15.5004
  -2460215.97347  -2016867.83647  21657280.3524                   21657278.8524
        47.2504         47.0004
  -2797823.69546  -2223844.25445  23435059.6484                   23435060.4024
        40.5004         33.2504
  -5783651.71547  -4689234.66047  21955052.1564                   21955051.7304
        47.2504         46.5004
 25  7  1 20 42  0.0000000  0  9G10G15G08G18G23G16G27G24G32
  -1657919.79348  -1353161.86748  21313697.5164                   21313695.9574
        49.5004         51.0004
   6087739.44946   4900981.92645  23990052.9384                   23990051.3444
        39.7504         31.0004
  -5420801.30146  -4295118.35245  23704881.1564                   23704881.9144
        39.0004         30.5004
   2143105.65647   1712270.49645  21679621.1174                   21679618.0634
        47.2504         35.5004
   2087662.09047   1671904.18046  21253921.7034                   21253918.6724
        46.0004         37.5004
   3994322.36745   3142779.17642  25344227.8054                   25344231.7424
        32.5004         14.7504
  -2482311.41447  -2034085.07047  21653075.8984                   21653074.5274
        47.2504         47.0004
  -2828669.96946  -2247880.31245  23429189.9694                   23429189.7854
        40.0004         32.7504
  -5867452.08247  -4754533.58647  21939105.8524                   21939105.5164
        47.7504         46.5004
 25  7  1 20 42 30.0000000  0  9G10G15G08G18G23G16G27G24G32
  -1677532.68748  -1368444.64848  21309965.3754                   21309964.0394
        49.5004         51.0004
   6191761.25046   4982037.77045  24009848.1884                   24009846.2624
        38.7504         31.5004
  -5496707.51646  -4354266.00445  23690435.5944                   23690436.8984
        38.2504         30.0004
   2188038.34047   1747282.93845  21688171.6954                   21688168.7584
        47.0004         35.5004
   2126248.03547   1701971.12546  21261264.6414                   21261261.5474
        47.2504         37.7504
   4062060.23445   3195561.66842  25357118.8364                   25357122.4534
        32.2504         15.5004
  -2503824.52347  -2050848.54347  21648981.9534                   21648980.6254
        46.2504         47.0004
  -2859001.95346  -2271515.63345  23423417.9774                   23423418.0514
        41.2504         32.0004
  -5950893.91047  -4819553.12947  21923227.6724                   21923226.8014
        46.5004         46.5004
 25  7  1 20 43  0.0000000  0  9G10G15G08G18G23G16G27G24G32
  -1696950.89848  -1383575.70748  21306270.1334                   21306268.5354
        50.0004         50.7504
   6295927.03146   5063205.82444  24029670.0784                   24029668.3754
        38.7504         29.2504
  -5572214.46146  -4413102.53944  23676068.1174                   23676068.2344
        38.5004         29.5004
   2233304.70747   1782555.39545  21696785.6954                   21696782.7854
        46.5004         35.5004
   2164970.25047   1732144.26246  21268632.9774                   21268629.6414
        47.0004         37.2504
   4129839.36745   3248376.27742  25370016.7974                   25370019.6564
        30.5004         15.5004
  -2524753.04347  -2067156.49247  21644999.6094                   21644998.2734
        47.7504         47.0004
  -2888815.92646  -2294747.31245  23417744.4614                   23417744.8954
        40.7504         32.5004
  -6033973.54747  -4884290.44147  21907417.8984                   21907417.1884
        47.0004         46.7504
 25  7  1 20 43 30.0000000  0  9G10G15G08G18G23G16G27G24G32
  -1716175.02048  -1398555.53548  21302612.0314                   21302610.4064
        48.2504         51.0004
   6400234.30546   5144484.12944  24049518.6644                   24049517.4654
        38.7504         29.7504
  -5647319.74246  -4471626.08644  23661775.3594                   23661776.0314
        39.5004         29.0004
   2278905.00047   1818088.03945  21705462.9534                   21705460.0354
        47.0004         35.2504
   2203828.06347   1762423.06346  21276027.5864                   21276024.1954
        46.0004         36.7504
   4197656.97714                  25382922.156
        29.000
  -2545096.40647  -2083008.46947  21641128.5784                   21641126.8714
        45.7504         47.2504
  -2918109.99246  -2317573.84045  23412170.1644                   23412169.8984
        40.7504         32.7504
  -6116689.04347  -4948744.01247  21891677.6564                   21891676.8984
        46.7504         46.7504
 25  7  1 20 44  0.0000000  0  9G10G15G08G18G23G16G27G24G32
  -1735207.23848  -1413385.82048  21298990.2584                   21298988.7114
        48.7504         51.0004
   6504678.96546   5225869.49644  24069393.7034                   24069392.9534
        38.2504         28.5004
  -5722022.79746  -4529836.21545  23647560.4144                   23647560.9344
        39.7504         31.0004
   2324837.76247   1853879.75846  21714203.5634                   21714201.0314
        46.5004         36.2504
   2242819.08647   1792805.66046  21283447.4534                   21283444.2774
        45.7504         37.5004
   4265508.23814                  25395835.094
        28.500
  -2564855.67647  -2098405.31647  21637368.4384                   21637366.7544
        45.7504         47.0004
  -2946883.64546  -2339994.85945  23406694.1644                   23406695.1524
        41.0004         33.2504
  -6199039.98847  -5012913.51247  21876006.4304                   21876005.9494
        47.0004         47.0004
 25  7  1 20 44 30.0000000  0  9G10G15G08G18G23G16G27G24G32
  -1754048.39148  -1428067.23048  21295405.0084                   21295403.1994
        48.5004         51.0004
   6609258.22346   5307359.73844  24089294.6724                   24089293.4924
        39.0004         29.2504
  -5796321.56646  -4587731.32045  23633421.5554                   23633422.0124
        39.0004         30.7504
   2371102.97347   1889930.53945  21723007.8134                   21723004.6914
        46.7504         35.5004
   2281942.39147   1823291.32846  21290892.0864                   21290888.9614
        46.0004         37.2504
   4333390.12115                  25408752.289
        30.500
  -2584030.61347  -2113346.82847  21633719.1174                   21633718.0824
        46.2504         47.0004
  -2975135.19947  -2362009.05145  23401319.0004                   23401318.7074
        42.0004         33.7504
  -6281024.74247  -5076797.67247  21860405.3204                   21860404.4384
        47.2504         47.0004
 25  7  1 20 45  0.0000000  0  9G10G15G08G18G23G16G27G24G32
  -1772700.32448  -1442601.19948  21291855.4534                   21291853.9654
        49.0004         51.0004
   6713968.02046   5388951.73845  24109221.4614                   24109219.2074
        39.2504         30.0004
  -5870215.08646  -4645310.63745  23619360.1804                   23619360.7304
        40.0004         31.0004
   2417699.63747   1926239.59445  21731875.0394                   21731872.0354
        46.2504         34.7504
   2321196.05547   1853878.58646  21298362.1564                   21298358.6994
        45.5004         37.2504
   4401299.23855   3300196.34852  25421674.5704                   25421677.5354
        33.0004         17.2504
  -2602621.91047  -2127833.55947  21630181.5394                   21630180.2074
        46.5004         47.0004
  -3002863.88346  -2383615.82845  23396042.0234                   23396042.5784
        41.5004         34.0004
  -6362642.50447  -5140395.86747  21844873.8594                   21844873.0044
        47.7504         47.2504
 25  7  1 20 45 30.0000000  0  9G10G15G08G18G23G16G27G24G32
  -1791159.03948  -1456984.60548  21288343.0634                   21288341.4384
        48.7504         51.0004
   6818810.51646   5470647.10545  24129171.4614                   24129170.3014
        40.0004         30.5004
  -5943696.46546  -4702568.80945  23605377.0314                   23605377.4844
        40.5004         32.0004
   2464632.53147   1962810.63345  21740806.0944                   21740802.6094
        46.2504         35.5004
   2360583.93847   1884570.42646  21305857.1024                   21305853.7074
        45.7504         37.0004
   4469236.99645   3353134.58242  25434604.5944                   25434607.0744
        32.0004         15.5004
  -2620624.54347  -2141861.59447  21626755.8134                   21626754.5234
        46.5004         47.2504
  -3030063.35546  -2404810.20745  23390865.7584                   23390866.5124
        41.2504         33.5004
  -6443886.86747  -5203703.09847  21829413.5314                   21829413.0124
        47.7504         47.2504
 25  7  1 20 46  0.0000000  0  9G10G15G08G18G23G16G27G24G32
  -1809425.48048  -1471218.18448  21284867.1484                   21284865.1294
        48.2504         51.0004
   6923782.97746   5552443.75845  24149147.4774                   24149146.0474
        39.7504         30.7504
  -6016763.89146  -4759504.40645  23591472.8674                   23591472.8874
        41.0004         33.5004
   2511901.41847   1999643.48845  21749800.9304                   21749798.1884
        46.0004         35.5004
   2400104.98847   1915366.03146  21313378.1094                   21313374.7034
        45.5004         37.2504
   4537200.05945   3406092.50442  25447535.4844                   25447539.7234
        31.5004         16.7504
  -2638038.49647  -2155430.91047  21623442.0784                   21623440.8794
        45.7504         47.2504
  -3056731.97346  -2425590.93445  23385790.9454                   23385791.1884
        41.2504         33.5004
  -6524756.22747  -5266718.12147  21814024.6024                   21814023.7934
        47.0004         47.5004
 25  7  1 20 46 30.0000000  0  9G10G15G08G18G23G16G27G24G32
  -1827504.10948  -1485305.42648  21281426.9454                   21281424.9104
        48.7504         51.0004
   7028878.92246   5634336.62945  24169146.4614                   24169145.2304
        40.0004         31.0004
  -6089419.01646  -4816118.75045  23577646.9384                   23577647.5124
        41.5004         34.0004
   2559502.57047   2036735.25845  21758858.9844                   21758856.4534
        46.2504         34.7504
   2439754.63747   1946261.84046  21320922.8364                   21320919.6094
        46.5004         36.5004
   4605181.67245   3459064.92242  25460471.9064                   25460476.9804
        32.7504         15.5004
  -2654867.23847  -2168544.22347  21620239.9144                   21620238.3794
        46.5004         47.2504
  -3082871.65647  -2445959.48445  23380816.5704                   23380817.4884
        42.0004         34.7504
  -6605252.62147  -5329442.53147  21798706.5474                   21798705.7304
        47.2504         47.5004
 25  7  1 20 47  0.0000000  0  9G10G15G08G18G23G16G27G24G32
  -1845394.92248  -1499246.31248  21278022.2034                   21278020.4774
        48.2504         51.0004
   7134096.45346   5716324.25045  24189168.9304                   24189167.2504
        39.7504         31.0004
  -6161659.07046  -4872409.65245  23563900.2814                   23563900.7154
        41.2504         34.7504
   2607436.77747   2074086.53545  21767980.6804                   21767977.8594
        45.0004         35.7504
   2479532.82847   1977257.82446  21328492.6334                   21328489.2584
        46.0004         37.0004
   4673180.06645   3512050.44942  25473412.6884                   25473416.1844
        33.0004         16.2504
  -2671109.69147  -2181200.68447  21617148.7814                   21617147.5984
        47.0004         47.0004
  -3108480.02746  -2465914.03545  23375943.7194                   23375943.8244
        41.7504         34.2504
  -6685373.50048  -5391874.32047  21783460.1334                   21783459.4184
        48.0004         47.5004
 25  7  1 20 47 30.0000000  0  9G10G15G08G18G23G16G27G24G32
  -1863098.07848  -1513040.97748  21274653.3204                   21274651.7894
        48.7504         51.0004
   7239433.39546   5798404.92245  24209213.9774                   24209211.9574
        39.5004         31.0004
  -6233481.46947  -4928375.11345  23550233.2974                   23550232.9734
        42.0004         35.0004
   2655704.62947   2111697.80145  21777165.7734                   21777163.0904
        46.7504         35.5004
   2519439.27347   2008353.73846  21336086.4304                   21336082.7194
        46.2504         37.5004
   4741192.50045   3565046.81642  25486355.2894                   25486359.2344
        33.7504         16.7504
  -2686765.20747  -2193399.79747  21614169.5634                   21614168.1414
        47.5004         47.5004
  -3133554.82447  -2485452.81645  23371171.9064                   23371172.4344
        42.2504         34.2504
  -6765116.60548  -5454011.74647  21768285.8204                   21768284.3874
        48.5004         47.5004
 25  7  1 20 48  0.0000000  0  9G10G15G08G18G23G16G27G24G32
  -1880612.24648  -1526688.37148  21271320.5944                   21271318.8364
        48.0004         51.0004
   7344889.64846   5880578.55944  24229281.3054                   24229280.1254
        38.7504         29.0004
  -6304882.08246  -4984011.91445  23536646.2194                   23536646.5664
        41.5004         35.5004
   2704308.11347   2149570.60545  21786414.5394                   21786411.7664
        46.0004         35.5004
   2559475.27747   2039550.60246  21343704.9924                   21343701.5824
        45.7504         36.7504
   4809218.28545   3618053.67642  25499299.2194                   25499304.3984
        35.0004         16.2504
  -2701831.46947  -2205139.74647  21611302.7734                   21611301.4964
        47.2504         47.0004
  -3158092.37946  -2504572.96145  23366502.9224                   23366503.5314
        41.7504         34.2504
  -6844478.16847  -5515851.86747  21753183.6644                   21753182.6914
        47.5004         47.5004
 25  7  1 20 48 30.0000000  0  9G10G15G08G18G23G16G27G24G32
  -1897940.78548  -1540191.12548  21268022.5704                   21268021.2464
        50.0004         51.0004
   7450459.65646   5962840.84444  24249370.8054                   24249369.7424
        38.2504         29.5004
  -6375861.55147  -5039320.55546  23523138.5164                   23523139.5004
        42.0004         36.0004
   2753244.57447   2187702.86345  21795727.2894                   21795724.0784
        45.2504         35.5004
   2599637.39147   2070845.73046  21351347.8054                   21351344.4924
        47.0004         36.5004
   4877251.59846   3671066.40242  25512246.5004                   25512250.4384
        36.5004         17.7504
  -2716310.94947  -2216422.46947  21608547.2034                   21608545.8594
        46.0004         47.0004
  -3182093.63747  -2523275.21545  23361935.5944                   23361935.9304
        42.0004         34.5004
  -6923459.10548  -5577395.39547  21738153.7194                   21738153.3834
        48.5004         47.5004
 25  7  1 20 49  0.0000000  0  9G10G15G08G18G23G16G27G24G32
  -1915083.52748  -1553549.10248  21264760.6804                   21264758.9494
        49.2504         51.0004
   7556141.32246   6045190.11544  24269481.4304                   24269480.3984
        38.0004         28.0004
  -6446416.96146  -5094298.76245  23509712.2344                   23509713.1174
        41.5004         35.5004
   2802514.87947   2226095.26245  21805102.8204                   21805099.8914
        45.5004         35.5004
   2639925.64847   2102239.16846  21359014.5394                   21359010.4344
        45.2504         36.0004
   4945290.75845   3724083.60942  25525194.7424                   25525197.9414
        34.5004         15.5004
  -2730202.66447  -2227247.18747  21605903.9454                   21605902.7304
        47.5004         47.2504
  -3205556.02746  -2541557.56645  23357471.0864                   23357470.9614
        41.2504         34.2504
  -7002056.85548  -5638640.33647  21723197.0234                   21723196.0944
        48.0004         47.7504
 25  7  1 20 49 30.0000000  0  9G10G15G08G18G23G16G27G24G32
  -1932035.78548  -1566758.64848  21261534.9384                   21261533.3674
        48.2504         50.7504
   7661937.78546   6127628.85244  24289614.1094                   24289612.6414
        37.0004         27.7504
  -6516540.96546  -5148940.79346  23496367.8984                   23496369.0274
        40.5004         36.0004
   2852124.43047   2264752.01645  21814543.1484                   21814540.3054
        46.0004         35.2504
   2680344.73447   2133734.53946  21366705.7734                   21366702.4844
        46.2504         36.0004
   5013338.46545   3777107.48442  25538142.7114                   25538147.7154
        34.2504         16.7504
  -2743501.07847  -2237609.59047  21603373.4064                   21603371.6724
        46.2504         47.2504
  -3228472.68446  -2559414.68045  23353110.1414                   23353109.9414
        41.2504         34.2504
  -7080264.34047  -5699581.17247  21708314.5394                   21708313.8364
        47.5004         47.7504
 25  7  1 20 50  0.0000000  0  9G10G15G08G18G23G16G27G24G32
  -1948798.57048  -1579820.56248  21258344.7974                   21258343.3714
        48.5004         51.0004
   7767846.10246   6210154.73444  24309767.3834                   24309766.4454
        36.5004         29.5004
  -6586231.82846  -5203245.30545  23483106.8914                   23483106.9414
        41.0004         35.2504
   2902072.82447   2303672.79345  21824048.6024                   21824045.7624
        46.0004         35.0004
   2720893.51647   2165330.96946  21374421.9924                   21374418.7664
        45.2504         36.7504
   5081390.76245   3830134.96542  25551093.3674                   25551098.1524
        34.0004         17.2504
  -2756206.46147  -2247509.89847  21600955.4384                   21600953.9494
        47.5004         47.0004
  -3250842.23447  -2576845.47345  23348852.7734                   23348853.3324
        42.0004         35.2504
  -7158080.21148  -5760216.85547  21693506.5394                   21693505.7194
        48.0004         47.7504
 25  7  1 20 50 30.0000000  0  9G10G15G08G18G23G16G27G24G32
  -1965374.35248  -1592736.74648  21255190.8674                   21255189.0434
        49.7504         51.0004
   7873861.82445   6292764.33644  24329941.1024                   24329940.8754
        35.2504         27.5004
  -6655489.32846  -5257212.13745  23469927.1564                   23469927.6524
        40.5004         35.2504
   2952358.25047   2342856.19945  21833617.2584                   21833614.6374
        45.2504         35.5004
   2761569.53947   2197026.55146  21382162.4694                   21382159.0474
        46.5004         36.5004
   5149443.58245   3883162.79342  25564043.5864                   25564048.3014
        35.5004         17.7504
  -2768320.40647  -2256949.34447  21598650.4064                   21598648.7344
        46.7504         47.0004
  -3272664.98846  -2593850.19145  23344700.6254                   23344700.4734
        41.0004         34.7504
  -7235504.50048  -5820547.41447  21678773.4844                   21678772.3634
        48.2504         47.7504
 25  7  1 20 51  0.0000000  0  8G10G15G08G18G23G27G24G32
  -1981760.56248  -1605505.21948  21252072.9304                   21252070.9064
        49.2504         51.0004
   7979986.07845   6375458.49644  24350136.4384                   24350135.7154
        35.7504         27.7504
  -6724308.39146  -5310837.32645  23456830.9304                   23456832.0594
        38.5004         34.2504
   3002983.85947   2382304.68045  21843251.0634                   21843247.9264
        45.0004         35.0004
   2802375.21947   2228823.16046  21389927.3754                   21389924.2194
        45.7504         36.2504
  -2779839.77347  -2265925.48847  21596458.1564                   21596457.1644
        46.2504         47.0004
  -3293936.13746  -2610425.08245  23340652.4454                   23340653.0164
        41.5004         35.0004
  -7312532.45347  -5880569.14147  21664115.0784                   21664114.0354
        47.7504         47.7504
 25  7  1 20 51 30.0000000  0  8G10G15G08G18G23G27G24G32
  -1997961.57848  -1618129.38748  21248989.8204                   21248988.2624
        49.7504         51.0004
   8086212.22345   6458232.05944  24370351.0164                   24370349.4574
        35.5004         28.2504
  -6792690.55146  -5364122.06245  23443817.6414                   23443819.1844
        38.5004         33.7504
   3053945.94147   2422015.35245  21852949.1024                   21852946.1604
        46.0004         35.5004
   2843306.18447   2260717.39846  21397716.4534                   21397712.9694
        46.0004         36.5004
  -2790768.08647  -2274441.07047  21594378.5314                   21594377.0164
        46.5004         47.2504
  -3314657.80946  -2626571.82045  23336708.9384                   23336709.2424
        40.7504         35.0004
  -7389166.03548  -5940283.56648  21649532.4384                   21649531.2274
        48.5004         48.0004
 25  7  1 20 52  0.0000000  0  8G10G15G08G18G23G27G24G32
  -2013972.07848  -1630605.09848  21245943.0164                   21245941.4844
        50.0004         51.0004
   8192543.66446   6541087.67244  24390585.1484                   24390584.2114
        36.2504         28.7504
  -6860627.96146  -5417060.23445  23430889.9064                   23430891.1724
        38.0004         34.5004
   3105250.41447   2461992.82445  21862711.9844                   21862709.1994
        45.2504         35.0004
   2884367.70747   2292713.37146  21405530.2274                   21405526.8324
        46.0004         36.0004
  -2801099.41447  -2282491.46947  21592413.1174                   21592411.5164
        47.0004         47.2504
  -3334822.52346  -2642284.56645  23332871.7504                   23332872.3954
        40.7504         34.7504
  -7465397.56648  -5999684.70348  21635025.6254                   21635025.0944
        48.5004         48.0004
 25  7  1 20 52 30.0000000  0  8G10G15G08G18G23G27G24G32
  -2029779.27348  -1642922.39148  21242935.0314                   21242933.8794
        50.0004         51.0004
   8298991.73845   6624034.16444  24410841.3984                   24410839.6684
        35.5004         29.7504
  -6928105.23846  -5469639.87545  23418049.2734                   23418050.3954
        38.0004         34.0004
   3156910.67247   2502247.52045  21872542.1484                   21872539.9534
        46.2504         35.5004
   2925572.48447   2324820.96946  21413371.1564                   21413367.7934
        46.0004         36.7504
  -2810820.30147  -2290066.20347  21590563.1644                   21590561.3284
        47.0004         47.0004
  -3354415.42247  -2657551.73445  23329143.8984                   23329143.9454
        42.0004         35.5004
  -7541212.07448  -6058760.89548  21620598.9774                   21620598.1724
        48.2504         48.0004
 25  7  1 20 53  0.0000000  0  8G10G15G08G18G23G27G24G32
  -2045389.61748  -1655086.29348  21239964.3444                   21239962.9224
        49.2504         51.0004
   8405547.82045   6707064.80144  24431118.7814                   24431117.5554
        35.0004         29.2504
  -6995126.19946  -5521863.94145  23405296.4774                   23405296.9964
        38.7504         34.5004
   3208920.86347   2542774.89845  21882439.7974                   21882437.0164
        45.2504         34.2504
   2966914.19547   2357035.26246  21421238.4384                   21421235.1054
        46.0004         36.0004
  -2819936.53547  -2297169.77347  21588828.0394                   21588827.0164
        45.5004         47.2504
  -3373440.68046  -2672376.60245  23325523.3754                   23325523.4494
        41.2504         35.5004
  -7616613.60248  -6117515.28548  21606250.7114                   21606249.1454
        49.2504         48.2504
 25  7  1 20 53 30.0000000  0  8G10G15G08G18G23G27G24G32
  -2060808.29348  -1667100.84048  21237030.2344                   21237029.0634
        50.0004         51.0004
   8512204.89845   6790174.13744  24451414.6414                   24451413.7274
        34.0004         29.2504
  -7061693.42246  -5573734.45745  23392628.9844                   23392629.7934
        39.7504         35.5004
   3261276.30547   2583571.31345  21892402.7894                   21892399.6724
        45.5004         34.2504
   3008387.41447   2389352.03946  21429130.3914                   21429126.7464
        45.7504         36.5004
  -2828452.77347  -2303805.81647  21587207.7274                   21587206.2974
        47.5004         47.2504
  -3391901.48447  -2686761.62945  23322010.0864                   23322010.2384
        42.0004         35.5004
  -7691605.20748  -6175950.24248  21591979.7114                   21591979.0664
        49.2504         48.5004
 25  7  1 20 54  0.0000000  0  8G10G15G08G18G23G27G24G32
  -2076031.96948  -1678963.44148  21234133.2814                   21234131.7814
        48.7504         51.0004
   8618964.47345   6873363.34444  24471729.7344                   24471729.2194
        35.0004         29.7504
  -7127801.11746  -5625246.91045  23380048.8204                   23380049.3954
        41.0004         35.0004
   3313980.91047   2624639.79745  21902432.1024                   21902429.3364
        45.2504         35.0004
   3049995.52747   2421773.91846  21437048.0554                   21437045.3834
        45.5004         36.5004
  -2836365.13747  -2309971.30547  21585702.1564                   21585700.5394
        47.5004         47.2504
  -3409792.43747  -2700702.62545  23318605.4384                   23318605.6914
        42.0004         35.7504
  -7766181.25448  -6234061.39848  21577788.4224                   21577787.6954
        48.7504         48.5004
 25  7  1 20 54 30.0000000  0  8G10G15G08G18G23G27G24G32
  -2091073.35948  -1690684.00848  21231271.1024                   21231269.3244
        50.0004         51.0004
   8725812.01646   6956621.07844  24492063.4384                   24492061.7584
        36.0004         29.5004
  -7193459.36346  -5676409.15245  23367554.4304                   23367555.2934
        40.5004         35.2504
   3367022.48847   2665970.84845  21912525.6024                   21912523.0204
        46.2504         35.0004
   3091725.78947   2454290.98446  21444989.4144                   21444985.8134
        46.2504         36.2504
  -2843685.84048  -2315675.77347  21584308.9534                   21584307.6604
        48.0004         47.5004
  -3427124.24247  -2714207.92645  23315307.5864                   23315307.8204
        42.7504         35.7504
  -7840352.24248  -6291856.93048  21563674.3134                   21563673.3714
        49.0004         48.5004
 25  7  1 20 55  0.0000000  0  8G10G15G08G18G23G27G24G32
  -2105929.07848  -1702259.89548  21228444.1954                   21228442.3674
        48.7504         51.0004
   8832749.14846   7039948.64545  24512412.3594                   24512411.0354
        37.0004         30.2504
  -7258662.25846  -5727216.57445  23355147.0634                   23355147.0164
        41.5004         34.5004
   3420404.95347   2707567.54345  21922683.8204                   21922681.1214
        46.5004         34.0004
   3133581.62147   2486905.90246  21452954.2114                   21452951.0554
        46.2504         36.2504
  -2850410.77347  -2320915.99647  21583029.2114                   21583028.2304
        47.7504         47.2504
  -3443891.41446  -2727273.25046  23312116.8914                   23312117.1884
        41.5004         36.5004
  -7914112.56248  -6349332.45348  21549638.2894                   21549637.2974
        48.5004         49.0004
 25  7  1 20 55 30.0000000  0  8G10G15G08G18G23G27G24G32
  -2120603.58248  -1713694.56248  21225651.4924                   21225650.1294
        49.0004         51.0004
   8939769.52746   7123341.09845  24532777.5314                   24532776.5784
        38.2504         31.2504
  -7323411.75046  -5777670.70745  23342825.8204                   23342825.5784
        40.7504         35.0004
   3474124.32047   2749426.76245  21932906.4694                   21932903.6414
        46.0004         34.7504
   3175558.44947   2519615.09845  21460942.0394                   21460938.8874
        47.5004         35.7504
  -2856544.07847  -2325695.20347  21581862.1254                   21581860.9804
        47.5004         47.2504
  -3460096.51647  -2739900.57846  23309033.5234                   23309033.1954
        42.0004         37.5004
  -7987464.53148  -6406489.77748  21535679.4694                   21535678.6054
        48.7504         48.5004
 25  7  1 20 56  0.0000000  0  8G10G15G08G18G23G27G24G32
  -2135093.78948  -1724985.62948  21222894.1804                   21222892.7464
        49.2504         51.0004
   9046874.53946   7206799.48045  24553159.2894                   24553157.9494
        39.0004         31.2504
  -7387702.31246  -5827767.22345  23330591.1414                   23330591.6174
        40.2504         33.5004
   3528184.20747   2791551.30145  21943193.7734                   21943191.1724
        46.0004         34.5004
   3217659.37947   2552420.99646  21468953.7814                   21468950.3484
        47.0004         36.0004
  -2862082.25047  -2330010.68447  21580808.2114                   21580806.7774
        47.0004         47.2504
  -3475734.56246  -2752086.06646  23306057.3524                   23306057.7894
        41.5004         36.2504
  -8060402.87948  -6463324.80548  21521800.0474                   21521798.8634
        49.0004         48.7504
 25  7  1 20 56 30.0000000  0  8G10G15G08G18G23G27G24G32
  -2149404.73848  -1736137.02048  21220170.6644                   21220169.4844
        49.0004         51.0004
   9154057.14146   7290318.34045  24573555.2504                   24573554.6564
        40.0004         31.2504
  -7451536.50846  -5877508.12145  23318444.1174                   23318444.1254
        39.7504         33.5004
   3582579.99647   2833937.58245  21953544.3134                   21953542.6884
        45.7504         34.2504
   3259879.40247   2585319.68046  21476988.0944                   21476984.6094
        47.0004         36.0004
  -2867029.84847  -2333865.97747  21579866.3834                   21579864.8914
        47.0004         47.2504
  -3490808.58646  -2763832.05146  23303189.0634                   23303189.1024
        41.0004         36.0004
  -8132930.49248  -6519839.78948  21507998.4384                   21507997.0554
        48.2504         48.5004
 25  7  1 20 57  0.0000000  0  8G10G15G08G18G23G27G24G32
  -2163534.50448  -1747147.23448  21217482.0554                   21217480.6564
        49.0004         51.0004
   9261317.50846   7373897.78545  24593965.9144                   24593965.2114
        40.7504         32.0004
  -7514909.89846  -5926889.98045  23306383.8134                   23306384.2274
        40.5004         32.7504
   3637314.16847   2876587.54345  21963960.6724                   21963957.5554
        45.5004         34.2504
   3302220.44947   2618312.67645  21485045.3054                   21485041.8674
        46.2504         35.7504
  -2871384.54347  -2337259.27047  21579038.2734                   21579036.6884
        47.5004         47.2504
  -3505314.71946  -2775135.51246  23300428.5944                   23300428.6524
        40.5004         36.5004
  -8205043.26248  -6576031.51648  21494275.3444                   21494274.2624
        48.5004         48.7504
 25  7  1 20 57 30.0000000  0  8G10G15G08G18G23G27G24G32
  -2177484.21148  -1758017.12548  21214827.6094                   21214826.2774
        49.5004         51.0004
   9368653.10246   7457535.86345  24614392.2194                   24614390.6764
        40.5004         30.7504
  -7577821.22346  -5975911.77945  23294412.7344                   23294413.0594
        39.7504         33.5004
   3692385.97347   2919500.59445  21974440.4774                   21974437.4844
        45.5004         33.7504
   3344681.34047   2651399.05945  21493125.0634                   21493121.8164
        47.0004         35.5004
  -2875147.16847  -2340191.19947  21578322.4144                   21578320.7074
        47.5004         47.5004
  -3519252.34846  -2785995.99646  23297776.2584                   23297776.4454
        41.7504         36.7504
  -8276740.27348  -6631899.27748  21480632.0234                   21480630.5984
        48.0004         48.7504
 25  7  1 20 58  0.0000000  0  8G10G15G08G18G23G27G24G32
  -2191254.55148  -1768747.25848  21212207.2424                   21212205.5744
        49.0004         51.0004
   9476060.92246   7541230.23044  24634830.6254                   24634829.4804
        41.0004         29.2504
  -7640268.66046  -6024572.08245  23282529.1804                   23282529.5944
        40.7504         34.0004
   3747795.18447   2962676.56345  21984984.4694                   21984981.7664
        44.0004         33.5004
   3387261.41847   2684578.31646  21501227.8984                   21501224.6724
        46.2504         36.5004
  -2878318.02347  -2342662.02347  21577718.7274                   21577717.3634
        47.2504         47.2504
  -3532620.21546  -2796412.50046  23295232.3524                   23295233.0124
        41.7504         36.7504
  -8348020.08648  -6687441.93748  21467067.9534                   21467067.3674
        48.5004         48.7504
 25  7  1 20 58 30.0000000  0  8G10G15G08G18G23G27G24G32
  -2204846.91048  -1779338.70748  21209620.6954                   21209619.2274
        49.0004         51.0004
   9583538.10246   7624978.63344  24655283.0634                   24655281.6524
        40.7504         28.2504
  -7702251.31646  -6072870.23845  23270735.0394                   23270734.8444
        40.0004         34.2504
   3803540.82447   3006114.68445  21995592.2814                   21995589.8404
        44.7504         34.0004
   3429959.30547   2717849.36746  21509353.0554                   21509349.9804
        46.5004         36.0004
  -2880898.27747  -2344672.62947  21577227.8914                   21577226.5594
        46.5004         47.2504
  -3545418.04746  -2806384.82046  23292797.0004                   23292797.5664
        41.2504         37.0004
  -8418882.06648  -6742659.02348  21453583.5164                   21453582.4264
        48.0004         49.0004
 25  7  1 20 59  0.0000000  0  8G10G15G08G18G23G27G24G32
  -2218261.54348  -1789791.66448  21207067.8914                   21207066.8524
        49.7504         51.0004
   9691082.92646   7708779.80544  24675748.2034                   24675746.8484
        40.7504         26.7504
  -7763767.02746  -6120804.53545  23259028.3834                   23259029.1094
        40.7504         34.2504
   3859623.03547   3049815.05945  22006265.0864                   22006262.1214
        44.2504         34.0004
   3472774.70347   2751211.98445  21517500.6884                   21517497.4344
        47.0004         35.5004
  -2882887.82847  -2346222.94547  21576849.1804                   21576848.0944
        45.7504         47.5004
  -3557644.21146  -2815911.69146  23290470.5314                   23290470.5984
        40.7504         36.5004
  -8489324.30948  -6797549.03548  21440178.6024                   21440177.3674
        48.2504         49.0004
 25  7  1 20 59 30.0000000  0  8G10G15G08G18G23G27G24G32
  -2231497.08648  -1800105.07848  21204549.4534                   21204547.5984
        49.5004         51.0004
   9798694.37846   7792632.86344  24696226.5314                   24696224.7194
        40.5004         25.2504
  -7824812.09846  -6168372.09046  23247411.9534                   23247412.7544
        41.5004         36.0004
   3916043.55547   3093779.05545  22017001.4144                   22016998.6804
        44.2504         34.0004
   3515709.02748   2784667.27345  21525670.6884                   21525667.5084
        48.0004         35.5004
  -2884285.13347  -2347311.78147  21576583.0554                   21576582.0044
        47.0004         47.5004
  -3569295.66047  -2824990.73846  23288253.3364                   23288253.4924
        42.0004         36.5004
  -8559343.51248  -6852109.41448  21426854.7894                   21426853.0634
        49.0004         49.0004
 25  7  1 21  0  0.0000000  0  8G10G15G08G18G23G27G24G32
  -2244557.66048  -1810282.14148  21202063.8134                   21202062.2624
        48.5004         51.0004
   9906366.72746   7876533.41843  24716715.0474                   24716713.9844
        39.0004         23.5004
  -7885388.20746  -6215574.21946  23235884.2734                   23235884.9694
        41.2504         36.0004
   3972798.66047   3138003.75845  22027801.0784                   22027798.9064
        44.5004         34.0004
   3558758.21947   2818212.07845  21533862.8754                   21533859.5864
        47.0004         35.7504
  -2885094.03547  -2347942.11747  21576429.3914                   21576427.8834
        47.7504         47.5004
  -3580374.74246  -2833623.76646  23286144.9454                   23286145.3714
        41.2504         36.2504
  -8628941.68448  -6906341.71148  21413610.1094                   21413608.6954
        49.0004         49.0004
 25  7  1 21  0 30.0000000  0  8G10G15G08G18G23G27G24G32
  -2257441.37148  -1820321.39548  21199612.4614                   21199610.6764
        50.0004         51.2504
  10014100.12146   7960481.48843  24737216.2664                   24737214.7624
        39.0004         22.5004
  -7945491.27047  -6262407.74246  23224446.6644                   23224447.5944
        42.2504         36.5004
   4029890.61347   3182490.94145  22038665.3834                   22038663.0784
        44.5004         33.5004
   3601924.14147   2851847.83245  21542076.9384                   21542073.7074
        47.2504         35.2504
  -2885312.58647  -2348112.43447  21576387.4304                   21576386.4774
        47.2504         47.0004
  -3590877.98046  -2841808.08646  23284146.0234                   23284146.3364
        41.0004         36.2504
  -8698115.04748  -6960242.99248  21400447.0704                   21400445.8484
        48.2504         49.0004
 25  7  1 21  1  0.0000000  0  8G10G15G08G18G23G27G24G32
  -2270155.47348  -1830228.48448  21197193.0004                   21197191.5234
        50.5004         51.0004
  10121885.65646   8044470.23443  24757727.0864                   24757726.6254
        37.2504         22.7504
  -8005126.18447  -6308876.47746  23213099.2344                   23213099.4574
        42.2504         36.2504
   4087312.50047   3227235.21545  22049592.6094                   22049589.8794
        44.0004         33.7504
   3645199.56647   2885568.92246  21550312.1804                   21550308.7664
        47.7504         36.0004
  -2884947.75847  -2347828.17647  21576457.2814                   21576455.9494
        46.5004         47.5004
  -3600810.88747  -2849548.00846  23282256.2664                   23282256.0434
        42.0004         36.0004
  -8766868.75048  -7013817.25848  21387363.1414                   21387362.0234
        48.7504         49.2504
 25  7  1 21  1 30.0000000  0  8G10G15G08G18G23G27G24G32
  -2282695.05548  -1839999.58648  21194806.7504                   21194805.0164
        50.2504         51.2504
  10229726.58246   8128502.08243  24778249.2814                   24778247.9844
        36.5004         20.7504
  -8064285.72747  -6354974.79746  23201841.4534                   23201841.9844
        42.5004         37.0004
   4145069.56647   3272240.67645  22060583.7424                   22060580.7074
        44.0004         33.7504
   3688589.45747   2919379.19145  21558568.8524                   21558565.5664
        47.2504         34.7504
  -2883994.60947  -2347085.48047  21576638.6024                   21576637.6564
        47.2504         47.2504
  -3610166.98047  -2856838.45346  23280475.3674                   23280475.8204
        42.0004         36.2504
  -8835196.01648  -7067059.23848  21374361.3674                   21374359.9804
        48.7504         49.2504
 25  7  1 21  2  0.0000000  0  8G10G15G08G18G23G27G24G32
  -2295064.01648  -1849637.73048  21192452.8754                   21192451.6134
        50.2504         51.2504
  10337617.19945   8212572.68843  24798779.3444                   24798778.7584
        34.7504         21.5004
  -8122971.60247  -6400704.01646  23190674.3284                   23190674.7974
        42.5004         37.2504
   4203158.16447   3317504.46945  22071637.1484                   22071634.5744
        45.0004         33.5004
   3732089.88747   2953275.62145  21566846.7664                   21566843.5434
        46.7504         35.5004
  -2882456.92647  -2345887.29347  21576930.9304                   21576930.1454
        47.2504         47.2504
  -3618948.57046  -2863681.22346  23278804.6804                   23278804.7624
        41.0004         36.5004
  -8903098.76648  -7119970.42648  21361439.5164                   21361438.9574
        48.7504         49.5004
 25  7  1 21  2 30.0000000  0  7G10G08G18G23G27G24G32
  -2307260.98448  -1859141.86348  21190131.9454                   21190130.3404
        50.5004         51.0004
  -8181180.16847  -6446061.31646  23179597.3054                   23179597.4104
        42.2504         37.2504
   4261580.00847   3363027.92645  22082754.8674                   22082752.1174
        45.0004         34.0004
   3775702.31347   2987259.30145  21575145.8984                   21575142.7114
        47.0004         35.2504
  -2880333.25847  -2344232.50047  21577335.1174                   21577333.9734
        47.0004         47.0004
  -3627152.70747  -2870074.03546  23277243.3754                   23277243.3364
        42.0004         36.5004
  -8970573.73048  -7172548.27348  21348599.4924                   21348598.3524
        48.7504         49.5004
 25  7  1 21  3  0.0000000  0  7G10G08G18G23G27G24G32
  -2319288.75048  -1868514.14148  21187842.9224                   21187841.3094
        50.0004         51.0004
  -8238912.01647  -6491047.15246  23168611.4144                   23168611.4184
        42.0004         36.2504
   4320332.60547   3408809.12145  22093934.8364                   22093932.6094
        45.5004         34.0004
   3819423.96947   3021328.09846  21583466.0164                   21583463.0044
        47.2504         36.0004
  -2877626.34847  -2342123.23847  21577850.4614                   21577849.0314
        47.7504         47.2504
  -3634780.60247  -2876017.82846  23275791.6334                   23275792.2234
        42.0004         37.0004
  -9037621.76248  -7224793.45348  21335840.6954                   21335839.6764
        49.2504         49.5004
 25  7  1 21  3 30.0000000  0  7G10G08G18G23G27G24G32
  -2331141.76248  -1877750.26248  21185587.8284                   21185585.9774
        50.5004         51.0004
  -8296159.37946  -6535655.46946  23157716.9144                   23157717.8444
        41.2504         36.5004
   4379421.73047   3454852.53545  22105179.3834                   22105177.0164
        45.0004         33.7504
   3863260.48447   3055486.40245  21591807.7894                   21591804.2464
        46.5004         35.5004
  -2874330.75047  -2339555.25847  21578477.8594                   21578476.0744
        47.0004         47.5004
  -3641825.30946  -2881507.18746  23274450.8524                   23274451.1724
        41.2504         36.5004
  -9104235.46948  -7276700.19548  21323164.5554                   21323163.4064
        49.2504         49.5004
 25  7  1 21  4  0.0000000  0  7G10G08G18G23G27G24G32
  -2342811.68048  -1886843.70348  21183366.6804                   21183365.1994
        51.0004         51.2504
  -8352911.75446  -6579878.07845  23146918.0004                   23146917.6914
        41.0004         35.7504
   4438856.02747   3501164.90645  22116489.4454                   22116487.1804
        45.7504         34.0004
   3907220.17647   3089740.67245  21600173.0004                   21600169.7894
        46.5004         35.2504
  -2870438.01247  -2336521.97347  21579218.3674                   21579217.1294
        47.5004         47.2504
  -3648276.94547  -2886534.41446  23273223.4534                   23273223.5594
        42.0004         36.2504
  -9170404.59848  -7328260.52048  21310573.4614                   21310571.8524
        49.2504         49.5004
 25  7  1 21  4 30.0000000  0  7G10G08G18G23G27G24G32
  -2354298.58648  -1895794.53548  21181180.7274                   21181179.5164
        51.0004         51.2504
  -8409167.07846  -6623713.37545  23136212.4534                   23136213.0554
        41.2504         35.7504
   4498635.58647   3547746.32845  22127864.6414                   22127862.5784
        46.2504         33.7504
   3951303.02747   3124090.93445  21608561.4774                   21608558.5044
        47.0004         35.0004
  -2865948.43447  -2333023.61747  21580072.5864                   21580071.5004
        47.5004         47.2504
  -3654134.25847  -2891098.53146  23272108.7424                   23272108.8014
        42.0004         36.2504
  -9236127.48448  -7379473.11348  21298066.3674                   21298065.0784
        49.0004         49.5004
 25  7  1 21  5  0.0000000  0  7G10G08G18G23G27G24G32
  -2365610.28548  -1904608.84848  21179027.9924                   21179026.6884
        50.7504         51.0004
  -8464931.03947  -6667165.77745  23125601.0704                   23125601.0784
        42.2504         35.7504
   4558752.87947   3594590.90645  22139305.2274                   22139302.6054
        45.7504         34.0004
   3995501.29747   3158531.12145  21616972.2274                   21616969.3164
        47.0004         35.5004
  -2860869.80548  -2329066.26647  21581038.9774                   21581037.9804
        48.0004         47.2504
  -3659403.54747  -2895204.45746  23271106.0554                   23271106.2974
        42.5004         36.5004
  -9301410.08248  -7430342.62548  21285643.0944                   21285642.1884
        48.7504         49.5004
 25  7  1 21  5 30.0000000  0  7G10G08G18G23G27G24G32
  -2376750.09848  -1913289.21948  21176908.5554                   21176907.0164
        51.0004         51.0004
  -8520204.84046  -6710236.25845  23115082.4844                   23115083.1644
        40.7504         35.5004
   4619204.77747   3641696.22345  22150808.5394                   22150806.1804
        46.5004         34.2504
   4039811.73447   3193058.71145  21625404.3834                   21625401.3834
        46.7504         35.5004
  -2855205.57447  -2324652.60247  21582117.2114                   21582115.8954
        47.7504         47.0004
  -3664086.85946  -2898853.77046  23270214.8834                   23270215.3164
        41.7504         36.2504
  -9366253.84448  -7480870.19148  21273303.9924                   21273302.9104
        49.7504         49.5004
 25  7  1 21  6  0.0000000  0  7G10G08G18G23G27G24G32
  -2387721.26648  -1921838.18048  21174820.6024                   21174819.3134
        48.7504         51.2504
  -8574989.61346  -6752925.66846  23104658.0394                   23104658.1914
        41.0004         36.2504
   4679988.20747   3689059.87145  22162375.4774                   22162373.2894
        46.0004         33.5004
   4084231.16447   3227671.23046  21633856.7274                   21633853.9804
        47.5004         36.0004
  -2848959.14847  -2319785.28547  21583305.7734                   21583304.3634
        47.5004         47.0004
  -3668185.98446  -2902047.87945  23269434.8524                   23269435.1764
        40.5004         35.7504
  -9430660.29748  -7531057.00048  21261047.9534                   21261046.5124
        49.5004         49.5004
 25  7  1 21  6 30.0000000  0  7G10G08G18G23G27G24G32
  -2398521.08648  -1930253.63348  21172765.5004                   21172764.2234
        50.5004         51.0004
  -8629280.60946  -6795230.32046  23094326.4384                   23094326.6804
        41.0004         36.2504
   4741106.03947   3736684.09845  22174006.0784                   22174003.5784
        46.0004         33.5004
   4128762.29347   3262370.79746  21642330.9224                   21642328.2894
        47.0004         36.0004
  -2842128.00448  -2314462.34047  21584605.3914                   21584604.6334
        48.0004         47.0004
  -3671696.97346  -2904783.69945  23268766.6024                   23268766.8594
        40.2504         35.5004
  -9494624.94548  -7580899.54348  21248875.5314                   21248874.3554
        49.5004         49.7504
 25  7  1 21  7  0.0000000  0  7G10G08G18G23G27G24G32
  -2409150.98048  -1938536.65648  21170742.6094                   21170741.2194
        50.2504         51.0004
  -8683077.15646  -6837149.68046  23084089.4844                   23084089.5004
        40.7504         36.5004
   4802557.05147   3784567.94545  22185699.2894                   22185697.2234
        46.5004         33.5004
   4173403.78547   3297156.35545  21650825.8204                   21650823.0554
        46.7504         35.5004
  -2834713.77347  -2308685.04347  21586016.5634                   21586015.3204
        47.5004         47.0004
  -3674619.96147  -2907061.33646  23268210.2974                   23268210.4804
        42.0004         36.0004
  -9558147.50848  -7630397.60248  21236787.8364                   21236786.2114
        49.0004         50.0004
 25  7  1 21  7 30.0000000  0  7G10G08G18G23G27G24G32
  -2419616.05548  -1946691.26648  21168751.1954                   21168749.8674
        49.5004         51.0004
  -8736382.43446  -6878686.23846  23073945.1174                   23073945.9804
        41.0004         36.5004
   4864336.21547   3832707.49645  22197456.0864                   22197453.7774
        46.0004         33.5004
   4218150.55947   3332023.94545  21659341.0784                   21659338.2664
        46.5004         35.5004
  -2826721.84047  -2302457.58647  21587537.5314                   21587536.0434
        47.5004         47.0004
  -3676958.86346  -2908883.84846  23267765.4534                   23267765.7384
        40.2504         36.2504
  -9621231.39548  -7679553.84448  21224783.4534                   21224782.3244
        49.2504         50.2504
 25  7  1 21  8  0.0000000  0  7G10G08G18G23G27G24G32
  -2429914.01248  -1954715.64548  21166791.7194                   21166790.0554
        50.7504         51.2504
  -8789192.09446  -6919836.60546  23063896.4844                   23063896.9804
        41.0004         37.5004
   4926445.93847   3881104.63345  22209274.9774                   22209272.2504
        46.2504         33.0004
   4263005.03547   3366975.46945  21667876.7734                   21667873.4494
        47.0004         35.0004
  -2818150.14147  -2295778.36747  21589168.8134                   21589167.3134
        47.5004         47.0004
  -3678710.10946  -2910248.44546  23267432.4614                   23267432.5864
        41.7504         36.7504
  -9683872.59448  -7728365.12948  21212863.2114                   21212861.8364
        50.0004         50.2504
 25  7  1 21  8 30.0000000  0  7G10G08G18G23G27G24G32
  -2440047.33648  -1962611.73848  21164863.5314                   21164861.7934
        49.7504         51.0004
  -8841506.64847  -6960601.16446  23053940.8134                   23053941.3634
        42.0004         37.7504
   4988883.94147   3929757.55545  22221156.6564                   22221154.2544
        45.7504         33.5004
   4307964.77747   3402009.02345  21676432.4224                   21676429.1024
        47.2504         35.5004
  -2809001.43048  -2288649.52347  21590909.5864                   21590908.3634
        48.0004         47.0004
  -3679875.04746  -2911156.18046  23267210.6644                   23267211.0944
        41.5004         36.5004
  -9746071.91848  -7776832.09848  21201026.7894                   21201025.5704
        49.5004         50.2504
 25  7  1 21  9  0.0000000  0  7G10G08G18G23G27G24G32
  -2450014.39148  -1970378.27748  21162966.7344                   21162964.6764
        50.2504         51.0004
  -8893322.45746  -7000977.10546  23044080.6094                   23044081.2114
        41.0004         38.0004
   5051651.88347   3978667.57045  22233100.8754                   22233098.5784
        46.0004         33.2504
   4353031.50047   3437125.92245  21685008.3054                   21685005.5164
        47.0004         35.0004
  -2799274.43047  -2281070.07847  21592759.9454                   21592759.1134
        47.5004         46.7504
  -3680450.75846  -2911604.78146  23267100.6644                   23267101.5554
        41.5004         37.0004
  -9807826.04348  -7824952.16048  21189275.5234                   21189274.3914
        49.5004         50.2504
 25  7  1 21  9 30.0000000  0  8G10G02G08G18G23G27G24G32
  -2459814.08248  -1978014.39148  21161102.1094                   21161100.5474
        50.7504         51.0004
   -114557.91856    -52751.23452  25458214.9064                   25458213.4884
        37.5004         16.2504
  -8944636.59046  -7040962.10946  23034315.2894                   23034316.4414
        41.7504         37.5004
   5114750.93847   4027835.60545  22245108.4304                   22245106.1254
        45.2504         33.0004
   4398206.34847   3472327.08245  21693604.9304                   21693601.7894
        47.5004         35.5004
  -2788968.44547  -2273039.45347  21594721.7114                   21594720.5394
        47.5004         46.7504
  -3680435.16046  -2911592.60546  23267104.1024                   23267104.3324
        40.5004         36.2504
  -9869132.30948  -7872723.23848  21177609.3594                   21177608.3284
        49.5004         50.5004
 25  7  1 21 10  0.0000000  0  8G10G02G08G18G23G27G24G32
  -2469452.16048  -1985524.59048  21159268.4454                   21159266.6024
        49.5004         51.0004
   -209617.35946   -126823.47742  25440126.7034                   25440124.9804
        36.5004         16.7504
  -8995452.88346  -7080559.19946  23024645.8984                   23024646.1374
        41.7504         38.5004
   5178175.42647   4077257.21545  22257177.8984                   22257175.1214
        46.0004         33.5004
   4443483.65647   3507608.07845  21702220.7034                   21702217.2774
        47.0004         34.5004
  -2778089.58247  -2264562.44547  21596791.7734                   21596790.7814
        47.0004         47.0004
  -3679832.91847  -2911123.31246  23267218.3834                   23267218.8444
        42.0004         37.0004
  -9929994.80948  -7920148.52748  21166027.7734                   21166025.9614
        50.0004         50.5004
 25  7  1 21 10 30.0000000  0  8G10G02G08G18G23G27G24G32
  -2478942.25048  -1992919.46148  21157461.8754                   21157460.4494
        48.5004         51.0004
   -304738.89146   -200944.04342  25422024.3674                   25422024.2304
        38.0004         16.7504
  -9045782.99246  -7119777.44946  23015068.7424                   23015069.0744
        41.2504         38.0004
   5241911.77047   4126921.83645  22269307.0704                   22269304.4774
        45.5004         33.5004
   4488849.87947   3542958.36345  21710853.9924                   21710850.8054
        47.0004         35.5004
  -2766651.86747  -2255649.97347  21598968.2894                   21598967.0164
        47.0004         47.0004
  -3678656.55946  -2910206.65246  23267442.7274                   23267442.3984
        41.5004         37.5004
  -9990425.61348  -7967237.42248  21154527.6724                   21154526.6374
        50.2504         50.5004
 25  7  1 21 11  0.0000000  0  8G10G02G08G18G23G27G24G32
  -2488279.82848  -2000195.49648  21155685.2734                   21155683.5124
        50.5004         51.0004
   -399915.94946   -275107.86342  25403913.7894                   25403912.3054
        37.7504         16.2504
  -9095620.60547  -7158611.93746  23005584.5394                   23005584.9024
        42.5004         37.5004
   5305964.50047   4176832.99645  22281495.1804                   22281492.8444
        44.5004         32.7504
   4534309.64147   3578381.52745  21719504.5394                   21719500.9264
        47.0004         34.7504
  -2754651.29747  -2246298.90247  21601251.8914                   21601250.9344
        47.2504         47.0004
  -3676900.57046  -2908838.32846  23267776.7274                   23267776.7624
        41.2504         37.5004
 -10050418.66448  -8013985.22348  21143111.6174                   21143110.3634
        49.5004         50.5004
 25  7  1 21 11 30.0000000  0  8G10G02G08G18G23G27G24G32
  -2497459.70748  -2007348.64848  21153938.1094                   21153936.6994
        48.5004         51.0004
   -495141.74646   -349309.74642  25385792.6484                   25385790.4844
        37.5004         17.7504
  -9144958.71147  -7197057.19946  22996195.7504                   22996196.4534
        42.0004         38.0004
   5370338.91047   4226994.80945  22293745.7974                   22293742.9734
        45.5004         32.0004
   4579868.17247   3613881.66045  21728174.0234                   21728170.8094
        47.0004         35.2504
  -2742083.05547  -2236505.50447  21603643.7034                   21603642.6414
        47.0004         47.0004
  -3674558.78146  -2907013.55546  23268222.5234                   23268222.3134
        41.5004         38.0004
 -10109967.17248  -8060386.62148  21131779.9454                   21131778.6564
        50.0004         50.5004
 25  7  1 21 12  0.0000000  0  8G10G02G08G18G23G27G24G32
  -2506480.87948  -2014378.12948  21152221.3754                   21152220.0824
        48.7504         51.2504
   -590413.43446   -423547.28943  25367662.1414                   25367660.7464
        38.0004         19.2504
  -9193794.48446  -7235111.03146  22986902.6414                   22986902.7154
        41.7504         37.5004
   5435035.85547   4277407.94545  22306057.0234                   22306054.1884
        44.5004         32.2504
   4625526.59047   3649459.61745  21736862.4844                   21736859.4694
        46.2504         35.2504
  -2728946.69947  -2226269.41047  21606143.4304                   21606142.4844
        46.0004         47.0004
  -3671629.27046  -2904730.80946  23268779.6174                   23268779.6174
        41.5004         38.5004
 -10169068.64148  -8106439.67648  21120532.9924                   21120532.0744
        49.5004         50.5004
 25  7  1 21 12 30.0000000  0  8G10G02G08G18G23G27G24G32
  -2515340.82848  -2021281.99248  21150535.6334                   21150534.3324
        50.2504         51.2504
   -685726.73446   -497817.32443  25349526.1564                   25349523.3794
        37.5004         19.7504
  -9242123.64547  -7272770.10546  22977706.3594                   22977706.1644
        42.0004         37.0004
   5500057.87147   4328074.38345  22318429.9064                   22318427.7304
        44.5004         32.2504
   4671287.45347   3685117.40645  21745570.6094                   21745567.2814
        46.7504         34.5004
  -2715240.32847  -2215589.14547  21608752.0554                   21608750.5274
        46.7504         47.2504
  -3668108.58247  -2901987.40246  23269449.6334                   23269449.6134
        42.0004         37.7504
 -10227719.09848  -8152141.30148  21109372.4304                   21109370.8634
        50.0004         50.5004
 25  7  1 21 13  0.0000000  0  8G10G02G08G18G23G27G24G32
  -2524041.37948  -2028061.64148  21148880.0474                   21148878.1094
        50.5004         51.2504
   -781081.79346   -572119.87543  25331379.3524                   25331377.1724
        39.0004         20.5004
  -9289946.22347  -7310034.43746  22968605.4064                   22968605.9534
        42.0004         36.7504
   5565403.12147   4378992.68445  22330864.9064                   22330862.5664
        44.0004         31.2504
   4717149.06647   3720853.69945  21754297.5314                   21754294.5634
        46.2504         35.0004
  -2700966.26647  -2204466.53547  21611468.1174                   21611467.0434
        46.7504         47.2504
  -3663997.55946  -2898784.00446  23270232.4304                   23270231.8284
        41.5004         37.5004
 -10285918.84048  -8197491.71148  21098297.2814                   21098296.1054
        50.0004         50.5004
 25  7  1 21 13 30.0000000  0  8G10G02G08G18G23G27G24G32
  -2532578.66048  -2034714.06648  21147255.3134                   21147253.5234
        50.2504         51.2504
   -876472.87946   -646450.50843  25313227.1484                   25313225.0904
        38.2504         20.5004
  -9337256.55546  -7346899.61346  22959602.5784                   22959602.6484
        41.5004         36.7504
   5631075.48447   4430165.88345  22343362.4064                   22343359.4964
        44.5004         32.2504
   4763115.46947   3756671.65645  21763044.9614                   21763041.7504
        46.0004         34.7504
  -2686121.17247  -2192898.95747  21614293.4454                   21614291.7504
        46.5004         47.2504
  -3659291.57447  -2895116.99646  23271127.5234                   23271127.5234
        42.0004         37.5004
 -10343662.54748  -8242486.77348  21087308.6414                   21087307.5864
        50.0004         50.5004
 25  7  1 21 14  0.0000000  0  8G10G02G08G18G23G27G24G32
  -2540956.43048  -2041242.19948  21145660.9304                   21145659.5664
        49.0004         51.0004
   -971902.08246   -720810.84843  25295067.4454                   25295065.2894
        39.0004         20.5004
  -9384056.85547  -7383367.37146  22950696.8834                   22950697.2384
        42.0004         36.7504
   5697070.96947   4481590.85545  22355920.8444                   22355918.5084
        45.0004         32.0004
   4809182.84847   3792568.28945  21771811.1414                   21771807.8874
        47.0004         34.7504
  -2670709.56247  -2180889.94947  21617225.5634                   21617224.8324
        47.7504         47.2504
  -3653993.59446  -2890988.69546  23272135.4384                   23272135.6254
        41.2504         37.2504
 -10400952.59848  -8287128.33648  21076407.1254                   21076405.6684
        49.7504         50.5004
 25  7  1 21 14 30.0000000  0  8G10G02G08G18G23G27G24G32
  -2549176.15248  -2047647.18048  21144096.8834                   21144095.2814
        50.2504         51.2504
  -1067369.20346   -795200.74243  25276900.6724                   25276898.5234
        37.7504         21.2504
  -9430346.77347  -7419437.42246  22941887.9694                   22941888.2194
        43.0004         36.7504
   5763388.18047   4533266.54745  22368540.3754                   22368538.0234
        44.5004         31.2504
   4855349.86347   3828542.56645  21780596.4384                   21780593.4024
        46.2504         34.2504
  -2654733.48047  -2168441.07847  21620265.8984                   21620264.8634
        47.5004         47.2504
  -3648104.19547  -2886399.53946  23273256.3284                   23273256.0354
        43.0004         37.2504
 -10457789.02348  -8331416.43748  21065591.0944                   21065589.6604
        50.2504         50.5004
 25  7  1 21 15  0.0000000  0  8G10G02G08G18G23G27G24G32
  -2557236.61748  -2053928.05548  21142562.9694                   21142561.3754
        49.7504         51.2504
  -1162871.30146   -869617.84443  25258727.1564                   25258725.2074
        36.7504         20.5004
  -9476123.51247  -7455107.60246  22933177.2584                   22933177.2894
        43.0004         36.5004
   5830028.11747   4585193.69945  22381221.6024                   22381219.3794
        45.0004         33.0004
   4901617.90247   3864595.55545  21789400.7424                   21789397.6564
        46.5004         34.7504
  -2638192.42247  -2155551.97747  21623413.5234                   21623412.4414
        47.7504         47.0004
  -3641621.46147  -2881348.05946  23274489.6804                   23274490.1024
        42.0004         37.2504
 -10514169.22748  -8375349.03148  21054862.5234                   21054861.0784
        50.0004         50.7504
 25  7  1 21 15 30.0000000  0  8G10G02G08G18G23G27G24G32
  -2565142.93048  -2060088.82048  21141058.4224                   21141057.1914
        48.5004         51.2504
  -1258411.53146   -944064.65643  25240546.5634                   25240544.8714
        36.0004         18.5004
  -9521390.49647  -7490380.57046  22924563.2034                   22924563.2544
        43.0004         37.5004
   5896985.55147   4637368.24245  22393963.1804                   22393961.2464
        45.0004         32.5004
   4947981.84447   3900723.28145  21798223.4844                   21798220.4654
        45.7504         34.2504
  -2621092.26247  -2142227.21147  21626667.7344                   21626666.5234
        47.0004         47.0004
  -3634549.84047  -2875837.71946  23275835.5944                   23275835.6724
        42.0004         36.7504
 -10570097.00048  -8418929.07848  21044219.7424                   21044218.3954
        49.7504         50.7504
 25  7  1 21 16  0.0000000  0  8G10G02G08G18G23G27G24G32
  -2572890.48448  -2066125.88348  21139584.2734                   21139582.8324
        48.5004         51.2504
  -1353983.57445  -1018536.24643  25222360.1724                   25222357.4694
        35.0004         19.2504
  -9566141.53947  -7525251.51246  22916047.9224                   22916047.4734
        43.5004         37.5004
   5964265.02047   4689793.72745  22406766.1954                   22406764.1294
        43.5004         31.7504
   4994446.53147   3936929.50045  21807065.6644                   21807063.1564
        46.5004         33.7504
  -2603429.05947  -2128463.70347  21630028.7344                   21630027.6884
        46.5004         47.0004
  -3626883.92647  -2869864.27346  23277294.2344                   23277294.7154
        42.2504         37.0004
 -10625566.30148  -8462151.87548  21033664.3444                   21033663.0474
        49.7504         50.7504
 25  7  1 21 16 30.0000000  0  8G10G02G08G18G23G27G24G32
  -2580485.05548  -2072043.72748  21138139.1024                   21138137.4304
        50.2504         51.2504
  -1449591.37545  -1093035.74243  25204165.6724                   25204163.8204
        35.5004         19.0004
  -9610380.78147  -7559723.64146  22907628.9454                   22907629.2304
        42.5004         38.0004
   6031860.53147   4742465.48845  22419629.0944                   22419626.8754
        45.0004         32.7504
   5041006.20347   3973209.74645  21815925.3364                   21815922.7384
        46.0004         35.0004
  -2585209.39847  -2114266.60547  21633495.5864                   21633494.8484
        45.5004         47.0004
  -3618628.89147  -2863431.77346  23278865.1024                   23278865.2114
        42.5004         36.5004
 -10680581.68448  -8505020.97348  21023195.2504                   21023193.7384
        50.2504         51.0004
 25  7  1 21 17  0.0000000  0  8G10G02G08G18G23G27G24G32
  -2587926.28148  -2077842.08648  21136722.9774                   21136721.7854
        50.5004         51.2504
  -1545232.82445  -1167561.40243  25185966.0004                   25185963.1804
        35.0004         20.0004
  -9654106.34447  -7593795.49646  22899308.2424                   22899308.1804
        43.2504         37.2504
   6099772.36747   4795383.73045  22432552.6334                   22432550.5274
        45.0004         32.0004
   5087661.29347   4009564.33645  21824803.9774                   21824800.8594
        45.5004         34.5004
  -2566433.69147  -2099636.22347  21637069.2734                   21637068.1134
        46.0004         47.0004
  -3609783.77046  -2856539.46546  23280547.9614                   23280548.3594
        41.5004         36.2504
 -10735141.44548  -8547535.05148  21012812.6024                   21012811.1764
        50.0004         51.0004
 25  7  1 21 17 30.0000000  0  8G10G02G08G18G23G27G24G32
  -2595212.83648  -2083519.92248  21135336.3054                   21135335.3984
        50.2504         51.2504
  -1640904.79345  -1242110.89543  25167760.3054                   25167757.9574
        35.7504         20.2504
  -9697315.38747  -7627464.87946  22891085.7734                   22891085.5864
        43.0004         38.5004
   6168001.61747   4848549.30145  22445536.3364                   22445534.0594
        44.0004         32.2504
   5134413.30147   4045994.44145  21833700.8524                   21833697.5594
        46.0004         34.2504
  -2547101.46547  -2084572.18047  21640747.8444                   21640746.7424
        46.0004         47.0004
  -3600346.59046  -2849185.82046  23282344.6414                   23282344.1134
        41.5004         36.0004
 -10789243.02748  -8589692.09448  21002517.6564                   21002516.4224
        50.0004         51.0004
 25  7  1 21 18  0.0000000  0  8G10G02G08G18G23G27G24G32
  -2602342.09848  -2089075.19148  21133979.5704                   21133978.0434
        48.7504         51.2504
  -1736602.93745  -1316680.75843  25149549.4534                   25149547.3484
        35.0004         18.5004
  -9740003.75047  -7660728.53146  22882962.3134                   22882962.7854
        43.5004         38.0004
   6236550.60547   4901964.00445  22458580.8594                   22458578.7424
        44.0004         31.7504
   5181264.95747   4082502.19945  21842616.0084                   21842613.0904
        45.2504         34.0004
  -2527210.98447  -2069073.14147  21644532.7034                   21644531.5234
        45.7504         47.0004
  -3590314.21147  -2841368.37546  23284253.2344                   23284253.0434
        42.2504         37.0004
 -10842882.55548  -8631489.09848  20992310.4614                   20992308.7934
        50.2504         50.7504
 25  7  1 21 18 30.0000000  0  8G10G02G08G18G23G27G24G32
  -2609325.17248  -2094516.55948  21132650.8284                   21132649.1954
        49.7504         51.2504
  -1832336.61746  -1391278.35243  25131331.0704                   25131329.4774
        37.0004         21.0004
  -9782181.09847  -7693593.98446  22874936.0554                   22874936.8874
        42.2504         38.0004
   6305408.04747   4955619.07045  22471683.8444                   22471681.6644
        43.7504         32.2504
   5228205.16047   4119078.96145  21851548.6484                   21851545.2584
        46.0004         34.5004
  -2506774.26647  -2053148.46547  21648421.7344                   21648420.7934
        45.7504         46.7504
  -3579697.30547  -2833095.45346  23286273.7584                   23286273.2114
        42.0004         36.5004
 -10896069.93448  -8672933.78148  20982189.0944                   20982187.4264
        50.5004         51.0004
 25  7  1 21 19  0.0000000  0  8G10G02G08G18G23G27G24G32
  -2616153.51248  -2099837.33648  21131351.5164                   21131349.8874
        49.0004         51.2504
  -1928095.37946  -1465895.46943  25113109.0784                   25113106.9184
        36.5004         19.0004
  -9823837.39847  -7726053.43746  22867009.7974                   22867009.5664
        42.5004         37.5004
   6374582.38347   5009521.07445  22484847.3594                   22484844.7934
        44.5004         32.2504
   5275242.62947   4155731.49645  21860499.4144                   21860496.1884
        46.2504         34.2504
  -2485783.63747  -2036792.17247  21652416.2344                   21652415.4574
        45.5004         46.7504
  -3568486.68447  -2824359.90245  23288407.5474                   23288407.0824
        42.0004         35.5004
 -10948795.37948  -8714018.51648  20972155.6724                   20972154.3484
        50.5004         51.0004
 25  7  1 21 19 30.0000000  0  9G10G02G08G18G23G28G27G24G32
  -2622831.37948  -2105040.87948  21130080.8834                   21130079.4534
        49.7504         51.0004
  -2023881.51245  -1540533.93743  25094882.1884                   25094879.2734
        35.2504         19.0004
  -9864975.47346  -7758109.07846  22859181.2194                   22859181.2114
        41.5004         37.2504
   6444068.90247   5063666.34445  22498070.2274                   22498068.0084
        43.7504         31.2504
   5322373.23847   4192456.61345  21869468.1954                   21869465.1174
        46.5004         33.7504
   -121220.64556    -69871.47352  25363771.9614                   25363777.8204
        37.2504         17.2504
  -2464244.29747  -2020008.30547  21656515.1484                   21656514.4494
        46.5004         47.0004
  -3556686.19147  -2815164.71545  23290651.9534                   23290652.1374
        42.0004         35.7504
 -11001061.99248  -8754745.71948  20962209.7504                   20962208.3954
        50.2504         51.0004
 25  7  1 21 20  0.0000000  0  9G10G02G08G18G23G28G27G24G32
  -2629365.48848  -2110132.38748  21128837.3284                   21128835.8014
        50.0004         51.0004
  -2119700.30946  -1615197.84443  25076647.7194                   25076645.5634
        36.2504         20.0004
  -9905600.66846  -7789765.06246  22851450.5164                   22851450.4454
        40.5004         36.7504
   6513860.79347   5118049.55945  22511351.2734                   22511349.3444
        44.0004         31.5004
   5369590.37147   4229249.14845  21878453.2664                   21878450.4184
        46.2504         34.0004
   -223025.87546   -149200.02042  25344397.9144                   25344404.3244
        36.5004         17.2504
  -2442164.00847  -2002802.92647  21660717.1644                   21660716.1524
        45.7504         47.0004
  -3544302.22746  -2805514.87145  23293009.5004                   23293009.4024
        41.7504         35.5004
 -11052875.34048  -8795119.73048  20952349.9924                   20952348.6294
        50.2504         51.0004
 25  7  1 21 20 30.0000000  0  9G10G02G08G18G23G28G27G24G32
  -2635766.96548  -2115120.55148  21127619.2584                   21127617.6684
        50.0004         51.0004
  -2215560.87946  -1689894.30943  25058406.0314                   25058403.7974
        37.7504         19.7504
  -9945722.78146  -7821029.03546  22843815.4924                   22843815.8524
        40.5004         36.2504
   6583946.50847   5172661.72345  22524688.2504                   22524686.1724
        43.5004         31.5004
   5416882.95747   4266100.48845  21887452.6174                   21887449.5984
        46.2504         33.7504
   -325014.48846   -228671.46143  25324991.1094                   25324996.6604
        37.7504         18.5004
  -2419554.85547  -1985185.44147  21665019.6484                   21665018.6254
        46.7504         46.7504
  -3531345.41447  -2795418.65245  23295474.7034                   23295474.7304
        42.0004         35.5004
 -11104245.43748  -8835148.35248  20942574.3674                   20942572.9454
        50.7504         51.2504
 25  7  1 21 21  0.0000000  0  9G10G02G08G18G23G28G27G24G32
  -2642035.57448  -2120005.17648  21126426.4694                   21126425.2154
        49.7504         51.0004
  -2311461.11746  -1764621.68643  25040156.8134                   25040154.4264
        38.2504         19.0004
  -9985340.14146  -7851899.70345  22836276.3204                   22836276.3404
        40.2504         35.7504
   6654326.05147   5227502.85245  22538081.2894                   22538079.0864
        44.5004         32.5004
   5464251.41047   4303010.93845  21896466.8914                   21896464.2734
        46.2504         33.2504
   -427183.43746   -308283.42243  25305548.0634                   25305554.3554
        37.5004         19.0004
  -2396417.66047  -1967156.50447  21669421.8914                   21669421.1844
        46.0004         47.0004
  -3517815.18746  -2784875.61745  23298049.1564                   23298048.8674
        41.5004         35.5004
 -11155170.94548  -8874830.53548  20932883.8524                   20932882.1294
        50.0004         51.2504
 25  7  1 21 21 30.0000000  0  9G10G02G08G18G23G28G27G24G32
  -2648165.22748  -2124781.53548  21125259.9694                   21125258.4734
        50.0004         51.0004
  -2407393.37946  -1839374.02043  25021901.6484                   25021899.2274
        39.2504         20.2504
 -10024445.37546  -7882371.31646  22828834.5164                   22828834.8094
        41.5004         36.7504
   6725005.11747   5282577.37145  22551530.8674                   22551528.9694
        43.2504         31.2504
   5511701.91847   4339985.33245  21905496.5784                   21905493.2424
        45.7504         34.5004
   -529523.80146   -388028.95343  25286073.5634                   25286079.1844
        37.7504         19.5004
  -2372747.36747  -1948712.15247  21673926.6484                   21673925.3674
        47.0004         47.0004
  -3503705.21547  -2773880.83245  23300734.4064                   23300733.9844
        42.0004         35.0004
 -11205644.66448  -8914160.67648  20923278.7424                   20923277.0904
        51.0004         51.2504
 25  7  1 21 22  0.0000000  0  9G10G02G08G18G23G28G27G24G32
  -2654152.13348  -2129446.66048  21124120.6484                   21124119.0084
        51.0004         51.2504
  -2503351.89846  -1914146.79743  25003642.0554                   25003639.0474
        39.5004         19.7504
 -10063033.39546  -7912439.89846  22821491.6174                   22821492.5234
        40.2504         37.0004
   6795987.23447   5337888.02345  22565038.6094                   22565036.2774
        44.5004         31.5004
   5559238.35547   4377026.69545  21914542.3204                   21914539.3874
        45.7504         33.5004
   -632028.85246   -467902.84843  25266568.0554                   25266573.4024
        37.7504         19.5004
  -2348541.29747  -1929850.32447  21678532.7344                   21678531.8364
        46.2504         47.0004
  -3489011.28546  -2762431.01645  23303530.3134                   23303530.5354
        41.2504         34.0004
 -11255661.78948  -8953135.02748  20913760.7974                   20913759.2154
        51.0004         51.5004
 25  7  1 21 22 30.0000000  0  9G10G02G08G18G23G28G27G24G32
  -2659994.44948  -2133999.11348  21123008.9534                   21123007.3404
        50.5004         51.0004
  -2599332.96546  -1988937.17443  24985376.7894                   24985374.7034
        38.5004         19.2504
 -10101101.15246  -7942103.07846  22814247.7734                   22814247.9734
        40.7504         36.7504
   6867273.81347   5393435.93445  22578603.7664                   22578601.8524
        44.2504         31.5004
   5606862.69547   4414136.53145  21923604.5864                   21923601.9694
        46.2504         34.0004
   -734693.91046   -547901.39543  25247030.0944                   25247036.5164
        37.7504         19.7504
  -2323798.75447  -1910570.46547  21683241.0704                   21683239.9104
        45.7504         46.7504
  -3473731.43746  -2750524.64145  23306438.1094                   23306437.7854
        41.2504         34.0004
 -11305219.45748  -8991751.36748  20904330.1954                   20904328.8554
        50.5004         51.2504
 25  7  1 21 23  0.0000000  0  9G10G02G08G18G23G28G27G24G32
  -2665685.27748  -2138433.53148  21121926.0164                   21121924.3134
        50.7504         51.0004
  -2695327.95346  -2063738.36343  24967109.2274                   24967107.2034
        37.0004         19.2504
 -10138640.42246  -7971354.44146  22807103.5164                   22807104.3284
        40.7504         38.0004
   6938871.38347   5449226.17645  22592228.3204                   22592226.5084
        44.5004         31.0004
   5654581.96547   4451320.34845  21932685.2034                   21932682.6724
        46.2504         34.0004
   -837509.23046   -628017.08243  25227465.3754                   25227470.5084
        37.5004         19.7504
  -2298513.95747  -1890868.07047  21688052.6484                   21688051.7194
        46.7504         47.0004
  -3457858.48046  -2738156.10245  23309458.4924                   23309458.7304
        41.2504         34.0004
 -11354309.73048  -9030003.50048  20894988.8444                   20894987.0394
        50.7504         51.5004
 25  7  1 21 23 30.0000000  0  9G10G02G08G18G23G28G27G24G32
  -2671229.52348  -2142753.71948  21120870.7814                   21120869.0554
        50.2504         51.0004
  -2791339.82846  -2138552.72343  24948838.6484                   24948836.7424
        37.7504         19.7504
 -10175654.97746  -8000196.94046  22800060.5234                   22800060.8524
        40.7504         37.5004
   7010774.66847   5505254.62945  22605911.6414                   22605909.4064
        45.0004         31.0004
   5702391.33647   4488574.36745  21941783.7974                   21941780.3954
        45.7504         34.5004
   -940476.89146   -708251.43743  25207871.1094                   25207876.4414
        37.0004         19.2504
  -2272693.00047  -1870747.88347  21692966.1254                   21692965.4774
        46.5004         47.0004
  -3441397.14146  -2725329.08245  23312591.6174                   23312591.1484
        40.7504         34.0004
 -11402936.55148  -9067894.50048  20885735.3674                   20885733.6914
        51.5004         51.5004
 25  7  1 21 24  0.0000000  0  9G10G02G08G18G23G28G27G24G32
  -2676627.31248  -2146959.79348  21119843.7504                   21119842.4654
        50.5004         51.2504
  -2887367.05946  -2213379.02743  24930565.9774                   24930562.9384
        37.5004         19.2504
 -10212143.77046  -8028629.75846  22793116.7504                   22793117.0044
        41.7504         38.0004
   7082983.25047   5561520.96945  22619652.3444                   22619650.4804
        44.2504         30.5004
   5750290.81647   4525898.59845  21950898.0784                   21950895.3054
        46.0004         34.2504
  -1043594.03945   -788602.27042  25188248.7114                   25188254.4614
        35.0004         17.7504
  -2246337.21147  -1850210.94947  21697981.6334                   21697980.8524
        46.0004         47.0004
  -3424347.44146  -2712043.60245  23315835.4064                   23315835.3134
        40.7504         33.0004
 -11451099.07048  -9105423.70748  20876570.2584                   20876569.0274
        51.0004         51.7504
 25  7  1 21 24 30.0000000  0  9G10G02G08G18G23G28G27G24G32
  -2681879.07848  -2151052.08248  21118844.5004                   21118843.0004
        49.2504         51.2504
  -2983408.18046  -2288216.18043  24912289.1254                   24912286.8364
        38.2504         19.0004
 -10248105.99647  -8056652.26646  22786273.7814                   22786274.0274
        42.2504         38.5004
   7155496.02347   5618024.34845  22633450.8524                   22633449.1524
        44.5004         30.7504
   5798280.07447   4563292.79345  21960030.2504                   21960027.5664
        45.5004         34.0004
  -1146858.38345   -869067.78542  25168597.8524                   25168604.1094
        34.0004         17.2504
  -2219448.29347  -1829258.58647  21703098.5004                   21703097.8164
        45.7504         46.7504
  -3406709.55546  -2698299.80145  23319191.8054                   23319191.7934
        41.2504         32.5004
 -11498796.83248  -9142590.77348  20867493.6644                   20867492.0474
        51.0004         51.7504
 25  7  1 21 25  0.0000000  0  9G10G02G08G18G23G28G27G24G32
  -2686982.78148  -2155028.99248  21117873.3594                   21117871.8524
        49.2504         51.2504
  -3079459.24246  -2363061.06243  24894011.3054                   24894008.8244
        38.0004         19.7504
 -10283538.60247  -8084262.09046  22779531.1414                   22779532.0274
        42.2504         38.5004
   7228314.73047   5674766.12145  22647306.8984                   22647305.5354
        44.2504         31.0004
   5846361.29347   4600758.63745  21969179.7814                   21969176.9734
        46.0004         33.7504
  -1250264.84045   -949643.98042  25148919.0554                   25148925.8984
        33.7504         16.7504
  -2192025.42647  -1807890.16447  21708316.9534                   21708316.0634
        46.0004         46.5004
  -3388481.52346  -2684096.13745  23322660.6484                   23322660.6094
        40.5004         32.7504
 -11546026.82048  -9179393.32448  20858506.1174                   20858504.6054
        51.5004         51.7504
 25  7  1 21 25 30.0000000  0  9G10G02G08G18G23G28G27G24G32
  -2691938.39548  -2158890.51648  21116930.3134                   21116928.6724
        50.0004         51.0004
  -3175518.49646  -2437912.33643  24875732.0314                   24875729.2154
        37.7504         21.2504
 -10318440.35946  -8111458.26246  22772889.1724                   22772889.9694
        41.5004         38.5004
   7301438.99247   5731745.97744  22661223.1564                   22661221.2974
        44.0004         29.5004
   5894534.65647   4638296.27745  21978347.3594                   21978344.1804
        45.5004         33.2504
  -1353810.55945  -1030328.64542  25129215.5554                   25129221.8484
        33.5004         17.7504
  -2164069.83647  -1786106.62947  21713636.6024                   21713635.8754
        46.2504         46.5004
  -3369663.15646  -2669432.46945  23326241.5314                   23326241.5664
        39.7504         32.2504
 -11592788.17248  -9215830.71948  20849607.7584                   20849606.3364
        51.5004         51.7504
 25  7  1 21 26  0.0000000  0  9G10G02G08G18G23G28G27G24G32
  -2696748.91448  -2162638.96948  21116014.8054                   21116013.4264
        48.5004         51.0004
  -3271587.02746  -2512770.84443  24857450.2734                   24857448.0594
        38.5004         21.5004
 -10352813.29346  -8138242.36346  22766348.3594                   22766348.7194
        41.7504         38.7504
   7374865.19947   5788961.12944  22675195.6024                   22675193.5664
        43.7504         29.7504
   5942797.21147   4675903.43845  21987531.1884                   21987528.4024
        46.0004         33.0004
  -1457495.83645  -1111122.04343  25109484.3834                   25109490.4454
        33.0004         18.5004
  -2135585.95747  -1763911.44147  21719057.1334                   21719056.1374
        46.5004         46.5004
  -3350257.46546  -2654311.15645  23329934.1954                   23329934.3914
        40.2504         32.2504
 -11639083.05548  -9251904.62548  20840798.1174                   20840796.7974
        51.2504         51.7504
 25  7  1 21 26 30.0000000  0  9G10G02G08G18G23G28G27G24G32
  -2701413.23448  -2166273.50848  21115127.0864                   21115125.3054
        49.5004         51.0004
  -3367661.92646  -2587634.30143  24839167.6564                   24839165.2154
        38.7504         21.5004
 -10386655.19146  -8164612.67246  22759908.4144                   22759908.8914
        41.5004         39.0004
   7448594.05147   5846412.09445  22689225.7194                   22689224.0634
        43.5004         30.7504
   5991150.17247   4713581.03145  21996732.6414                   21996729.6724
        45.5004         33.0004
  -1561316.46945  -1192020.91843  25089728.6884                   25089733.4304
        32.7504         18.5004
  -2106573.91047  -1741304.69947  21724578.0944                   21724577.1024
        46.7504         46.5004
  -3330263.37946  -2638731.35545  23333739.3444                   23333739.3754
        39.5004         31.7504
 -11684909.46948  -9287613.49648  20832077.4694                   20832075.7974
        50.7504         52.0004
 25  7  1 21 27  0.0000000  0  9G10G02G08G18G23G28G27G24G32
  -2705933.07448  -2169795.46148  21114267.0704                   21114265.3634
        48.5004         51.0004
  -3463743.09446  -2662502.63743  24820884.4224                   24820881.8634
        37.5004         21.7504
 -10419966.78146  -8190569.75046  22753569.1334                   22753569.8244
        41.2504         38.7504
   7522623.28947   5904097.13344  22703313.1954                   22703311.5314
        43.7504         28.5004
   6039591.98047   4751327.85545  22005950.6564                   22005947.7154
        45.5004         33.2504
  -1665271.34845  -1273024.36343  25069945.9614                   25069950.7774
        32.5004         18.2504
  -2077036.84047  -1718288.84447  21730198.6804                   21730197.5944
        46.5004         46.5004
  -3309682.65646  -2622694.44545  23337655.2894                   23337655.3364
        39.5004         31.7504
 -11730268.33248  -9322958.03948  20823446.0474                   20823444.0864
        51.0004         51.7504
 25  7  1 21 27 30.0000000  0  9G10G02G08G18G23G28G27G24G32
  -2710310.37548  -2173206.34448  21113433.9614                   21113432.7384
        48.5004         51.0004
  -3559830.84446  -2737376.12943  24802599.4304                   24802596.7734
        37.7504         21.0004
 -10452749.06246  -8216114.38346  22747330.8204                   22747332.0124
        41.0004         38.5004
   7596950.43047   5962014.29745  22717457.5864                   22717455.2234
        43.0004         30.2504
   6088120.85547   4789142.53945  22015185.8984                   22015182.6094
        45.0004         34.0004
                                  25050139.6564                   25050143.1914
        32.7504         17.2504
  -2046978.14547  -1694866.52347  21735918.5864                   21735917.8284
        46.7504         46.5004
  -3288517.34846  -2606202.00045  23341683.0474                   23341682.9534
        38.2504         30.7504
 -11775160.84448  -9357939.19548  20814903.3364                   20814902.0084
        50.2504         52.0004
 25  7  1 21 28  0.0000000  0  9G10G02G08G18G23G28G27G24G32
  -2714542.44548  -2176504.05548  21112628.7034                   21112627.1524
        50.0004         51.0004
  -3655920.34046  -2812250.95343  24784314.1254                   24784311.2234
        37.5004         21.5004
 -10484998.27346  -8241243.63746  22741194.5474                   22741195.0514
        41.0004         38.7504
   7671577.65647   6020165.29344  22731658.5474                   22731656.4064
        42.5004         29.2504
   6136739.53947   4827027.18845  22024437.3834                   22024434.6914
        45.2504         34.0004
  -1873575.63745  -1435338.68442  25030306.3134                   25030311.2624
        34.2504         16.2504
  -2016396.43047  -1671036.64847  21741738.2424                   21741737.2464
        47.5004         46.5004
  -3266764.78546  -2589251.96545  23345822.2034                   23345822.3834
        37.2504         30.2504
 -11819583.47748  -9392554.21148  20806449.7664                   20806448.5594
        50.2504         52.0004
 25  7  1 21 28 30.0000000  0  9G10G02G08G18G23G28G27G24G32
  -2718633.27748  -2179691.71948  21111850.0944                   21111848.6374
        50.0004         51.0004
  -3752013.89146  -2887128.94943  24766027.5004                   24766024.6994
        37.2504         21.2504
 -10516717.64546  -8265960.03546  22735158.2814                   22735159.2584
        41.5004         39.7504
   7746500.33247   6078546.52045  22745915.8204                   22745913.8364
        43.7504         30.0004
   6185444.16847   4864978.81345  22033705.5944                   22033702.8444
        44.7504         33.5004
  -1977920.55545  -1516646.02343  25010449.7344                   25010454.8404
        35.0004         18.5004
  -1985297.26247  -1646803.56647  21747656.1804                   21747655.3324
        47.2504         46.5004
  -3244429.26646  -2571847.67245  23350072.8204                   23350072.7584
        38.0004         31.0004
 -11863539.55148  -9426805.67648  20798085.2114                   20798083.7774
        50.7504         52.0004
 25  7  1 21 29  0.0000000  0  9G10G02G08G18G23G28G27G24G32
  -2722576.00048  -2182763.96548  21111100.2344                   21111098.2974
        49.5004         51.0004
  -3848102.52746  -2962003.11743  24747742.0864                   24747740.2854
        37.0004         21.5004
 -10547899.26247  -8290257.39846  22729224.7664                   22729225.0234
        42.2504         39.0004
   7821724.92247   6137163.00445  22760230.8444                   22760228.4804
        43.2504         30.2504
   6234241.75847   4903002.87545  22042991.0784                   22042988.6684
        44.5004         33.0004
  -2082384.53545  -1598046.15243  24990570.4844                   24990575.7464
        35.0004         18.5004
  -1953675.16047  -1622163.00847  21753673.9774                   21753672.8134
        46.7504         46.2504
  -3221503.91046  -2553983.77045  23354435.6484                   23354435.1024
        38.0004         30.2504
 -11907021.43748  -9460687.63348  20789810.9224                   20789809.7274
        50.7504         52.0004
 25  7  1 21 29 30.0000000  0  9G10G02G08G18G23G28G27G24G32
  -2726374.12948  -2185723.53948  21110377.4614                   21110376.1724
        48.5004         51.0004
  -3944188.12146  -3036874.89543  24729457.7664                   24729455.2344
        37.7504         22.0004
 -10578545.84847  -8314137.86346  22723392.8364                   22723393.4304
        42.0004         39.5004
   7897247.09447   6196011.35545  22774602.1564                   22774600.4494
        43.2504         30.2504
   6283128.90247   4941096.71545  22052294.3984                   22052291.7734
        45.5004         33.2504
  -2186968.33245  -1679539.63742  24970668.6414                   24970673.6094
        34.5004         17.7504
  -1921535.21547  -1597118.93447  21759789.9694                   21759789.2424
        47.2504         46.2504
  -3197992.53546  -2535663.23044  23358909.6564                   23358909.2274
        38.2504         29.7504
 -11950031.96948  -9494202.30948  20781626.3914                   20781624.8874
        50.0004         52.0004
 25  7  1 21 30  0.0000000  0  9G10G02G08G18G23G28G27G24G32
  -2730027.66448  -2188570.45748  21109681.9144                   21109680.2894
        48.5004         50.7504
  -4040269.03946  -3111743.03943  24711173.9924                   24711171.6174
        37.7504         22.5004
 -10608656.69947  -8337600.88346  22717663.0634                   22717663.3674
        42.5004         40.0004
   7973066.41447   6255091.26645  22789030.0394                   22789028.4574
        43.7504         30.7504
   6332105.69547   4979260.42645  22061614.4614                   22061611.8594
        44.5004         33.0004
  -2291668.89845  -1761124.13742  24950744.2344                   24950749.9224
        35.5004         17.7504
  -1888878.89547  -1571672.49647  21766004.1254                   21766003.6954
        47.2504         46.0004
  -3173895.28146  -2516886.15645  23363495.1724                   23363494.9574
        38.0004         31.0004
 -11992570.49248  -9527349.18748  20773531.3134                   20773530.2814
        50.0004         52.0004
 25  7  1 21 30 30.0000000  0  9G10G02G08G18G23G28G27G24G32
  -2733534.72748  -2191303.23048  21109014.6254                   21109013.2304
        49.5004         51.0004
  -4136341.14846  -3186604.30943  24692892.3594                   24692889.7344
        38.5004         22.7504
 -10638228.81647  -8360644.09846  22712036.0394                   22712036.2114
        43.0004         40.2504
   8049184.02747   6314403.60245  22803515.1484                   22803513.2974
        43.0004         30.0004
   6381174.17247   5017495.56345  22070951.7034                   22070949.1684
        44.5004         33.5004
  -2396481.61345  -1842796.04343  24930799.3134                   24930803.9734
        35.5004         18.5004
  -1855705.96147  -1545823.50047  21772316.5474                   21772315.9414
        46.5004         46.0004
  -3149210.80146  -2497651.50445  23368191.8284                   23368192.3484
        36.7504         30.7504
 -12034634.50848  -9560126.32048  20765526.8134                   20765525.4654
        50.2504         52.0004
 25  7  1 21 31  0.0000000  0  9G10G02G08G18G23G28G27G24G32
  -2736900.09448  -2193925.59448  21108373.9844                   21108372.6254
        50.2504         50.7504
  -4232407.47746  -3261461.07043  24674611.2734                   24674608.3094
        37.7504         22.7504
 -10667266.36347  -8383270.76646  22706510.1884                   22706510.6644
        43.5004         39.7504
   8125594.53947   6373944.16845  22818055.5394                   22818053.6724
        42.5004         31.0004
   6430329.66447   5055798.50445  22080305.9384                   22080303.2664
        44.7504         33.2504
  -2501408.25046  -1924556.68442  24910831.9694                   24910836.6764
        37.7504         17.7504
  -1822022.73847  -1519576.87147  21778726.6954                   21778725.6954
        46.7504         46.2504
  -3123943.88746  -2477963.01244  23373000.7114                   23373000.4414
        37.0004         29.2504
 -12076228.12548  -9592536.90648  20757612.0864                   20757610.5664
        50.0004         52.0004
 25  7  1 21 31 30.0000000  0  9G10G02G08G18G23G28G27G24G32
  -2740125.63348  -2196439.00048  21107760.5394                   21107758.8404
        48.7504         51.0004
  -4328468.23446  -3336313.48443  24656331.5704                   24656328.7074
        39.2504         22.7504
 -10695770.43047  -8405481.74246  22701086.3134                   22701086.7624
        43.0004         39.5004
   8202295.39547   6433710.97744  22832651.0554                   22832649.1094
        42.7504         29.7504
   6479570.41047   5094167.88745  22089675.6644                   22089673.0204
        45.0004         33.0004
  -2606447.84446  -2006405.37543  24890843.3984                   24890847.8594
        37.2504         19.5004
  -1787832.69147  -1492935.31247  21785232.6254                   21785232.2074
        47.2504         46.2504
  -3098097.00846  -2457822.62144  23377918.8984                   23377918.8244
        37.0004         29.0004
 -12117352.69548  -9624582.00848  20749786.1644                   20749784.3134
        49.5004         52.2504
 25  7  1 21 32  0.0000000  0  9G10G02G08G18G23G28G27G24G32
  -2743209.00848  -2198841.64148  21107173.6564                   21107171.8914
        50.0004         51.0004
  -4424518.98446  -3411158.12943  24638053.9454                   24638050.9694
        40.0004         23.5004
 -10723737.94147  -8427274.61746  22695764.6414                   22695764.2074
        43.7504         39.5004
   8279288.35947   6493705.39544  22847302.3674                   22847301.0084
        42.7504         29.7504
   6528898.88747   5132605.62945  22099062.8444                   22099059.9344
        44.5004         32.2504
  -2711595.15646  -2088338.03942  24870834.0474                   24870838.9884
        38.7504         17.7504
  -1753135.19147  -1465898.34447  21791835.8914                   21791835.0474
        47.0004         46.2504
  -3071668.08246  -2437228.67244  23382948.8054                   23382948.0744
        38.0004         29.7504
 -12158005.28148  -9656259.32448  20742050.5554                   20742048.5704
        50.2504         52.2504
 25  7  1 21 32 30.0000000  0  9G10G02G08G18G23G28G27G24G32
  -2746151.96948  -2201134.85248  21106613.6954                   21106612.1214
        50.5004         51.0004
  -4520559.69946  -3485994.94543  24619778.0004                   24619775.2384
        40.0004         23.0004
 -10751170.01247  -8448650.27046  22690544.1094                   22690543.9924
        44.0004         39.5004
   8356570.76647   6553925.35945  22862009.2274                   22862007.4774
        42.5004         30.5004
   6578313.40647   5171110.41045  22108466.2194                   22108463.3754
        44.2504         32.2504
  -2816848.94546  -2170353.64143  24850805.1724                   24850809.3524
        39.0004         18.5004
  -1717933.60247  -1438468.58247  21798533.7814                   21798533.2974
        46.5004         46.0004
  -3044659.23846  -2416182.82844  23388086.9694                   23388087.9104
        37.2504         29.2504
 -12198187.12548  -9687569.83248  20734403.8364                   20734402.5314
        50.0004         52.2504
 25  7  1 21 33  0.0000000  0  9G10G02G08G18G23G28G27G24G32
  -2748952.69948  -2203317.24248  21106080.6884                   21106078.9184
        49.7504         51.0004
  -4616586.76246  -3560821.12544  24601504.7034                   24601501.6094
        40.0004         24.5004
 -10778064.12147  -8469606.73046  22685426.0944                   22685426.8634
        43.5004         39.7504
   8434143.84847   6614371.82444  22876770.8054                   22876769.1804
        42.5004         29.5004
   6627815.99247   5209683.82845  22117886.2894                   22117883.2854
        44.5004         32.0004
  -2922204.50046  -2252448.55143  24830756.0634                   24830760.4844
        39.2504         19.7504
  -1682227.76247  -1410645.89547  21805328.7424                   21805328.0824
        46.2504         46.0004
  -3017069.20346  -2394684.12145  23393337.7034                   23393338.1054
        37.5004         30.7504
 -12237895.80948  -9718511.64148  20726847.4844                   20726846.2894
        49.7504         52.2504
 25  7  1 21 33 30.0000000  0  9G10G02G08G18G23G28G27G24G32
  -2751615.64548  -2205392.26648  21105573.8674                   21105572.5434
        48.7504         51.0004
  -4712602.69146  -3635638.64143  24583233.1564                   24583230.0204
        40.0004         23.0004
 -10804424.07847  -8490146.96546  22680409.4304                   22680410.5044
        43.0004         39.7504
   8512002.44947   6675040.77344  22891587.0784                   22891585.0514
        42.5004         29.2504
   6677402.26247   5248322.43845  22127322.0474                   22127319.3244
        44.0004         31.7504
  -3027663.45746  -2334624.07043  24810687.9224                   24810691.2154
        39.0004         19.5004
  -1646023.92247  -1382435.15647  21812218.3054                   21812217.4694
        47.7504         46.2504
  -2988902.82046  -2372736.31245  23398698.1414                   23398698.1484
        37.2504         30.2504
 -12277135.39848  -9749087.92248  20719380.4614                   20719378.8054
        49.7504         52.5004
 25  7  1 21 34  0.0000000  0  9G10G02G08G18G23G28G27G24G32
  -2754141.15248  -2207360.19148  21105093.3594                   21105091.9804
        49.7504         51.0004
  -4808606.13746  -3710446.44144  24564964.2194                   24564961.1764
        40.0004         25.0004
 -10830249.69147  -8510270.84046  22675495.5394                   22675496.2974
        44.5004         40.2504
   8590145.43047   6735931.30544  22906457.1724                   22906455.3914
        42.5004         29.2504
   6727071.95347   5287026.06645  22136774.3444                   22136771.4384
        44.0004         31.7504
  -3133223.14846  -2416878.05943  24790600.5004                   24790604.1054
        38.7504         19.2504
  -1609324.13347  -1353837.96147  21819201.6804                   21819201.4844
        47.0004         46.2504
  -2960161.01646  -2350340.11745  23404167.4774                   23404167.4344
        38.2504         31.0004
 -12315905.68448  -9779298.50848  20712002.8674                   20712001.2934
        49.2504         52.5004
 25  7  1 21 34 30.0000000  0  9G10G02G08G18G23G28G27G24G32
  -2756529.85248  -2209221.51648  21104638.7504                   21104637.4774
        50.5004         51.0004
  -4904595.34446  -3785243.14543  24546698.1024                   24546694.9924
        39.7504         22.7504
 -10855540.88747  -8529978.27046  22670682.7504                   22670683.4064
        44.2504         39.7504
   8668571.46147   6797042.40244  22921381.0474                   22921379.8554
        42.5004         29.5004
   6776824.62947   5325794.35545  22146241.6804                   22146238.9104
        44.5004         31.5004
  -3238881.32446  -2499208.75443  24770493.4224                   24770497.9924
        38.5004         19.5004
  -1572130.77747  -1324856.17647  21826279.7504                   21826278.8714
        47.5004         46.2504
  -2930844.87146  -2327496.39145  23409746.1334                   23409746.1954
        38.5004         32.0004
 -12354206.90648  -9809143.59848  20704713.9924                   20704712.4494
        49.0004         52.5004
 25  7  1 21 35  0.0000000  0  9G10G02G08G18G23G28G27G24G32
  -2758775.12548  -2210971.08248  21104211.3444                   21104209.9924
        50.5004         51.0004
  -5000562.35246  -3860022.56243  24528435.6414                   24528432.8954
        39.5004         22.7504
 -10880290.57847  -8549263.75446  22665973.2344                   22665973.4804
        43.5004         40.2504
   8747286.27747   6858378.51245  22936359.8284                   22936358.5594
        42.0004         30.2504
   6826666.96947   5364632.49645  22155726.5864                   22155723.4804
        44.5004         32.0004
  -3344628.41846  -2581608.75443  24750370.4304                   24750374.3164
        38.5004         18.2504
  -1534439.04747  -1295486.05147  21833452.1334                   21833451.3364
        47.5004         46.0004
  -2900948.37146  -2304200.43445  23415435.3204                   23415435.5784
        38.0004         32.2504
 -12392032.03148  -9838617.69948  20697516.2814                   20697514.5274
        49.0004         52.5004
 25  7  1 21 35 30.0000000  0  9G10G02G08G18G23G28G27G24G32
  -2760883.69148  -2212614.12548  21103810.1644                   21103808.5124
        49.0004         51.2504
  -5096511.95346  -3934788.40643  24510177.1884                   24510174.5984
        39.5004         22.7504
 -10904505.02347  -8568132.16446  22661365.4454                   22661365.3524
        44.0004         40.0004
   8826282.40246   6919933.81345  22951392.6024                   22951391.3984
        41.5004         30.0004
   6876592.35947   5403535.36745  22165227.0394                   22165224.3794
        44.5004         32.0004
  -3450468.32046  -2664081.09043  24730230.1724                   24730232.7894
        38.0004         18.5004
  -1496257.48447  -1265734.23047  21840717.7114                   21840717.3134
        46.7504         46.0004
  -2870478.89846  -2280458.00845  23421233.4454                   23421233.7774
        39.0004         34.0004
 -12429387.33648  -9867725.71148  20690407.6724                   20690406.3404
        49.7504         52.5004
 25  7  1 21 36  0.0000000  0  9G10G02G08G18G23G28G27G24G32
  -2762858.27348  -2214152.76648  21103434.5554                   21103432.9104
        50.5004         51.2504
  -5192445.05946  -4009541.43443  24491921.8524                   24491918.4804
        39.2504         21.2504
 -10928186.37947  -8586585.19146  22656859.1644                   22656858.6564
        44.0004         39.7504
   8905556.33647   6981705.58645  22966477.8524                   22966476.5784
        42.5004         30.0004
   6926598.26247   5442500.96945  22174742.7114                   22174740.1134
        45.0004         32.0004
  -3556400.76246  -2746625.54343  24710071.1254                   24710074.8054
        38.0004         19.7504
  -1457590.65647  -1235604.27747  21848075.5864                   21848075.3444
        46.5004         46.0004
  -2839439.72746  -2256271.66845  23427140.1024                   23427140.4064
        39.5004         33.5004
 -12466275.23048  -9896469.50048  20683388.0704                   20683386.4964
        50.0004         52.5004
 25  7  1 21 36 30.0000000  0  9G10G02G08G18G23G28G27G24G32
  -2764693.30948  -2215582.66448  21103085.4064                   21103083.8594
        50.2504         51.0004
  -5288353.89846  -4084275.53543  24473670.9614                   24473667.6724
        37.7504         19.7504
 -10951328.62947  -8604618.13346  22652455.0634                   22652455.6094
        44.0004         39.5004
   8985112.67647   7043697.43045  22981617.3054                   22981615.7734
        43.0004         30.5004
   6976690.26247   5481533.65645  22184275.1254                   22184272.3364
        44.5004         31.7504
  -3662417.26646  -2829235.52043  24689896.5864                   24689900.1454
        37.7504         19.0004
  -1418434.84047  -1205093.30547  21855527.4774                   21855526.1254
        47.2504         45.7504
  -2807826.07446  -2231637.68445  23433155.8444                   23433156.2114
        40.2504         33.5004
 -12502689.78148  -9924844.45348  20676459.0864                   20676456.8164
        50.2504         52.5004
 25  7  1 21 37  0.0000000  0  9G10G02G08G18G23G28G27G24G32
  -2766389.66448  -2216904.49648  21102763.0164                   21102761.1644
        49.7504         51.0004
  -5384237.81646  -4158990.22343  24455424.7814                   24455421.3164
        37.5004         19.0004
 -10973932.29347  -8622231.38346  22648153.8984                   22648154.0164
        43.5004         39.7504
   9064949.97747   7105908.19544  22996809.7664                   22996808.5594
        42.5004         29.2504
   7026867.64147   5520632.87545  22193823.2584                   22193820.3674
        44.7504         31.7504
  -3768515.77346  -2911909.37543  24669705.9224                   24669710.3634
        36.2504         19.5004
  -1378792.85547  -1174203.49647  21863070.8054                   21863070.2384
        46.2504         45.7504
  -2775639.43046  -2206557.21145  23439281.1414                   23439281.0124
        40.5004         35.0004
 -12538631.61348  -9952851.05948  20669619.3754                   20669617.4964
        50.0004         52.5004
 25  7  1 21 37 30.0000000  0  9G10G02G08G18G23G28G27G24G32
  -2767948.58648  -2218119.25448  21102466.0084                   21102464.2234
        49.0004         51.0004
  -5480096.12946  -4233684.92643  24437183.5394                   24437179.9184
        37.5004         21.0004
 -10995998.09047  -8639425.52746  22643954.9064                   22643955.0704
        44.0004         40.0004
   9145065.79747   7168335.98444  23012055.7504                   23012054.2934
        42.7504         29.2504
   7077129.34047   5559797.79745  22203388.1414                   22203385.0474
        45.0004         32.2504
  -3874694.62146  -2994645.84443  24649500.8984                   24649504.9064
        36.5004         19.0004
  -1338667.79347  -1142937.26647  21870706.5634                   21870705.8554
        47.0004         45.7504
  -2742881.75846  -2181031.78945  23445514.7344                   23445514.9344
        40.5004         35.0004
 -12574101.55548  -9980489.95748  20662869.9064                   20662868.0634
        50.2504         52.7504
 25  7  1 21 38  0.0000000  0  9G10G02G08G18G23G28G27G24G32
  -2769369.32448  -2219226.32448  21102195.2664                   21102194.3554
        50.0004         51.0004
  -5575926.11746  -4308357.56643  24418947.4774                   24418944.2034
        38.2504         20.5004
 -11017525.07847  -8656199.81246  22639858.5704                   22639858.5204
        43.5004         39.5004
   9225460.15247   7230980.82844  23027353.7034                   23027352.2344
        42.7504         29.7504
   7127476.10947   5599029.00845  22212968.7584                   22212966.0984
        45.5004         32.7504
  -3980950.17246  -3077442.05943  24629280.9774                   24629285.0704
        36.2504         19.2504
  -1298060.96147  -1111295.62547  21878433.4384                   21878432.8914
        46.0004         45.7504
  -2709553.16446  -2155061.48445  23451856.8594                   23451857.2974
        41.0004         34.5004
 -12609098.71548 -10007760.44948  20656209.8364                   20656207.9184
        49.0004         52.5004
 25  7  1 21 38 30.0000000  0  9G10G02G08G18G23G28G27G24G32
  -2770648.44548  -2220223.04748  21101951.6414                   21101950.4304
        48.5004         51.0004
  -5671722.48446  -4383004.02343  24400718.4144                   24400714.9614
        37.7504         21.5004
 -11038509.33247  -8672551.20346  22635865.2194                   22635865.5004
        43.5004         39.5004
   9306135.62147   7293844.70344  23042706.4774                   23042705.1374
        42.2504         28.7504
   7177911.55947   5638329.32045  22222566.4774                   22222563.5904
        45.0004         32.0004
  -4087275.97746  -3160293.03543  24609048.1884                   24609051.1564
        36.2504         19.2504
  -1256970.76647  -1079277.34847  21886252.2114                   21886252.2934
        46.2504         45.7504
  -2675650.92646  -2128644.18445  23458308.3444                   23458308.5554
        40.7504         35.0004
 -12643619.33248 -10034659.61748  20649640.7504                   20649639.2704
        48.7504         52.7504
 25  7  1 21 39  0.0000000  0  9G10G02G08G18G23G28G27G24G32
  -2771787.98448  -2221111.01248  21101735.0234                   21101733.8094
        48.7504         51.0004
  -5767485.25046  -4457624.28143  24382494.8594                   24382492.0784
        38.5004         22.5004
 -11058952.67247  -8688481.08646  22631974.9844                   22631975.1644
        43.7504         39.7504
   9387089.17246   7356925.26644  23058111.4144                   23058110.0004
        41.7504         29.0004
   7228433.66847   5677697.15645  22232180.2584                   22232177.9574
        45.2504         32.5004
  -4193671.18046  -3243198.05543  24588801.5554                   24588804.8324
        37.2504         20.5004
  -1215401.34047  -1046885.63347  21894163.3594                   21894162.5664
        47.0004         45.5004
  -2641177.96146  -2101782.16446  23464868.2194                   23464868.4344
        41.7504         36.0004
 -12677665.25048 -10061188.89148  20643161.9534                   20643160.5234
        49.2504         52.5004
 25  7  1 21 39 30.0000000  0  9G10G02G08G18G23G28G27G24G32
  -2772781.78148  -2221885.40648  21101546.3754                   21101544.9734
        48.5004         51.0004
  -5863206.23846  -4532211.98444  24364279.8284                   24364276.8014
        39.0004         24.0004
 -11078848.55147  -8703984.38746  22628189.0164                   22628188.8984
        44.0004         39.2504
   9468326.10246   7420226.64844  23073570.0164                   23073568.5864
        41.7504         29.0004
   7279048.84847   5717137.52745  22241811.9774                   22241809.3714
        45.5004         32.2504
  -4300126.64846  -3326150.07843  24568543.6024                   24568546.5354
        38.0004         21.2504
  -1173348.43047  -1014117.18447  21902165.4534                   21902164.7074
        46.2504         45.5004
  -2606128.89846  -2074471.23846  23471537.6644                   23471538.2544
        41.7504         36.2504
 -12711230.11748 -10087343.31648  20636774.8674                   20636772.8594
        48.7504         52.5004
 25  7  1 21 40  0.0000000  0  9G10G02G08G18G23G28G27G24G32
  -2773634.05548  -2222549.52048  21101384.2734                   21101382.4924
        48.7504         51.0004
  -5958888.25346  -4606769.34144  24346072.1414                   24346068.8444
        39.2504         25.7504
 -11098201.07447  -8719064.28946  22624506.4694                   22624506.5204
        44.7504         39.2504
   9549841.13746   7483744.71944  23089081.9924                   23089081.2704
        41.5004         27.7504
   7329752.89847   5756647.14145  22251461.0234                   22251457.9694
        44.5004         31.7504
  -4406643.73846  -3409150.13343  24548273.2664                   24548276.5514
        37.5004         21.2504
  -1130818.37547   -980976.93047  21910258.8524                   21910258.3164
        46.0004         45.5004
  -2570508.96546  -2046715.46546  23478315.8914                   23478316.2504
        41.7504         36.2504
 -12744318.00848 -10113126.07848  20630478.4614                   20630476.7734
        49.0004         52.5004
 25  7  1 21 40 30.0000000  0  9G10G02G08G18G23G28G27G24G32
  -2774343.36348  -2223102.23848  21101249.1174                   21101247.7274
        50.0004         51.0004
  -6054527.77346  -4681293.54744  24327872.3674                   24327869.8054
        40.0004         26.0004
 -11117008.53147  -8733719.46546  22620927.2894                   22620927.6844
        44.2504         39.0004
   9631634.82446   7547479.92644  23104646.8674                   23104645.9844
        41.5004         28.5004
   7380547.41047   5796227.23845  22261127.2274                   22261124.0824
        45.0004         32.2504
  -4513218.11346  -3492194.80943  24527992.9534                   24527995.8444
        37.2504         21.2504
  -1087811.78947   -947465.34847  21918442.7974                   21918442.6134
        47.0004         45.5004
  -2534317.57447  -2018514.40246  23485202.8054                   23485203.3754
        42.5004         36.0004
 -12776927.31248 -10138535.90648  20624273.0394                   20624271.2664
        50.0004         52.5004
 25  7  1 21 41  0.0000000  0  9G10G02G08G18G23G28G27G24G32
  -2774912.71548  -2223545.90248  21101140.7664                   21101138.9264
        50.0004         51.0004
  -6150125.86746  -4755785.45744  24309680.8834                   24309677.7424
        40.7504         25.7504
 -11135273.77047  -8747952.14146  22617451.5314                   22617451.9694
        43.7504         38.7504
   9713703.26247   7611429.23444  23120263.8444                   23120262.9344
        42.0004         29.0004
   7431429.37547   5835875.48045  22270809.4774                   22270806.6454
        44.5004         33.0004
  -4619849.82046  -3575284.17243  24507701.0704                   24507704.2504
        38.2504         21.0004
  -1044333.76247   -913586.41447  21926716.5234                   21926716.0904
        47.0004         46.0004
  -2497558.68447  -1989871.13346  23492198.4384                   23492198.5434
        43.0004         36.0004
 -12809060.91448 -10163575.06248  20618158.2974                   20618156.5824
        50.0004         52.5004
 25  7  1 21 41 30.0000000  0  9G10G02G08G18G23G28G27G24G32
  -2775345.62948  -2223883.25848  21101058.3444                   21101056.8874
        50.0004         51.0004
  -6245684.10547  -4830246.34444  24291496.9844                   24291493.2234
        42.0004         27.5004
 -11153000.12947  -8761764.90246  22614078.6094                   22614078.7544
        43.5004         39.0004
   9796041.66447   7675588.90244  23135932.5164                   23135931.6254
        42.5004         28.5004
   7482395.42247   5875589.24645  22280507.7274                   22280504.9494
        44.5004         32.2504
  -4726539.39546  -3658418.62143  24487399.2974                   24487401.8914
        39.7504         22.0004
  -1000389.93447   -879344.52047  21935078.8204                   21935078.3634
        46.0004         45.5004
  -2460236.82446  -1960789.19145  23499300.7584                   23499300.4264
        41.2504         35.0004
 -12840722.28548 -10188246.25048  20612133.3594                   20612131.5984
        50.5004         52.5004
 25  7  1 21 42  0.0000000  0  9G10G02G08G18G23G28G27G24G32
  -2775640.00448  -2224112.64148  21101002.6724                   21101000.6374
        50.2504         51.0004
  -6341198.66446  -4904673.18744  24273320.8444                   24273317.6174
        41.5004         27.5004
 -11170185.35947  -8775156.02046  22610807.7894                   22610808.2624
        43.5004         39.0004
   9878651.32047   7739959.93044  23151652.7424                   23151651.7384
        42.5004         29.2504
   7533447.85547   5915370.32045  22290222.8834                   22290220.1914
        44.5004         32.5004
  -4833281.76646  -3741594.19544  24467086.0004                   24467088.7234
        41.0004         25.2504
   -955980.27747   -844739.63747  21943529.7664                   21943529.3324
        46.0004         45.5004
  -2422350.88746  -1931267.70346  23506509.6094                   23506510.1844
        41.7504         36.0004
 -12871909.20748 -10212547.73048  20606198.4384                   20606196.8714
        50.7504         52.5004
 25  7  1 21 42 30.0000000  0  9G10G02G08G18G23G28G27G24G32
  -2775798.08248  -2224235.82848  21100972.5164                   21100970.6374
        50.5004         51.0004
  -6436669.90246  -4979066.26644  24255153.0944                   24255149.5944
        41.7504         25.7504
 -11186831.69147  -8788127.20746  22607640.7664                   22607640.6884
        43.5004         39.0004
   9961529.03147   7804539.83644  23167424.4224                   23167423.1174
        42.2504         28.0004
   7584584.42247   5955216.96145  22299953.6024                   22299951.0634
        45.0004         32.2504
  -4940076.34046  -3824810.47343  24446762.7344                   24446766.3834
        39.7504         22.5004
   -911109.33247   -809775.32047  21952068.4454                   21952068.3524
        45.7504         45.5004
  -2383904.21947  -1901309.27745  23513825.9384                   23513826.1524
        42.0004         35.0004
 -12902623.96948 -10236481.29748  20600353.7734                   20600351.7624
        50.7504         52.5004
 25  7  1 21 43  0.0000000  0  9G10G02G08G18G23G28G27G24G32
  -2775819.85548  -2224252.80548  21100968.1414                   21100966.6764
        51.0004         51.0004
  -6532095.85546  -5053424.06644  24236993.6334                   24236990.7424
        41.5004         26.5004
 -11202938.97347  -8800678.34846  22604575.5704                   22604575.8054
        43.5004         39.5004
  10044673.50847   7869327.61344  23183246.2034                   23183244.9224
        42.5004         27.7504
   7635805.20347   5995129.21145  22309700.8594                   22309698.3164
        44.5004         31.7504
  -5046920.18446  -3908065.13743  24426431.3914                   24426434.1954
        39.0004         22.0004
   -865779.16447   -774453.15647  21960694.3444                   21960693.9574
        46.5004         45.5004
  -2344897.85546  -1870914.73845  23521248.8594                   23521248.6804
        40.7504         35.0004
 -12932866.46148 -10260046.85948  20594598.6954                   20594597.0204
        50.5004         52.5004
 25  7  1 21 43 30.0000000  0  9G10G02G08G18G23G28G27G24G32
  -2775703.22348  -2224161.93448  21100990.4924                   21100988.8594
        50.7504         51.0004
  -6627472.34446  -5127743.29744  24218844.6644                   24218841.1054
        41.5004         25.2504
 -11218505.08247  -8812807.80546  22601613.4304                   22601613.6684
        44.2504         39.2504
  10128085.86746   7934324.11344  23199118.6484                   23199117.8324
        41.7504         26.7504
   7687112.53547   6035108.91845  22319464.4454                   22319461.9144
        43.7504         31.5004
  -5153808.23846  -3991354.25443  24406090.4224                   24406093.8284
        39.2504         21.0004
   -819989.82447   -738773.20747  21969407.6644                   21969407.8714
        46.2504         45.5004
  -2305330.74246  -1840083.24645  23528777.9924                   23528778.2464
        41.2504         35.5004
 -12962634.54748 -10283242.75448  20588933.8914                   20588932.3134
        50.5004         52.7504
 25  7  1 21 44  0.0000000  0  9G10G02G08G18G23G28G27G24G32
  -2775451.01648  -2223965.42248  21101038.3054                   21101036.6764
        50.0004         51.0004
  -6722800.61746  -5202024.96544  24200704.0634                   24200700.7194
        41.0004         26.7504
 -11233532.87947  -8824517.78946  22598753.3284                   22598753.9344
        43.5004         39.7504
  10211762.39147   7999526.46144  23215042.3984                   23215040.9534
        42.0004         27.2504
   7738503.57447   6075153.84045  22329243.4304                   22329241.1914
        43.7504         31.5004
  -5260740.31246  -4074677.68043  24385742.9384                   24385744.9144
        39.0004         21.5004
   -773746.45747   -702739.47347  21978207.6954                   21978207.5084
        46.5004         45.2504
  -2265206.97746  -1808818.00445  23536413.3594                   23536413.2814
        40.7504         35.0004
 -12991931.13348 -10306071.25048  20583359.1644                   20583357.4774
        50.5004         52.5004
 25  7  1 21 44 30.0000000  0  9G10G02G08G18G23G28G27G24G32
  -2775061.48448  -2223661.90648  21101112.3984                   21101111.0474
        51.0004         51.0004
  -6818077.13746  -5276266.33244  24182573.3984                   24182570.1844
        40.5004         26.0004
 -11248020.62147  -8835806.95746  22595996.8834                   22595996.7384
        43.0004         39.5004
  10295703.50447   8064934.98844  23231015.8834                   23231014.8794
        42.0004         25.5004
   7789980.17647   6115265.44145  22339038.6954                   22339036.7274
        44.0004         30.7504
  -5367711.81246  -4158031.87543  24365386.7814                   24365388.6024
        40.5004         22.5004
   -727049.59047   -666352.35247  21987093.9694                   21987093.3554
        46.2504         45.0004
  -2224525.88346  -1777118.48045  23544154.3754                   23544155.1334
        41.0004         34.5004
 -13020754.58248 -10328531.06248  20577874.1094                   20577872.6134
        51.0004         52.7504
 25  7  1 21 45  0.0000000  0  9G10G02G08G18G23G28G27G24G32
  -2774537.28548  -2223253.44948  21101212.2814                   21101210.5984
        49.2504         51.2504
  -6913302.43046  -5350467.77043  24164452.4924                   24164449.1604
        40.5004         22.7504
 -11261971.05147  -8846677.43746  22593341.8594                   22593342.5004
        44.2504         39.2504
  10379905.48847   8130546.77744  23247039.1024                   23247038.1644
        42.7504         26.7504
   7841539.80147   6155441.73845  22348851.2344                   22348848.6094
        44.2504         31.5004
  -5474722.47346  -4241416.56243  24345022.6724                   24345025.0554
        40.2504         22.5004
   -679904.09847   -629615.66447  21996065.9384                   21996064.8554
        46.2504         45.0004
  -2183291.44946  -1744987.78145  23552000.8284                   23552001.6524
        40.2504         33.5004
 -13049107.57448 -10350624.28948  20572478.7274                   20572476.9344
        50.5004         53.0004
 25  7  1 21 45 30.0000000  0  9G10G02G08G18G23G28G27G24G32
  -2773879.85948  -2222741.18748  21101337.6564                   21101335.9304
        49.5004         51.0004
  -7008476.00446  -5424628.90644  24146341.6094                   24146338.1764
        40.5004         24.2504
 -11275385.66847  -8857130.39146  22590789.1414                   22590789.4964
        44.5004         40.0004
  10464365.80547   8196359.89144  23263111.5704                   23263110.1374
        42.5004         27.2504
   7893181.12547   6195681.68845  22358677.3984                   22358675.3554
        43.0004         31.5004
  -5581770.78146  -4324830.55543  24324652.0394                   24324654.6374
        39.2504         20.5004
   -632313.64847   -592532.24647  22005121.7034                   22005121.3554
        46.2504         45.0004
  -2141506.15246  -1712427.84045  23559951.9384                   23559952.8014
        40.2504         33.0004
 -13076991.68748 -10372352.16048  20567172.7344                   20567170.7304
        50.7504         52.7504
 25  7  1 21 46  0.0000000  0  9G10G02G08G18G23G28G27G24G32
  -2773089.85248  -2222125.60548  21101487.4924                   21101486.0084
        49.0004         51.0004
  -7103596.78946  -5498748.91043  24128240.2114                   24128237.0434
        40.0004         22.7504
 -11288265.24247  -8867166.44146  22588338.1804                   22588338.4104
        43.7504         40.0004
  10549082.60947   8262372.85544  23279232.6024                   23279231.4694
        43.0004         28.0004
   7944903.52047   6235984.80145  22368520.4774                   22368518.0944
        43.7504         31.0004
  -5688854.40246  -4408272.09843  24304274.4694                   24304276.9064
        38.5004         19.5004
   -584281.32447   -555104.51247  22014261.7114                   22014261.5234
        45.7504         45.0004
  -2099172.04346  -1679440.25845  23568008.3524                   23568008.9694
        39.7504         32.0004
 -13104407.68748 -10393715.26248  20561955.6724                   20561953.9734
        49.5004         52.7504
 25  7  1 21 46 30.0000000  0  9G10G02G08G18G23G28G27G24G32
  -2772164.45348  -2221404.52748  21101663.8984                   21101662.4884
        48.2504         51.0004
  -7198660.02346  -5572824.05943  24110150.4924                   24110147.0824
        39.0004         22.5004
 -11300607.17247  -8876783.53146  22585989.8444                   22585990.2344
        43.5004         39.5004
  10634057.60947   8328587.01644  23295403.3984                   23295402.0354
        43.2504         28.5004
   7996709.85947   6276353.34045  22378379.0164                   22378376.4304
        43.5004         30.2504
  -5795967.62846  -4491736.68243  24283890.9454                   24283893.3634
        39.0004         20.7504
   -535806.62547   -517332.07047  22023486.3674                   22023486.2424
        46.5004         44.7504
  -2056287.59446  -1646023.82445  23576168.8364                   23576169.6254
        39.5004         32.2504
 -13131352.90248 -10414711.52348  20556828.0004                   20556826.4384
        49.5004         53.0004
 25  7  1 21 47  0.0000000  0  9G10G02G08G18G23G28G27G24G32
  -2771104.19948  -2220578.36748  21101865.6414                   21101864.2304
        48.7504         51.0004
  -7293664.29346  -5646853.29743  24092071.7344                   24092067.8594
        40.0004         22.0004
 -11312412.09447  -8885982.18446  22583743.5164                   22583744.1804
        44.0004         39.2504
  10719288.94946   8395000.90244  23311622.2664                   23311621.2034
        41.5004         27.0004
   8048599.75047   6316786.97745  22388253.0784                   22388250.6214
        44.0004         31.0004
  -5903108.12946  -4575222.55543  24263503.0554                   24263505.0124
        39.0004         20.5004
   -486892.38747   -479217.13347  22032794.7344                   22032794.0704
        46.2504         45.0004
  -2012854.62546  -1612179.99245  23584433.9144                   23584434.7464
        39.2504         32.0004
 -13157828.09448 -10435341.53548  20551789.9534                   20551788.2934
        50.2504         53.0004
 25  7  1 21 47 30.0000000  0  9G10G02G08G18G23G28G27G24G32
  -2769907.41048  -2219645.81248  21102093.3754                   21102091.8054
        49.0004         51.0004
  -7388606.15646  -5720833.91043  24074004.7664                   24074001.1564
        39.5004         22.5004
 -11323678.56647  -8894761.25846  22581599.8364                   22581599.8524
        44.5004         39.5004
  10804777.29746   8461615.06644  23327890.0084                   23327888.6484
        41.2504         26.7504
   8100575.00047   6357287.12945  22398143.5314                   22398141.4734
        44.0004         31.0004
  -6010271.19946  -4658725.98043  24243110.1804                   24243111.9144
        37.7504         19.7504
   -437539.32447   -440760.24647  22042186.0164                   22042186.1684
        46.5004         44.7504
  -1968872.81246  -1577908.48045  23592803.7974                   23592804.2934
        39.5004         32.2504
 -13183831.71148 -10455604.08248  20546841.4844                   20546839.6684
        50.5004         53.0004
 25  7  1 21 48  0.0000000  0  9G10G02G08G18G23G28G27G24G32
  -2768573.84848  -2218606.68448  21102347.3914                   21102345.8484
        49.5004         51.0004
  -7483483.18746  -5794763.99644  24055950.0474                   24055946.7194
        40.7504         25.0004
 -11334406.49247  -8903120.69146  22579558.2274                   22579558.1254
        43.2504         40.0004
  10890521.68046   8528428.72344  23344206.8524                   23344206.1844
        40.5004         26.5004
   8152635.87547   6397854.00045  22408050.9844                   22408048.2504
        43.5004         30.2504
  -6117453.59846  -4742244.48043  24222713.6024                   24222715.9654
        38.7504         20.7504
   -387749.56247   -401963.08647  22051660.9614                   22051660.5274
        45.7504         44.5004
  -1924343.26246  -1543210.15645  23601277.9384                   23601277.9964
        40.0004         32.0004
 -13209363.73448 -10475499.16048  20541982.7504                   20541981.4574
        49.7504         53.0004
 25  7  1 21 48 30.0000000  0  9G10G02G08G18G23G28G27G24G32
  -2767100.25048  -2217458.43748  21102627.4224                   21102626.1994
        48.2504         51.0004
  -7578290.35246  -5868639.64544  24037909.3284                   24037905.2704
        41.5004         24.7504
 -11344593.06647  -8911058.28546  22577619.5554                   22577620.0634
        42.5004         39.5004
  10976523.95346   8595443.33244  23360572.3524                   23360571.4064
        41.0004         25.2504
   8204785.66447   6438490.15645  22417974.4774                   22417972.0044
        42.5004         30.7504
  -6224649.23446  -4825773.28943  24202314.6804                   24202316.5354
        39.0004         21.2504
   -337522.35247   -362825.04747  22061219.0474                   22061218.6564
        45.0004         45.0004
  -1879264.15246  -1508083.60945  23609855.5004                   23609856.3204
        39.7504         32.0004
 -13234421.22348 -10495024.46948  20537214.6884                   20537213.0274
        49.0004         53.0004
 25  7  1 21 49  0.0000000  0  9G10G02G08G18G23G28G27G24G32
  -2765490.46148  -2216204.06248  21102934.0784                   21102932.4534
        50.5004         51.0004
  -7673029.67246  -5942462.43044  24019880.7274                   24019877.1414
        41.5004         25.7504
 -11354242.30547  -8918577.18446  22575783.2584                   22575783.4534
        43.2504         39.0004
  11062779.16446   8662655.05144  23376986.2114                   23376985.5634
        40.5004         25.5004
   8257020.71547   6479192.75445  22427914.7424                   22427912.4804
        43.5004         31.5004
  -6331858.97746  -4909313.09043  24181913.2814                   24181915.2424
        39.5004         21.5004
   -286863.91847   -323350.99247  22070858.8284                   22070858.7854
        46.0004         44.5004
  -1833640.82846  -1472533.00045  23618538.0554                   23618538.4734
        39.0004         32.2504
 -13259008.26648 -10514183.19948  20532535.9144                   20532533.6644
        51.2504         53.0004
 25  7  1 21 49 30.0000000  0  9G10G02G08G18G23G28G27G24G32
  -2763742.53548  -2214842.05548  21103266.5234                   21103265.1094
        50.5004         51.0004
  -7767697.11347  -6016229.20344  24001866.1484                   24001862.5664
        42.0004         25.5004
 -11363352.69947  -8925676.19546  22574049.1564                   22574049.8874
        42.0004         39.5004
  11149287.98046   8730064.38744  23393448.7274                   23393447.3164
        39.2504         25.2504
   8309342.94547   6519963.27345  22437871.2114                   22437868.8204
        43.2504         30.2504
  -6439077.98046  -4992860.14543  24161510.1334                   24161512.1214
        39.2504         22.5004
   -235774.81247   -283541.35547  22080580.6564                   22080580.3524
        45.5004         44.5004
  -1787472.75846  -1436557.91845  23627323.3524                   23627323.6054
        39.0004         31.0004
 -13283123.24248 -10532974.08648  20527946.9304                   20527944.9964
        51.2504         53.0004
 25  7  1 21 50  0.0000000  0  9G10G02G08G18G23G28G27G24G32
  -2761856.09448  -2213372.11348  21103625.7034                   21103623.7504
        50.2504         51.0004
  -7862290.89547  -6089938.59444  23983865.3364                   23983862.1294
        42.7504         26.2504
 -11371924.12547  -8932355.24246  22572418.5554                   22572419.0004
        44.0004         39.0004
  11236049.36746   8797670.52744  23409958.5784                   23409958.0044
        39.7504         25.7504
   8361752.81347   6560802.08644  22447844.3834                   22447841.7934
        43.7504         29.0004
  -6546302.89546  -5076411.76643  24141105.8284                   24141107.8674
        40.0004         23.0004
   -184257.09447   -243397.72347  22090384.3204                   22090384.2664
        45.5004         44.5004
  -1740761.03946  -1400159.21545  23636212.2274                   23636212.8404
        39.0004         31.5004
 -13306766.05148 -10551397.04748  20523447.8984                   20523445.8524
        51.5004         52.7504
 25  7  1 21 50 30.0000000  0  9G10G02G08G18G23G28G27G24G32
  -2759831.44148  -2211794.47348  21104010.7734                   21104009.3714
        50.2504         51.0004
  -7956809.07847  -6163589.07844  23965879.1484                   23965876.0984
        42.2504         27.5004
 -11379957.30947  -8938614.87546  22570889.7974                   22570890.4844
        42.2504         39.0004
  11323061.95346   8865472.37944  23426516.7584                   23426515.8284
        40.5004         26.5004
   8414250.16847   6601709.07045  22457834.3914                   22457831.9804
        44.5004         30.0004
  -6653531.12946  -5159965.97344  24120700.6484                   24120702.5944
        40.0004         24.5004
   -132313.61347   -202922.34047  22100269.0704                   22100268.6844
        45.0004         44.2504
  -1693507.56246  -1363338.34845  23645204.3204                   23645204.5234
        38.5004         30.5004
 -13329937.35548 -10569452.59848  20519038.3444                   20519036.6844
        51.0004         53.0004
 25  7  1 21 51  0.0000000  0  9G10G02G08G18G23G28G27G24G32
  -2757665.53548  -2210106.75848  21104422.8204                   21104421.4344
        50.7504         51.0004
  -8051246.64547  -6237176.74244  23947908.3984                   23947905.3134
        42.5004         28.2504
 -11387449.73447  -8944453.13746  22569464.2034                   22569464.6254
        43.0004         39.7504
  11410327.32046   8933471.20744  23443122.8204                   23443122.8524
        40.0004         27.5004
   8466838.05947   6642686.61745  22467841.9844                   22467839.2664
        44.0004         30.5004
  -6760756.66446  -5243518.09044  24100296.5634                   24100297.9104
        40.7504         24.2504
    -79943.83647   -162114.77347  22110234.5314                   22110234.2624
        45.0004         44.0004
  -1645710.72446  -1326094.09545  23654299.6334                   23654300.2304
        38.5004         30.2504
 -13352634.51648 -10587138.69948  20514719.6174                   20514717.5904
        51.7504         53.0004
 25  7  1 21 51 30.0000000  0  9G10G02G08G18G23G28G27G24G32
  -2755360.51648  -2208310.64548  21104861.6254                   21104860.0314
        51.2504         51.0004
  -8145604.11746  -6310701.98444  23929952.7814                   23929948.9614
        41.7504         28.0004
 -11394403.86747  -8949871.95346  22568140.9384                   22568141.3554
        43.0004         39.0004
  11497842.07446   9001664.37544  23459776.2504                   23459776.2934
        40.0004         27.0004
   8519514.40247   6683733.07445  22477865.7814                   22477862.7424
        43.7504         30.7504
  -6867978.68446  -5327067.46544  24079892.3204                   24079894.3954
        41.5004         26.5004
    -27152.43447   -120978.68047  22120280.4774                   22120279.9414
        45.2504         44.0004
  -1597374.46146  -1288429.51244  23663497.5234                   23663498.1414
        37.7504         29.7504
 -13374860.04348 -10604457.28148  20510489.9454                   20510488.0124
        51.7504         53.0004
 25  7  1 21 52  0.0000000  0  9G10G02G08G18G23G28G27G24G32
  -2752912.88748  -2206403.41048  21105327.1174                   21105326.0864
        50.0004         51.0004
  -8239876.03147  -6384160.56644  23912013.4614                   23912009.8364
        42.0004         28.5004
 -11400816.76247  -8954869.02346  22566920.6804                   22566920.5594
        44.0004         39.0004
  11585608.30546   9070053.46944  23476478.1334                   23476477.7584
        40.7504         27.2504
   8572282.79347   6724851.25845  22487906.6094                   22487904.6294
        43.5004         30.7504
  -6975190.80546  -5410609.10944  24059490.5784                   24059491.7154
        40.7504         25.2504
     26061.50447    -79513.32447  22130407.0944                   22130406.4804
        45.5004         43.7504
  -1548496.65646  -1250342.94145  23672798.7114                   23672799.6844
        38.2504         30.0004
 -13396610.85948 -10621405.95348  20506350.9384                   20506349.1954
        51.0004         53.0004
 25  7  1 21 52 30.0000000  0  9G10G02G08G18G23G28G27G24G32
  -2750323.46948  -2204385.68748  21105819.9774                   21105818.5944
        51.0004         51.0004
  -8334061.21546  -6457551.54744  23894090.1644                   23894086.7974
        40.7504         28.5004
 -11406689.71147  -8959445.35946  22565802.8524                   22565803.2934
        43.7504         38.7504
  11673623.98046   9138636.94144  23493226.7814                   23493227.0864
        39.7504         26.0004
   8625142.48847   6766040.58244  22497966.0234                   22497963.3754
        44.0004         29.5004
  -7082390.85246  -5494141.35244  24039091.3984                   24039092.4884
        41.0004         25.2504
     79694.61347    -37721.34847  22140613.0234                   22140613.2934
        44.7504         44.0004
  -1499079.84046  -1211836.36745  23682202.5314                   23682202.7894
        38.7504         30.2504
 -13417888.18748 -10637985.68448  20502302.2194                   20502300.4064
        52.2504         53.0004
 25  7  1 21 53  0.0000000  0  9G10G02G08G18G23G28G27G24G32
  -2747590.06648  -2202255.76648  21106340.2424                   21106338.8204
        50.2504         51.0004
  -8428155.63747  -6530871.79744  23876184.4224                   23876181.2304
        42.0004         28.5004
 -11412021.07847  -8963599.69546  22564788.5394                   22564788.6524
        42.7504         38.7504
  11761889.78546   9207415.31644  23510023.6254                   23510023.1374
        41.0004         27.0004
   8678095.68447   6807302.78145  22508042.5474                   22508040.2034
        44.0004         30.7504
  -7189573.85946  -5577660.32444  24018694.3754                   24018695.9844
        40.0004         25.2504
    133746.48847      4396.93847  22150898.3524                   22150898.5204
        45.5004         43.7504
  -1449123.54746  -1172909.41045  23691709.2664                   23691709.4384
        38.5004         31.0004
 -13438690.38748 -10654195.18448  20498343.4924                   20498341.5474
        51.5004         53.0004
 25  7  1 21 53 30.0000000  0  9G10G02G08G18G23G28G27G24G32
  -2744711.95348  -2200013.08648  21106888.1804                   21106886.3134
        50.7504         51.0004
  -8522156.57846  -6604119.21944  23858297.1564                   23858293.3284
        41.0004         28.2504
 -11416810.72747  -8967331.90246  22563877.3284                   22563876.6094
        42.0004         38.7504
  11850405.01246   9276388.06344  23526867.7664                   23526867.4384
        40.5004         28.0004
   8731143.10247   6848638.39145  22518137.1024                   22518135.1334
        44.0004         30.2504
  -7296736.08646  -5661163.12144  23998301.7584                   23998303.6454
        40.0004         25.7504
    188215.15247     46839.99247  22161263.5784                   22161263.8524
        45.2504         43.7504
  -1398628.75046  -1133562.84445  23701317.8984                   23701317.9964
        39.2504         32.2504
 -13459017.17248 -10670034.23048  20494475.4304                   20494473.7624
        51.7504         53.0004
 25  7  1 21 54  0.0000000  0  9G10G02G08G18G23G28G27G24G32
  -2741693.96948  -2197661.40648  21107462.1024                   21107460.4494
        51.5004         51.0004
  -8616067.17246  -6677296.22744  23840426.1644                   23840422.7384
        40.0004         27.5004
 -11421064.10947  -8970646.24646  22563067.6564                   22563068.2894
        42.7504         39.0004
  11939163.53547   9345550.38344  23543757.6884                   23543757.5864
        42.0004         27.7504
   8784280.07847   6890043.78544  22528248.7894                   22528246.5944
        43.0004         29.7504
  -7403879.38746  -5744651.14544  23977913.5704                   23977914.2814
        39.5004         24.5004
    243093.18447     89602.03547  22171706.3984                   22171706.5164
        44.5004         43.2504
  -1347601.90646  -1093801.68445  23711028.2034                   23711028.3094
        39.7504         32.7504
 -13478873.92248 -10685507.01648  20490696.9774                   20490695.1214
        52.0004         53.0004
 25  7  1 21 54 30.0000000  0  9G10G02G08G18G23G28G27G24G32
  -2738534.05148  -2195199.13748  21108063.3364                   21108062.0634
        50.7504         50.7504
  -8709883.17646  -6750399.53144  23822573.3984                   23822570.1994
        39.5004         26.5004
 -11424779.75447  -8973541.57446  22562360.6724                   22562361.0904
        42.0004         39.0004
  12028166.03147   9414902.79744  23560694.9064                   23560694.5434
        42.0004         28.5004
   8837508.67647   6931520.57844  22538378.0164                   22538375.7464
        44.2504         29.2504
  -7510998.81246  -5828120.60543  23957528.9064                   23957529.8594
        39.0004         22.7504
    298380.03147    132682.64147  22182227.6024                   22182227.3554
        44.2504         43.5004
  -1296042.76646  -1053625.76645  23720839.4924                   23720839.9844
        40.5004         33.7504
 -13498259.05948 -10700612.30548  20487007.7734                   20487006.3164
        51.0004         53.2504
 25  7  1 21 55  0.0000000  0  9G10G02G08G18G23G28G27G24G32
  -2735237.06648  -2192630.05948  21108690.7974                   21108689.4144
        50.0004         51.0004
  -8803607.69546  -6823431.53944  23804738.1804                   23804734.9654
        39.5004         26.0004
 -11427963.24647  -8976022.23846  22561754.6644                   22561754.8404
        43.0004         39.0004
  12117406.00847   9484440.29344  23577676.7194                   23577676.3874
        42.2504         27.0004
   8890824.11747   6973065.03144  22548523.6414                   22548521.2584
        44.7504         29.5004
  -7618096.31646  -5911572.98043  23937148.2814                   23937149.6644
        38.5004         22.0004
    354068.07847    176075.85947  22192824.4614                   22192824.3524
        44.5004         42.7504
  -1243958.02346  -1013040.27745  23730750.8984                   23730751.6604
        40.5004         33.2504
 -13517178.06248 -10715354.38348  20483407.7344                   20483406.1884
        51.5004         53.0004
 25  7  1 21 55 30.0000000  0  9G10G02G08G18G23G28G27G24G32
  -2731799.82448  -2189951.68748  21109345.1724                   21109343.4104
        50.0004         51.0004
  -8897235.84046  -6896388.44144  23786920.9614                   23786917.8794
        40.2504         25.0004
 -11430612.05147  -8978086.26646  22561250.5554                   22561251.0744
        42.2504         38.5004
  12206885.45347   9554164.37144  23594704.0944                   23594704.1604
        42.2504         26.7504
   8944229.56347   7014679.63344  22558686.3054                   22558683.8444
        43.7504         29.0004
  -7725165.84046  -5995003.55143  23916772.9144                   23916774.7664
        38.0004         22.5004
    410157.84847    219782.10947  22203498.1174                   22203498.0204
        44.5004         43.2504
  -1191346.21546   -972044.09445  23740762.9384                   23740762.9734
        40.5004         34.5004
 -13535628.27048 -10729731.15648  20479896.6644                   20479895.1094
        51.7504         53.0004
 25  7  1 21 56  0.0000000  0  9G10G02G08G18G23G28G27G24G32
  -2728225.44548  -2187166.46548  21110025.2194                   21110023.5004
        49.7504         51.0004
  -8990768.60546  -6969271.01244  23769122.4064                   23769119.0004
        39.7504         25.7504
 -11432730.00847  -8979736.64146  22560847.6954                   22560848.0634
        42.5004         38.5004
  12296599.62947   9624071.37544  23611776.2274                   23611775.8594
        42.5004         25.0004
   8997722.01647   7056362.02044  22568865.5394                   22568863.6294
        44.5004         28.7504
  -7832207.45746  -6078412.35943  23896403.8204                   23896405.5234
        39.2504         22.5004
    466643.53947    263796.87547  22214247.3284                   22214247.0124
        44.0004         43.0004
  -1138212.27746   -930641.05145  23750873.5474                   23750873.9454
        41.0004         34.2504
 -13553613.46148 -10743745.58648  20476474.1804                   20476472.8324
        51.7504         53.0004
 25  7  1 21 56 30.0000000  0  9G10G02G08G18G23G28G27G24G32
  -2724513.40248  -2184273.96948  21110731.6564                   21110730.1134
        50.5004         51.0004
  -9084203.49646  -7042077.35244  23751342.7504                   23751338.8404
        40.2504         25.5004
 -11434317.38747  -8980973.59046  22560545.5164                   22560546.4534
        43.7504         38.7504
  12386547.65246   9694160.58244  23628893.3054                   23628892.5164
        41.5004         24.5004
   9051301.93847   7098112.56345  22579062.2974                   22579059.4104
        44.2504         30.2504
  -7939217.86046  -6161796.88143  23876040.8524                   23876041.6954
        39.0004         21.7504
    523522.93847    308118.41047  22225070.8524                   22225070.7934
        44.0004         43.2504
  -1084557.57446   -888832.22345  23761084.0164                   23761084.3714
        41.2504         34.0004
 -13571133.75448 -10757397.75848  20473140.1644                   20473138.3404
        51.5004         53.2504
 25  7  1 21 57  0.0000000  0  9G10G02G08G18G23G28G27G24G32
  -2720662.08248  -2181272.93748  21111464.5634                   21111462.9534
        50.7504         51.0004
  -9177537.14546  -7114804.78544  23733581.6024                   23733577.8054
        41.2504         27.0004
 -11435373.31647  -8981796.41046  22560344.9454                   22560344.9494
        43.7504         38.5004
  12476729.55546   9764432.05144  23646054.3834                   23646053.8634
        41.2504         25.5004
   9104971.08247   7139932.64144  22589274.2114                   22589272.1604
        43.5004         29.5004
  -8046192.37146  -6245153.45743  23855684.0474                   23855684.7934
        39.0004         22.2504
    580794.81347    352745.78147  22235969.1564                   22235969.1484
        43.5004         43.2504
  -1030382.38346   -846617.84445  23771393.5394                   23771393.5634
        39.2504         34.5004
 -13588188.12148 -10770686.87548  20469894.9774                   20469893.0234
        51.2504         53.2504
 25  7  1 21 57 30.0000000  0  9G10G02G08G18G23G28G27G24G32
  -2716676.08648  -2178166.98048  21112222.9614                   21112221.1254
        50.5004         50.7504
  -9270772.38746  -7187455.54344  23715839.0634                   23715835.5084
        41.7504         27.2504
 -11435903.24247  -8982209.36346  22560244.0864                   22560244.0474
        42.5004         38.2504
  12567139.35946   9834881.08644  23663258.2734                   23663258.5004
        40.0004         24.0004
   9158724.85947   7181818.64844  22599503.9064                   22599501.2114
        43.2504         29.0004
  -8153132.75446  -6328483.42243  23835333.3054                   23835334.5514
        39.0004         22.7504
    638451.93047    397673.34847  22246941.3524                   22246941.1764
        43.7504         42.7504
   -975693.18746   -804002.92645  23781800.2504                   23781800.7544
        39.2504         34.0004
 -13604781.86748 -10783617.05148  20466737.3204                   20466735.6214
        51.7504         53.2504
 25  7  1 21 58  0.0000000  0  9G10G02G08G18G23G28G27G24G32
  -2712556.34848  -2174956.80148  21113007.0164                   21113005.5434
        51.0004         51.0004
  -9363908.18447  -7260028.84444  23698116.5634                   23698112.5594
        43.0004         27.2504
 -11435908.87147  -8982213.77746  22560243.2034                   22560243.4224
        42.5004         38.7504
  12657774.51246   9905505.69943  23680506.3984                   23680505.9614
        39.0004         22.0004
   9212562.37147   7223769.91844  22609748.4694                   22609746.4144
        43.2504         29.2504
  -8260037.02346  -6411785.27043  23814990.2664                   23814990.8954
        39.5004         21.7504
    696490.54347    442898.17647  22257986.1094                   22257985.4734
        44.0004         43.0004
   -920492.81646   -760989.69545  23792304.9694                   23792305.1524
        38.5004         34.0004
 -13620916.63348 -10796189.59048  20463667.3204                   20463664.9884
        51.2504         53.2504
 25  7  1 21 58 30.0000000  0  9G10G02G08G18G23G28G27G24G32
  -2708298.20748  -2171638.77748  21113817.3054                   21113815.9804
        51.0004         51.0004
  -9456937.77347  -7332519.35544  23680413.6094                   23680409.5044
        43.0004         27.5004
 -11435386.51247  -8981806.76246  22560341.8134                   22560342.8324
        43.2504         38.5004
  12748638.27046   9976308.43843  23697797.5234                   23697796.8714
        39.0004         22.0004
   9266488.19947   7265789.99644  22620010.5314                   22620008.4224
        45.0004         29.5004
  -8366897.53946  -6495053.01643  23794655.5314                   23794656.3364
        40.2504         21.7504
    754912.43847    488421.66447  22269102.8444                   22269103.2304
        44.5004         43.2504
   -864778.66046   -717576.09445  23802906.5554                   23802907.1294
        38.5004         34.0004
 -13636588.47348 -10808401.40248  20460684.7274                   20460683.0234
        51.2504         53.2504
 25  7  1 21 59  0.0000000  0  9G10G02G08G18G23G28G27G24G32
  -2703904.45348  -2168215.07048  21114653.5704                   21114652.0984
        50.7504         51.0004
  -9549861.98047  -7404927.76244  23662730.4774                   23662726.7854
        42.5004         28.0004
 -11434339.75047  -8980991.12946  22560541.8754                   22560541.9694
        43.0004         38.5004
  12839726.12946  10047285.79343  23715130.4064                   23715130.0204
        37.0004         21.5004
   9320499.77047   7307876.89144  22630288.4694                   22630286.4224
        43.5004         29.0004
  -8473714.22346  -6578286.63743  23774329.0234                   23774329.2894
        40.0004         23.7504
    813712.04747    534239.46947  22280292.3444                   22280292.1914
        44.2504         43.2504
   -808555.42246   -673765.83245  23813605.7734                   23813606.2344
        38.5004         32.7504
 -13651800.91848 -10820255.24648  20457790.0314                   20457787.9494
        51.0004         53.2504
 25  7  1 21 59 30.0000000  0  9G10G02G08G18G23G28G27G24G32
  -2699369.70748  -2164681.51248  21115516.3834                   21115515.0704
        50.5004         51.0004
  -9642674.15247  -7477248.87144  23645068.6884                   23645064.9534
        42.5004         27.5004
 -11432764.25447  -8979763.49646  22560841.2034                   22560841.6994
        43.5004         38.2504
  12931041.99646  10118440.81343  23732507.4694                   23732507.6954
        37.5004         21.2504
   9374602.32047   7350034.66844  22640583.8834                   22640581.8484
        43.5004         29.5004
  -8580478.82046  -6661479.66044  23754011.9384                   23754012.7704
        40.2504         24.7504
    872891.94547    580353.60947  22291553.7274                   22291553.7304
        45.0004         43.0004
   -751819.75446   -629556.26245  23824401.8444                   23824402.5004
        38.7504         32.5004
 -13666549.39148 -10831747.55548  20454983.6174                   20454981.6414
        51.0004         53.2504
 25  7  1 22  0  0.0000000  0  9G10G02G08G18G23G28G27G24G32
  -2694691.98848  -2161036.54348  21116406.3444                   21116405.0314
        50.0004         51.0004
  -9735370.26247  -7549479.53144  23627429.4614                   23627424.9184
        42.2504         27.2504
 -11430658.91046  -8978122.99246  22561241.9844                   22561242.4844
        41.7504         38.7504
  13022586.21546  10189773.77043  23749927.3594                   23749927.9224
        38.2504         21.5004
   9428797.92247   7392264.96544  22650896.9694                   22650894.7584
        43.7504         29.5004
  -8687186.32446  -6744628.19944  23733705.9454                   23733706.8444
        40.5004         24.0004
    932451.24247    626763.37947  22302888.1954                   22302887.9144
        44.7504         43.0004
   -694571.79346   -584947.50445  23835295.6024                   23835296.8134
        38.2504         32.2504
 -13680832.64148 -10842877.35248  20452265.5084                   20452263.4654
        51.0004         53.2504
 25  7  1 22  0 30.0000000  0  9G10G02G08G18G23G28G27G24G32
  -2689874.22348  -2157282.44148  21117322.9304                   21117321.8204
        50.5004         51.0004
  -9827950.84447  -7621620.19144  23609811.6414                   23609807.7114
        42.2504         27.7504
 -11428027.72347  -8976072.74246  22561742.3054                   22561743.1094
        43.7504         39.0004
  13114354.30546  10261281.19143  23767391.8054                   23767391.3634
        39.5004         22.5004
   9483083.66447   7434565.49645  22661227.4844                   22661225.2154
        43.7504         30.2504
  -8793836.87946  -6827732.34044  23713411.1024                   23713411.4534
        40.7504         25.5004
    992384.10547    673464.24647  22314293.3054                   22314292.6524
        44.0004         43.0004
   -636816.48046   -539943.40245  23846286.8914                   23846287.2854
        38.7504         31.5004
 -13694654.47348 -10853647.59448  20449635.1414                   20449633.0044
        51.7504         53.2504
 25  7  1 22  1  0.0000000  0  9G10G02G08G18G23G28G27G24G32
  -2684920.74648  -2153422.59848  21118266.0474                   21118264.2894
        49.7504         51.0004
  -9920418.74647  -7693673.02344  23592215.3364                   23592211.7704
        42.5004         27.7504
 -11424875.96546  -8973616.85246  22562342.6884                   22562342.6294
        41.7504         39.0004
  13206340.34846  10332958.43843  23784895.6334                   23784895.2934
        39.7504         23.7504
   9537455.19147   7476932.87145  22671573.9694                   22671571.7664
        43.5004         30.7504
  -8900431.74246  -6910793.10944  23693127.1254                   23693127.2974
        41.5004         26.7504
   1052683.34047    720450.59047  22325767.3834                   22325767.3244
        44.0004         42.5004
   -578560.19146   -494548.93745  23857372.0864                   23857373.0864
        37.7504         31.7504
 -13708019.99248 -10864062.28548  20447091.5234                   20447089.9884
        51.2504         53.2504
 25  7  1 22  1 30.0000000  0  9G10G02G08G18G23G28G27G24G32
  -2679823.68748  -2149450.86748  21119235.8524                   21119234.3524
        50.7504         51.0004
 -10012764.17247  -7765630.43744  23574642.6254                   23574639.2234
        42.2504         28.5004
 -11421196.90247  -8970750.07046  22563042.7274                   22563043.1564
        43.0004         39.0004
  13298550.48446  10404810.31344  23802442.6484                   23802442.9614
        39.7504         25.5004
   9591920.43047   7519373.26245  22681938.6174                   22681936.3594
        43.5004         30.5004
  -9006960.29346  -6993802.17244  23672854.9534                   23672855.0704
        41.0004         27.5004
   1113353.91447    767726.29747  22337312.7664                   22337312.3404
        44.0004         42.5004
   -519797.15646   -448759.60245  23868555.0164                   23868555.2114
        37.2504         31.2504
 -13720922.23848 -10874115.97748  20444636.4844                   20444634.8324
        50.7504         53.2504
 25  7  1 22  2  0.0000000  0  9G10G02G08G18G23G28G27G24G32
  -2674586.22748  -2145369.74248  21120232.4224                   21120230.9964
        50.2504         51.0004
 -10104987.96947  -7837493.07444  23557092.9774                   23557089.4024
        42.2504         29.7504
 -11416994.73446  -8967475.68446  22563842.0394                   22563842.6884
        41.7504         39.0004
  13390979.99246  10476833.10244  23820031.5394                   23820032.2424
        40.7504         24.5004
   9646476.17647   7561884.18045  22692320.3524                   22692317.7894
        43.7504         30.5004
  -9113422.76247  -7076759.76644  23652595.9064                   23652595.7194
        42.2504         26.5004
   1174389.77747    815286.63747  22348927.4454                   22348927.2934
        44.5004         43.0004
   -460532.71146   -402579.56645  23879831.4614                   23879832.5044
        38.2504         31.0004
 -13733365.22748 -10883811.80148  20442268.5394                   20442266.6684
        51.2504         53.2504
 25  7  1 22  2 30.0000000  0  9G10G02G08G18G23G28G27G24G32
  -2669205.93448  -2141177.31648  21121256.5634                   21121254.9344
        49.7504         50.7504
 -10197086.43447  -7909258.04744  23539567.3674                   23539563.3674
        42.2504         29.5004
 -11412268.08647  -8963792.59846  22564741.4694                   22564741.8554
        42.0004         38.7504
  13483629.63746  10549027.43044  23837662.8444                   23837662.6254
        39.7504         25.0004
   9701124.84847   7604467.51645  22702719.4454                   22702717.5274
        43.0004         30.2504
  -9219813.76646  -7159661.65644  23632349.5004                   23632350.0004
        41.2504         25.7504
   1235790.35947    863131.18447  22360611.6884                   22360611.5274
        44.5004         42.7504
   -400766.63746   -356008.63745  23891205.6484                   23891205.5664
        37.7504         30.2504
 -13745347.42648 -10893148.57048  20439988.3204                   20439986.6054
        51.2504         53.2504
 25  7  1 22  3  0.0000000  0  9G10G02G08G18G23G28G27G24G32
  -2663682.02348  -2136872.98048  21122307.5784                   21122306.2274
        49.7504         50.7504
 -10289056.51647  -7980922.98444  23522066.0784                   23522061.8204
        43.0004         29.5004
 -11407017.39847  -8959701.18046  22565741.3524                   22565741.9384
        42.0004         39.5004
  13576498.52046  10621392.58244  23855335.0944                   23855335.6254
        39.5004         26.2504
   9755867.30147   7647123.92644  22713136.6804                   22713134.2234
        43.5004         29.7504
  -9326129.63746  -7242505.00444  23612118.2274                   23612118.8554
        41.2504         25.7504
   1297553.57047    911258.28947  22372364.6884                   22372364.7274
        44.7504         42.5004
   -340500.25046   -309047.86345  23902673.4694                   23902674.0904
        37.0004         30.5004
 -13756869.02348 -10902126.42648  20437796.0634                   20437794.1024
        51.7504         53.2504
 25  7  1 22  3 30.0000000  0  9G10G02G08G18G23G28G27G24G32
  -2658012.05948  -2132454.83648  21123386.6414                   21123385.1604
        49.7504         50.5004
 -10380894.10947  -8052484.67644  23504589.5394                   23504585.8634
        42.7504         29.0004
 -11401241.30947  -8955200.35546  22566839.9844                   22566840.6294
        42.5004         39.5004
  13669587.46146  10693929.20344  23873049.5234                   23873049.8914
        39.7504         26.5004
   9810705.93447   7689855.27744  22723571.7424                   22723569.8594
        43.5004         29.5004
  -9432365.10246  -7325285.69144  23591901.7664                   23591902.4654
        41.2504         25.2504
   1359678.84047    959667.52047  22384186.9694                   22384187.0084
        45.0004         42.5004
   -279733.38746   -261697.10945  23914237.8754                   23914237.8284
        37.0004         30.7504
 -13767928.47348 -10910744.17648  20435691.5004                   20435689.7774
        50.5004         53.2504
 25  7  1 22  4  0.0000000  0  9G10G02G08G18G23G28G27G24G32
  -2652192.39548  -2127920.03948  21124494.0554                   21124492.5434
        50.0004         50.7504
 -10472593.43447  -8123938.62544  23487139.8754                   23487135.8594
        42.2504         28.0004
 -11394937.50847  -8950288.32846  22568039.5164                   22568040.3674
        42.0004         39.2504
  13762898.28546  10766638.71144  23890805.6414                   23890806.7854
        40.2504         25.7504
   9865644.31647   7732664.34844  22734026.5164                   22734024.4064
        42.5004         29.5004
  -9538513.61746  -7407998.64544  23571703.0554                   23571702.8284
        40.7504         24.7504
   1422166.76247   1008359.33247  22396077.9224                   22396077.9024
        44.7504         42.7504
   -218464.53946   -213955.19945  23925896.7344                   23925897.0664
        36.5004         30.2504
 -13778523.10548 -10918999.72348  20433675.5164                   20433673.4884
        51.0004         53.2504
 25  7  1 22  4 30.0000000  0  9G10G02G08G18G23G28G27G24G32
  -2646230.18748  -2123274.16848  21125628.5164                   21125626.9454
        49.2504         50.5004
 -10564160.13347  -8195289.24244  23469715.3754                   23469711.2234
        43.0004         29.2504
 -11388114.30547  -8944971.56246  22569338.5314                   22569338.7194
        42.5004         39.0004
  13856422.17246  10839514.25844  23908603.5704                   23908604.2344
        40.5004         26.2504
   9920675.35547   7775545.62144  22744498.1094                   22744496.2974
        43.5004         28.5004
  -9644579.50446  -7490647.20744  23551518.9064                   23551519.2074
        40.7504         26.0004
   1485007.23447   1057325.86747  22408036.1024                   22408035.8164
        44.0004         42.5004
   -156703.28545   -165829.59445  23937649.3054                   23937649.7974
        35.5004         31.0004
 -13788661.10948 -10926899.45748  20431746.0554                   20431744.2624
        50.7504         53.2504
 25  7  1 22  5  0.0000000  0  9G10G02G08G18G23G28G27G24G32
  -2640123.72348  -2118515.88748  21126790.7664                   21126789.0984
        50.7504         50.7504
 -10655590.55947  -8266533.68444  23452316.7274                   23452312.3754
        43.7504         28.7504
 -11380771.16447  -8939249.65646  22570735.7344                   22570736.2934
        44.0004         39.7504
  13950159.14546  10912555.84444  23926441.0004                   23926441.4574
        40.0004         26.0004
   9975800.78147   7818500.44144  22754988.7504                   22754986.7894
        42.5004         28.7504
  -9750558.01646  -7573227.68044  23531351.4144                   23531351.7974
        40.2504         24.7504
   1548199.07847   1106566.18847  22420061.3754                   22420061.4304
        43.7504         42.2504
    -94450.14545   -117320.71144  23949495.4064                   23949495.8984
        35.7504         29.2504
 -13798341.74648 -10934442.80148  20429903.6334                   20429902.4774
        51.0004         53.2504
 25  7  1 22  5 30.0000000  0  9G10G02G08G18G23G28G27G24G32
  -2633865.52748  -2113639.37948  21127981.6334                   21127980.2114
        49.5004         50.7504
 -10746875.09447  -8337664.41444  23434945.5944                   23434942.0434
        43.0004         29.5004
 -11372901.97346  -8933117.84446  22572233.0944                   22572233.9264
        41.7504         39.0004
  14044114.97346  10985767.96944  23944320.3984                   23944320.3834
        39.7504         26.0004
  10031027.92647   7861534.53144  22765498.1644                   22765496.2854
        42.2504         29.5004
  -9856438.87946  -7655732.06244  23511202.9924                   23511203.2854
        40.7504         26.5004
   1611746.60247   1156083.66847  22432154.0084                   22432154.1884
        44.0004         42.0004
    -31699.82046    -68424.40244  23961436.8674                   23961437.3134
        37.5004         29.7504
 -13807558.58248 -10941624.74248  20428150.1564                   20428147.9414
        50.7504         53.2504
 25  7  1 22  6  0.0000000  0  9G10G02G08G18G23G28G27G24G32
  -2627460.71148  -2108648.61748  21129200.4614                   21129198.5124
        49.5004         50.5004
 -10838017.02047  -8408684.02744  23417601.9304                   23417597.8054
        43.0004         29.0004
 -11364513.15247  -8926581.12146  22573829.5084                   22573829.7344
        42.0004         39.0004
  14138282.74646  11059145.24244  23962240.4064                   23962240.8204
        39.7504         26.0004
  10086351.72747   7904643.93044  22776026.1174                   22776023.7704
        42.2504         29.2504
  -9962224.24646  -7738162.06244  23491072.9304                   23491072.9224
        41.2504         26.2504
   1675641.64847   1205871.93447  22444312.9304                   22444313.1524
        44.7504         42.5004
     31540.11346    -19146.57045  23973470.9924                   23973471.5944
        37.0004         30.5004
 -13816317.77048 -10948450.08248  20426483.5234                   20426481.2424
        49.0004         53.2504
 25  7  1 22  6 30.0000000  0  9G10G02G08G18G23G28G27G24G32
  -2620911.57848  -2103545.40248  21130446.7584                   21130445.1954
        49.7504         50.7504
 -10929016.75447  -8479592.85244  23400285.0784                   23400281.1884
        43.5004         28.5004
 -11355608.29747  -8919642.30146  22575524.1094                   22575524.8094
        44.0004         39.0004
  14232658.40646  11132684.48044  23980199.1564                   23980200.1844
        39.7504         24.7504
  10141769.89147   7947826.85944  22786571.5084                   22786569.8204
        42.0004         28.7504
 -10067913.56246  -7820517.19544  23470960.2034                   23470960.5944
        41.5004         25.0004
   1739878.96147   1255926.91047  22456537.0004                   22456537.1484
        44.2504         42.5004
     95265.11346     30509.21945  23985597.2344                   23985598.2774
        36.7504         30.0004
 -13824622.65248 -10954921.40648  20424902.7584                   20424900.9304
        49.5004         53.5004
 25  7  1 22  7  0.0000000  0  9G10G02G08G18G23G28G27G24G32
  -2614216.00448  -2098328.07848  21131720.5314                   21131719.0274
        50.0004         50.5004
 -11019870.49647  -8550387.89544  23382996.3984                   23382992.6094
        43.2504         29.2504
 -11346186.67247  -8912300.80146  22577316.9924                   22577317.3164
        43.7504         39.0004
  14327242.31346  11206386.01643  23998197.8914                   23998198.8364
        39.0004         22.7504
  10197284.50846   7991084.92644  22797136.0634                   22797134.1764
        41.7504         28.7504
 -10173501.90646  -7902793.67244  23450867.5164                   23450867.6414
        41.7504         24.5004
   1804457.55947   1306247.81647  22468825.6644                   22468826.0944
        43.0004         42.0004
    159474.89146     80542.76244  23997815.8204                   23997817.0274
        36.7504         29.5004
 -13832472.23448 -10961037.96548  20423409.2424                   20423407.3284
        51.5004         53.5004
 25  7  1 22  7 30.0000000  0  9G10G02G08G18G23G28G27G24G32
  -2607379.56648  -2093000.98448  21133021.6414                   21133020.1914
        50.0004         50.7504
 -11110581.85547  -8621071.99244  23365734.0784                   23365730.3594
        44.0004         29.2504
 -11336255.21547  -8904562.03946  22579206.4924                   22579207.2384
        44.2504         38.7504
  14422027.07846  11280244.05143  24016235.1334                   24016236.0744
        38.0004         22.7504
  10252889.94947   8034413.78144  22807717.0864                   22807714.9734
        42.2504         29.0004
 -10278991.98846  -7984993.57844  23430793.5474                   23430793.4224
        41.7504         25.5004
   1869368.75847   1356827.90246  22481178.3284                   22481177.8954
        43.7504         41.5004
    224161.53546    130947.88344  24010126.2974                   24010126.6524
        36.7504         29.5004
 -13839873.20748 -10966804.95348  20422000.8914                   20421999.2624
        52.0004         53.5004
 25  7  1 22  8  0.0000000  0  9G10G02G08G18G23G28G27G24G32
  -2600398.34048  -2087561.07048  21134350.1414                   21134348.5124
        50.5004         50.7504
 -11201144.91447  -8691640.54344  23348500.3284                   23348496.7544
        44.0004         29.7504
 -11325811.47347  -8896424.08646  22581193.6724                   22581194.5984
        44.5004         39.2504
  14517014.87946  11354260.27343  24034310.6334                   24034311.6484
        38.0004         21.7504
  10308590.12947   8077816.46144  22818316.6254                   22818314.7114
        42.0004         29.5004
 -10384376.87547  -8067111.52044  23410739.0004                   23410739.1524
        42.5004         26.2504
   1934613.40647   1407667.81346  22493593.2664                   22493593.8984
        43.5004         41.5004
    289326.44546    181725.69945  24022526.1254                   24022526.6374
        36.0004         30.0004
 -13846822.77048 -10972220.18748  20420678.4304                   20420676.3404
        50.7504         53.5004
 25  7  1 22  8 30.0000000  0  9G10G02G08G18G23G28G27G24G32
  -2593271.59048  -2082007.76248  21135706.1414                   21135704.7894
        49.7504         50.5004
 -11291557.44947  -8762091.79745  23331295.6804                   23331292.0744
        44.5004         30.0004
 -11314856.18047  -8887887.52746  22583279.0864                   22583279.7774
        44.5004         39.0004
  14612204.53946  11428433.77343  24052424.9304                   24052425.8244
        37.5004         22.0004
  10364385.61347   8121293.41044  22828934.7894                   22828932.4384
        42.2504         29.5004
 -10489653.03947  -8149144.75844  23390705.9924                   23390705.3754
        42.0004         26.0004
   2000189.12547   1458765.69146  22506072.2584                   22506072.4104
        43.7504         41.5004
    354967.96546    232874.86745  24035017.4454                   24035018.2664
        37.2504         30.0004
 -13853321.37548 -10977284.03148  20419441.4694                   20419439.7974
        50.7504         53.5004
 25  7  1 22  9  0.0000000  0  9G10G02G08G18G23G28G27G24G32
  -2586003.56648  -2076344.36748  21137089.4844                   21137087.9454
        50.0004         50.5004
 -11381821.30147  -8832427.18445  23314119.1024                   23314114.9804
        44.7504         30.5004
 -11303394.97347  -8878956.75446  22585459.9844                   22585460.5944
        43.7504         39.5004
  14707590.10546  11502759.93843  24070575.3594                   24070577.6374
        36.5004         21.5004
  10420272.30147   8164841.42644  22839569.0784                   22839566.7814
        42.2504         28.5004
 -10594821.88347  -8231094.35544  23370693.4304                   23370692.8444
        43.0004         26.2504
   2066088.59047   1510115.84446  22518612.7734                   22518613.2624
        43.5004         41.0004
    421079.41046    284390.23445  24047598.5944                   24047598.5704
        38.2504         30.0004
 -13859374.38348 -10982000.65648  20418290.0864                   20418287.8284
        50.7504         53.5004
 25  7  1 22  9 30.0000000  0  9G10G02G08G18G23G28G27G24G32
  -2578592.39148  -2070569.43448  21138499.7344                   21138498.0044
        50.0004         50.5004
 -11471932.99647  -8902644.01245  23296971.3834                   23296967.4804
        45.0004         30.0004
 -11291427.55547  -8869631.52346  22587737.0234                   22587737.6454
        43.7504         39.2504
  14803171.46146  11577238.67643  24088765.3134                   24088766.6994
        37.7504         20.2504
  10476251.91047   8208461.83644  22850221.4924                   22850219.5474
        42.5004         28.0004
 -10699878.65247  -8312956.65244  23350701.0944                   23350700.6954
        42.5004         26.7504
   2132310.50847   1561717.26646  22531214.9064                   22531214.4964
        42.5004         41.5004
    487660.19946    336271.31344  24060267.3284                   24060268.5044
        39.0004         28.7504
 -13864981.15648 -10986369.57048  20417223.0394                   20417221.2464
        50.7504         53.5004
 25  7  1 22 10  0.0000000  0  9G10G02G08G18G23G28G27G24G32
  -2571037.22748  -2064682.29748  21139937.0474                   21139935.7664
        50.0004         50.7504
 -11561889.66447  -8972740.04344  23279853.4844                   23279848.8554
        44.5004         29.7504
 -11278954.54747  -8859912.33646  22590110.4774                   22590111.3834
        43.5004         39.2504
  14898947.65646  11651869.25843  24106991.1024                   24106992.4844
        37.2504         19.5004
  10532325.27347   8252155.32044  22860892.2974                   22860890.1484
        42.5004         28.0004
 -10804819.68747  -8394728.74244  23330731.8134                   23330730.6914
        42.2504         25.7504
   2198852.60947   1613568.17246  22543877.2424                   22543877.5744
        44.2504         41.0004
    554708.59846    388516.78945  24073027.2034                   24073027.1804
        39.0004         30.5004
 -13870142.10948 -10990391.08248  20416240.7814                   20416238.7624
        51.5004         53.5004
 25  7  1 22 10 30.0000000  0  9G10G02G08G18G23G28G27G24G32
  -2563339.33648  -2058683.93748  21141402.2034                   21141400.5394
        50.5004         50.7504
 -11651690.75847  -9042714.85544  23262764.2814                   23262760.1484
        44.5004         29.7504
 -11265978.76247  -8849801.37546  22592580.0704                   22592580.5554
        44.2504         39.5004
  14994915.64846  11726649.27343  24125252.7344                   24125254.8674
        37.5004         18.2504
  10588491.08247   8295920.82044  22871579.9534                   22871578.2734
        42.2504         29.0004
 -10909643.28147  -8476409.34044  23310783.7894                   23310783.3364
        42.7504         28.0004
   2265710.43447   1665665.10246  22556599.2274                   22556599.9574
        42.5004         41.2504
    622220.99246    441123.80544  24085874.5474                   24085874.7034
        39.7504         29.0004
 -13874859.64848 -10994067.07848  20415343.2734                   20415341.2424
        49.5004         53.2504
 25  7  1 22 11  0.0000000  0  9G10G02G08G18G23G28G27G24G32
  -2555502.89148  -2052577.61748  21142893.4144                   21142891.8554
        50.5004         50.7504
 -11741339.04747  -9112570.59845  23245705.0234                   23245700.3164
        44.7504         30.0004
 -11252506.07447  -8839303.21546  22595143.9924                   22595144.5474
        44.7504         39.7504
  15091069.33246  11801573.99642  24143550.8054                   24143552.2734
        37.2504         17.2504
  10644745.09447   8339755.05544  22882285.1804                   22882283.0164
        43.7504         29.0004
 -11014350.87147  -8557999.51644  23290858.4614                   23290858.0704
        42.0004         26.5004
   2332876.62147   1718002.31646  22569381.0394                   22569381.8164
        43.5004         40.7504
    690190.47746    494086.99244  24098808.6254                   24098808.8984
        39.7504         29.2504
 -13879139.21148 -10997401.80148  20414528.7734                   20414526.7234
        51.0004         53.2504
 25  7  1 22 11 30.0000000  0  9G10G02G08G18G23G28G27G24G32
  -2547522.99248  -2046359.52348  21144411.6334                   21144410.4224
        50.5004         50.5004
 -11830827.08247  -9182301.47344  23228675.7814                   23228671.6564
        44.5004         29.7504
 -11238533.09847  -8828415.21546  22597802.6804                   22597803.4574
        45.2504         39.5004
  15187411.65346  11876645.72543  24161884.5234                   24161885.0354
        38.2504         19.5004
  10701092.14147   8383661.77744  22893008.1334                   22893005.3094
        43.5004         28.5004
 -11118934.59847  -8639493.18444  23270956.7114                   23270956.2974
        42.0004         27.2504
   2400352.88747   1770581.15246  22582221.4304                   22582221.7584
        43.5004         40.5004
    758619.39846    547408.18444  24111830.2194                   24111830.4344
        38.5004         29.5004
 -13882977.23848 -11000392.46148  20413798.1644                   20413796.2114
        49.2504         53.2504
 25  7  1 22 12  0.0000000  0 10G10G02G08G18G23G28G27G24G32G31
  -2539403.15648  -2040032.38748  21145957.4614                   21145955.6134
        50.7504         50.5004
 -11920156.87947  -9251909.03144  23211676.9534                   23211672.6764
        44.0004         29.7504
 -11224065.01647  -8817141.42646  22600555.7424                   22600557.2504
        44.5004         39.5004
  15283937.17246  11951860.17243  24180252.5704                   24180254.0044
        39.0004         21.2504
  10757528.61747   8427638.19944  22903747.0004                   22903744.8284
        43.0004         28.5004
 -11223395.22347  -8720890.91444  23251078.6094                   23251078.2934
        42.0004         27.0004
   2468132.56347   1823396.41046  22595119.3834                   22595119.8594
        43.5004         40.5004
    827501.82046    601082.76245  24124937.4384                   24124938.6484
        39.0004         30.0004
 -13886378.51648 -11003042.80148  20413151.2344                   20413149.2734
        52.0004         53.2504
   -138861.09456    -84311.15654  25150102.1334                   25150109.0204
        38.5004         25.2504
 25  7  1 22 12 30.0000000  0 10G10G02G08G18G23G28G27G24G32G31
  -2531151.74248  -2033602.72748  21147527.2584                   21147525.8874
        50.0004         50.5004
 -12009334.75447  -9321398.21945  23194707.0314                   23194702.5164
        43.5004         31.0004
 -11209111.78147  -8805489.59446  22603401.4304                   22603402.2774
        45.0004         39.5004
  15380635.74646  12027209.43843  24198654.4144                   24198655.1684
        39.5004         23.5004
  10814046.14547   8471677.77044  22914502.3444                   22914500.4304
        43.0004         27.2504
 -11327738.24247  -8802197.03944  23231222.6484                   23231222.0474
        42.5004         27.7504
   2536204.09047   1876439.08246  22608073.5554                   22608073.7304
        44.5004         40.5004
    896826.71146    655102.10545  24138130.0234                   24138130.3834
        39.2504         31.2504
 -13889352.66448 -11005360.31248  20412585.0784                   20412583.2664
        50.2504         53.5004
   -254093.76246   -174102.62144  25128174.8284                   25128180.4884
        38.2504         25.5004
 25  7  1 22 13  0.0000000  0 10G10G02G08G18G23G28G27G24G32G31
  -2522773.96148  -2027074.59048  21149121.7114                   21149119.9574
        50.2504         50.5004
 -12098364.35547  -9390771.86345  23177765.0164                   23177760.5124
        43.0004         30.0004
 -11193680.41047  -8793465.18446  22606338.0164                   22606338.7344
        43.7504         39.5004
  15477500.12146  12102687.91043  24217087.2974                   24217088.1604
        40.7504         22.2504
  10870639.41847   8515776.35944  22925271.3524                   22925269.7704
        43.0004         27.2504
 -11431966.04347  -8883413.36344  23211388.7734                   23211388.2974
        42.0004         27.2504
   2604559.00047   1929702.57046  22621080.8134                   22621081.2734
        44.0004         40.7504
    966586.18046    709460.08645  24151404.5634                   24151405.3634
        40.0004         31.2504
 -13891906.29348 -11007350.15248  20412099.3054                   20412097.2894
        51.7504         53.2504
   -369494.50046   -264025.05944  25106214.9454                   25106220.4064
        39.7504         27.7504
 25  7  1 22 13 30.0000000  0 10G10G02G08G18G23G28G27G24G32G31
  -2514268.65248  -2020447.09048  21150740.2114                   21150738.7774
        49.7504         50.5004
 -12187242.54347  -9460027.52744  23160852.4454                   23160847.5744
        43.0004         29.7504
 -11177771.29747  -8781068.50446  22609365.8364                   22609366.4344
        44.5004         40.0004
  15574529.59446  12178295.04344  24235551.3054                   24235552.9024
        41.7504         24.0004
  10927309.58646   8559934.88744  22936055.5164                   22936053.3754
        41.7504         27.7504
 -11536074.54747  -8964536.73044  23191577.3204                   23191577.1764
        42.5004         27.0004
   2673195.26247   1983185.28546  22634141.9064                   22634142.1254
        43.0004         40.0004
   1036778.86746    764155.62145  24164762.6254                   24164762.8244
        39.5004         30.7504
 -13894039.48848 -11009012.37548  20411693.3204                   20411691.3404
        51.7504         53.2504
   -485059.96546   -354075.82044  25084223.5554                   25084228.8284
        39.2504         27.5004
 25  7  1 22 14  0.0000000  0 10G10G02G08G18G23G28G27G24G32G31
  -2505634.19148  -2013718.94548  21152383.3594                   21152381.5274
        49.5004         50.5004
 -12275965.84847  -9529162.50445  23143968.5314                   23143964.0084
        42.0004         30.0004
 -11161384.79347  -8768299.84046  22612483.6884                   22612484.4694
        43.5004         39.7504
  15671723.71946  12254030.45344  24254047.1414                   24254048.9884
        40.7504         26.0004
  10984058.05147   8604154.39544  22946854.5084                   22946852.2894
        42.5004         28.0004
 -11640059.39547  -9045563.72744  23171789.5004                   23171788.9694
        42.2504         28.0004
   2742111.17247   2036885.91446  22647255.8444                   22647256.2074
        42.5004         40.0004
   1107403.56346    819187.82045  24178201.1644                   24178201.9654
        39.2504         31.0004
 -13895752.15648 -11010346.91448  20411367.3444                   20411365.4694
        49.7504         53.2504
   -600786.18446   -444251.83645  25062201.4144                   25062206.4964
        39.7504         30.0004
 25  7  1 22 14 30.0000000  0 10G10G02G08G18G23G28G27G24G32G31
  -2496865.37548  -2006886.10548  21154051.8524                   21154050.2974
        49.7504         50.5004
 -12364527.30947  -9598171.37945  23127115.6954                   23127111.0164
        42.7504         31.0004
 -11144517.28947  -8755156.36346  22615693.8834                   22615694.6484
        44.5004         39.7504
  15769085.80546  12329896.74644  24272574.3594                   24272576.3714
        41.0004         26.2504
  11040890.00446   8648438.98044  22957668.9534                   22957666.9344
        41.2504         27.5004
 -11743912.59847  -9126488.17244  23152026.2664                   23152026.0744
        42.5004         28.2504
   2811308.75747   2090806.02446  22660423.6334                   22660424.1914
        42.5004         40.0004
   1178462.89846    874558.67245  24191723.2424                   24191724.7154
        38.5004         31.2504
 -13897040.38748 -11011350.72748  20411122.2424                   20411120.0314
        51.2504         53.2504
   -716665.64546   -534547.25044  25040149.6884                   25040154.9494
        39.0004         29.5004
 25  7  1 22 15  0.0000000  0 10G10G02G08G18G23G28G27G24G32G31
  -2487959.23448  -1999946.26648  21155746.7274                   21155744.8874
        50.7504         50.5004
 -12452921.69147  -9667050.04345  23110294.8204                   23110290.3324
        42.5004         31.5004
 -11127167.69947  -8741637.23046  22618995.4694                   22618995.9534
        43.7504         39.5004
  15866616.84846  12405894.68044  24291133.7664                   24291136.4924
        39.0004         26.5004
  11097808.37146   8692790.89544  22968500.1884                   22968498.5274
        41.5004         27.5004
 -11847628.27047  -9207305.43444  23132290.1804                   23132289.5234
        42.0004         27.5004
   2880787.74247   2144945.40646  22673645.4774                   22673645.7734
        42.7504         40.0004
   1249957.14846    930268.43044  24205329.3754                   24205329.6094
        38.5004         29.7504
 -13897902.68448 -11012022.64148  20410958.3134                   20410956.1764
        50.5004         53.2504
   -832693.19146   -624958.04744  25018070.2504                   25018075.4924
        38.0004         29.0004
 25  7  1 22 15 30.0000000  0 10G10G02G08G18G23G28G27G24G32G31
  -2478909.64848  -1992894.64148  21157468.7424                   21157467.1294
        50.5004         50.5004
 -12541141.40247  -9735792.60545  23093507.0314                   23093502.7384
        43.5004         30.7504
 -11109331.66047  -8727739.05146  22622389.2274                   22622390.0824
        43.7504         39.7504
  15964321.00446  12482027.50444  24309726.9534                   24309728.9144
        39.0004         24.5004
  11154819.10246   8737214.76644  22979349.3364                   22979347.1454
        41.0004         26.5004
 -11951197.45747  -9288008.56244  23112581.2344                   23112581.0314
        42.2504         29.0004
   2950550.84847   2199306.19146  22686921.4064                   22686921.9964
        44.2504         41.0004
   1321889.74246    986319.73845  24219017.5864                   24219017.9964
        37.7504         30.5004
 -13898334.27748 -11012358.93448  20410875.8674                   20410874.0594
        51.0004         53.2504
   -948860.77046   -715477.94544  24995964.1644                   24995969.0234
        38.2504         29.0004
 25  7  1 22 16  0.0000000  0 10G10G02G08G18G23G28G27G24G32G31
  -2469714.70348  -1985729.75048  21159218.6334                   21159217.1454
        50.0004         50.5004
 -12629182.41847  -9804395.92645  23076753.4304                   23076749.2424
        43.0004         31.5004
 -11091009.16847  -8713461.81646  22625875.6954                   22625876.7274
        44.2504         39.7504
  16062198.17246  12558295.12943  24328352.5004                   24328355.0864
        38.7504         22.7504
  11211924.10246   8781712.09044  22990215.1954                   22990213.9494
        41.0004         26.0004
 -12054615.54347  -9368593.93744  23092901.8834                   23092900.8714
        42.0004         27.5004
   3020596.90647   2253887.44546  22700250.4844                   22700251.2074
        43.0004         41.0004
   1394259.81646   1042711.95745  24232788.8914                   24232789.4574
        38.2504         30.0004
 -13898334.72748 -11012359.28148  20410875.7894                   20410874.0234
        51.2504         53.5004
  -1065164.00446   -806103.54344  24973832.4614                   24973836.7544
        37.2504         29.2504
 25  7  1 22 16 30.0000000  0 10G10G02G08G18G23G28G27G24G32G31
  -2460372.24248  -1978449.92248  21160996.2114                   21160994.6844
        50.2504         50.5004
 -12717041.02747  -9872857.11345  23060034.1024                   23060030.3134
        43.7504         31.0004
 -11072199.93747  -8698805.30946  22629455.5634                   22629455.9774
        44.0004         39.2504
  16160248.42646  12634697.64543  24347011.1644                   24347013.6174
        36.7504         22.5004
  11269125.33246   8826284.41444  23001101.5164                   23001099.2034
        41.0004         26.7504
 -12157877.48447  -9449057.65644  23073251.0474                   23073250.9344
        42.2504         28.2504
   3090924.51647   2308688.09046  22713633.7814                   22713634.1054
        43.5004         41.0004
   1467066.75445   1099444.58644  24246643.4064                   24246644.0004
        35.5004         28.7504
 -13897903.40248 -11012023.17648  20410958.3284                   20410956.3324
        51.0004         53.5004
  -1181598.26646   -896831.25044  24951675.2194                   24951680.1884
        36.2504         28.0004
 25  7  1 22 17  0.0000000  0 10G10G02G08G18G23G28G27G24G32G31
  -2450883.05948  -1971055.75448  21162802.1644                   21162800.5904
        50.2504         50.5004
 -12804716.12147  -9941175.29345  23043350.6724                   23043346.2734
        43.5004         32.2504
 -11052906.67647  -8683771.63346  22633126.8754                   22633127.7304
        43.7504         39.5004
  16258468.99246  12711232.84443  24365701.5314                   24365704.4614
        36.0004         22.0004
  11326421.92646   8870931.03944  23012004.1094                   23012003.0004
        40.5004         26.2504
 -12260981.27347  -9529398.13344  23053631.3054                   23053630.7854
        42.2504         28.5004
   3161529.75447   2363705.06346  22727069.1884                   22727070.0984
        43.2504         41.5004
   1540307.05146   1156514.87144  24260580.5634                   24260581.3954
        36.0004         29.5004
 -13897042.51248 -11011352.34448  20411121.8284                   20411119.8594
        51.0004         53.2504
  -1298162.37145   -987660.14144  24929493.4844                   24929498.4494
        35.7504         28.0004
 25  7  1 22 17 30.0000000  0 10G10G02G08G18G23G28G27G24G32G31
  -2441246.47348  -1963546.73848  21164635.8204                   21164634.6604
        50.7504         50.5004
 -12892205.12147 -10009348.48045  23026702.0164                   23026697.6094
        44.5004         32.0004
 -11033130.52747  -8668361.68446  22636890.1724                   22636890.6094
        43.5004         39.7504
  16356858.57045  12787899.70743  24384425.0394                   24384428.0434
        35.0004         20.7504
  11383814.52746   8915652.46144  23022926.3134                   23022923.9144
        40.5004         25.7504
 -12363923.46947  -9609612.69544  23034041.8444                   23034041.1414
        42.7504         28.5004
   3232410.02747   2418936.34846  22740557.6174                   22740558.1174
        43.5004         41.2504
   1613978.61346   1213921.23044  24274599.5554                   24274600.5824
        37.0004         28.0004
 -13895752.84448 -11010347.40248  20411367.3914                   20411365.1094
        51.5004         53.5004
  -1414853.39545  -1078587.88344  24907287.9144                   24907292.9844
        35.0004         28.2504
 25  7  1 22 18  0.0000000  0 10G10G02G08G18G23G28G27G24G32G31
  -2431461.93448  -1955922.43048  21166498.0554                   21166496.4184
        51.0004         50.5004
 -12979505.79747 -10077374.91845  23010089.1644                   23010084.6254
        45.2504         32.2504
 -11012872.94147  -8652576.58646  22640744.7974                   22640745.7974
        43.5004         40.2504
  16455415.61746  12864697.08243  24403180.6254                   24403182.7074
        36.5004         20.7504
  11441303.50846   8960449.00044  23033865.4064                   23033864.2544
        40.7504         26.5004
 -12466700.65647  -9689698.68744  23014484.0004                   23014483.5044
        42.7504         28.7504
   3303562.46147   2474379.71946  22754097.8054                   22754098.0164
        43.5004         41.0004
   1688079.11746   1271661.82044  24288700.7114                   24288701.3714
        36.2504         28.5004
 -13894035.40648 -11009009.13348  20411693.7974                   20411692.0704
        51.7504         53.5004
  -1531668.43745  -1169612.27344  24885058.2974                   24885063.3404
        35.0004         26.0004
 25  7  1 22 18 30.0000000  0 10G10G02G08G18G23G28G27G24G32G31
  -2421530.04348  -1948183.30548  21168387.7504                   21168386.2034
        50.0004         50.5004
 -13066616.65647 -10145253.44545  22993512.3754                   22993507.4454
        45.5004         32.5004
 -10992136.48847  -8636418.35546  22644691.2504                   22644691.8244
        43.2504         39.5004
  16554137.43446  12941622.84043  24421967.0864                   24421969.4654
        37.5004         22.2504
  11498888.18047   9005320.09844  23044823.1954                   23044821.8954
        42.0004         28.0004
 -12569310.70347  -9769654.43444  22994958.1644                   22994957.1484
        43.0004         29.2504
   3374983.15247   2530032.12146  22767688.4844                   22767688.7734
        43.5004         41.2504
   1762605.15245   1329734.01244  24302882.2894                   24302883.6214
        35.5004         28.0004
 -13891892.35548 -11007339.21548  20412101.8284                   20412099.8674
        51.0004         53.2504
  -1648605.84845  -1260732.01244  24862806.2194                   24862810.6684
        33.0004         27.0004
 25  7  1 22 19  0.0000000  0 10G10G02G08G18G23G28G27G24G32G31
  -2411448.56648  -1940327.61348  21170306.0234                   21170304.8014
        49.7504         50.5004
 -13153533.55547 -10212980.83245  22976972.7034                   22976968.1994
        45.2504         32.5004
 -10970921.02047  -8619886.86746  22648728.2894                   22648729.2734
        43.5004         39.7504
  16653024.17646  13018677.12143  24440784.6254                   24440786.9384
        37.5004         21.5004
  11556570.55546   9050267.31344  23055800.7814                   23055799.1764
        41.7504         27.2504
 -12671748.57847  -9849476.03144  22975464.5394                   22975463.4104
        43.5004         28.2504
   3446671.02047   2585892.71146  22781330.3674                   22781330.8634
        43.5004         41.5004
   1837556.18445   1388137.35944  24317144.7424                   24317146.2424
        35.5004         27.5004
 -13889322.97348 -11005337.09448  20412590.9454                   20412588.8554
        51.2504         53.5004
  -1765661.41846  -1351943.80544  24840531.5634                   24840535.8284
        36.2504         27.5004
 25  7  1 22 19 30.0000000  0 10G10G02G08G18G23G28G27G24G32G31
  -2401219.41448  -1932356.85248  21172252.4454                   21172251.2344
        50.5004         50.2504
 -13240256.79747 -10280557.31645  22960469.8054                   22960464.8444
        45.0004         33.0004
 -10949230.41447  -8602985.13746  22652855.6954                   22652856.6804
        44.0004         40.2504
  16752071.89146  13095856.82443  24459633.1254                   24459635.3754
        37.0004         20.2504
  11614348.69947   9095289.18044  23066795.7974                   23066793.7934
        42.7504         27.5004
 -12774013.49647  -9929162.86744  22956003.9844                   22956003.1724
        43.5004         28.7504
   3518620.66047   2641957.27046  22795021.8054                   22795022.2274
        43.0004         40.7504
   1912927.41845   1446868.12144  24331488.6024                   24331489.2114
        35.5004         28.0004
 -13886330.77048 -11003005.50048  20413160.2114                   20413158.2934
        51.0004         53.2504
  -1882834.53545  -1443247.21944  24818232.5084                   24818237.4144
        35.0004         27.5004
 25  7  1 22 20  0.0000000  0 10G10G02G08G18G23G28G27G24G32G31
  -2390842.69948  -1924271.11748  21174227.2584                   21174225.8324
        49.7504         50.2504
 -13326784.72747 -10347981.60545  22944003.5944                   22943999.5204
        46.0004         31.5004
 -10927066.76647  -8585714.79746  22657073.4384                   22657074.2504
        44.5004         40.0004
  16851278.36346  13173160.27343  24478511.3754                   24478513.8674
        37.7504         20.0004
  11672222.38747   9140385.47744  23077808.5394                   23077806.7274
        42.7504         29.0004
 -12876102.68747 -10008712.77744  22936577.2344                   22936575.9804
        44.2504         29.0004
   3590828.75447   2698223.22746  22808762.4774                   22808763.4774
        43.0004         40.0004
   1988715.85545   1505923.97744  24345909.2894                   24345911.3594
        34.2504         27.7504
 -13882917.42648 -11000345.75048  20413809.8984                   20413807.8984
        51.5004         53.2504
  -2000122.89146  -1534640.40244  24795913.7894                   24795918.4454
        36.2504         27.7504
 25  7  1 22 20 30.0000000  0 10G10G02G08G18G23G28G27G24G32G31
  -2380314.98048  -1916067.70348  21176230.4844                   21176229.1024
        51.0004         50.5004
 -13413112.02747 -10415249.57445  22927576.1804                   22927571.5704
        45.2504         32.0004
 -10904428.81247  -8568074.87546  22661381.6724                   22661381.9614
        44.0004         40.0004
  16950644.91046  13250588.45343  24497420.5164                   24497422.8524
        38.0004         19.2504
  11730194.88347   9185558.78544  23088840.0394                   23088838.3874
        42.5004         28.5004
 -12978009.97347 -10088120.94544  22917184.3524                   22917183.8404
        44.0004         29.2504
   3663295.31647   2754690.57446  22822552.5784                   22822553.6134
        43.5004         40.5004
   2064921.96545   1565305.29344  24360412.1414                   24360413.1764
        34.0004         28.0004
 -13879081.10948 -10997356.41048  20414539.6484                   20414537.4494
        51.7504         53.2504
  -2117521.04346  -1626119.16444  24773573.5784                   24773577.5354
        36.5004         28.5004
 25  7  1 22 21  0.0000000  0 10G10G02G08G18G23G28G27G24G32G31
  -2369639.76248  -1907749.36348  21178262.1954                   21178260.8244
        50.5004         50.2504
 -13499240.40647 -10482362.53945  22911186.2664                   22911181.7894
        45.5004         32.5004
 -10881322.10247  -8550069.68746  22665778.7584                   22665779.4224
        44.5004         40.0004
  17050165.95346  13328137.02043  24516358.6954                   24516361.3714
        38.5004         19.2504
  11788262.55547   9230806.26244  23099889.7734                   23099888.4614
        42.5004         27.7504
 -13079736.09847 -10167387.93744  22897826.7814                   22897825.8404
        43.7504         29.0004
   3736013.46146   2811353.97746  22836390.5634                   22836391.0824
        41.5004         40.5004
   2141539.41445   1625007.12544  24374991.6564                   24374992.7274
        33.5004         28.0004
 -13874826.92248 -10994041.45348  20415349.3594                   20415347.4104
        51.5004         53.2504
  -2235030.11746  -1717684.36744  24751211.0394                   24751216.0274
        38.0004         28.5004
 25  7  1 22 21 30.0000000  0 10G10G02G08G18G23G28G27G24G32G31
  -2358813.58648  -1899313.39148  21180322.3984                   21180320.8164
        50.5004         50.5004
 -13585164.42247 -10549316.25845  22894835.8204                   22894830.6174
        45.2504         31.5004
 -10857745.36347  -8531698.25846  22670265.0084                   22670265.8524
        44.5004         39.5004
  17149842.73846  13405806.91843  24535327.3364                   24535329.5554
        40.2504         19.5004
  11846428.67247   9276130.43844  23110958.8444                   23110956.9184
        43.2504         27.5004
 -13181274.85947 -10246508.94144  22878504.4534                   22878503.6604
        42.7504         28.5004
   3808983.27347   2868213.46946  22850275.8914                   22850276.9104
        42.5004         40.2504
   2218568.77045   1685029.90644  24389649.7664                   24389650.9264
        34.5004         28.2504
 -13870153.11748 -10990399.52348  20416238.9534                   20416236.8324
        51.7504         53.2504
  -2352644.35946  -1809331.52344  24728830.2114                   24728834.4064
        38.0004         28.7504
 25  7  1 22 22  0.0000000  0 10G10G02G08G18G23G28G27G24G32G31
  -2347833.26648  -1890757.30548  21182411.3594                   21182410.5784
        50.2504         50.5004
 -13670879.37147 -10616107.07845  22878524.4304                   22878519.9304
        45.0004         32.2504
 -10833697.41847  -8512959.64846  22674841.6644                   22674841.8984
        44.2504         39.7504
  17249676.41446  13483599.06343  24554324.7114                   24554327.8164
        40.5004         20.5004
  11904696.36747   9321533.77044  23122046.9064                   23122045.4654
        43.0004         29.0004
 -13282620.28147 -10325479.28944  22859218.8134                   22859217.7504
        43.5004         29.0004
   3882204.54346   2925268.91046  22864210.1334                   22864210.5984
        41.7504         39.5004
   2296010.32845   1745373.89844  24404386.3524                   24404387.6644
        35.0004         29.2504
 -13865058.05548 -10986429.34048  20417208.3134                   20417206.4264
        51.5004         53.2504
  -2470358.30946  -1901056.40244  24706429.6334                   24706433.9344
        38.5004         27.7504
 25  7  1 22 22 30.0000000  0 10G10G02G08G18G23G28G27G24G32G31
  -2336700.69948  -1882082.58648  21184530.3134                   21184528.6374
        50.7504         50.5004
 -13756385.23847 -10682734.96545  22862253.8054                   22862248.5394
        45.0004         31.2504
 -10809182.49247  -8493857.16446  22679506.3284                   22679506.9224
        43.2504         39.5004
  17349662.84846  13561510.25443  24573352.2734                   24573354.8954
        41.0004         20.0004
  11963063.48847   9367014.57844  23133153.4304                   23133152.3674
        43.2504         28.0004
 -13383771.52747 -10404298.34044  22839970.2034                   22839969.2234
        42.5004         29.0004
   3955671.98847   2982516.18046  22878190.5944                   22878191.2774
        42.0004         39.0004
   2373859.09445   1806035.19944  24419200.1174                   24419202.4264
        34.7504         29.5004
 -13859545.42248 -10982133.77748  20418257.2114                   20418255.4694
        51.5004         53.5004
  -2588171.72346  -1992858.77344  24684010.3054                   24684014.6564
        38.5004         27.0004
 25  7  1 22 23  0.0000000  0 10G10G02G08G18G23G28G27G24G32G31
  -2325414.78548  -1873288.37548  21186677.8054                   21186676.2584
        50.7504         50.2504
 -13841678.80947 -10749197.42645  22846022.5394                   22846018.0474
        43.2504         31.5004
 -10784201.54747  -8474391.53946  22684259.8364                   22684260.9104
        43.2504         39.0004
  17449801.07446  13639539.71543  24592407.3284                   24592410.6214
        40.0004         19.7504
  12021531.06647   9412573.67644  23144280.6484                   23144277.8714
        44.0004         28.2504
 -13484724.78947 -10482963.09444  22820759.9144                   22820758.6414
        42.5004         28.7504
   4029383.25047   3039953.43046  22892216.9844                   22892217.7304
        42.5004         39.7504
   2452113.32446   1867012.44945  24434091.8054                   24434093.6644
        36.0004         30.0004
 -13853615.69148 -10977513.20348  20419385.6024                   20419383.4734
        51.5004         53.5004
  -2706081.10946  -2084735.90244  24661572.7814                   24661576.4574
        39.0004         28.5004
 25  7  1 22 23 30.0000000  0 10G10G02G08G18G23G28G27G24G32G31
  -2313973.91048  -1864373.41048  21188854.9924                   21188853.5664
        51.0004         50.2504
 -13926756.86347 -10815491.94945  22829832.2894                   22829828.0744
        45.0004         31.7504
 -10758755.26647  -8454563.31246  22689102.0164                   22689103.1804
        43.7504         39.5004
  17550090.49246  13717686.99243  24611492.8204                   24611495.6804
        39.5004         21.2504
  12080100.50047   9458212.13744  23155425.3444                   23155423.5474
        43.7504         29.0004
 -13585475.64147 -10561470.13344  22801587.8364                   22801585.9104
        43.5004         28.0004
   4103336.47347   3097579.21546  22906289.7034                   22906290.6054
        42.2504         39.7504
   2530771.52346   1928304.50045  24449060.0784                   24449061.4494
        37.5004         30.7504
 -13847269.00848 -10972567.72748  20420593.1024                   20420591.1884
        51.2504         53.2504
  -2824082.57046  -2176684.75444  24639117.4534                   24639121.1644
        40.5004         28.5004
 25  7  1 22 24  0.0000000  0 10G10G02G08G18G23G28G27G24G32G31
   -726960.34848   -627739.48048  21490853.6644                   21490852.1214
        49.7504         49.7504
 -12436196.69147  -9654016.42245  23113476.2894                   23113472.1914
        44.0004         31.7504
  -9157428.55547  -7206776.33646  22993824.8284                   22993825.4414
        42.5004         39.0004
  19225943.69546  15023546.23443  24930397.3364                   24930400.4494
        38.5004         21.2504
  13714187.81347  10731526.87544  23466381.8754                   23466380.2584
        43.5004         27.2504
 -12110600.00847  -9412216.28544  23082246.1884                   23082245.8484
        43.2504         29.7504
   5752943.91847   4382987.50046  23220200.2814                   23220201.1724
        43.0004         39.0004
   4185246.37146   3217505.59845  24763895.8134                   24763897.4804
        37.7504         30.7504
 -12265089.22348  -9739700.35948  20721672.2974                   20721670.6334
        50.5004         53.2504
  -1366751.77046  -1041102.00044  24916438.2114                   24916441.9774
        40.0004         28.0004
 25  7  1 22 24 30.0000000  0 10G10G02G08G18G23G28G27G24G32G31
   -715215.75048   -618587.86348  21493088.7664                   21493087.2154
        50.0004         50.0004
 -12520844.63347  -9719975.78545  23097368.2664                   23097363.7584
        44.0004         31.5004
  -9131064.50047  -7186232.96946  22998841.5474                   22998842.6604
        42.7504         39.5004
  19326522.74646  15101919.17643  24949537.5314                   24949540.2544
        38.0004         19.7504
  13772954.30947  10777318.89544  23477565.1254                   23477563.3444
        43.0004         27.2504
 -12210944.19147  -9490406.43444  23063151.8444                   23063150.7774
        43.2504         29.0004
   5827364.68047   4440977.60546  23234361.2584                   23234363.0664
        42.5004         39.2504
   4264697.48446   3279415.48845  24779015.1094                   24779016.4924
        38.2504         30.7504
 -12257920.05548  -9734113.99248  20723036.2894                   20723034.4774
        51.2504         53.5004
  -1484936.66046  -1133193.79744  24893948.2734                   24893951.8674
        41.0004         28.5004
 25  7  1 22 25  0.0000000  0 10G10G02G08G18G23G28G27G24G32G31
   -703312.98048   -609312.97348  21495353.5234                   21495352.3284
        50.5004         50.0004
 -12605268.33647  -9785760.41845  23081303.0554                   23081298.9064
        45.0004         32.2504
  -9104238.66047  -7165329.76646  23003946.6484                   23003947.3794
        43.0004         39.0004
  19427249.68046  15180407.35943  24968704.8204                   24968708.1484
        37.0004         19.5004
  13831825.32447  10823192.34844  23488767.4454                   23488766.4774
        43.0004         27.5004
 -12311074.66847  -9568430.05145  23044097.5314                   23044096.5274
        43.0004         30.0004
   5902020.40647   4499150.80146  23248568.1954                   23248569.6174
        42.0004         40.0004
   4344546.85546   3341635.73045  24794210.3594                   24794211.1524
        39.0004         32.0004
 -12250335.88748  -9728204.23848  20724479.4614                   20724477.4964
        51.0004         53.5004
  -1603203.45746  -1225349.40244  24871442.8594                   24871445.3754
        40.5004         28.0004
 25  7  1 22 25 30.0000000  0 11G10G02G08G18G23G28G27G24G32G31G01
   -691250.88748   -599913.94548  21497648.9384                   21497647.4384
        49.7504         50.0004
 -12689465.00847  -9851368.16845  23065281.2894                   23065276.3554
        44.2504         32.2504
  -9076952.11747  -7144067.59046  23009139.3204                   23009140.0434
        42.2504         38.7504
  19528123.35546  15259009.84443  24987901.2034                   24987904.5944
        36.0004         19.2504
  13890801.95347  10869148.11344  23499990.6804                   23499988.9884
        42.5004         27.5004
 -12410987.49647  -9646284.09044  23025084.2584                   23025083.3914
        43.5004         29.2504
   5976908.69947   4557505.21146  23262819.5704                   23262820.4844
        43.0004         39.5004
   4424792.52346   3404164.76245  24809480.5634                   24809481.6684
        39.0004         31.7504
 -12242337.32848  -9721971.59848  20726001.8364                   20726000.0164
        51.2504         53.5004
  -1721548.74646  -1317566.16044  24848921.4694                   24848924.6844
        40.0004         26.7504
   1441252.19956   1157831.25852  25266520.3134                   25266520.9844
        37.2504         17.2504
 25  7  1 22 26  0.0000000  0 11G10G02G08G18G23G28G27G24G32G31G01
   -679039.90248   -590398.90648  21499972.5554                   21499971.1884
        48.2504         50.0004
 -12773443.44147  -9916805.85245  23049300.6094                   23049295.8674
        45.0004         33.0004
  -9049217.82047  -7122456.51246  23014417.0084                   23014417.6844
        42.0004         38.5004
  19629131.19146  15337716.85543  25007122.5234                   25007125.7664
        36.0004         19.0004
  13949873.45747  10915177.79744  23511231.5474                   23511229.9774
        43.0004         26.0004
 -12510690.47347  -9723974.59845  23006112.1564                   23006110.8634
        42.5004         30.5004
   6052015.74647   4616030.07446  23277111.9384                   23277112.7344
        42.7504         39.0004
   4505421.02746   3466992.11345  24824824.1024                   24824825.0164
        39.5004         31.2504
 -12233936.68748  -9715425.63748  20727600.2974                   20727598.4304
        50.0004         53.5004
  -1839980.57046  -1409850.35744  24826384.5704                   24826387.6414
        40.0004         26.7504
   1331156.74246   1072042.62142  25245569.9694                   25245571.0434
        37.5004         17.2504
 25  7  1 22 26 30.0000000  0 11G10G02G08G18G23G28G27G24G32G31G01
   -666693.64548   -580778.44948  21502321.8284                   21502320.4064
        48.0004         50.2504
 -12857215.28547  -9982082.53545  23033359.4224                   23033354.5004
        44.0004         32.5004
  -9021051.54347  -7100508.82846  23019776.6724                   23019777.6374
        44.0004         39.0004
  19730257.31345  15416516.05142  25026366.1564                   25026369.9344
        35.0004         17.7504
  14009026.09047  10961270.69144  23522488.3134                   23522486.3054
        42.2504         24.5004
 -12610194.46147  -9801510.05145  22987176.6564                   22987175.8364
        42.7504         30.7504
   6127324.41447   4674712.05146  23291442.6884                   23291443.8404
        42.5004         39.0004
   4586415.69546   3530104.80545  24840236.0634                   24840238.0124
        39.0004         31.7504
 -12225149.32048  -9708578.34048  20729272.6174                   20729270.6914
        49.2504         53.5004
  -1958510.54746  -1502211.03944  24803828.8524                   24803831.9694
        38.7504         28.2504
   1221037.18046    986235.21142  25224614.7114                   25224616.0824
        37.7504         17.7504
 25  7  1 22 27  0.0000000  0 11G10G02G08G18G23G28G27G24G32G31G01
   -654208.21948   -571049.55148  21504698.2274                   21504696.7544
        49.7504         50.2504
 -12940774.91847 -10047193.87545  23017458.5864                   23017453.8244
        44.0004         32.5004
  -8992451.91047  -7078223.46546  23025218.7664                   23025220.0704
        43.7504         38.7504
  19831503.39145  15495408.69943  25045632.7114                   25045636.8984
        35.0004         19.0004
  14068263.55947  11007429.69544  23533760.8364                   23533758.6914
        42.5004         24.7504
 -12709492.95347  -9878885.37545  22968280.7194                   22968279.4774
        44.0004         31.5004
   6202835.22347   4733551.53546  23305811.9614                   23305813.0514
        42.2504         38.5004
   4667777.37146   3593503.46145  24855719.8054                   24855720.5434
        38.5004         30.0004
 -12215973.18748  -9701428.10248  20731018.5864                   20731016.5824
        51.2504         53.5004
  -2077132.27346  -1594643.18444  24781256.7114                   24781258.9104
        37.0004         29.0004
   1110898.80946    900413.18443  25203656.1564                   25203656.7814
        38.0004         20.5004
 25  7  1 22 27 30.0000000  0 11G10G02G08G18G23G28G27G24G32G31G01
   -641580.09048   -561209.45348  21507100.8364                   21507099.5514
        50.2504         50.0004
 -13024116.89847 -10112135.60545  23001599.0394                   23001594.4774
        44.0004         32.2504
  -8963417.68747  -7055599.44946  23030744.0634                   23030745.1454
        44.0004         38.5004
  19932870.63745  15574395.75043  25064923.4304                   25064926.4104
        35.2504         19.0004
  14127589.23846  11053657.42643  23545049.8674                   23545047.7234
        41.7504         23.7504
 -12808579.60547  -9956095.63345  22949425.1094                   22949424.3014
        43.2504         31.0004
   6278548.17247   4792548.52346  23320219.4844                   23320220.5634
        42.7504         37.5004
   4749506.50846   3657188.46544  24871272.0554                   24871272.9454
        38.7504         29.0004
 -12206406.41048  -9693973.46148  20732839.1954                   20732837.2384
        51.2504         53.5004
  -2195839.83246  -1687142.19944  24758665.7894                   24758669.5274
        36.5004         28.0004
   1000746.62946    814580.41843  25182694.2974                   25182695.8524
        37.7504         19.5004
 25  7  1 22 28  0.0000000  0 11G10G02G08G18G23G28G27G24G32G31G01
   -628804.37148   -551254.35548  21509532.3674                   21509530.7774
        50.5004         50.2504
 -13107234.87547 -10176902.78945  22985781.8284                   22985777.4454
        44.7504         33.5004
  -8933946.40647  -7032634.87946  23036351.7734                   23036353.4454
        43.5004         38.5004
  20034361.75845  15653479.36343  25084236.3284                   25084240.2424
        35.5004         19.0004
  14187007.77046  11099957.52744  23556357.0474                   23556355.2974
        40.7504         24.0004
 -12907446.93447 -10033134.98845  22930611.4304                   22930609.4264
        43.5004         31.0004
   6354464.68847   4851704.14846  23334666.2894                   23334667.4574
        43.0004         38.7504
   4831604.87546   3721161.19544  24886894.7664                   24886895.4024
        39.5004         27.5004
 -12196446.09848  -9686212.17648  20734734.6334                   20734732.3914
        52.0004         53.5004
  -2314626.06246  -1779702.52344  24736061.2664                   24736064.8404
        37.0004         27.7504
    890586.98046    728741.83243  25161731.7274                   25161733.1414
        38.2504         21.5004
 25  7  1 22 28 30.0000000  0 11G10G02G08G18G23G28G27G24G32G31G01
   -615878.06248   -541181.91048  21511991.7734                   21511990.0744
        49.5004         50.0004
 -13190123.73447 -10241491.43745  22970008.6254                   22970003.8954
        45.0004         33.5004
  -8904037.52347  -7009329.31246  23042043.7274                   23042044.9104
        43.0004         38.0004
  20135977.50845  15732660.07443  25103573.7344                   25103578.1054
        34.5004         19.7504
  14246521.92246  11146332.11743  23567681.7584                   23567680.1844
        40.7504         22.7504
 -13006089.28547 -10109999.04745  22911840.1954                   22911838.9964
        43.7504         31.0004
   6430584.12147   4911017.89546  23349151.1174                   23349151.9964
        42.5004         38.5004
   4914072.32446   3785421.51644  24902587.3054                   24902588.5784
        39.5004         27.5004
 -12186091.03948  -9678143.28948  20736704.8914                   20736702.9184
        51.5004         53.2504
  -2433485.62946  -1872320.00844  24713442.9304                   24713445.5824
        37.2504         27.5004
    780424.32046    642900.90643  25140768.5164                   25140769.5744
        38.2504         21.2504
 25  7  1 22 29  0.0000000  0 11G10G02G08G18G23G28G27G24G32G31G01
   -602804.66848   -530994.86348  21514479.5164                   21514477.9144
        50.5004         50.0004
 -13272785.25847 -10305902.94145  22954278.4844                   22954273.9924
        45.0004         33.0004
  -8873697.05947  -6985687.45346  23047817.5554                   23047818.3484
        43.5004         38.2504
  20237712.09045  15811933.35542  25122933.1024                   25122936.9844
        34.7504         17.2504
  14306128.00846  11192778.35243  23579025.1484                   23579023.3404
        40.2504         22.7504
 -13104507.41847 -10186688.38345  22893110.8834                   22893110.2424
        43.7504         30.5004
   6506899.78547   4970484.53146  23363674.4384                   23363675.1684
        42.0004         38.5004
   4996902.23846   3849964.25844  24918350.4774                   24918350.7194
        39.7504         26.7504
 -12175346.69148  -9669771.06648  20738749.5314                   20738747.7734
        52.2504         53.5004
  -2552419.77046  -1964995.63744  24690810.3284                   24690813.2344
        37.7504         29.0004
    670256.51246    557055.96943  25119805.2504                   25119804.9344
        37.7504         21.2504
