     2.11           OBSERVATION DATA    G (GPS)             RINEX VERSION / TYPE
teqc  2019Feb25                         20250820 03:13:04UTCPGM / RUN BY / DATE
Linux 2.6.32-573.12.1.x86_64|x86_64|gcc -static|Linux 64|=+ COMMENT
BIT 2 OF LLI FLAGS DATA COLLECTED UNDER A/S CONDITION       COMMENT
35223550                                                    MARKER NAME
3550                                                        MARKER NUMBER
-Unknown-           -Unknown-                               OBSERVER / AGENCY
0220413522          TRIMBLE R7          2.32                REC # / TYPE / VERS
-Unknown-           TRM39105.00     NONE                    ANT # / TYPE
 -2412136.5076 -4554466.4587  3747244.8577                  APPROX POSITION XYZ
        0.0000        0.0000        0.0000                  ANTENNA: DELTA H/E/N
     1     1                                                WAVELENGTH FACT L1/2
     7    L1    L2    C1    P1    P2    S1    S2            # / TYPES OF OBSERV
    18                                                      LEAP SECONDS
 SNR is mapped to RINEX snr flag value [0-9]                COMMENT
  L1 & L2: min(max(int(snr_dBHz/6), 0), 9)                  COMMENT
  2025     8     6    23    46   30.0000000     GPS         TIME OF FIRST OBS
                                                            END OF HEADER
 25  8  6 23 46 30.0000000  0  6G01G02G03G04G31G16
    133777.72716                  22162923.664
        37.000
    137532.49456     65371.97853  24130851.0314                   24130854.8324
        38.7504         21.5004
    -41064.77058    -23696.14158  19893445.3754                   19893446.2774
        50.0004         50.5004
    -84865.48057    -47939.53555  21324049.6174                   21324049.4924
        44.0004         33.7504
    123235.98857     62628.17657  20972785.5164                   20972783.5394
        47.0004         45.0004
   -175714.91857   -100247.67253  22850905.4844                   22850906.7624
        42.5004         23.7504
 25  8  6 23 46 45.0000000  0  6G01G02G03G04G31G16
    172373.00057    106432.12555  22170267.9224                   22170268.4024
        46.0004         31.5004
    182090.66456     88053.65253  24139330.1954                   24139334.3954
        40.2504         21.7504
    -52579.12948    -32668.39548  19891254.7034                   19891255.0744
        50.0004         50.5004
   -108490.32447    -66348.50445  21319554.3054                   21319554.3324
        46.5004         33.5004
    158655.03548     90227.38747  20979525.6644                   20979523.7774
        48.0004         45.7504
   -225059.37547   -138697.82043  22841516.2274                   22841516.4694
        42.0004         22.7504
 25  8  6 23 47  0.0000000  0  7G01G02G03G04G28G31G16
    211019.69147    136546.38345  22177622.1644                   22177622.4804
        45.5004         30.0004
    226616.87546    122749.23043  24147804.2814                   24147807.0704
        40.5004         21.7504
    -63997.12548    -41565.53148  19889081.8364                   19889081.9804
        50.0004         50.0004
   -132109.63747    -84753.15245  21315059.9304                   21315059.5904
        46.5004         34.0004
    143172.98456     88833.15253  23587877.4844                   23587877.3524
        40.5004         22.0004
    194136.73847    117875.46947  20986277.8284                   20986275.2274
        47.7504         43.0004
   -274387.58247   -177135.34044  22832128.7194                   22832129.5824
        42.0004         24.0004
 25  8  6 23 47 15.0000000  0  8G01G02G03G04G28G31G16G26
    249726.18847    166707.25445  22184987.3754                   22184988.3594
        45.0004         30.7504
    271120.80556    144017.41053  24156272.6804                   24156276.2194
        39.5004         20.7504
    -75309.52348    -50380.39148  19886928.9924                   19886929.4264
        50.0004         50.0004
   -155714.35247   -103146.42645  21310568.0164                   21310567.5984
        47.0004         33.5004
    191754.88746    126689.17244  23597121.2814                   23597122.3164
        40.7504         25.5004
    229689.92247    145579.23447  20993043.2504                   20993041.0084
        47.7504         44.0004
   -323694.01657   -194555.73454  22822746.5864                   22822741.1954
        42.2504         28.5004
    -58402.64857    -41488.50456  21506363.1954                   21506365.2704
        45.7504         41.2504
 25  8  6 23 47 30.0000000  0  8G01G02G03G04G28G31G16G26
    288498.49247    196919.38345  22192365.6644                   22192366.9144
        45.2504         30.7504
    315608.64846    178683.10243  24164739.1954                   24164742.1524
        39.7504         22.0004
    -86509.69548    -59107.79748  19884797.4694                   19884797.8244
        50.0004         50.0004
   -179298.06647   -121523.34045  21306080.2034                   21306079.6724
        46.5004         34.0004
    240346.55146    164552.74243  23606368.1644                   23606368.5944
        38.7504         22.7504
    265320.48048    173343.28147  20999823.5234                   20999821.1524
        48.0004         43.7504
   -372963.91046   -232947.77044  22813370.8524                   22813371.7664
        41.5004         26.0004
    -73489.82047    -53244.73446  21503492.3284                   21503494.8134
        45.2504         41.5004
 25  8  6 23 47 45.0000000  0  8G01G02G03G04G28G31G16G26
    327340.68847    227185.97745  22199756.9064                   22199758.1024
        45.5004         30.5004
    360084.45746    213339.45743  24173202.8284                   24173205.5824
        39.7504         20.7504
    -97592.98448    -67744.12948  19882688.5944                   19882689.0394
        50.0004         50.0004
   -202856.29747   -139880.39545  21301596.9774                   21301596.4574
        47.0004         34.0004
    288952.19146    202427.23844  23615617.8444                   23615617.5744
        40.5004         24.5004
    301032.58248    201170.87547  21006619.3054                   21006617.2504
        48.0004         44.0004
   -422196.25447   -271310.58643  22804002.1724                   22804003.0514
        42.0004         23.7504
    -88444.51247    -64897.72346  21500646.5554                   21500649.0204
        45.0004         41.0004
 25  8  6 23 48  0.0000000  0  8G01G02G03G04G28G31G16G26
    366254.51247    257508.39845  22207162.1334                   22207163.0164
        45.0004         30.0004
    404550.08246    247987.87543  24181664.2344                   24181667.1684
        40.5004         21.5004
   -108557.13748    -76287.62948  19880602.1804                   19880602.4064
        49.7504         50.0004
   -226386.96947   -158215.96945  21297118.8674                   21297118.6804
        47.2504         33.2504
    337573.64546    240314.03143  23624869.6644                   23624869.9654
        39.2504         22.7504
    336828.04348    229063.42247  21013430.8674                   21013428.7344
        48.0004         43.5004
   -471388.69546   -309642.27343  22794641.1884                   22794641.7114
        41.2504         22.2504
   -103264.44147    -76445.70346  21497826.6884                   21497828.7344
        45.5004         41.0004
 25  8  6 23 48 15.0000000  0  8G01G02G03G04G28G31G16G26
    405241.87947    287888.11344  22214580.7194                   22214581.7464
        44.7504         29.5004
    449007.37146    282629.80543  24190123.4694                   24190126.7704
        38.5004         21.0004
   -119399.64548    -84736.33648  19878538.7814                   19878539.2974
        49.5004         50.0004
   -249887.66847   -176528.19145  21292647.2664                   21292646.9414
        46.5004         34.5004
    386212.96546    278214.73844  23634126.7424                   23634125.8284
        41.2504         24.0004
    372708.92647    257022.53547  21020258.6564                   21020256.3954
        47.2504         43.7504
   -520538.50047   -347940.76243  22785288.1414                   22785288.9494
        42.0004         22.5004
   -117947.09047    -87886.72346  21495031.9384                   21495034.7704
        45.7504         41.0004
 25  8  6 23 48 30.0000000  0  8G01G02G03G04G28G31G16G26
    444304.13347    318326.18044  22222014.3834                   22222015.5394
        45.0004         29.7504
    493457.67646    317266.23843  24198582.0474                   24198586.1024
        37.7504         19.0004
   -130118.59048    -93088.76248  19876499.0084                   19876499.2774
        49.5004         50.0004
   -273356.73847   -194815.76645  21288181.3754                   21288180.9614
        46.7504         33.5004
    434871.57046    316130.51644  23643385.2664                   23643385.5824
        40.2504         25.0004
    408676.52347    285049.22347  21027103.1644                   21027100.8094
        47.5004         43.7504
   -569643.49647   -386204.31644  22775943.9144                   22775944.6334
        42.0004         24.7504
   -132490.56247    -99219.28146  21492264.9064                   21492267.3164
        45.7504         41.0004
 25  8  6 23 48 45.0000000  0  8G01G02G03G04G28G31G16G26
    483442.31347    348823.42245  22229461.7974                   22229462.9774
        45.0004         30.0004
    537902.15646    351898.08643  24207039.0784                   24207044.0824
        38.2504         19.5004
   -140712.36748   -101343.65248  19874483.0704                   19874483.6844
        49.7504         50.2504
   -296792.71947   -213077.56645  21283721.5084                   21283720.9534
        47.0004         33.7504
    483550.64146    354062.21544  23652648.5004                   23652649.1604
        40.0004         24.0004
    444731.85548    313144.26247  21033964.7974                   21033961.9104
        48.7504         43.7504
   -618701.86347   -424431.53543  22766608.1954                   22766609.1254
        42.5004         22.5004
   -146893.24247   -110442.13746  21489524.3134                   21489526.6524
        45.5004         41.2504
 25  8  6 23 49  0.0000000  0  8G01G02G03G04G28G31G16G26
    522656.87547    379380.16445  22236924.5944                   22236925.7304
        44.7504         30.0004
    582341.25846    386525.69943  24215496.6414                   24215501.4384
        38.7504         20.5004
   -151179.94548   -109500.21148  19872491.3754                   19872491.3874
        49.5004         50.0004
   -320194.76247   -231312.91045  21279267.9844                   21279267.8874
        46.2504         34.0004
    532250.77746    392010.32444  23661914.8054                   23661916.5394
        38.7504         24.7504
    480875.55548    341308.17247  21040842.4614                   21040839.6484
        48.0004         43.5004
   -667712.28947   -462621.42243  22757282.4304                   22757282.9104
        42.0004         23.5004
   -161154.08647   -121554.47346  21486810.3914                   21486812.9694
        45.0004         41.2504
 25  8  6 23 49 15.0000000  0  8G01G02G03G04G28G31G16G26
    561947.37947    409996.10544  22244400.9304                   22244402.0354
        44.7504         29.5004
    626774.50446    421148.81343  24223953.6884                   24223957.0044
        39.0004         18.5004
   -161521.23048   -117558.35248  19870523.4694                   19870523.7734
        48.2504         50.2504
   -343562.89847   -249521.84045  21274821.2344                   21274820.8594
        45.7504         33.5004
    580971.59846    429974.53943  23671188.0704                   23671187.3874
        40.0004         22.5004
    517107.08647    369540.52047  21047736.8914                   21047734.5004
        47.0004         43.7504
   -716674.32447   -500773.57843  22747965.1414                   22747965.6094
        42.5004         22.7504
   -175272.95347   -132556.16846  21484123.8444                   21484125.7814
        45.5004         41.2504
 25  8  6 23 49 30.0000000  0  8G01G02G03G04G28G31G16G26
    601314.41847    440671.67645  22251892.8054                   22251893.6454
        45.0004         30.0004
    671202.62946    455767.97743  24232408.3914                   24232411.1684
        40.0004         19.7504
   -171735.04748   -125517.17248  19868579.9384                   19868580.3204
        50.0004         50.2504
   -366896.14547   -267703.57045  21270381.3984                   21270380.5594
        47.0004         34.0004
    629713.85546    467955.51243  23680462.5084                   23680462.6844
        39.2504         22.7504
    553427.23048    397841.90647  21054648.5394                   21054646.0824
        48.0004         43.5004
   -765586.64847   -538887.00844  22738656.8754                   22738657.8054
        42.0004         24.5004
   -189248.71947   -143446.36746  21481464.5864                   21481466.5554
        45.5004         41.5004
 25  8  6 23 49 45.0000000  0  8G01G02G03G04G28G31G16G26
    640758.39147    471407.17644  22259399.2114                   22259399.6954
        44.5004         29.2504
    715626.03946    490383.49643  24240861.4064                   24240865.0514
        40.0004         19.5004
   -181820.43448   -133375.91448  19866660.5784                   19866660.7624
        49.5004         50.2504
   -390193.69547   -285857.50445  21265948.0474                   21265947.5514
        47.2504         34.0004
    678478.02046    505953.51243  23689741.9064                   23689742.6254
        38.2504         23.2504
    589836.31347    426212.60247  21061577.0474                   21061574.7704
        47.0004         43.5004
   -814447.98047   -576960.69543  22729358.9454                   22729359.9184
        42.0004         22.0004
   -203080.39847   -154224.28546  21478832.2034                   21478834.4024
        45.2504         41.2504
 25  8  6 23 50  0.0000000  0  9G01G02G03G04G28G09G31G16G26
    680279.85247    502203.07045  22266919.7894                   22266920.3134
        44.5004         30.0004
    760045.44146    524995.92243  24249314.2344                   24249317.5514
        39.7504         20.0004
   -191776.22748   -141133.67248  19864766.0784                   19864766.5274
        49.0004         50.2504
   -413454.55147   -303982.83245  21261521.7344                   21261521.2544
        46.5004         34.5004
    727264.85546    543969.17643  23699025.8284                   23699026.3984
        38.5004         22.7504
   -114385.65255    -68699.78954  24000934.6564                   24000938.3914
        35.0004         29.2504
    626334.97347    454653.10247  21068522.1884                   21068520.0234
        46.2504         43.5004
   -863257.07847   -614993.69944  22720070.5784                   22720071.3714
        42.0004         24.5004
   -216766.83247   -164889.02346  21476227.8674                   21476229.9024
        44.5004         41.5004
 25  8  6 23 50 15.0000000  0  9G01G02G03G04G28G09G31G16G26
    719878.05147    533058.77045  22274454.7344                   22274455.8054
        44.5004         30.0004
    804460.05946    559604.58643  24257765.7894                   24257768.8794
        39.0004         20.0004
   -201602.70748   -148790.66848  19862896.3524                   19862896.6724
        49.7504         50.0004
   -436679.17247   -322079.92245  21257101.8674                   21257101.5044
        46.2504         33.5004
    776073.64546    582001.93843  23708315.0554                   23708314.9184
        41.0004         22.7504
   -153736.27345    -99362.53544  23993446.5704                   23993450.5594
        34.7504         29.0004
    662922.46147    483162.80947  21075484.8754                   21075482.6484
        47.5004         43.7504
   -912013.80546   -652985.88344  22710792.4384                   22710793.7894
        41.5004         24.2504
   -230308.26247   -175440.77746  21473651.0314                   21473653.0314
        45.2504         41.5004
 25  8  6 23 50 30.0000000  0  9G01G02G03G04G28G09G31G16G26
    759550.57447    563972.36744  22282004.5394                   22282005.3874
        44.2504         29.7504
    848867.59846    594207.66043  24266215.8594                   24266219.6174
        38.7504         19.0004
   -211301.65248   -156348.28948  19861050.5164                   19861051.0634
        48.7504         50.2504
   -459869.51647   -340150.31245  21252688.7274                   21252688.5594
        46.5004         34.0004
    824902.07446    620050.08244  23717606.2734                   23717606.0044
        39.5004         25.0004
   -193083.42645   -130022.57044  23985959.0234                   23985962.7544
        34.7504         29.2504
    699596.53948    511740.00447  21082463.6414                   21082461.0944
        48.0004         43.5004
   -960719.87146   -690938.58643  22701524.0474                   22701524.7384
        41.0004         23.7504
   -243706.52047   -185880.95746  21471101.4304                   21471103.4694
        45.2504         41.5004
 25  8  6 23 50 45.0000000  0  9G01G02G03G04G28G09G31G16G26
    799298.09847    594944.41845  22289567.7974                   22289568.6994
        44.0004         30.0004
    893268.58246    628805.56643  24274665.0554                   24274669.5514
        39.2504         19.5004
   -220871.90248   -163805.62948  19859229.4614                   19859229.5314
        49.2504         50.0004
   -483024.50847   -358193.15645  21248282.8134                   21248282.1054
        45.7504         33.5004
    873751.06646    658114.17244  23726900.8204                   23726901.6914
        38.7504         24.5004
   -232426.17646   -160679.18445  23978472.3914                   23978476.1414
        36.2504         30.7504
    736357.71548    540385.05147  21089458.9774                   21089456.4774
        48.5004         43.2504
  -1009373.70747   -728850.57443  22692265.4694                   22692265.9614
        42.0004         22.5004
   -256960.34447   -196208.60246  21468579.2194                   21468580.9614
        46.0004         41.5004
 25  8  6 23 51  0.0000000  0  9G01G02G03G04G28G09G31G16G26
    839120.69947    625974.96144  22297146.4614                   22297146.6094
        44.2504         29.7504
    937663.38346    663398.74243  24283112.6024                   24283118.6254
        37.5004         20.5004
   -230312.70748   -171162.09848  19857432.7664                   19857433.2504
        48.7504         50.2504
   -506143.62947   -376208.05145  21243883.1094                   21243882.7384
        46.0004         34.0004
    922620.71146    696194.36343  23736201.1564                   23736201.5904
        38.7504         22.5004
   -271763.82846   -191331.82044  23970987.0474                   23970990.8594
        36.5004         29.5004
    773206.42647    569098.31647  21096471.1484                   21096468.5784
        47.7504         43.5004
  -1057974.29747   -766721.10243  22683017.0474                   22683017.8284
        42.7504         23.2504
   -270069.08647   -206423.19546  21466085.0314                   21466086.7424
        46.2504         41.5004
 25  8  6 23 51 15.0000000  0  9G01G02G03G04G28G09G31G16G26
    879018.44547    657064.06644  22304737.7974                   22304738.9654
        44.5004         29.5004
    982052.13746    697987.25043  24291559.6884                   24291565.1054
        37.2504         20.2504
   -239623.53148   -178417.28548  19855661.0394                   19855661.5744
        49.2504         50.2504
   -529226.45347   -394194.64845  21239490.7504                   21239490.1604
        46.0004         34.5004
    971511.29346    734290.88743  23745504.4064                   23745505.2584
        37.5004         22.7504
   -311096.18446   -221980.32444  23963501.5004                   23963505.5004
        38.0004         29.2504
    810142.63747    597879.75447  21103499.6254                   21103497.5204
        47.7504         43.5004
  -1106520.85247   -804549.50443  22673779.5634                   22673779.3714
        42.5004         23.7504
   -283032.15247   -216524.27346  21463617.8054                   21463619.6724
        45.5004         41.7504
 25  8  6 23 51 30.0000000  0  9G01G02G03G04G28G09G31G16G26
    918990.26247    688210.87944  22312344.7974                   22312345.5124
        44.2504         29.7504
   1026433.48446    732569.98443  24300004.7734                   24300010.2934
        36.7504         19.2504
   -248804.85248   -185571.55948  19853913.9844                   19853914.4734
        49.0004         50.2504
   -552273.62147   -412153.46545  21235105.0634                   21235104.6254
        45.0004         34.2504
   1020421.76646    772402.87143  23754812.5004                   23754812.3874
        39.2504         23.7504
   -350423.79746   -252625.15245  23956018.7974                   23956021.7624
        37.5004         30.0004
    847165.23848    626728.52347  21110545.3444                   21110542.9144
        48.0004         43.5004
  -1155013.65246   -842336.05544  22664550.0864                   22664551.8984
        41.2504         24.5004
   -295850.04347   -226512.21946  21461179.0004                   21461180.7114
        46.5004         41.5004
 25  8  6 23 51 45.0000000  0  9G01G02G03G04G28G09G31G16G26
    959035.78947    719415.12945  22319965.0784                   22319966.1414
        44.7504         30.0004
   1070807.35945    767146.91842  24308449.0634                   24308454.3794
        35.2504         17.7504
   -257856.44148   -192624.74248  19852191.2664                   19852191.7504
        49.2504         50.2504
   -575285.11747   -430084.49245  21230725.8204                   21230725.7034
        46.5004         34.5004
   1069351.98846    810530.30144  23764123.0704                   23764123.7974
        38.7504         25.0004
   -389746.57046   -283266.19145  23948535.2034                   23948538.7974
        37.5004         30.0004
    884274.03947    655644.44947  21117606.9064                   21117604.3594
        47.0004         43.5004
  -1203452.19546   -880080.28143  22655332.7814                   22655333.8634
        41.5004         23.5004
   -308522.51647   -236386.86746  21458767.6174                   21458769.1684
        46.2504         41.5004
 25  8  6 23 52  0.0000000  0  8G01G03G04G28G09G31G16G26
    999154.51647    750676.43044  22327599.6414                   22327600.7814
        44.2504         29.0004
   -266778.30548   -199576.84848  19850493.4454                   19850494.0984
        48.5004         50.2504
   -598261.02047   -447987.77745  21226353.4144                   21226352.9454
        45.0004         34.5004
   1118301.46546    848672.70344  23773438.1484                   23773438.5864
        39.7504         24.7504
   -429064.73846   -313903.64545  23941053.1564                   23941056.6254
        37.5004         31.0004
    921468.52047    684627.13747  21124684.4454                   21124682.0474
        46.2504         43.5004
  -1251836.21547   -917782.03944  22646126.2504                   22646126.7034
        42.0004         25.2504
   -321049.59847   -246148.21146  21456383.4224                   21456385.2504
        46.2504         41.5004
 25  8  6 23 52 15.0000000  0  8G01G03G04G28G09G31G16G26
   1039347.30547    781995.43444  22335248.4064                   22335248.7194
        44.0004         29.5004
   -275569.00047   -206426.73448  19848820.7584                   19848821.2344
        47.7504         50.2504
   -621200.06247   -465862.34445  21221988.8674                   21221988.1954
        44.7504         34.5004
   1167271.32846    886830.98043  23782756.7894                   23782757.5044
        38.7504         23.7504
   -468376.96146   -344536.46945  23933571.9454                   23933576.1804
        37.0004         30.2504
    958749.58647    713677.30147  21131779.0634                   21131776.8594
        47.0004         43.2504
  -1300164.04746   -955440.02744  22636929.0704                   22636930.3754
        41.7504         24.5004
   -333429.79347   -255795.10947  21454027.3054                   21454029.6484
        46.7504         42.0004
 25  8  6 23 52 30.0000000  0  8G01G03G04G28G09G31G16G26
   1079614.32847    813372.28544  22342910.7194                   22342911.9494
        44.5004         29.5004
   -284227.80148   -213173.85248  19847172.8134                   19847173.6054
        49.0004         50.2504
   -644101.67247   -483707.73845  21217630.9614                   21217630.1524
        46.2504         33.5004
   1216261.82046    925005.34844  23792080.1254                   23792080.3984
        38.7504         24.0004
   -507682.73846   -375164.27045  23926092.9144                   23926096.0234
        37.7504         30.5004
    996117.52747    742795.16047  21138889.4694                   21138887.1884
        46.5004         43.5004
  -1348434.64547   -993053.42244  22627744.0704                   22627744.4964
        42.2504         25.7504
   -345662.42647   -265327.01246  21451699.8444                   21451701.7194
        46.5004         41.7504
 25  8  6 23 52 45.0000000  0  8G01G03G04G28G09G31G16G26
   1119954.43447    844806.07844  22350587.1334                   22350588.4264
        43.7504         29.0004
   -292755.30548   -219818.66048  19845550.0314                   19845550.6294
        48.2504         50.2504
   -666966.62147   -501524.56645  21213279.8674                   21213278.8054
        45.2504         34.5004
   1265271.81646    963194.90644  23801405.7114                   23801405.9024
        40.0004         24.0004
   -546982.79746   -405787.61745  23918613.3284                   23918617.1724
        38.0004         30.0004
   1033571.16047    771979.78547  21146016.6644                   21146014.8324
        47.2504         43.5004
  -1396648.42647  -1030622.54343  22618569.1804                   22618569.9384
        42.0004         22.5004
   -357748.07047   -274744.38746  21449400.0004                   21449401.7424
        46.5004         41.7504
 25  8  6 23 53  0.0000000  0  8G01G03G04G28G09G31G16G26
   1160367.71147    876296.89144  22358277.4144                   22358278.6764
        44.0004         29.2504
   -301150.84448   -226360.64548  19843952.9224                   19843953.1524
        49.2504         50.0004
   -689794.37547   -519312.40645  21208935.7274                   21208934.8874
        46.5004         35.0004
   1314301.61746   1001399.90643  23810736.6334                   23810736.7194
        40.2504         22.5004
   -586276.66846   -436406.14145  23911136.5704                   23911139.6604
        37.5004         30.2504
   1071110.71547    801231.37147  21153160.4774                   21153158.0084
        47.0004         43.0004
  -1444804.52046  -1068146.69544  22609404.8444                   22609405.7544
        41.0004         24.5004
   -369686.12147   -284046.75046  21447127.8834                   21447130.4024
        46.2504         41.7504
 25  8  6 23 53 15.0000000  0  8G01G03G04G28G09G31G16G26
   1200854.53147    907845.01244  22365982.1484                   22365983.0204
        44.0004         29.5004
   -309413.52048   -232799.09048  19842380.2424                   19842380.8714
        49.5004         50.2504
   -712584.17247   -537070.67645  21204598.9304                   21204598.0004
        46.0004         34.0004
   1363351.78946   1039620.78543  23820070.2424                   23820070.7114
        40.5004         23.7504
   -625563.55946   -467019.23844  23903660.5554                   23903663.9384
        37.5004         29.7504
   1108736.49247    830550.13747  21160320.7664                   21160317.8324
        47.0004         43.5004
  -1492901.60247  -1105624.85943  22600252.2034                   22600253.1094
        42.0004         22.7504
   -381475.60547   -293233.34846  21444884.5084                   21444886.2384
        46.7504         41.7504
 25  8  6 23 53 30.0000000  0  8G01G03G04G28G09G31G16G26
   1241413.71947    939449.51244  22373700.3284                   22373701.1334
        43.7504         28.5004
   -317543.97348   -239134.50848  19840833.1334                   19840833.5634
        49.7504         50.2504
   -735336.78147   -554799.96145  21200269.4304                   21200268.4224
        46.7504         33.2504
   1412421.20346   1077856.65643  23829408.0784                   23829407.8674
        39.5004         22.7504
   -664844.22746   -497627.47745  23896185.9224                   23896188.7624
        38.5004         30.0004
   1146447.40647    859935.24647  21167496.8284                   21167494.3914
        46.2504         43.5004
  -1540940.07047  -1143057.37544  22591111.4384                   22591111.9144
        42.2504         24.2504
   -393117.18447   -302304.69546  21442669.2894                   21442671.4224
        46.7504         41.7504
 25  8  6 23 53 45.0000000  0  8G01G03G04G28G09G31G16G26
   1282045.16847    971110.32444  22381431.9144                   22381433.2734
        44.0004         29.2504
   -325541.69548   -245366.49648  19839311.3594                   19839311.6484
        48.7504         50.2504
   -758051.88747   -572500.02745  21195946.3524                   21195946.0514
        45.7504         33.2504
   1461509.89846   1116107.56343  23838748.5634                   23838749.4964
        38.2504         22.5004
   -704118.45746   -528230.71144  23888711.9144                   23888715.1684
        37.0004         29.2504
   1184243.37547    889386.63347  21174689.0864                   21174686.9144
        47.0004         43.2504
  -1588919.40246  -1180443.81644  22581979.9924                   22581981.1294
        41.7504         24.5004
   -404610.38347   -311260.41846  21440481.9534                   21440483.9144
        45.7504         41.7504
 25  8  6 23 54  0.0000000  0  8G01G03G04G28G09G31G16G26
   1322748.50847   1002827.15644  22389177.8984                   22389178.7424
        44.0004         29.2504
   -333406.59048   -251494.98848  19837814.7344                   19837815.3094
        48.7504         50.2504
   -780729.48447   -590170.86345  21191631.3204                   21191630.6414
        45.7504         34.2504
   1510617.64846   1154373.28143  23848093.6724                   23848094.0314
        40.0004         22.7504
   -743386.16046   -558828.85244  23881239.3204                   23881242.5274
        38.0004         29.2504
   1222124.13347    918904.08247  21181897.4534                   21181895.3554
        47.0004         43.5004
  -1636838.94547  -1217783.64144  22572861.7584                   22572862.6374
        42.2504         25.0004
   -415955.07447   -320100.43047  21438323.3134                   21438325.1374
        46.5004         42.0004
 25  8  6 23 54 15.0000000  0  8G01G03G04G28G09G31G16G26
   1363522.91047   1034599.35544  22396936.9694                   22396938.0004
        43.5004         29.5004
   -341138.84448   -257520.12148  19836343.5634                   19836343.5634
        49.5004         50.2504
   -803369.92247   -607812.74645  21187322.6724                   21187322.4264
        46.7504         34.5004
   1559743.77746   1192653.35544  23857441.8524                   23857442.5984
        39.0004         24.0004
   -782647.77046   -589422.25044  23873768.0864                   23873771.3674
        38.5004         28.5004
   1260089.00047    948487.08247  21189121.8524                   21189119.8794
        47.2504         43.5004
  -1684698.49246  -1255076.73444  22563754.2584                   22563755.3524
        41.5004         25.5004
   -427151.48447   -328824.88746  21436192.5634                   21436194.7114
        46.5004         41.7504
 25  8  6 23 54 30.0000000  0  8G01G03G04G28G09G31G16G26
   1404368.20347   1066426.81344  22404710.0234                   22404710.5204
        43.5004         28.7504
   -348738.09448   -263441.61348  19834897.0784                   19834897.3874
        49.7504         50.2504
   -825972.98847   -625425.50445  21183021.5164                   21183021.6214
        46.5004         34.7504
   1608888.25446   1230947.71543  23866794.2274                   23866794.6764
        40.0004         22.2504
   -821903.06646   -620010.72344  23866298.0394                   23866301.3244
        37.7504         27.0004
   1298137.72347    978135.41847  21196362.5164                   21196360.2464
        47.2504         43.2504
  -1732497.81647  -1292322.89844  22554658.7734                   22554658.7894
        42.0004         25.2504
   -438199.25047   -337433.52346  21434090.4844                   21434092.4384
        46.0004         41.5004
 25  8  6 23 54 45.0000000  0  8G01G03G04G28G09G31G16G26
   1445284.10247   1098309.27044  22412496.1724                   22412496.5204
        44.2504         29.0004
   -356204.17248   -269259.34448  19833476.4614                   19833476.7114
        49.0004         50.2504
   -848538.56647   -643009.05545  21178727.4614                   21178727.0204
        45.7504         34.5004
   1658050.95746   1269256.25043  23876150.2034                   23876149.5164
        39.7504         23.5004
   -861151.93446   -650594.20344  23858829.2344                   23858832.1564
        37.0004         28.2504
   1336270.15247   1007848.98047  21203618.9454                   21203616.4774
        47.5004         43.5004
  -1780236.38746  -1329521.73043  22545573.5944                   22545574.5514
        41.5004         23.0004
   -449098.11347   -345926.13346  21432016.6024                   21432018.5824
        46.7504         41.7504
 25  8  6 23 55  0.0000000  0  8G01G03G04G28G09G31G16G26
   1486270.78147   1130246.88344  22420294.9614                   22420296.2424
        44.2504         29.2504
   -363536.18748   -274972.60248  19832080.9844                   19832081.5664
        49.5004         50.2504
   -871066.07047   -660562.93445  21174440.3984                   21174440.1484
        45.5004         34.2504
   1707232.14146   1307579.23844  23885508.3914                   23885509.0784
        40.0004         24.0004
   -900393.78146   -681172.20344  23851362.1954                   23851364.9694
        37.5004         27.0004
   1374486.47747   1037627.92247  21210891.3674                   21210889.0274
        46.7504         43.2504
  -1827912.94947  -1366672.22343  22536502.1954                   22536502.4614
        42.2504         23.5004
   -459847.32847   -354302.13346  21429971.0084                   21429972.6294
        46.2504         41.7504
 25  8  6 23 55 15.0000000  0  8G01G03G04G28G09G31G16G26
   1527327.29347   1162238.91844  22428107.8984                   22428109.0004
        43.5004         27.7504
   -370734.69948   -280581.83248  19830711.4924                   19830711.8094
        49.0004         50.2504
   -893556.04347   -678087.56645  21170160.4454                   21170160.0554
        44.5004         34.2504
   1756430.98046   1345915.94943  23894870.7894                   23894871.5084
        40.5004         22.5004
   -939629.18746   -711745.17644  23843895.8984                   23843898.5004
        37.0004         26.7504
   1412785.82847   1067471.55147  21218179.4534                   21218176.8834
        47.0004         43.0004
  -1875527.72746  -1403774.60244  22527440.5314                   22527441.1764
        40.5004         24.5004
   -470447.38747   -362561.90247  21427953.8444                   21427955.4224
        47.2504         42.0004
 25  8  6 23 55 30.0000000  0  8G01G03G04G28G09G31G16G26
   1568453.01247   1194284.87144  22435934.1334                   22435934.9924
        44.7504         28.5004
   -377799.70748   -286087.03948  19829366.9924                   19829367.2074
        50.0004         50.2504
   -916008.70347   -695583.12545  21165888.0314                   21165887.6054
        45.7504         34.5004
   1805647.02346   1384266.10544  23904236.1564                   23904236.5664
        40.2504         24.2504
   -978858.35246   -742313.28944  23836430.0314                   23836432.9454
        36.7504         26.0004
   1451167.61747   1097379.42647  21225483.4454                   21225480.6294
        47.2504         43.0004
  -1923080.64546  -1440828.73844  22518391.7584                   22518391.5434
        41.5004         25.0004
   -480898.34047   -370705.48447  21425965.2114                   21425966.6844
        46.5004         42.0004
 25  8  6 23 55 45.0000000  0  8G01G03G04G28G09G31G16G26
   1609647.94147   1226384.75844  22443773.7274                   22443774.0984
        44.2504         28.0004
   -384730.67248   -291487.78948  19828048.4224                   19828048.4964
        49.2504         50.2504
   -938423.61347   -713049.27345  21161623.0394                   21161622.1294
        46.2504         34.0004
   1854880.42046   1422629.74443  23913603.8444                   23913605.5554
        39.0004         22.7504
  -1018080.90646   -772876.27344  23828966.1804                   23828969.1024
        37.2504         26.7504
   1489631.80547   1127351.50447  21232802.9224                   21232800.6564
        47.5004         43.0004
  -1970570.71547  -1477833.94944  22509354.3674                   22509354.9264
        42.0004         24.5004
   -491199.61347   -378732.44146  21424004.7194                   21424006.7544
        46.7504         41.7504
 25  8  6 23 56  0.0000000  0  8G01G03G04G28G09G31G16G26
   1650912.12947   1258538.61344  22451625.6334                   22451626.5634
        43.7504         29.5004
   -391526.97348   -296783.60948  19826754.7504                   19826754.7734
        48.2504         50.2504
   -960800.26647   -730485.60245  21157364.7664                   21157364.2854
        44.7504         34.2504
   1904131.38746   1461007.05543  23922977.0634                   23922977.5394
        39.5004         22.5004
  -1057296.39546   -803433.74244  23821504.0164                   23821506.4574
        37.0004         26.2504
   1528178.56347   1157387.92247  21240137.7344                   21240135.1954
        46.0004         43.0004
  -2017997.23047  -1514789.61744  22500329.5634                   22500330.0084
        42.2504         25.0004
   -501350.62947   -386642.30947  21422073.0474                   21422075.0164
        47.0004         42.0004
 25  8  6 23 56 15.0000000  0  8G01G03G04G28G09G31G16G26
   1692244.93847   1290745.94144  22459490.8204                   22459491.8714
        43.5004         28.5004
   -398188.78148   -301974.63348  19825487.0704                   19825487.4104
        48.5004         50.2504
   -983139.00047   -747892.38745  21153113.7194                   21153113.1484
        45.5004         34.5004
   1953399.31346   1499397.60243  23932352.5944                   23932353.0904
        40.0004         23.0004
  -1096505.05546   -833985.91044  23814042.3444                   23814045.2814
        36.7504         25.5004
   1566807.28147   1187488.20747  21247488.5394                   21247486.4024
        46.7504         43.5004
  -2065359.92246  -1551695.53944  22491316.9614                   22491317.2624
        41.5004         24.5004
   -511351.53547   -394435.21147  21420169.8444                   21420171.5354
        47.0004         42.0004
 25  8  6 23 56 30.0000000  0  8G01G03G04G28G09G31G16G26
   1733646.08647   1323006.52044  22467369.2344                   22467370.6844
        43.2504         27.5004
   -404715.76248   -307060.59848  19824244.8834                   19824245.5904
        48.7504         50.5004
  -1005439.56247   -765269.42645  21148870.0314                   21148869.4884
        45.5004         34.2504
   2002684.16846   1537801.37144  23941731.6174                   23941732.0164
        39.7504         24.7504
  -1135706.67646   -864532.57444  23806581.9774                   23806585.2154
        37.0004         27.0004
   1605517.96547   1217652.36747  21254854.5314                   21254852.8484
        46.2504         42.7504
  -2112658.27347  -1588551.34044  22482316.2974                   22482316.6804
        42.0004         25.5004
   -521202.02347   -402110.90246  21418295.0394                   21418297.2664
        46.2504         41.7504
 25  8  6 23 56 45.0000000  0  8G01G03G04G28G09G31G16G26
   1775115.22747   1355320.08644  22475261.1254                   22475261.9104
        44.2504         28.5004
   -411107.71948   -312041.34848  19823028.7194                   19823028.7464
        50.0004         50.2504
  -1027701.90647   -782616.69145  21144633.5704                   21144633.3954
        46.5004         35.0004
   2051985.75046   1576218.14843  23951113.4694                   23951113.4614
        40.0004         22.5004
  -1174901.28146   -895073.77344  23799124.3914                   23799126.8364
        37.7504         27.0004
   1644310.30547   1247880.14547  21262237.2114                   21262234.8404
        47.7504         43.0004
  -2159891.44546  -1625356.34844  22473327.6094                   22473328.4534
        41.5004         26.0004
   -530901.87947   -409669.22347  21416449.5554                   21416451.2974
        46.7504         42.0004
 25  8  6 23 57  0.0000000  0  8G01G03G04G28G09G31G16G26
   1816651.57847   1387686.01244  22483164.9614                   22483165.8634
        43.5004         28.5004
   -417364.94948   -316917.11348  19821838.0004                   19821838.5554
        49.5004         50.2504
  -1049926.49647   -799934.53145  21140404.3364                   21140403.9494
        45.5004         34.5004
   2101303.37146   1614647.41443  23960498.0944                   23960498.0234
        39.0004         22.7504
  -1214089.23446   -925609.78544  23791666.6804                   23791669.6994
        37.2504         27.0004
   1683183.32447   1278170.79347  21269634.0784                   21269631.6414
        46.0004         42.7504
  -2207059.66446  -1662110.76244  22464351.3984                   22464352.4184
        41.2504         25.5004
   -540451.44547   -417110.42647  21414632.1334                   21414634.3134
        46.7504         42.0004
 25  8  6 23 57 15.0000000  0  8G01G03G04G28G09G31G16G26
   1858254.93447   1420104.15244  22491081.9454                   22491082.8554
        44.5004         28.5004
   -423487.07048   -321687.60248  19820673.0554                   19820672.9774
        49.7504         50.2504
  -1072113.03947   -817222.72745  21136182.0944                   21136181.7504
        45.5004         34.5004
   2150637.01246   1653089.18443  23969886.5394                   23969885.8834
        39.7504         23.0004
  -1253270.34046   -956140.47344  23784211.3134                   23784213.8244
        38.5004         27.5004
   1722136.85247   1308524.17647  21277046.6884                   21277044.5944
        47.0004         42.5004
  -2254162.43447  -1698814.14144  22455388.2974                   22455389.1214
        42.2504         26.0004
   -549850.35947   -424434.24647  21412844.0164                   21412845.8954
        47.2504         42.0004
 25  8  6 23 57 30.0000000  0  8G01G03G04G28G09G31G16G26
   1899924.56647   1452573.93044  22499011.4774                   22499012.7894
        44.0004         29.0004
   -429474.28948   -326352.97348  19819533.5634                   19819533.9064
        50.0004         50.5004
  -1094261.82047   -834481.49245  21131967.6484                   21131967.1174
        46.0004         34.7504
   2199985.96946   1691542.89843  23979277.2194                   23979276.7114
        41.0004         23.2504
  -1292444.90646   -986666.05544  23776756.5864                   23776759.0634
        38.7504         28.0004
   1761170.33247   1338939.85947  21284474.6724                   21284472.5434
        46.7504         42.7504
  -2301199.76246  -1735466.56644  22446437.5004                   22446437.9694
        41.5004         25.7504
   -559098.79347   -431640.80147  21411083.8914                   21411085.6524
        46.5004         42.0004
 25  8  6 23 57 45.0000000  0  8G01G03G04G28G09G31G16G26
   1941660.30547   1485095.22744  22506953.3054                   22506954.4614
        43.5004         28.0004
   -435326.17648   -330912.88748  19818420.3444                   19818420.5664
        49.5004         50.5004
  -1116372.59447   -851710.65245  21127759.9774                   21127759.4454
        45.7504         35.0004
   2249350.41846   1730008.67643  23988670.3204                   23988671.1134
        40.5004         22.7504
  -1331612.68446  -1017186.35544  23769303.0004                   23769305.2504
        39.0004         28.0004
   1800283.62947   1369417.73847  21291917.3674                   21291915.5864
        46.5004         43.2504
  -2348170.82846  -1772067.32444  22437499.1954                   22437499.8134
        41.2504         25.7504
   -568196.37547   -438729.80947  21409352.3134                   21409354.2894
        45.7504         42.0004
 25  8  6 23 58  0.0000000  0  8G01G03G04G28G09G31G16G26
   1983460.83247   1517667.00844  22514908.0164                   22514908.7814
        43.5004         29.0004
   -441043.61348   -335368.03148  19817331.9774                   19817332.1604
        49.0004         50.2504
  -1138446.33647   -868910.95345  21123559.5784                   21123558.9694
        45.2504         34.5004
   2298729.04746   1768485.50843  23998066.3984                   23998067.6374
        40.0004         22.7504
  -1370774.60946  -1047702.09044  23761850.4064                   23761853.9774
        39.5004         28.0004
   1839475.48447   1399956.82847  21299375.6414                   21299373.2814
        47.2504         42.7504
  -2395076.14146  -1808616.87144  22428573.3054                   22428573.7424
        41.7504         25.5004
   -577143.98447   -445701.95747  21407649.9694                   21407651.7624
        46.7504         42.5004
 25  8  6 23 58 15.0000000  0  8G01G03G04G28G09G31G16G26
   2025324.92647   1550288.32444  22522874.6484                   22522875.4144
        43.7504         28.2504
   -446627.20748   -339718.89148  19816269.3134                   19816269.7934
        49.2504         50.5004
  -1160483.74247   -886082.94145  21119365.8914                   21119365.5474
        46.0004         34.5004
   2348120.82046   1806972.57043  24007465.6334                   24007465.9454
        40.5004         22.7504
  -1409931.50046  -1078213.90644  23754399.6334                   23754402.0634
        39.5004         29.7504
   1878744.83647   1430556.31347  21306847.9534                   21306846.0744
        46.7504         42.5004
  -2441916.01646  -1845115.42244  22419659.2734                   22419660.0514
        41.2504         26.0004
   -585942.25447   -452557.73847  21405975.7974                   21405977.5234
        46.5004         42.0004
 25  8  6 23 58 30.0000000  0  8G01G03G04G28G09G31G16G26
   2067254.54347   1582960.68844  22530853.1484                   22530854.5944
        43.7504         29.0004
   -452074.53948   -343963.57048  19815233.0314                   19815233.3284
        49.5004         50.5004
  -1182482.55547   -903224.84845  21115179.7584                   21115178.9804
        45.7504         35.2504
   2397527.85246   1845471.51243  24016867.6094                   24016868.2234
        40.5004         23.5004
  -1449080.99646  -1108719.95345  23746949.5084                   23746952.2424
        38.7504         30.2504
   1918093.54347   1461217.62147  21314336.1334                   21314334.3054
        46.5004         43.0004
  -2488687.70346  -1881560.82044  22410759.3834                   22410759.9924
        41.0004         26.5004
   -594588.71947   -459295.22747  21404330.7664                   21404332.1644
        46.2504         42.0004
 25  8  6 23 58 45.0000000  0  8G01G03G04G28G09G31G16G26
   2109246.94147   1615681.97744  22538844.5314                   22538845.9804
        44.0004         27.5004
   -457387.74648   -348103.73448  19814221.8524                   19814222.1174
        49.7504         50.5004
  -1204445.00047   -920338.42245  21111000.3674                   21110999.7934
        46.0004         35.2504
   2446947.57046   1883980.37143  24026271.2424                   24026271.9304
        41.2504         22.2504
  -1488225.37546  -1139222.02045  23739500.5004                   23739503.5124
        40.0004         31.7504
   1957519.01247   1491938.75447  21321838.4924                   21321836.3714
        46.5004         42.7504
  -2535393.19546  -1917954.65244  22401872.2194                   22401872.0234
        41.2504         26.0004
   -603085.58247   -465916.14547  21402713.0474                   21402715.0864
        46.7504         42.5004
 25  8  6 23 59  0.0000000  0  8G01G03G04G28G09G31G16G26
   2151303.24247   1648453.05944  22546847.0234                   22546848.6054
        43.7504         28.2504
   -462565.19148   -352138.10948  19813236.3524                   19813236.7584
        50.2504         50.5004
  -1226369.59447   -937422.50445  21106828.0864                   21106827.7384
        45.5004         34.5004
   2496381.14846   1922499.98443  24035679.3444                   24035679.5004
        41.0004         22.5004
  -1527363.19946  -1169718.96545  23732052.3594                   23732055.7274
        39.2504         31.5004
   1997022.35547   1522720.56647  21329355.8834                   21329353.9774
        46.7504         42.5004
  -2582030.56646  -1954295.40244  22392997.2114                   22392997.7274
        41.0004         26.5004
   -611431.23847   -472419.23847  21401124.9614                   21401127.0744
        46.2504         42.0004
 25  8  6 23 59 15.0000000  0  8G01G03G04G28G09G31G16G26
   2193422.33647   1681273.08644  22554862.0004                   22554863.9804
        43.5004         28.2504
   -467607.42648   -356067.12548  19812277.3364                   19812277.6994
        49.5004         50.5004
  -1248256.94947   -954477.57045  21102663.1484                   21102662.7774
        45.5004         34.7504
   2545827.75446   1961029.74244  24045088.2034                   24045089.1604
        41.0004         25.2504
  -1566495.08246  -1200211.30145  23724606.5164                   23724609.0514
        39.0004         31.7504
   2036602.60247   1553562.30547  21336887.5314                   21336886.0394
        46.5004         42.7504
  -2628600.05547  -1990583.23844  22384135.7734                   22384135.3444
        42.5004         26.2504
   -619626.21947   -478804.91847  21399566.1094                   21399567.5864
        46.2504         42.2504
 25  8  6 23 59 30.0000000  0  8G01G03G04G28G09G31G16G26
   2235603.32447   1714141.31644  22562889.1644                   22562890.3524
        43.7504         28.2504
   -472514.86748   -359891.10548  19811343.0394                   19811343.1724
        50.0004         50.5004
  -1270107.60547   -971504.02745  21098504.9384                   21098504.7464
        45.7504         35.2504
   2595286.59046   1999569.10944  24054499.1724                   24054500.6414
        40.5004         24.5004
  -1605621.58246  -1230699.43045  23717160.5704                   23717163.2584
        40.0004         32.5004
   2076258.82447   1584463.23447  21344434.4144                   21344431.9654
        46.2504         42.5004
  -2675101.76246  -2026818.31244  22375285.6174                   22375286.4884
        40.5004         26.2504
   -627670.99647   -485073.56647  21398034.4694                   21398036.8054
        46.5004         42.2504
 25  8  6 23 59 45.0000000  0  8G01G03G04G28G09G31G16G26
   2277846.09447   1747057.68844  22570928.3834                   22570929.2774
        43.2504         28.5004
   -477287.03948   -363609.68748  19810435.2114                   19810435.6174
        49.0004         50.5004
  -1291921.18447   -988501.60545  21094354.2734                   21094353.6254
        45.7504         34.5004
   2644757.73046   2038117.99643  24063913.6884                   24063914.5084
        41.2504         22.7504
  -1644742.30946  -1261183.05145  23709716.3134                   23709718.9454
        39.7504         33.0004
   2115991.09847   1615423.44147  21351994.8364                   21351992.8014
        45.0004         43.2504
  -2721534.87146  -2062999.87944  22366450.5474                   22366450.6294
        41.7504         26.7504
   -635565.07447   -491224.77747  21396532.6804                   21396534.7304
        45.7504         42.0004
 25  8  7  0  0  0.0000000  0  8G01G03G04G28G09G31G16G26
   2320151.20347   1780022.64844  22578978.4384                   22578979.0664
        43.2504         28.0004
   -481922.96948   -367222.10248  19809553.1334                   19809553.1374
        50.0004         50.5004
  -1313696.85547  -1005469.64145  21090210.3524                   21090209.3524
        46.5004         34.7504
   2694241.74246   2076676.93043  24073330.4384                   24073330.4024
        41.7504         22.5004
  -1683856.41046  -1291661.51645  23702272.5864                   23702275.5594
        40.5004         32.7504
   2155799.94547   1646443.30547  21359570.1724                   21359567.9534
        47.0004         42.7504
  -2767898.19947  -2099127.09044  22357628.1254                   22357627.9144
        42.5004         26.0004
   -643307.48447   -497257.80547  21395059.2974                   21395061.3874
        46.5004         42.2504
 25  8  7  0  0 15.0000000  0  8G01G03G04G28G09G31G16G26
   2362517.48847   1813035.28544  22587039.9454                   22587041.7464
        42.5004         27.0004
   -486423.16848   -370728.75848  19808696.7424                   19808696.5984
        49.2504         50.5004
  -1335435.20347  -1022408.59045  21086073.7114                   21086073.0164
        46.2504         34.7504
   2743737.75846   2115245.18843  24082749.3444                   24082750.3284
        40.5004         22.5004
  -1722964.57846  -1322135.35545  23694830.4924                   23694833.4224
        40.0004         32.7504
   2195684.37947   1677522.07047  21367159.4924                   21367157.6564
        45.0004         42.5004
  -2814191.91446  -2135200.05944  22348817.6564                   22348818.1684
        41.7504         25.2504
   -650898.75847   -503173.07047  21393614.4144                   21393616.3794
        46.2504         42.0004
 25  8  7  0  0 30.0000000  0  8G01G03G04G28G09G31G16G26
   2404944.26247   1846095.04344  22595114.0084                   22595115.0594
        42.5004         28.5004
   -490787.82848   -374129.79348  19807866.2734                   19807865.9964
        50.0004         50.5004
  -1357136.52747  -1039318.69145  21081943.7584                   21081943.2894
        47.0004         35.0004
   2793245.23046   2153822.42643  24092170.0084                   24092171.2344
        40.5004         22.7504
  -1762067.08646  -1352604.78945  23687390.2894                   23687392.4614
        40.5004         32.5004
   2235643.64547   1708659.14847  21374764.2114                   21374761.5744
        46.5004         42.5004
  -2860415.87946  -2171218.67644  22340022.3134                   22340022.3094
        41.7504         26.2504
   -658339.15247   -508970.76647  21392198.4924                   21392200.3014
        46.5004         42.2504
 25  8  7  0  0 45.0000000  0  8G01G03G04G28G09G31G16G26
   2447431.67247   1879202.05944  22603198.8914                   22603200.4694
        42.7504         27.0004
   -495016.27348   -377424.68748  19807061.4614                   19807061.9024
        49.5004         50.5004
  -1378800.27347  -1056199.52045  21077821.6564                   21077821.1294
        47.0004         35.0004
   2842764.39846   2192408.78543  24101592.6484                   24101593.8094
        40.7504         22.2504
  -1801163.35946  -1383069.35245  23679949.4694                   23679952.8054
        40.5004         33.0004
   2275677.93047   1739854.67647  21382382.4454                   21382379.9344
        46.2504         42.2504
  -2906569.26647  -2207182.28544  22331240.0864                   22331238.9024
        42.5004         27.0004
   -665628.00447   -514650.38347  21390812.1174                   21390813.9534
        46.5004         42.2504
 25  8  7  0  1  0.0000000  0  8G01G03G04G28G09G31G16G26
   2489978.84047   1912355.62944  22611295.5004                   22611297.1644
        43.0004         28.2504
   -499108.90648   -380613.75448  19806282.8984                   19806282.8674
        49.0004         50.5004
  -1400426.95347  -1073051.46145  21073706.1334                   21073705.5354
        46.7504         35.0004
   2892294.56346   2231003.64543  24111018.7344                   24111019.5434
        40.2504         22.7504
  -1840253.95346  -1413529.47345  23672511.6024                   23672513.7114
        40.7504         33.0004
   2315786.58647   1771108.16047  21390014.6644                   21390012.6024
        45.7504         42.7504
  -2952652.10246  -2243090.94544  22322469.5554                   22322469.8014
        41.5004         26.5004
   -672765.69547   -520212.21147  21389453.4774                   21389455.2814
        47.2504         42.2504
 25  8  7  0  1 15.0000000  0  8G01G03G04G28G09G31G16G26
   2532585.43447   1945555.52344  22619402.9694                   22619404.8954
        42.0004         27.7504
   -503065.43448   -383696.75848  19805529.6724                   19805529.7974
        49.2504         50.5004
  -1422016.35547  -1089874.35245  21069597.9304                   21069597.2894
        47.5004         34.0004
   2941835.67246   2269607.08643  24120446.3444                   24120446.9144
        41.0004         22.5004
  -1879338.68046  -1443985.03945  23665073.1174                   23665075.9734
        40.2504         33.0004
   2355969.17647   1802419.25447  21397661.5004                   21397659.4614
        45.7504         42.5004
  -2998663.63746  -2278944.05544  22313713.8754                   22313714.3164
        40.7504         27.2504
   -679751.96947   -525656.04747  21388124.1024                   21388125.9494
        46.5004         42.0004
 25  8  7  0  1 30.0000000  0  8G01G03G04G28G09G31G16G26
   2575251.58646   1978801.79744  22627522.1414                   22627523.8444
        41.7504         27.5004
   -506885.28548   -386673.27048  19804802.9534                   19804802.9884
        49.5004         50.5004
  -1443567.96547  -1106667.78545  21065496.6884                   21065495.9534
        47.0004         34.7504
   2991387.86346   2308219.12943  24129876.2034                   24129876.7194
        40.7504         22.7504
  -1918417.03546  -1474435.63745  23657637.3984                   23657639.9734
        40.7504         32.2504
   2396225.82447   1833788.05147  21405321.9924                   21405319.6994
        46.0004         42.2504
  -3044603.25846  -2314741.09044  22304973.0164                   22304972.1804
        41.7504         26.7504
   -686586.25847   -530981.45747  21386823.8524                   21386825.3834
        46.5004         42.5004
 25  8  7  0  1 45.0000000  0  8G01G03G04G28G09G31G16G26
   2617976.44947   2012093.83644  22635652.7194                   22635653.8324
        42.0004         27.2504
   -510568.73448   -389543.48848  19804102.0784                   19804102.1764
        49.0004         50.7504
  -1465082.23047  -1123432.13745  21061402.4384                   21061402.0744
        47.5004         34.7504
   3040950.49246   2346839.34443  24139307.2894                   24139307.6134
        40.5004         22.2504
  -1957489.46546  -1504881.61345  23650201.6094                   23650204.4694
        40.5004         32.0004
   2436555.81647   1865214.01247  21412996.4924                   21412994.0514
        45.7504         42.2504
  -3090470.87547  -2350482.03544  22296243.4694                   22296243.2344
        42.2504         27.0004
   -693268.87547   -536188.68047  21385551.9694                   21385553.7274
        47.0004         42.2504
 25  8  7  0  2  0.0000000  0  8G01G03G04G28G09G31G16G26
   2660758.93046   2045430.76644  22643794.0474                   22643795.0634
        41.7504         27.7504
   -514116.37948   -392307.88748  19803426.5944                   19803427.0394
        48.5004         50.5004
  -1486559.78147  -1140167.87545  21057315.4064                   21057314.7304
        47.0004         34.5004
   3090522.62546   2385466.94143  24148741.3444                   24148740.8834
        41.7504         21.5004
  -1996556.60546  -1535323.46145  23642767.7664                   23642770.3204
        41.2504         31.5004
   2476958.23447   1896696.39547  21420684.8204                   21420682.6294
        45.0004         42.5004
  -3136266.74646  -2386167.09444  22287528.0474                   22287528.9614
        40.5004         27.0004
   -699800.44947   -541278.19547  21384308.9454                   21384311.0594
        46.2504         42.5004
 25  8  7  0  2 15.0000000  0  8G01G03G04G28G09G31G16G26
   2703599.18847   2078812.71944  22651946.5164                   22651947.7504
        42.2504         28.0004
   -517527.53148   -394965.92648  19802778.1484                   19802777.9224
        50.2504         50.5004
  -1508000.03947  -1156874.55145  21053235.5474                   21053234.9844
        47.2504         34.5004
   3140104.60546   2424102.15643  24158176.7504                   24158176.6254
        41.5004         22.7504
  -2035617.88746  -1565760.75845  23635334.4774                   23635336.8094
        40.5004         32.5004
   2517433.21947   1928235.33247  21428386.6644                   21428384.6604
        45.7504         42.2504
  -3181989.88347  -2421795.44144  22278828.2504                   22278828.3284
        42.5004         26.0004
   -706180.28947   -546249.49647  21383095.2814                   21383096.9924
        47.0004         42.5004
 25  8  7  0  2 30.0000000  0  8G01G03G04G28G09G31G16G26
   2746497.53547   2112239.94944  22660109.3674                   22660111.2774
        42.2504         27.5004
   -520801.37148   -397516.96948  19802154.5394                   19802154.9884
        49.2504         50.5004
  -1529402.30147  -1173551.62145  21049163.0314                   21049162.3364
        47.2504         34.7504
   3189696.90247   2462745.47343  24167614.1484                   24167613.6684
        42.5004         22.5004
  -2074672.62546  -1596192.94145  23627902.4064                   23627904.8524
        40.7504         31.7504
   2557981.21547   1959831.15647  21436102.9614                   21436100.8874
        45.0004         42.5004
  -3227639.19147  -2457366.28544  22270141.7664                   22270141.6764
        42.2504         28.0004
   -712407.60247   -551101.93047  21381909.7974                   21381911.5164
        46.5004         42.5004
 25  8  7  0  2 45.0000000  0  8G01G03G04G28G09G31G16G26
   2789452.85547   2145711.55944  22668284.6024                   22668285.6054
        42.0004         28.0004
   -523938.46548   -399961.45348  19801558.1254                   19801557.9414
        49.0004         50.5004
  -1550767.21547  -1190199.58645  21045097.3914                   21045096.5784
        47.5004         35.0004
   3239298.51646   2501396.06644  24177053.6804                   24177051.7704
        41.5004         25.2504
  -2113721.55546  -1626620.61345  23620471.9614                   23620474.1994
        40.5004         31.0004
   2598601.14547   1991483.03947  21443832.6174                   21443830.3164
        45.7504         42.5004
  -3273214.90647  -2492879.77744  22261468.5944                   22261468.5354
        42.0004         28.0004
   -718483.00447   -555836.00047  21380753.6024                   21380755.6484
        46.0004         42.2504
 25  8  7  0  3  0.0000000  0  8G01G03G04G28G09G31G16G26
   2832465.23047   2179227.63344  22676468.9774                   22676470.6524
        42.0004         28.0004
   -526938.27748   -402298.96948  19800987.2664                   19800986.9414
        49.2504         50.5004
  -1572094.29347  -1206818.07445  21041038.9454                   21041038.0124
        47.0004         34.7504
   3288909.71146   2540054.12543  24186493.4144                   24186492.4064
        41.0004         22.0004
  -2152764.10546  -1657043.29745  23613042.8054                   23613044.6954
        41.2504         31.5004
   2639293.10947   2023191.04747  21451576.1884                   21451574.0594
        46.5004         42.2504
  -3318716.18046  -2528335.27344  22252809.4144                   22252809.8634
        41.5004         27.0004
   -724405.94547   -560451.26647  21379626.6884                   21379628.6604
        46.5004         42.5004
 25  8  7  0  3 15.0000000  0  8G01G03G04G28G09G31G16G26
   2875533.89547   2212787.56644  22684664.6884                   22684666.1414
        42.7504         27.7504
   -529800.98448   -404529.65248  19800441.9224                   19800442.1954
        49.0004         50.5004
  -1593383.82847  -1223407.30945  21036987.2664                   21036986.7894
        47.7504         34.7504
   3338529.91046   2578719.14843  24195935.1884                   24195935.2344
        40.7504         22.7504
  -2191800.65246  -1687461.30545  23605613.0474                   23605615.8324
        41.0004         30.0004
   2680056.47747   2054954.69547  21459333.3594                   21459331.2704
        45.7504         42.5004
  -3364142.82847  -2563732.61344  22244165.1414                   22244165.1294
        42.0004         27.2504
   -730176.65647   -564947.91047  21378528.8284                   21378530.0824
        46.2504         42.5004
 25  8  7  0  3 30.0000000  0  8G01G03G04G28G09G31G16G26
   2918658.06347   2246390.75044  22692870.9694                   22692872.6804
        43.0004         26.5004
   -532526.89848   -406653.73848  19799923.1804                   19799923.2074
        48.5004         50.5004
  -1614636.24247  -1239967.61745  21032943.6094                   21032942.5274
        46.2504         34.7504
   3388158.46146   2617390.74643  24205379.0394                   24205379.8054
        41.2504         22.0004
  -2230831.56246  -1717874.93745  23598186.1644                   23598188.6954
        40.7504         31.0004
   2720890.53147   2086773.42647  21467103.4844                   21467101.4144
        45.2504         42.5004
  -3409494.99247  -2599071.91044  22235535.5004                   22235534.9144
        43.7504         27.2504
   -735795.42247   -569326.15647  21377459.3754                   21377461.1914
        45.2504         42.5004
 25  8  7  0  3 45.0000000  0  8G01G03G04G28G09G31G16G26
   2961838.49247   2280037.77044  22701087.9454                   22701089.1914
        42.0004         28.0004
   -535114.70748   -408670.21148  19799431.0704                   19799431.1454
        49.5004         50.5004
  -1635850.27347  -1256498.02345  21028906.5474                   21028905.8094
        46.5004         35.0004
   3437796.29746   2656069.57043  24214825.0234                   24214825.1484
        41.2504         22.2504
  -2269855.69546  -1748283.26645  23590760.1174                   23590762.6024
        41.0004         30.5004
   2761795.96147   2118647.76647  21474887.5554                   21474885.6884
        45.2504         42.5004
  -3454770.89147  -2634351.77744  22226919.9064                   22226919.6564
        43.0004         27.7504
   -741261.03147   -573585.06247  21376419.0394                   21376421.1684
        45.5004         42.5004
 25  8  7  0  4  0.0000000  0  8G01G03G04G28G09G31G16G26
   3005074.01247   2313727.71544  22709316.3984                   22709317.0354
        42.7504         27.5004
   -537565.12948   -410579.63348  19798964.8834                   19798964.5394
        49.2504         50.5004
  -1657026.74647  -1272999.15245  21024876.6174                   21024876.1294
        47.0004         34.5004
   3487442.42646   2694754.78943  24224271.9144                   24224272.8674
        41.2504         22.5004
  -2308873.74646  -1778686.85945  23583334.9534                   23583337.5394
        40.5004         30.5004
   2802771.69947   2150576.90247  21482685.0394                   21482683.3324
        45.5004         42.5004
  -3499970.98446  -2669572.59444  22218317.5314                   22218318.0314
        41.5004         26.2504
   -746574.16447   -577725.16047  21375408.1564                   21375409.8054
        46.5004         42.7504
 25  8  7  0  4 15.0000000  0  8G01G03G04G28G09G31G16G26
   3048365.06347   2347460.93444  22717553.9144                   22717555.0664
        42.7504         27.2504
   -539877.16448   -412381.21548  19798525.0634                   19798525.0004
        49.2504         50.5004
  -1678164.69947  -1289470.27345  21020854.3284                   21020853.5634
        46.2504         34.5004
   3537097.48046   2733447.02343  24233721.3674                   24233721.7854
        41.5004         22.5004
  -2347884.87946  -1809085.07845  23575911.0474                   23575913.9494
        40.5004         31.5004
   2843818.25847   2182561.21947  21490495.9534                   21490493.5634
        45.5004         42.5004
  -3545094.05947  -2704733.37944  22209731.4774                   22209731.4694
        43.2504         27.5004
   -751733.85947   -581745.69147  21374426.6174                   21374428.3164
        45.2504         42.5004
 25  8  7  0  4 30.0000000  0  8G01G03G04G28G09G31G16G26
   3091710.03547   2381236.16844  22725802.2424                   22725803.3714
        42.5004         27.0004
   -542051.89848   -414075.81248  19798110.9064                   19798111.1334
        49.5004         50.5004
  -1699265.33247  -1305912.29745  21016839.0084                   21016838.2154
        46.5004         34.7504
   3586759.97346   2772145.03143  24243171.9064                   24243171.9654
        41.2504         21.5004
  -2386890.28546  -1839478.82045  23568488.6954                   23568491.2384
        40.5004         31.0004
   2884934.22747   2214599.61747  21498320.3834                   21498318.0044
        46.0004         42.5004
  -3590140.78947  -2739834.67644  22201159.6334                   22201159.2774
        43.0004         28.5004
   -756741.24647   -585647.53147  21373473.5474                   21373475.3134
        45.7504         42.2504
 25  8  7  0  4 45.0000000  0  8G01G03G04G28G09G31G16G26
   3135109.55947   2415053.91444  22734060.2584                   22734062.2234
        42.7504         27.5004
   -544088.27748   -415662.60248  19797723.4304                   19797723.6174
        49.5004         50.5004
  -1720327.63347  -1322324.46945  21012831.0554                   21012830.1994
        47.2504         34.5004
   3636430.67646   2810849.43043  24252624.2734                   24252624.3484
        41.2504         22.2504
  -2425888.96946  -1869867.33645  23561067.4694                   23561069.9064
        40.7504         31.5004
   2926120.15247   2246692.52747  21506157.6254                   21506155.4884
        46.2504         42.2504
  -3635109.83647  -2774875.43744  22192602.8284                   22192601.2814
        43.7504         28.2504
   -761595.26247   -589429.86747  21372550.0944                   21372551.1094
        45.5004         42.5004
 25  8  7  0  5  0.0000000  0  8G01G03G04G28G09G31G16G26
   3178562.41447   2448913.20744  22742329.5314                   22742331.3914
        42.5004         27.7504
   -545986.92248   -417142.06248  19797361.6174                   19797362.2424
        49.5004         50.5004
  -1741352.32047  -1338707.33645  21008830.0634                   21008829.1644
        47.5004         34.5004
   3686108.56646   2849559.44543  24262076.8054                   24262077.9344
        40.7504         22.7504
  -2464881.67646  -1900251.19545  23553647.4454                   23553649.4144
        41.5004         32.0004
   2967374.93447   2278839.09847  21514008.2734                   21514006.0124
        46.5004         42.0004
  -3680001.43747  -2809855.85544  22184059.5634                   22184058.6564
        43.2504         28.0004
   -766296.57447   -593093.21947  21371654.9384                   21371656.5474
        46.0004         42.5004
 25  8  7  0  5 15.0000000  0  8G01G03G04G28G09G31G16G26
   3222068.39947   2482813.92844  22750608.3524                   22750609.8134
        42.0004         27.5004
   -547747.56647   -418513.99248  19797027.0634                   19797027.3324
        47.7504         50.5004
  -1762339.22747  -1355060.75845  21004836.2974                   21004835.2814
        47.0004         34.5004
   3735793.61746   2888275.02043  24271532.6484                   24271532.8014
        41.2504         22.0004
  -2503868.23046  -1930630.25445  23546228.7034                   23546230.8634
        40.7504         32.2504
   3008698.41847   2311039.19147  21521871.6564                   21521869.9384
        46.0004         42.5004
  -3724815.09447  -2844775.57044  22175532.0944                   22175531.1134
        43.0004         28.0004
   -770844.99647   -596637.43047  21370789.4844                   21370791.4534
        44.7504         42.5004
 25  8  7  0  5 30.0000000  0  8G01G03G04G28G09G31G16G26
   3265627.27347   2516755.82044  22758897.4384                   22758899.1524
        42.5004         27.5004
   -549369.90648   -419778.16048  19796717.9224                   19796718.4574
        48.7504         50.5004
  -1783288.10547  -1371384.54345  21000850.0864                   21000848.8954
        47.0004         34.7504
   3785485.77746   2926996.17643  24280988.2584                   24280988.3524
        40.2504         21.5004
  -2542848.35546  -1961004.32045  23538810.6804                   23538813.3634
        41.2504         32.5004
   3050090.50847   2343292.75447  21529748.1094                   21529746.4064
        46.2504         42.0004
  -3769550.19946  -2879634.04744  22167018.3204                   22167018.3714
        41.2504         28.2504
   -775240.19547   -600062.24247  21369952.9774                   21369954.2344
        45.7504         42.5004
 25  8  7  0  5 45.0000000  0  8G01G03G04G28G09G31G16G26
   3309237.84047   2550738.02044  22767196.5164                   22767197.8984
        43.0004         28.0004
   -550854.66448   -420935.10948  19796435.4534                   19796435.5904
        49.0004         50.5004
  -1804199.71947  -1387679.28545  20996870.4064                   20996869.9144
        46.5004         35.0004
   3835184.01246   2965721.99643  24290444.9844                   24290446.0044
        39.7504         21.5004
  -2581822.91446  -1991374.02745  23531394.0944                   23531396.1414
        41.5004         33.2504
   3091550.02747   2375598.84847  21537637.7974                   21537635.6024
        46.0004         42.0004
  -3814207.17246  -2914431.64344  22158520.2344                   22158520.3954
        41.2504         28.0004
   -779482.91847   -603368.25447  21369145.9454                   21369147.8444
        45.7504         42.5004
 25  8  7  0  6  0.0000000  0  8G01G03G04G28G09G31G16G26
   3352900.68047   2584760.94144  22775505.0704                   22775506.7464
        43.2504         27.5004
   -552200.76248   -421984.02048  19796179.4694                   19796179.6844
        48.5004         50.5004
  -1825073.09447  -1403944.24245  20992898.7194                   20992897.6214
        47.0004         35.0004
   3884889.01246   3004453.16443  24299903.5164                   24299904.8364
        40.5004         21.5004
  -2620790.91047  -2021738.62945  23523978.5164                   23523981.0124
        42.0004         33.5004
   3133077.53947   2407957.93847  21545540.1954                   21545537.9694
        46.5004         42.2504
  -3858784.62947  -2949167.27344  22150037.8364                   22150037.6644
        42.2504         28.7504
   -783572.12947   -606554.64147  21368367.8054                   21368369.6724
        46.2504         42.5004
 25  8  7  0  6 15.0000000  0  8G01G03G04G28G09G31G16G26
   3396615.09447   2618824.04744  22783823.7504                   22783825.4534
        43.5004         27.7504
   -553408.39848   -422925.03948  19795949.8754                   19795949.9654
        49.5004         50.5004
  -1845908.46947  -1420179.58645  20988933.6644                   20988933.1134
        47.5004         34.5004
   3934600.33646   3043189.21943  24309363.7274                   24309364.4264
        40.7504         21.5004
  -2659752.58246  -2052098.31245  23516564.9614                   23516567.0044
        41.7504         34.0004
   3174672.63347   2440369.67647  21553455.7274                   21553453.3794
        46.7504         42.0004
  -3903282.48447  -2983840.88744  22141570.5784                   22141569.8984
        42.7504         28.2504
   -787508.06247   -609621.58647  21367618.6954                   21367620.2504
        46.0004         42.5004
 25  8  7  0  6 30.0000000  0  8G01G03G04G28G09G31G16G26
   3440381.70346   2652927.83644  22792152.3984                   22792153.6804
        41.7504         27.5004
   -554476.43048   -423757.27048  19795746.4304                   19795746.6564
        48.7504         50.5004
  -1866704.77747  -1436384.48445  20984976.3524                   20984975.2774
        47.2504         35.0004
   3984318.71946   3081930.76243  24318825.2664                   24318825.6094
        40.7504         22.0004
  -2698706.88747  -2082452.24645  23509151.6414                   23509154.1254
        42.0004         34.0004
   3216335.88347   2472834.52746  21561384.0784                   21561381.8754
        46.0004         41.7504
  -3947699.17647  -3018451.24244  22133118.6954                   22133117.7464
        42.7504         27.5004
   -791289.55147   -612568.19147  21366898.8754                   21366900.7194
        46.5004         42.5004
 25  8  7  0  6 45.0000000  0  8G01G03G04G28G09G31G16G26
   3484198.15646   2687070.44944  22800490.6484                   22800491.7734
        41.7504         27.5004
   -555406.75447   -424482.19948  19795569.7424                   19795569.7344
        47.7504         50.5004
  -1887463.97747  -1452560.46945  20981026.0704                   20981024.7814
        47.5004         34.5004
   4034041.97746   3120676.18443  24328286.3594                   24328287.3284
        40.0004         21.0004
  -2737655.80146  -2112801.98445  23501739.9614                   23501742.3134
        41.7504         34.0004
   3258064.90247   2505350.63347  21569324.6254                   21569322.3324
        46.2504         42.2504
  -3992036.34047  -3052999.64544  22124680.5474                   22124680.4224
        42.5004         27.7504
   -794918.59047   -615396.00047  21366208.7194                   21366210.2854
        45.7504         42.5004
 25  8  7  0  7  0.0000000  0  8G01G03G04G28G09G31G16G26
   3528064.95347   2721252.30944  22808838.2584                   22808840.0904
        42.0004         26.7504
   -556198.32447   -425099.00848  19795418.5944                   19795419.0004
        47.7504         50.5004
  -1908185.07048  -1468706.76645  20977082.4454                   20977081.7384
        48.0004         34.7504
   4083770.80546   3159425.80543  24337750.7894                   24337750.9774
        41.2504         21.2504
  -2776598.37946  -2143146.78145  23494329.3284                   23494331.8984
        41.7504         35.2504
   3299860.32847   2537918.47347  21577278.0864                   21577275.8874
        46.7504         42.5004
  -4036292.51246  -3087484.93044  22116259.3054                   22116258.9884
        41.5004         29.0004
   -798394.15247   -618104.21547  21365546.8594                   21365548.5864
        46.5004         42.7504
 25  8  7  0  7 15.0000000  0  8G01G03G04G28G09G31G16G26
   3571981.97347   2755473.28544  22817195.3984                   22817196.7774
        42.5004         26.7504
   -556850.78948   -425607.42248  19795294.9534                   19795295.2814
        48.0004         50.5004
  -1928867.79348  -1484823.16445  20973147.0864                   20973146.1134
        48.0004         34.7504
   4133505.28546   3198179.93043  24347215.0394                   24347214.2034
        39.7504         20.7504
  -2815534.31646  -2173486.41445  23486919.6564                   23486922.4344
        41.5004         35.2504
   3341722.09047   2570538.01647  21585244.1094                   21585242.2154
        46.5004         42.2504
  -4080467.02047  -3121906.58244  22107852.5004                   22107852.4924
        42.0004         29.0004
   -801715.87947   -620692.55947  21364914.8284                   21364916.8594
        47.0004         42.7504
 25  8  7  0  7 30.0000000  0  8G01G03G04G28G09G31G16G26
   3615948.54747   2789732.89544  22825561.4694                   22825563.7074
        42.2504         27.5004
   -557364.28148   -426007.55148  19795196.9454                   19795197.2034
        48.0004         50.5004
  -1949512.32847  -1500909.79745  20969218.2894                   20969217.8484
        47.5004         35.5004
   4183244.85946   3236938.02743  24356678.0474                   24356679.8204
        38.5004         20.2504
  -2854463.85247  -2203821.05145  23479512.1334                   23479514.3634
        42.0004         35.0004
   3383649.59447   2603208.77747  21593222.2504                   21593220.6214
        46.5004         42.2504
  -4124559.79747  -3156264.53544  22099462.4384                   22099461.9454
        42.7504         29.2504
   -804883.95347   -623161.17647  21364312.0084                   21364313.7544
        46.5004         42.5004
 25  8  7  0  7 45.0000000  0  8G01G03G04G28G09G31G16G26
   3659964.48046   2824030.95744  22833937.3984                   22833939.5824
        41.7504         26.0004
   -557738.55948   -426299.19548  19795126.0554                   19795126.0704
        48.7504         50.5004
  -1970118.49648  -1516966.53545  20965296.8674                   20965296.4454
        48.0004         34.7504
   4232989.56646   3275700.11343  24366144.5314                   24366146.3364
        39.0004         21.2504
  -2893386.77046  -2234150.53545  23472104.9924                   23472107.4804
        41.2504         34.5004
   3425642.66847   2635930.62147  21601213.9064                   21601211.5474
        46.7504         42.5004
  -4168570.16847  -3190558.29744  22091087.7894                   22091087.0634
        42.7504         29.0004
   -807898.19547   -625509.92647  21363738.4924                   21363740.7034
        46.2504         42.7504
 25  8  7  0  8  0.0000000  0  8G01G03G04G28G09G31G16G26
   3704029.46147   2858367.22744  22842323.9454                   22842324.9774
        42.0004         27.2504
   -557973.39547   -426482.19148  19795081.1254                   19795081.4924
        47.7504         50.2504
  -1990686.09447  -1532993.21545  20961383.2734                   20961382.5784
        47.7504         34.5004
   4282739.22746   3314466.02343  24375613.3444                   24375613.0984
        41.0004         20.2504
  -2932302.98846  -2264474.80145  23464699.6094                   23464701.9694
        41.7504         35.0004
   3467701.12147   2668703.42646  21609217.2734                   21609215.0354
        46.7504         41.7504
  -4212497.55547  -3224787.36344  22082728.4774                   22082728.1724
        43.0004         28.2504
   -810758.36347   -627738.61747  21363194.4774                   21363195.9104
        45.7504         42.7504
 25  8  7  0  8 15.0000000  0  8G01G03G04G28G09G31G16G26
   3748143.05946   2892741.38744  22850717.4454                   22850719.4534
        41.7504         27.2504
   -558068.70748   -426556.46548  19795063.0784                   19795063.1914
        49.0004         50.2504
  -2011215.15247  -1548989.87545  20957476.5944                   20957475.8164
        47.7504         34.5004
   4332493.64846   3353235.64143  24385080.7424                   24385081.2584
        39.0004         21.0004
  -2971212.44547  -2294793.79745  23457294.8594                   23457297.7304
        42.0004         34.7504
   3509824.60247   2701526.90647  21617232.7194                   21617230.9964
        47.0004         42.0004
  -4256341.46547  -3258951.41044  22074385.6024                   22074384.7274
        43.0004         28.7504
   -813464.47347   -629847.25847  21362679.5864                   21362681.0824
        46.2504         42.7504
 25  8  7  0  8 30.0000000  0  8G01G03G04G28G09G31G16G26
   3792304.84446   2927153.09444  22859121.8284                   22859123.1954
        41.7504         27.2504
   -558024.48848   -426522.00848  19795071.1334                   19795071.4304
        48.2504         50.5004
  -2031705.66448  -1564956.49245  20953577.4694                   20953576.6454
        48.0004         35.2504
   4382252.50046   3392008.81643  24394548.9614                   24394550.4184
        38.7504         21.5004
  -3010115.17246  -2325107.55945  23449892.6094                   23449894.7774
        41.5004         34.7504
   3552012.88747   2734400.87547  21625261.2664                   21625259.0744
        46.5004         42.5004
  -4300101.75047  -3293050.28144  22066057.8524                   22066057.3484
        42.2504         29.0004
   -816016.46947   -631835.81247  21362193.6254                   21362195.5314
        46.5004         42.5004
 25  8  7  0  8 45.0000000  0  8G01G03G04G28G09G31G16G26
   3836514.42246   2961602.04744  22867534.6094                   22867536.5554
        41.5004         27.2504
   -557840.66448   -426378.77748  19795106.5234                   19795106.3364
        48.5004         50.2504
  -2052157.61347  -1580893.05545  20949685.6334                   20949684.8054
        47.5004         35.5004
   4432015.57046   3430785.18443  24404019.1334                   24404019.2154
        40.0004         20.7504
  -3049011.18446  -2355416.08245  23442491.0634                   23442493.0474
        41.2504         34.7504
   3594265.53947   2767324.98847  21633302.0084                   21633299.7814
        46.5004         42.5004
  -4343778.16447  -3327083.80944  22057746.0944                   22057746.1214
        43.5004         29.0004
   -818414.35247   -633704.28147  21361737.2034                   21361738.8984
        46.0004         42.7504
 25  8  7  0  9  0.0000000  0  8G01G03G04G28G09G31G16G26
   3880771.10946   2996087.70344  22875956.0784                   22875958.0474
        41.5004         26.2504
   -557517.38347   -426126.86748  19795167.9064                   19795168.4304
        47.7504         50.2504
  -2072571.21147  -1596799.74245  20945800.7274                   20945800.2114
        47.7504         35.0004
   4481782.43446   3469564.47343  24413489.7664                   24413490.6094
        40.2504         20.0004
  -3087900.71546  -2385719.55545  23435090.2584                   23435092.1994
        41.2504         34.0004
   3636581.81347   2800298.69947  21641354.2894                   21641352.1884
        46.5004         42.0004
  -4387370.02747  -3361051.42644  22049451.5314                   22049450.5704
        42.2504         29.5004
   -820658.30147   -635452.80147  21361310.0314                   21361312.1724
        45.5004         43.0004
 25  8  7  0  9 15.0000000  0  8G01G03G04G28G09G31G16G26
   3925074.73446   3030609.93844  22884387.0474                   22884388.7934
        41.5004         26.2504
   -557054.29348   -425766.02748  19795255.9844                   19795256.4774
        48.5004         50.2504
  -2092946.12547  -1612676.28145  20941923.5314                   20941923.0434
        47.5004         35.2504
   4531553.05546   3508346.76243  24422959.8054                   24422961.0554
        38.7504         20.0004
  -3126783.46546  -2416017.75045  23427691.2734                   23427693.3134
        41.0004         34.0004
   3678961.74247   2833321.99647  21649419.3674                   21649416.8284
        47.0004         42.0004
  -4430877.13747  -3394953.03144  22041171.9844                   22041171.5314
        42.5004         29.0004
   -822747.98447   -637081.12147  21360912.6484                   21360914.0164
        45.7504         42.7504
 25  8  7  0  9 30.0000000  0  8G01G03G04G28G09G31G16G26
   3969424.49646   3065168.11344  22892826.6094                   22892828.0904
        41.5004         28.5004
   -556451.76247   -425296.52348  19795371.0314                   19795370.9694
        47.7504         50.5004
  -2113282.80547  -1628523.02745  20938053.8674                   20938052.9304
        47.7504         35.0004
   4581326.78546   3547131.43443  24432431.4614                   24432432.5904
        39.0004         19.7504
  -3165659.84446  -2446310.97745  23420293.4064                   23420295.1564
        41.0004         33.7504
   3721404.55947   2866394.30946  21657495.3444                   21657493.2234
        46.2504         41.7504
  -4474299.46947  -3428788.56644  22032908.9774                   22032908.4264
        43.0004         28.5004
   -824683.83247   -638589.55147  21360544.2734                   21360546.2504
        45.5004         42.7504
 25  8  7  0  9 45.0000000  0  8G01G03G04G28G09G31G16G26
   4013819.62546   3099761.65644  22901275.0394                   22901276.3984
        41.2504         26.0004
   -555710.07048   -424718.59048  19795511.8914                   19795511.8714
        48.5004         50.5004
  -2133581.57047  -1644340.23045  20934191.0634                   20934190.2034
        47.7504         34.7504
   4631103.01246   3585918.11343  24441903.3284                   24441904.5824
        38.7504         19.7504
  -3204530.20746  -2476599.52745  23412896.0554                   23412898.2624
        41.5004         33.7504
   3763909.62147   2899515.11347  21665583.6254                   21665581.5394
        46.5004         42.0004
  -4517636.83647  -3462557.89844  22024662.2114                   22024661.5204
        43.0004         28.5004
   -826466.17247   -639978.37947  21360205.0164                   21360206.3954
        46.0004         43.0004
 25  8  7  0 10  0.0000000  0  8G01G03G04G28G09G31G16G26
   4058260.10946   3134390.52744  22909732.0944                   22909733.4534
        41.5004         26.7504
   -554828.72748   -424031.83648  19795679.3984                   19795679.7384
        48.2504         50.2504
  -2153841.96947  -1660127.53545  20930335.2734                   20930334.9144
        47.5004         35.0004
   4680881.94146   3624706.86343  24451376.0164                   24451377.9694
        39.0004         20.0004
  -3243394.10946  -2506883.03945  23405500.4694                   23405502.4184
        41.2504         34.5004
   3806476.96547   2932684.44946  21673684.1484                   21673681.9384
        45.5004         41.5004
  -4560888.45347  -3496260.40244  22016431.6414                   22016430.9024
        43.0004         29.2504
   -828094.50847   -641247.19547  21359895.0864                   21359897.1644
        45.0004         42.7504
 25  8  7  0 10 15.0000000  0  8G01G03G04G28G09G31G16G26
   4102746.21546   3169054.95744  22918196.9224                   22918198.5354
        41.2504         28.0004
   -553807.00448   -423235.69548  19795874.0474                   19795874.2154
        48.2504         50.5004
  -2174063.27048  -1675884.37545  20926487.6414                   20926486.6914
        48.2504         35.7504
   4730664.07046   3663498.06643  24460850.7194                   24460851.0314
        40.5004         19.5004
  -3282250.87546  -2537160.99245  23398106.0944                   23398108.4734
        41.2504         34.0004
   3849106.90247   2965902.55946  21681796.5084                   21681794.2194
        46.2504         41.5004
  -4604053.15647  -3529895.16844  22008218.2734                   22008216.9964
        42.7504         28.7504
   -829568.14847   -642395.47347  21359614.7114                   21359616.2974
        46.5004         42.7504
 25  8  7  0 10 30.0000000  0  7G01G03G04G09G31G16G26
   4147276.11746   3203753.49244  22926670.8594                   22926672.7704
        41.2504         27.0004
   -552646.29348   -422331.25048  19796094.5314                   19796094.9884
        48.7504         50.5004
  -2194246.94147  -1691611.90645  20922646.8134                   20922645.8134
        47.2504         34.5004
  -3321101.94146  -2567434.49645  23390713.4924                   23390715.4804
        41.2504         33.7504
   3891797.69947   2999168.10246  21689920.1414                   21689917.9344
        46.5004         41.5004
  -4647132.03547  -3563463.08644  22000020.0634                   22000019.3874
        43.0004         28.7504
   -830888.50847   -643424.31247  21359363.4614                   21359365.0274
        46.0004         43.0004
 25  8  7  0 10 45.0000000  0  7G01G03G04G09G31G16G26
   4191850.62547   3238486.79744  22935153.2274                   22935155.4144
        42.2504         27.5004
   -551345.17648   -421317.39548  19796342.4454                   19796342.5904
        49.5004         50.5004
  -2214391.60547  -1707309.02345  20918813.3204                   20918812.5474
        47.2504         34.0004
  -3359945.99246  -2597702.54345  23383321.0864                   23383323.1414
        41.5004         34.5004
   3934550.36347   3032481.84847  21698055.6174                   21698053.9574
        46.2504         42.0004
  -4690123.40647  -3596962.80945  21991838.7114                   21991838.0944
        43.0004         30.2504
   -832054.28547   -644332.69947  21359141.7194                   21359143.7624
        46.5004         42.7504
 25  8  7  0 11  0.0000000  0  7G01G03G04G09G31G16G26
   4236469.93447   3273255.02344  22943643.7034                   22943645.6954
        42.2504         26.5004
   -549903.12948   -420193.73048  19796617.0634                   19796617.0354
        48.7504         50.2504
  -2234496.77347  -1722975.37545  20914987.4694                   20914986.3094
        47.0004         34.5004
  -3398782.50846  -2627964.72345  23375930.8364                   23375932.8364
        41.5004         34.0004
   3977364.94547   3065843.84046  21706202.7424                   21706201.0594
        45.7504         41.2504
  -4733026.30947  -3630393.58644  21983675.2814                   21983674.0904
        43.5004         29.0004
   -833064.87947   -645120.16047  21358949.3754                   21358950.6914
        44.5004         42.7504
 25  8  7  0 11 15.0000000  0  7G01G03G04G09G31G16G26
   4281133.92646   3308058.04744  22952143.2974                   22952145.0824
        41.7504         26.7504
   -548319.65648   -418959.85548  19796918.2664                   19796918.3014
        49.7504         50.2504
  -2254562.00448  -1738610.59845  20911169.0784                   20911168.1684
        48.0004         35.0004
  -3437611.09446  -2658220.72345  23368542.0784                   23368544.3164
        41.5004         34.0004
   4020241.54347   3099254.15647  21714362.0474                   21714360.1414
        45.5004         42.0004
  -4775839.95347  -3663754.81644  21975528.1094                   21975526.8484
        43.5004         29.5004
   -833919.98047   -645786.46147  21358786.5084                   21358788.2424
        46.0004         42.7504
 25  8  7  0 11 30.0000000  0  7G01G03G04G09G31G16G26
   4325842.48847   3342895.81344  22960651.1644                   22960653.3594
        42.0004         27.0004
   -546594.46548   -417615.56248  19797246.4144                   19797246.7424
        49.5004         50.5004
  -2274587.00448  -1754214.47745  20907358.4694                   20907357.6684
        48.0004         35.5004
  -3476431.39846  -2688470.27045  23361154.9064                   23361156.7854
        41.7504         34.5004
   4063180.14847   3132712.79346  21722533.3834                   21722531.5314
        45.2504         41.0004
  -4818563.77047  -3697046.06244  21967396.7034                   21967396.7704
        43.5004         28.5004
   -834619.17647   -646331.27347  21358653.3054                   21358655.0634
        46.0004         43.0004
 25  8  7  0 11 45.0000000  0  7G01G03G04G09G31G16G26
   4370595.35547   3377768.10244  22969167.6564                   22969169.1414
        42.5004         27.0004
   -544727.36348   -416160.68048  19797601.8984                   19797601.7974
        48.2504         50.5004
  -2294571.60547  -1769786.87145  20903555.5164                   20903554.5354
        47.5004         35.0004
  -3515243.40247  -2718713.35545  23353769.2034                   23353771.3204
        42.0004         34.7504
   4106180.41847   3166219.48046  21730716.2734                   21730714.1764
        46.2504         41.0004
  -4861197.14847  -3730266.83244  21959283.6724                   21959283.3674
        43.7504         29.5004
   -835162.39147   -646754.54747  21358550.0084                   21358552.0554
        46.5004         42.7504
 25  8  7  0 12  0.0000000  0  7G01G03G04G09G31G16G26
   4415392.42647   3412674.82444  22977692.1484                   22977694.0274
        42.0004         25.5004
   -542717.94148   -414594.89848  19797984.1334                   19797984.6414
        49.0004         50.2504
  -2314515.41848  -1785327.48445  20899760.2344                   20899759.2584
        48.0004         35.0004
  -3554046.63347  -2748949.59845  23346385.4924                   23346386.9774
        42.0004         35.0004
   4149242.38347   3199774.23446  21738910.4454                   21738908.3984
        45.7504         41.2504
  -4903739.39847  -3763416.57844  21951189.1804                   21951188.1094
        44.2504         29.2504
   -835549.26647   -647056.00047  21358476.7734                   21358477.8714
        46.5004         42.7504
 25  8  7  0 12 15.0000000  0  7G01G03G04G09G31G16G26
   4460233.19146   3447615.59444  22986224.8364                   22986226.5434
        41.2504         26.5004
   -540566.25048   -412918.25848  19798393.4694                   19798393.8954
        50.0004         50.2504
  -2334418.56647  -1800836.42245  20895972.8834                   20895972.1844
        47.0004         35.7504
  -3592841.20347  -2779179.09045  23339003.0864                   23339004.6604
        42.2504         34.7504
   4192365.53947   3233376.68446  21747115.9144                   21747114.2584
        45.0004         41.5004
  -4946190.20747  -3796495.09044  21943110.5084                   21943110.4144
        43.5004         29.2504
   -835779.87547   -647235.68047  21358432.6024                   21358434.2234
        45.0004         43.0004
 25  8  7  0 12 30.0000000  0  7G01G03G04G09G31G16G26
   4505117.15247   3482590.03144  22994766.5634                   22994767.9884
        42.5004         25.0004
   -538272.32448   -411130.79348  19798830.3984                   19798830.5164
        50.2504         50.5004
  -2354281.10547  -1816313.70745  20892193.2584                   20892192.2384
        47.5004         35.2504
  -3631627.30546  -2809401.98845  23331621.2974                   23331623.7584
        41.7504         34.7504
   4235549.58647   3267026.57047  21755333.5864                   21755332.2074
        45.7504         42.0004
  -4988549.27047  -3829502.09844  21935049.4144                   21935049.1054
        43.7504         28.7504
   -835854.30547   -647293.65647  21358418.7504                   21358420.1804
        44.7504         42.7504
 25  8  7  0 12 45.0000000  0  7G01G03G04G09G31G16G26
   4550043.41047   3517597.42244  23003316.2424                   23003316.8204
        42.0004         26.2504
   -535836.53948   -409232.77748  19799293.6884                   19799293.5744
        49.7504         50.2504
  -2374103.40647  -1831759.64545  20888421.3364                   20888420.1094
        47.5004         35.7504
  -3670405.22346  -2839618.50445  23324242.8754                   23324244.7344
        41.7504         35.2504
   4278793.69547   3300723.25846  21763563.5474                   21763561.3714
        45.0004         41.0004
  -5030816.69547  -3862437.71544  21927006.6094                   21927005.4224
        44.0004         28.0004
   -835772.92647   -647230.24247  21358434.1174                   21358435.5434
        46.0004         43.0004
 25  8  7  0 13  0.0000000  0  7G01G03G04G09G31G16G26
   4595010.56647   3552636.67644  23011872.2034                   23011874.2734
        42.0004         25.5004
   -533259.96148   -407225.06248  19799784.0474                   19799784.2114
        51.5004         50.5004
  -2393886.55147  -1847175.05945  20884656.4924                   20884655.5394
        47.7504         35.5004
  -3709176.12546  -2869829.55545  23316865.1954                   23316866.9344
        41.7504         35.2504
   4322096.42647   3334465.62946  21771803.6644                   21771801.5124
        44.7504         41.7504
  -5072993.14147  -3895302.43044  21918980.7894                   21918979.8134
        44.5004         29.0004
   -835536.89847   -647046.30547  21358478.8134                   21358480.6564
        45.0004         42.7504
 25  8  7  0 13 15.0000000  0  7G01G03G04G09G31G16G26
   4640019.35546   3587708.38244  23020437.7814                   23020439.4064
        41.5004         26.2504
   -530541.24248   -405106.58648  19800301.6254                   19800301.5434
        49.7504         50.5004
  -2413629.21947  -1862558.93745  20880899.3524                   20880898.4964
        47.2504         35.0004
  -3747938.66446  -2900034.08245  23309488.3444                   23309490.4304
        41.5004         35.0004
   4365458.72347   3368254.41846  21780055.1094                   21780053.3134
        44.5004         41.5004
  -5115076.69947  -3928094.75844  21910972.3444                   21910971.5164
        44.5004         28.5004
   -835144.90647   -646740.84847  21358553.5784                   21358554.7234
        45.5004         42.7504
 25  8  7  0 13 30.0000000  0  7G01G03G04G09G31G16G26
   4685068.94947   3622811.87544  23029009.7584                   23029012.3364
        42.5004         26.5004
   -527680.84448   -402877.70748  19800845.6724                   19800845.5474
        50.7504         50.5004
  -2433331.92647  -1877911.68745  20877150.4924                   20877149.2854
        47.5004         35.5004
  -3786693.33646  -2930232.48045  23302113.4774                   23302115.8674
        41.2504         34.5004
   4408879.74247   3402088.95746  21788317.5084                   21788316.0434
        44.7504         41.2504
  -5157067.76647  -3960815.03144  21902981.5634                   21902981.0124
        44.5004         29.5004
   -834597.43447   -646314.23847  21358657.5864                   21358658.9264
        47.0004         42.7504
 25  8  7  0 13 45.0000000  0  7G01G03G04G09G31G16G26
   4730159.13746   3657947.00444  23037590.8204                   23037592.7384
        41.7504         25.5004
   -524678.49248   -400538.21948  19801417.2424                   19801417.5044
        50.5004         50.5004
  -2452994.35547  -1893233.03945  20873408.8984                   20873407.4024
        47.5004         35.5004
  -3825439.92246  -2960424.58245  23294740.2424                   23294742.2034
        40.7504         35.0004
   4452359.57847   3435969.32446  21796591.4614                   21796589.7194
        45.0004         41.5004
  -5198965.57047  -3993462.62944  21895008.4774                   21895008.0434
        43.7504         28.7504
   -833894.23447   -645766.27347  21358791.1174                   21358793.4454
        46.2504         42.7504
 25  8  7  0 14  0.0000000  0  7G01G03G04G09G31G16G26
   4775288.52746   3693112.67244  23046179.0084                   23046180.5634
        41.5004         26.2504
   -521535.09848   -398088.82048  19802015.2814                   19802015.2774
        49.7504         50.5004
  -2472617.45747  -1908523.75045  20869674.3984                   20869673.2074
        47.2504         35.0004
  -3864179.34846  -2990611.09445  23287369.0004                   23287371.0704
        40.0004         35.2504
   4495896.75847   3469894.37946  21804876.3054                   21804874.5594
        45.2504         40.5004
  -5240770.78547  -4026038.06244  21887053.6724                   21887052.3524
        45.0004         29.0004
   -833036.28147   -645097.73047  21358954.5004                   21358956.0704
        46.5004         42.7504
 25  8  7  0 14 15.0000000  0  7G01G03G04G09G31G16G26
   4820457.57047   3728309.23844  23054774.1954                   23054776.4104
        42.5004         25.0004
   -518249.77748   -395528.83648  19802640.2974                   19802640.3484
        50.2504         50.2504
  -2492200.36747  -1923783.14845  20865947.7194                   20865947.0554
        47.7504         35.2504
  -3902910.76646  -3020791.36745  23279997.7194                   23280000.0944
        41.0004         35.5004
   4539491.62547   3503864.38746  21813172.5234                   21813170.2854
        44.0004         41.0004
  -5282482.17247  -4058540.40645  21879116.2194                   21879115.6134
        44.0004         30.0004
   -832022.77747   -644307.97347  21359147.5234                   21359149.4024
        46.0004         42.7504
 25  8  7  0 14 30.0000000  0  7G01G03G04G09G31G16G26
   4865665.80546   3763536.36744  23063377.2114                   23063378.9534
        41.5004         26.7504
   -514822.53948   -392858.26648  19803292.5784                   19803292.4574
        50.7504         50.2504
  -2511743.10547  -1939011.24245  20862228.9064                   20862228.3404
        47.2504         35.7504
  -3941634.18746  -3050965.40646  23272629.0554                   23272631.3874
        41.0004         36.0004
   4583143.98447   3537879.19546  21821479.3914                   21821477.1174
        46.0004         41.0004
  -5324099.30147  -4090969.29345  21871196.3834                   21871195.6454
        44.5004         30.2504
   -830853.68447   -643396.98447  21359370.2664                   21359371.3794
        44.7504         42.5004
 25  8  7  0 14 45.0000000  0  7G01G03G04G09G31G16G26
   4910912.38346   3798793.33244  23071987.4454                   23071989.2934
        41.5004         26.0004
   -511253.73448   -390077.38348  19803971.8984                   19803971.7544
        50.2504         50.5004
  -2531246.02747  -1954208.30545  20858517.5004                   20858516.7544
        47.0004         35.2504
  -3980349.96546  -3081133.48846  23265262.3444                   23265263.7384
        41.2504         36.5004
   4626853.12147   3571938.23446  21829797.0474                   21829795.0704
        45.5004         41.0004
  -5365622.21947  -4123324.76244  21863294.5164                   21863294.3554
        44.2504         29.0004
   -829529.43047   -642365.08247  21359621.5944                   21359623.2774
        46.5004         42.5004
 25  8  7  0 15  0.0000000  0  7G01G03G04G09G31G16G26
   4956197.23846   3834080.16044  23080604.2194                   23080606.5594
        41.5004         26.0004
   -507543.00048   -387185.91048  19804677.6884                   19804677.9574
        50.0004         50.5004
  -2550708.75447  -1969374.05545  20854814.3134                   20854813.2034
        47.5004         35.0004
  -4019057.84446  -3111295.41846  23257896.2734                   23257898.0084
        41.0004         36.0004
   4670618.95747   3606041.46946  21838125.1024                   21838123.1724
        44.7504         41.2504
  -5407050.18747  -4155606.26244  21855411.3444                   21855410.3284
        44.5004         29.5004
   -828049.71147   -641212.05147  21359903.5474                   21359904.9264
        46.7504         42.5004
 25  8  7  0 15 15.0000000  0  7G01G03G04G09G31G16G26
   5001519.48446   3869396.10244  23089229.3054                   23089231.1214
        41.2504         26.2504
   -503690.73448   -384184.14548  19805410.6724                   19805410.9964
        49.5004         50.5004
  -2570131.73448  -1984508.83645  20851118.1484                   20851116.8984
        48.0004         35.2504
  -4057758.21546  -3141451.49646  23250531.7814                   23250533.8364
        40.5004         36.0004
   4714440.67647   3640188.24646  21846463.9384                   21846461.9184
        45.0004         40.5004
  -5448383.25447  -4187813.80144  21847546.0704                   21847545.1994
        43.5004         29.5004
   -826415.02347   -639938.25847  21360214.3364                   21360216.3094
        46.0004         42.5004
 25  8  7  0 15 30.0000000  0  7G01G03G04G09G31G16G26
   5046878.81346   3904740.95344  23097860.6804                   23097862.7344
        41.7504         26.0004
   -499696.82848   -381072.01648  19806171.3204                   19806170.8984
        50.2504         50.5004
  -2589514.85948  -1999612.55145  20847430.0084                   20847428.4964
        48.0004         35.2504
  -4096450.91446  -3171601.59846  23243168.3364                   23243170.7814
        41.0004         36.0004
   4758317.96147   3674378.31646  21854813.7504                   21854811.6054
        44.5004         41.0004
  -5489620.94147  -4219947.02044  21839698.1484                   21839698.0234
        43.7504         29.5004
   -824625.20347   -638543.58647  21360555.0394                   21360556.6764
        44.5004         42.5004
 25  8  7  0 15 45.0000000  0  7G01G03G04G09G31G16G26
   5092274.66046   3940114.25044  23106499.7584                   23106501.4804
        40.5004         25.2504
   -495561.41848   -377849.62548  19806957.6484                   19806957.6804
        50.7504         50.5004
  -2608858.21947  -2014685.28545  20843748.4144                   20843748.0164
        47.5004         35.7504
  -4135136.16846  -3201745.89546  23235806.9534                   23235808.9844
        40.5004         36.2504
   4802250.42247   3708611.38746  21863174.0234                   21863172.1214
        44.7504         41.0004
  -5530763.00847  -4252005.73044  21831869.8914                   21831868.3324
        44.5004         29.0004
   -822680.50447   -637028.22347  21360925.2664                   21360926.7274
        46.0004         42.5004
 25  8  7  0 16  0.0000000  0  7G01G03G04G09G31G16G26
   5137706.33646   3975515.45744  23115144.7814                   23115147.3674
        41.0004         26.7504
   -491284.69148   -374517.10948  19807772.0004                   19807771.7934
        50.0004         50.5004
  -2628162.03148  -2029727.20345  20840075.0944                   20840073.9734
        48.0004         35.0004
  -4173814.19946  -3231884.57446  23228446.7664                   23228448.6954
        41.5004         36.5004
   4846237.47347   3742886.98046  21871544.3284                   21871542.3164
        45.0004         40.7504
  -5571809.37547  -4283989.86344  21824058.4924                   21824057.7664
        44.0004         29.5004
   -820581.07847   -635392.30147  21361324.5314                   21361326.0514
        45.2504         42.5004
 25  8  7  0 16 15.0000000  0  7G01G03G04G09G31G16G26
   5183174.59046   4010945.18044  23123797.1644                   23123799.4104
        41.0004         26.0004
   -486865.47348   -371073.57048  19808612.5394                   19808612.4964
        51.2504         50.5004
  -2647425.12547  -2044737.39145  20836409.3524                   20836408.4844
        47.5004         35.0004
  -4212483.78546  -3262016.66446  23221088.4844                   23221089.8444
        39.2504         36.5004
   4890279.98847   3777205.80546  21879925.3134                   21879923.5474
        45.2504         41.0004
  -5612758.46947  -4315898.19944  21816266.2734                   21816265.5434
        43.7504         28.7504
   -818325.89147   -633635.00447  21361753.8594                   21361755.2274
        45.2504         42.5004
 25  8  7  0 16 30.0000000  0  7G01G03G04G09G31G16G26
   5228678.79346   4046402.89844  23132456.2894                   23132458.6334
        41.5004         25.5004
   -482303.94148   -367519.13748  19809480.7814                   19809480.8054
        50.2504         50.5004
  -2666647.66848  -2059715.97745  20832752.0314                   20832750.9734
        48.0004         35.2504
  -4251145.16046  -3292142.36745  23213730.9384                   23213732.4344
        40.0004         35.5004
   4934377.37147   3811567.37946  21888316.9144                   21888314.9224
        45.7504         40.7504
  -5653610.02747  -4347730.54344  21808492.2424                   21808491.3914
        44.2504         29.0004
   -815915.10947   -631756.46147  21362212.4844                   21362214.1254
        47.0004         42.5004
 25  8  7  0 16 45.0000000  0  7G01G03G04G09G31G16G26
   5274218.02746   4081887.94544  23141122.2114                   23141124.6334
        39.5004         25.5004
   -477600.56248   -363854.16848  19810375.6644                   19810375.6954
        50.0004         50.2504
  -2685830.14147  -2074663.34045  20829101.1334                   20829100.5434
        47.7504         35.5004
  -4289798.79746  -3322262.03545  23206375.3364                   23206376.9534
        40.2504         35.7504
   4978528.81347   3845971.08246  21896718.4694                   21896716.6994
        44.2504         41.0004
  -5694364.22347  -4379487.01645  21800737.0784                   21800736.2584
        43.0004         30.0004
   -813349.26247   -629757.09447  21362701.0394                   21362702.3324
        45.7504         42.5004
 25  8  7  0 17  0.0000000  0  7G01G03G04G09G31G16G26
   5319791.50446   4117399.65244  23149793.9694                   23149797.4844
        39.2504         25.5004
   -472755.70348   -360078.96148  19811297.7114                   19811298.0634
        50.2504         50.5004
  -2704972.86348  -2089579.74245  20825458.5944                   20825457.4924
        48.0004         35.0004
  -4328445.04346  -3352375.94545  23199021.3754                   23199022.6564
        40.5004         34.7504
   5022733.48447   3880416.26246  21905130.3054                   21905128.7234
        44.2504         40.5004
  -5735021.10247  -4411167.66044  21793000.5554                   21792999.4574
        44.0004         29.2504
   -810628.75047   -627637.20747  21363218.4534                   21363219.6334
        46.2504         42.5004
 25  8  7  0 17 15.0000000  0  7G01G03G04G09G31G16G26
   5365399.92246   4152938.57844  23158473.7424                   23158475.8364
        41.0004         26.2504
   -467768.24648   -356192.63348  19812246.4774                   19812246.9574
        50.0004         50.5004
  -2724074.74647  -2104464.30945  20821823.8284                   20821822.3054
        47.5004         34.5004
  -4367082.80546  -3382483.24645  23191668.4384                   23191670.5164
        39.2504         35.2504
   5066992.10547   3914903.47346  21913552.5634                   21913550.8014
        44.2504         40.5004
  -5775579.12947  -4442771.27345  21785281.9844                   21785281.2624
        44.2504         30.7504
   -807752.50847   -625395.96947  21363766.0554                   21363767.7544
        46.2504         42.5004
 25  8  7  0 17 30.0000000  0  7G01G03G04G09G31G16G26
   5411041.43046   4188503.30544  23167159.2504                   23167161.2234
        39.5004         26.2504
   -462639.57048   -352196.27048  19813222.7734                   19813222.8674
        50.5004         50.5004
  -2743137.10947  -2119318.08645  20818196.2504                   20818195.1524
        47.7504         35.0004
  -4405713.44546  -3412585.00045  23184317.4454                   23184319.0314
        39.7504         34.7504
   5111303.15647   3949431.54346  21921984.4924                   21921983.0394
        45.0004         40.2504
  -5816039.37547  -4474298.70345  21777583.1414                   21777582.0474
        43.7504         30.5004
   -804721.97747   -623034.50447  21364342.5394                   21364343.7894
        45.5004         42.5004
 25  8  7  0 17 45.0000000  0  7G01G03G04G09G31G16G26
   5456716.59046   4224094.22744  23175850.6094                   23175852.8404
        41.2504         26.5004
   -457368.69548   -348089.09448  19814225.7424                   19814225.8054
        50.0004         50.5004
  -2762159.00447  -2134140.33245  20814576.4924                   20814575.4614
        47.5004         35.0004
  -4444336.04746  -3442680.49245  23176966.9694                   23176969.4144
        39.0004         34.2504
   5155667.24247   3984000.93846  21930427.3054                   21930425.3284
        45.0004         40.5004
  -5856400.45347  -4505748.84044  21769902.4774                   21769901.4924
        42.7504         29.2504
   -801536.23047   -620552.10247  21364948.5784                   21364950.2854
        45.2504         42.5004
 25  8  7  0 18  0.0000000  0  7G01G03G04G09G31G16G26
   5502425.55146   4259711.51644  23184548.8134                   23184551.5044
        40.7504         25.2504
   -451954.98848   -343870.62948  19815255.6954                   19815255.6844
        50.5004         50.5004
  -2781139.78147  -2148930.53145  20810964.4384                   20810963.2194
        47.2504         35.2504
  -4482949.95746  -3472769.20345  23169619.7424                   23169621.4654
        39.0004         34.2504
   5200084.56347   4018611.81646  21938879.0784                   21938877.5944
        45.2504         40.7504
  -5896661.36347  -4537120.94144  21762241.2424                   21762240.3134
        43.7504         29.5004
   -798194.62147   -617948.23847  21365584.6724                   21365585.8984
        46.2504         42.5004
 25  8  7  0 18 15.0000000  0  7G01G03G04G09G31G16G26
   5548166.64846   4295353.82844  23193253.6564                   23193255.9104
        41.2504         24.7504
   -446399.71948   -339541.84848  19816313.0554                   19816313.1484
        50.5004         50.5004
  -2800080.69147  -2163689.66445  20807360.1174                   20807359.2624
        47.5004         35.5004
  -4521556.37546  -3502852.08245  23162272.9694                   23162274.8204
        39.7504         34.5004
   5244553.55947   4053262.95746  21947341.7034                   21947339.6414
        45.5004         40.5004
  -5936823.00847  -4568415.68744  21754598.2814                   21754597.6414
        43.7504         29.2504
   -794698.52347   -615223.99647  21366249.7664                   21366251.5164
        46.7504         42.2504
 25  8  7  0 18 30.0000000  0  7G01G03G04G09G31G16G26
   5593940.48846   4331021.66844  23201964.2894                   23201966.7384
        40.0004         25.5004
   -440701.76648   -335101.89548  19817397.3674                   19817397.2734
        50.2504         50.2504
  -2818980.62147  -2178416.87145  20803763.1564                   20803762.2774
        47.5004         35.5004
  -4560154.31646  -3532928.35545  23154927.7584                   23154929.9774
        39.2504         34.2504
   5289074.74247   4087954.77046  21955813.5944                   21955811.7234
        45.7504         40.0004
  -5976883.95347  -4599631.96145  21746976.1484                   21746974.2234
        43.7504         30.2504
   -791046.91047   -612378.57847  21366944.7274                   21366946.2664
        45.7504         42.2504
 25  8  7  0 18 45.0000000  0  7G01G03G04G09G31G16G26
   5639746.94946   4366714.92244  23210680.7114                   23210683.3094
        39.7504         24.2504
   -434860.96548   -330550.62148  19818508.8674                   19818509.0594
        50.0004         50.5004
  -2837839.31248  -2193111.94145  20800175.1644                   20800173.5984
        48.0004         35.0004
  -4598743.46546  -3562997.77045  23147584.7114                   23147586.5474
        39.0004         35.0004
   5333648.17247   4122687.29346  21964295.3444                   21964293.7974
        45.0004         40.0004
  -6016843.59047  -4630769.30544  21739371.3834                   21739370.1604
        43.2504         29.5004
   -787239.55147   -609411.79747  21367669.3524                   21367670.7034
        46.0004         42.2504
 25  8  7  0 19  0.0000000  0  7G01G03G04G09G31G16G26
   5685585.45346   4402433.16444  23219402.9614                   23219405.9804
        40.2504         24.2504
   -428877.35248   -325888.07448  19819647.1414                   19819647.6484
        51.0004         50.5004
  -2856656.87147  -2207774.96145  20796593.7734                   20796592.8484
        47.7504         35.5004
  -4637323.96946  -3593060.44945  23140243.0944                   23140245.1134
        40.2504         35.5004
   5378273.42247   4157460.19546  21972787.2894                   21972785.8874
        44.5004         40.2504
  -6056701.61747  -4661827.46544  21731786.4614                   21731785.2384
        44.5004         29.5004
   -783276.60947   -606323.78147  21368423.5634                   21368424.7774
        46.2504         42.5004
 25  8  7  0 19 15.0000000  0  7G01G03G04G09G31G16G26
   5731454.45346   4438175.13344  23228131.9924                   23228134.5274
        40.2504         24.5004
   -422752.10248   -321115.15248  19820813.0314                   19820813.0474
        49.7504         50.5004
  -2875434.35247  -2222406.75445  20793020.9304                   20793019.8364
        47.7504         35.2504
  -4675896.89146  -3623117.21546  23132902.2194                   23132904.7034
        40.7504         36.0004
   5422948.98447   4192272.30546  21981289.0704                   21981287.5234
        45.5004         40.2504
  -6096458.87947  -4692807.10244  21724220.4534                   21724219.7664
        43.0004         29.7504
   -779159.30547   -603115.48447  21369206.8284                   21369208.2974
        46.5004         42.5004
 25  8  7  0 19 30.0000000  0  7G01G03G04G09G31G16G26
   5777353.69146   4473940.68444  23236866.1254                   23236869.0594
        39.0004         24.5004
   -416485.02348   -316231.72348  19822005.5944                   19822005.3714
        50.5004         50.5004
  -2894171.62147  -2237007.21145  20789455.0314                   20789454.0044
        47.5004         35.0004
  -4714462.08246  -3653167.96146  23125564.2814                   23125565.8134
        40.7504         36.2504
   5467674.67647   4227123.46546  21989800.0784                   21989798.2974
        45.7504         40.0004
  -6136114.79747  -4723707.77744  21716674.1254                   21716672.9964
        44.0004         29.7504
   -774887.44547   -599786.75447  21370020.0004                   21370021.1414
        46.2504         42.2504
 25  8  7  0 19 45.0000000  0  7G01G03G04G09G31G16G26
   5823283.81346   4509730.28943  23245606.9694                   23245609.3484
        40.2504         22.7504
   -410075.01248   -311236.91448  19823225.5704                   19823225.6954
        50.0004         50.2504
  -2912867.51647  -2251575.42245  20785897.1094                   20785896.2664
        47.0004         35.5004
  -4753018.45346  -3683211.84046  23118227.1804                   23118229.0634
        41.5004         37.0004
   5512451.21947   4262014.27046  21998321.1564                   21998318.8554
        46.0004         40.0004
  -6175667.80947  -4754528.25445  21709148.0164                   21709146.1764
        44.0004         30.0004
   -770460.00847   -596336.79747  21370861.9534                   21370863.8204
        46.0004         42.5004
 25  8  7  0 20  0.0000000  0  7G01G03G04G09G31G16G26
   5869243.77746   4545543.15644  23254353.0474                   23254355.4734
        39.0004         24.7504
   -403522.77748   -306131.27748  19824472.3674                   19824472.7854
        50.0004         50.5004
  -2931522.71947  -2266111.93745  20782347.4924                   20782346.2854
        47.2504         35.5004
  -4791566.69947  -3713249.38346  23110891.6954                   23110893.5864
        42.0004         37.5004
   5557277.56647   4296943.86346  22006851.0634                   22006848.8794
        45.0004         40.5004
  -6215118.35547  -4785268.89845  21701640.1024                   21701640.0204
        44.0004         30.7504
   -765877.78147   -592766.22747  21371734.5634                   21371735.7464
        46.7504         42.5004
 25  8  7  0 20 15.0000000  0  7G01G03G04G09G31G16G26
   5915232.85946   4581378.69544  23263104.6254                   23263106.8914
        40.0004         24.5004
   -396828.50448   -300914.96948  19825746.1954                   19825746.6764
        50.5004         50.5004
  -2950137.35247  -2280616.84045  20778804.9454                   20778803.9534
        47.7504         34.7504
  -4830106.89547  -3743280.66046  23103557.8284                   23103559.4064
        42.0004         37.7504
   5602153.26247   4331911.90646  22015391.0084                   22015388.5824
        46.5004         40.5004
  -6254466.16447  -4815929.48445  21694152.7034                   21694151.6644
        43.7504         31.0004
   -761140.96947   -589075.19947  21372635.6024                   21372637.2814
        47.0004         42.5004
 25  8  7  0 20 30.0000000  0  7G01G03G04G09G31G16G26
   5961251.60246   4617237.37544  23271861.4534                   23271864.1174
        41.2504         25.0004
   -389991.27748   -295587.27048  19827047.3134                   19827047.2304
        50.5004         50.5004
  -2968710.53547  -2295089.43045  20775270.7274                   20775269.6374
        47.2504         35.0004
  -4868638.24246  -3773305.04346  23096225.5784                   23096227.3794
        41.5004         38.2504
   5647078.94947   4366918.92246  22023939.7664                   22023938.1684
        45.7504         39.7504
  -6293710.03547  -4846509.07845  21686685.3054                   21686684.0984
        43.5004         30.0004
   -756248.74647   -585263.06647  21373566.6094                   21373568.0204
        46.7504         42.5004
 25  8  7  0 20 45.0000000  0  7G01G03G04G09G31G16G26
   6007298.84446   4653118.25044  23280624.1564                   23280626.3404
        40.5004         25.2504
   -383011.88748   -290148.78548  19828375.3984                   19828375.4734
        49.7504         50.2504
  -2987242.97347  -2309530.27745  20771744.2814                   20771743.0044
        47.0004         35.5004
  -4907161.44946  -3803323.07846  23088895.0634                   23088896.8014
        41.5004         38.5004
   5692053.34047   4401963.87946  22032498.4384                   22032496.2344
        45.7504         40.2504
  -6332850.37547  -4877008.00845  21679236.5944                   21679236.0394
        44.5004         30.5004
   -751201.88347   -581330.44147  21374527.0314                   21374528.4184
        46.0004         42.5004
 25  8  7  0 21  0.0000000  0  7G01G03G04G09G31G16G26
   6053374.82846   4689021.50443  23289392.0234                   23289394.4574
        40.5004         22.7504
   -375889.53548   -284598.91048  19829730.7974                   19829730.9224
        50.0004         50.2504
  -3005733.88347  -2323938.77045  20768225.2504                   20768224.1254
        47.5004         35.5004
  -4945675.71546  -3833334.15246  23081565.8984                   23081567.4384
        41.0004         37.7504
   5737076.98847   4437047.22346  22041065.5314                   22041063.7734
        45.0004         40.2504
  -6371886.00047  -4907425.32845  21671808.2114                   21671807.5274
        44.2504         30.5004
   -745999.71547   -577276.79347  21375516.8444                   21375518.7734
        46.2504         42.5004
 25  8  7  0 21 15.0000000  0  7G01G03G04G09G31G16G26
   6099478.83246   4724946.60544  23298165.2584                   23298168.3594
        40.5004         25.0004
   -368624.67248   -278937.98448  19831113.2344                   19831113.5594
        49.5004         50.2504
  -3024183.63347  -2338315.18745  20764714.5234                   20764713.4964
        47.2504         35.5004
  -4984181.44546  -3863338.57046  23074238.5164                   23074239.9454
        40.0004         38.0004
   5782149.12947   4472168.35546  22049642.4774                   22049640.8284
        45.2504         39.7504
  -6410816.87547  -4937761.03145  21664399.7114                   21664399.2664
        44.5004         30.2504
   -740642.71947   -573102.50447  21376536.5784                   21376537.8284
        45.0004         42.5004
 25  8  7  0 21 30.0000000  0  7G01G03G04G09G31G16G26
   6145610.37946   4760893.15644  23306943.8594                   23306946.5744
        40.2504         25.5004
   -361217.37948   -273166.07048  19832522.7974                   19832522.5864
        50.5004         50.2504
  -3042592.24247  -2352659.54745  20761211.3054                   20761210.2774
        47.0004         35.5004
  -5022678.67246  -3893336.37146  23066912.3914                   23066913.9694
        41.5004         36.7504
   5827269.47747   4507327.04346  22058228.5084                   22058226.9224
        45.7504         39.7504
  -6449642.75047  -4968014.91845  21657011.2664                   21657010.5234
        44.0004         30.5004
   -735130.94547   -568807.60547  21377585.0234                   21377586.2624
        46.7504         42.7504
 25  8  7  0 21 45.0000000  0  7G01G03G04G09G31G16G26
   6191768.65246   4796860.54344  23315728.0784                   23315730.4104
        40.7504         25.2504
   -353667.93748   -267283.39848  19833959.3444                   19833959.8204
        50.5004         50.2504
  -3060960.00047  -2366972.07445  20757716.2424                   20757714.9614
        47.0004         35.0004
  -5061167.70746  -3923327.78546  23059587.8364                   23059589.4804
        40.0004         36.0004
   5872437.06647   4542522.54746  22066823.9224                   22066822.2464
        46.0004         39.7504
  -6488363.70347  -4998187.05945  21649643.7664                   21649642.1334
        44.5004         30.5004
   -729464.84047   -564392.44547  21378663.1174                   21378664.7384
        47.0004         42.7504
 25  8  7  0 22  0.0000000  0  7G01G03G04G09G31G16G26
   6237953.39146   4832848.54344  23324517.1094                   23324519.2734
        40.0004         24.0004
   -345976.22748   -261289.86348  19835422.7424                   19835423.1954
        49.7504         50.2504
  -3079286.75848  -2381252.65645  20754228.8444                   20754227.3444
        48.0004         35.2504
  -5099648.38346  -3953312.69145  23052264.9454                   23052266.8404
        39.0004         35.7504
   5917651.89547   4577754.85546  22075427.9694                   22075426.3244
        45.7504         40.0004
  -6526979.21947  -5028277.02045  21642295.3204                   21642293.8404
        44.5004         31.2504
   -723644.28547   -559856.94547  21379770.8054                   21379772.4344
        44.5004         42.5004
 25  8  7  0 22 15.0000000  0  7G01G03G04G09G31G16G26
   6284164.68846   4868857.25444  23333310.4534                   23333312.8674
        40.0004         24.0004
   -338141.77048   -255185.10548  19836913.9454                   19836914.2384
        49.5004         50.2504
  -3097571.92647  -2395500.82445  20750749.0784                   20750748.0394
        47.0004         35.7504
  -5138120.21946  -3983290.70745  23044944.4774                   23044946.0314
        39.2504         35.5004
   5962914.13347   4613024.11346  22084041.0704                   22084039.5744
        45.7504         40.0004
  -6565488.37147  -5058284.10945  21634966.4924                   21634966.1804
        44.5004         30.5004
   -717668.85247   -555200.75447  21380908.2894                   21380909.7154
        44.5004         42.7504
 25  8  7  0 22 30.0000000  0  7G01G03G04G09G31G16G26
   6330402.62546   4904886.71944  23342109.2974                   23342112.0944
        40.5004         25.2504
   -330164.10548   -248968.74248  19838431.8054                   19838432.0594
        49.0004         50.2504
  -3115815.07047  -2409716.25846  20747277.3594                   20747276.3794
        47.2504         36.0004
  -5176582.69546  -4013261.42645  23037624.3594                   23037626.5554
        39.5004         34.2504
   6008223.93047   4648330.42246  22092663.1884                   22092661.6724
        45.2504         40.0004
  -6603890.29747  -5088207.64145  21627659.4924                   21627658.5784
        44.5004         30.7504
   -711538.17247   -550423.59447  21382074.8524                   21382076.1844
        44.5004         42.5004
 25  8  7  0 22 45.0000000  0  7G01G03G04G09G31G16G26
   6376665.93846   4940935.94144  23350913.2344                   23350915.1454
        40.7504         25.0004
   -322044.04348   -242641.43748  19839977.4064                   19839977.8674
        50.0004         50.5004
  -3134016.89147  -2423899.48045  20743813.8594                   20743812.8834
        47.5004         35.7504
  -5215036.59046  -4043225.46945  23030307.0084                   23030309.3164
        39.0004         34.5004
   6053580.04747   4683672.82846  22101294.3524                   22101292.4384
        45.7504         40.5004
  -6642185.45347  -5118047.97745  21620371.8444                   21620370.8484
        45.5004         31.5004
   -705253.09047   -545526.12547  21383270.6724                   21383272.2464
        46.2504         42.5004
 25  8  7  0 23  0.0000000  0  7G01G03G04G09G31G16G26
   6422954.64146   4977004.94944  23359721.8834                   23359723.9104
        40.0004         26.0004
   -313781.21148   -236202.87948  19841549.6564                   19841549.6604
        50.5004         50.2504
  -3152176.97748  -2438050.18445  20740358.0314                   20740356.9384
        48.0004         35.7504
  -5253481.47746  -4073182.48445  23022991.6254                   23022993.5124
        39.0004         33.0004
   6098982.64547   4719051.44546  22109934.2734                   22109932.3134
        46.0004         40.0004
  -6680372.91047  -5147804.40245  21613105.4694                   21613104.2034
        44.5004         31.0004
   -698813.26247   -540508.07047  21384496.2504                   21384497.5864
        47.2504         42.5004
 25  8  7  0 23 15.0000000  0  7G01G03G04G09G31G16G26
   6469267.16446   5013092.53144  23368534.9774                   23368537.5204
        40.7504         24.0004
   -305376.71148   -229653.92248  19843148.7034                   19843149.1724
        49.0004         50.5004
  -3170296.42247  -2452169.22745  20736910.4144                   20736909.0004
        47.5004         35.2504
  -5291918.49646  -4103133.37145  23015677.2424                   23015678.9654
        39.7504         34.2504
   6144430.25047   4754465.14546  22118582.5314                   22118580.7704
        46.0004         40.2504
  -6718453.54347  -5177477.58245  21605858.0864                   21605857.4344
        44.0004         30.0004
   -692219.87547   -535370.36347  21385750.5234                   21385752.4574
        44.5004         42.5004
 25  8  7  0 23 30.0000000  0  7G01G03G04G09G31G16G26
   6515604.36746   5049199.33643  23377351.8204                   23377355.2154
        39.0004         22.7504
   -296829.30548   -222993.61748  19844775.3054                   19844775.4694
        49.7504         50.2504
  -3188373.88747  -2466255.55145  20733470.2664                   20733469.1684
        47.5004         35.2504
  -5330346.27346  -4133077.06245  23008364.5164                   23008366.0664
        40.5004         34.5004
   6189923.76247   4789914.60946  22127239.8984                   22127237.9494
        45.2504         40.2504
  -6756425.75447  -5207066.27045  21598632.7034                   21598631.5434
        44.5004         31.2504
   -685471.77347   -530112.09047  21387035.1724                   21387036.0634
        46.7504         42.5004
 25  8  7  0 23 45.0000000  0  7G01G03G04G09G31G16G26
   6561966.36346   5085325.47744  23386175.1414                   23386177.5704
        39.5004         24.5004
   -288138.48048   -216221.55948  19846429.3364                   19846429.2274
        51.0004         50.5004
  -3206408.85247  -2480308.76245  20730038.2814                   20730037.1334
        47.7504         35.7504
  -5368764.27047  -4163013.14146  23001053.9144                   23001055.3984
        42.0004         36.0004
   6235463.43047   4825400.05146  22135905.7814                   22135903.8324
        45.7504         40.0004
  -6794288.63347  -5236569.77745  21591427.7664                   21591426.4774
        45.5004         30.7504
   -678568.43047   -524732.85547  21388348.4304                   21388350.3204
        47.0004         42.5004
 25  8  7  0 24  0.0000000  0  7G01G03G04G09G31G16G26
   6608351.63746   5121469.74644  23395000.7974                   23395004.5984
        39.0004         24.5004
   -279305.37948   -209338.62948  19848110.0004                   19848110.5864
        49.5004         50.2504
  -3224402.33647  -2494329.64546  20726614.3524                   20726613.2734
        47.2504         36.0004
  -5407173.64547  -4192942.50046  22993745.2114                   22993746.4844
        42.5004         37.0004
   6281047.81647   4860920.32846  22144579.7584                   22144578.3834
        45.2504         39.5004
  -6832043.00847  -5265988.73845  21584242.8284                   21584242.3524
        44.0004         30.7504
   -671511.06647   -519233.60947  21389691.3834                   21389692.9104
        46.5004         42.5004
 25  8  7  0 24 15.0000000  0  7G01G03G04G09G31G16G26
   6654760.03146   5157632.03544  23403832.8364                   23403835.9064
        40.0004         24.5004
   -270329.72348   -202344.62548  19849818.2504                   19849818.2664
        50.2504         50.2504
  -3242354.05147  -2508317.98045  20723197.8054                   20723196.6054
        47.5004         35.5004
  -5445574.00447  -4222864.82846  22986437.3524                   22986439.1134
        42.7504         37.5004
   6326676.93047   4896475.45346  22153263.2584                   22153261.4884
        45.0004         39.7504
  -6869688.04747  -5295322.48845  21577079.5554                   21577078.4384
        45.0004         31.0004
   -664299.48447   -513614.19147  21391063.8054                   21391065.2774
        46.0004         42.5004
 25  8  7  0 24 30.0000000  0  7G01G03G04G09G31G16G26
   6701192.41046   5193812.99244  23412669.0944                   23412671.8714
        39.5004         25.5004
   -261210.33248   -195238.61748  19851553.5164                   19851553.7934
        50.5004         50.2504
  -3260262.75047  -2522272.80945  20719790.0944                   20719789.1954
        47.5004         35.7504
  -5483964.16447  -4252779.21146  22979132.4454                   22979134.0514
        42.2504         38.5004
   6372351.66047   4932066.13746  22161954.6564                   22161952.8834
        44.5004         39.7504
  -6907222.27347  -5324569.89545  21569936.9844                   21569935.6454
        45.5004         31.2504
   -656932.54347   -507873.71147  21392465.7734                   21392467.0704
        45.7504         42.2504
 25  8  7  0 24 45.0000000  0  7G01G03G04G09G31G16G26
   6747646.66446   5230011.00044  23421508.9614                   23421512.0354
        39.0004         25.2504
   -251948.84448   -188021.88348  19853316.1564                   19853316.3134
        50.2504         50.2504
  -3278129.98447  -2536195.31246  20716390.0634                   20716388.8554
        46.5004         36.2504
  -5522345.72747  -4282686.88746  22971828.5634                   22971830.3834
        43.5004         39.5004
   6418069.99247   4967690.78546  22170655.0634                   22170652.7384
        45.0004         39.7504
  -6944646.86347  -5353731.87145  21562815.1484                   21562814.2304
        45.7504         31.0004
   -649411.96147   -502013.51247  21393897.3134                   21393898.2464
        47.0004         42.5004
 25  8  7  0 25  0.0000000  0  7G01G03G04G09G31G16G26
   6794123.02346   5266226.23444  23430353.3524                   23430355.9024
        40.5004         24.5004
   -242544.63348   -180693.93448  19855105.3134                   19855105.7894
        50.0004         50.2504
  -3295955.10947  -2550085.01245  20712998.3284                   20712996.7934
        47.2504         35.5004
  -5560718.01647  -4312587.33646  22964526.5704                   22964528.1484
        43.0004         39.0004
   6463832.19547   5003349.61746  22179363.3444                   22179361.0474
        45.2504         38.7504
  -6981960.81247  -5382807.62945  21555714.3984                   21555713.3204
        45.5004         30.7504
   -641737.13347   -496033.12947  21395357.1414                   21395358.8284
        47.2504         42.2504
 25  8  7  0 25 15.0000000  0  7G01G03G04G09G31G16G26
   6840621.69546   5302458.83644  23439202.2274                   23439204.3754
        40.5004         24.5004
   -232997.14848   -173254.35248  19856922.3444                   19856922.6684
        50.2504         50.2504
  -3313737.46547  -2563941.37945  20709614.4384                   20709613.1764
        47.5004         35.5004
  -5599080.38347  -4342480.05946  22957226.5164                   22957228.1994
        42.5004         38.5004
   6509638.69947   5039042.96946  22188079.7584                   22188078.0354
        45.2504         39.2504
  -7019163.30147  -5411796.54345  21548634.5784                   21548633.4024
        45.0004         30.5004
   -633907.57847   -489932.16447  21396847.3284                   21396848.4104
        46.7504         42.5004
 25  8  7  0 25 30.0000000  0  8G01G06G03G04G09G31G16G26
   6887141.72346   5338708.12144  23448054.0314                   23448057.1054
        39.5004         24.5004
    -45887.93056    -28276.70354  24479549.7974                   24479552.0314
        38.5004         27.0004
   -223306.92648   -165703.53948  19858766.2424                   19858766.5084
        49.2504         50.2504
  -3331477.54347  -2577764.80946  20706238.4224                   20706237.2504
        47.0004         36.0004
  -5637433.36746  -4372365.46946  22949928.2664                   22949929.8674
        41.0004         38.0004
   6555488.53147   5074770.09046  22196803.7424                   22196802.6844
        44.7504         39.0004
  -7056254.43447  -5440698.68745  21541576.9144                   21541575.5904
        45.2504         30.7504
   -625923.88747   -483711.10547  21398366.5004                   21398368.0314
        44.5004         42.5004
 25  8  7  0 25 45.0000000  0  8G01G06G03G04G09G31G16G26
   6933682.35946   5374973.44543  23456910.1804                   23456913.7304
        40.5004         22.7504
    -61479.14546    -40425.69544  24476582.3204                   24476585.1054
        39.0004         28.0004
   -213474.37548   -158041.82048  19860637.1564                   19860637.6134
        50.5004         50.2504
  -3349175.62547  -2591555.51246  20702870.8364                   20702869.3324
        47.0004         36.5004
  -5675777.28146  -4402243.79346  22942631.0944                   22942633.1174
        39.2504         37.2504
   6601380.98847   5110530.43046  22205537.1954                   22205535.9494
        44.5004         39.2504
  -7093234.27347  -5469514.10945  21534539.7814                   21534538.3364
        45.0004         30.7504
   -617786.52347   -477370.30947  21399915.1334                   21399916.4024
        47.0004         42.2504
 25  8  7  0 26  0.0000000  0  8G01G06G03G04G09G31G16G26
   6980242.43446   5411253.89843  23465770.6174                   23465773.8554
        40.0004         23.7504
    -76941.62546    -52474.38344  24473640.1024                   24473642.1884
        37.7504         27.5004
   -203500.21548   -150269.76648  19862535.7734                   19862535.5594
        50.2504         50.2504
  -3366832.46547  -2605314.07446  20699510.4614                   20699509.7464
        47.0004         36.0004
  -5714112.84846  -4432115.61346  22935336.1174                   22935337.9104
        40.5004         36.5004
   6647315.12947   5146323.22746  22214278.7034                   22214276.8954
        45.2504         39.2504
  -7130103.14147  -5498243.05945  21527523.9694                   21527522.6524
        45.2504         30.5004
   -609496.29347   -470910.38347  21401492.4844                   21401494.0084
        46.5004         42.5004
 25  8  7  0 26 15.0000000  0  8G01G06G03G04G09G31G16G26
   7026821.19946   5447548.96144  23474634.0554                   23474637.7154
        40.0004         24.2504
    -92275.61346    -64422.94144  24470722.0164                   24470724.6724
        38.0004         28.5004
   -193384.84048   -142387.66048  19864460.0784                   19864460.3324
        49.7504         50.0004
  -3384448.27047  -2619040.66846  20696158.3984                   20696157.0474
        46.7504         36.0004
  -5752440.30546  -4461981.10945  22928042.4924                   22928044.7734
        40.5004         35.5004
   6693290.38747   5182148.08246  22223027.6094                   22223025.8484
        45.0004         39.0004
  -7166860.96947  -5526885.47345  21520528.7114                   21520527.9064
        45.0004         30.0004
   -601053.58647   -464331.64547  21403099.3204                   21403100.7384
        45.2504         42.0004
 25  8  7  0 26 30.0000000  0  8G01G06G03G04G09G31G16G26
   7073417.65646   5483857.76643  23483501.7274                   23483504.8134
        41.2504         23.7504
   -107481.76646    -76271.87944  24467828.4064                   24467830.9454
        38.7504         27.2504
   -183128.86348   -134396.00048  19866412.2194                   19866412.5124
        50.0004         50.2504
  -3402023.63747  -2632735.74245  20692813.6484                   20692812.7544
        47.7504         35.5004
  -5790760.33646  -4491840.80945  22920750.7034                   22920752.4144
        38.5004         35.0004
   6739305.60947   5218004.06346  22231784.3284                   22231782.5234
        45.5004         39.0004
  -7203508.00047  -5555441.57445  21513555.5634                   21513554.0784
        45.5004         30.7504
   -592459.14547   -457634.67247  21404734.6724                   21404735.9384
        45.7504         42.2504
 25  8  7  0 26 45.0000000  0  8G01G06G03G04G09G31G16G26
   7120032.24246   5520180.71143  23492371.4774                   23492375.4024
        40.0004         22.7504
   -122559.08646    -88020.44144  24464959.2894                   24464961.5554
        39.0004         27.2504
   -172731.46948   -126294.15248  19868390.6724                   19868390.9024
        49.0004         50.0004
  -3419557.68747  -2646398.62546  20689477.3754                   20689475.9964
        46.0004         36.2504
  -5829071.96146  -4521693.97745  22913459.6334                   22913461.5274
        39.5004         35.2504
   6785361.27347   5253891.57846  22240547.4534                   22240545.9844
        44.2504         39.5004
  -7240042.99247  -5583910.35245  21506602.8674                   21506601.8594
        45.7504         30.0004
   -583712.16847   -450818.84847  21406399.0084                   21406400.2814
        46.0004         42.2504
 25  8  7  0 27  0.0000000  0  8G01G06G03G04G09G31G16G26
   7166664.94546   5556517.78544  23501245.2274                   23501249.4804
        40.0004         24.0004
   -137507.13746    -99668.27344  24462114.9614                   24462117.2304
        38.7504         27.0004
   -162192.30148   -118081.82848  19870396.1334                   19870396.4064
        49.7504         50.0004
  -3437049.93447  -2660028.94146  20686148.4224                   20686147.1454
        46.5004         36.0004
  -5867374.75046  -4551540.25845  22906171.2344                   22906172.3364
        41.5004         35.5004
   6831457.56347   5289810.73846  22249319.6334                   22249317.9534
        44.5004         39.0004
  -7276465.28547  -5612291.31645  21499672.4144                   21499670.4614
        45.7504         30.2504
   -574812.37547   -443883.94147  21408092.6094                   21408093.9844
        46.5004         42.2504
 25  8  7  0 27 15.0000000  0  8G01G06G03G04G09G31G16G26
   7213315.14146   5592868.46143  23510123.5234                   23510126.4574
        40.7504         22.5004
   -152326.16046   -111215.55544  24459294.7814                   24459297.2584
        38.0004         28.2504
   -151511.62948   -109759.24248  19872428.6644                   19872428.9774
        50.0004         50.0004
  -3454500.64547  -2673626.88345  20682827.8524                   20682826.7304
        47.0004         35.5004
  -5905668.93447  -4581379.84846  22898884.3444                   22898885.3204
        42.5004         36.0004
   6877593.93847   5325761.13746  22258099.5004                   22258097.5394
        45.5004         39.2504
  -7312774.76247  -5640584.37545  21492763.2424                   21492761.2664
        46.0004         31.2504
   -565760.10547   -436830.22747  21409815.2274                   21409816.8954
        46.5004         42.2504
 25  8  7  0 27 30.0000000  0  8G01G06G03G04G09G31G16G26
   7259982.48846   5629232.51244  23519003.7664                   23519006.6374
        40.5004         25.2504
   -167015.88746   -122662.08244  24456499.3834                   24456502.1914
        38.7504         28.2504
   -140689.34048   -101326.29748  19874487.7424                   19874488.2034
        50.0004         50.0004
  -3471909.54747  -2687192.25446  20679514.8054                   20679513.7194
        47.0004         36.0004
  -5943954.37547  -4611212.64146  22891598.6334                   22891599.8484
        43.2504         36.2504
   6923770.29347   5361742.68446  22266886.7194                   22266884.8874
        45.5004         39.0004
  -7348970.66047  -5668788.93445  21485874.1334                   21485873.1724
        45.7504         30.5004
   -556555.30147   -429657.64547  21411566.7664                   21411568.5044
        46.0004         42.2504
 25  8  7  0 27 45.0000000  0  8G01G06G03G04G09G31G16G26
   7306667.61746   5665610.44143  23527887.9534                   23527891.0984
        40.5004         22.7504
   -181575.36346   -134007.14144  24453728.5634                   24453731.4024
        38.5004         28.2504
   -129724.49248    -92782.27048  19876574.6174                   19876575.0824
        50.0004         50.0004
  -3489275.64847  -2700724.26646  20676210.0164                   20676209.1094
        47.5004         36.0004
  -5982230.00847  -4641037.78546  22884315.0084                   22884315.8754
        43.5004         36.5004
   6969987.24647   5397755.87546  22275681.1024                   22275679.5354
        45.0004         39.2504
  -7385051.89547  -5696904.13745  21479008.7504                   21479006.8554
        46.2504         30.7504
   -547197.02747   -422365.48447  21413347.3524                   21413349.2034
        46.5004         42.0004
 25  8  7  0 28  0.0000000  0  8G01G06G03G04G09G31G16G26
   7353369.95746   5702001.75844  23536774.7424                   23536778.1804
        40.2504         25.7504
   -196004.57446   -145250.67244  24450983.2344                   24450985.6954
        39.0004         29.0004
   -118617.28948    -84127.32048  19878688.0314                   19878688.4734
        49.7504         50.0004
  -3506599.06647  -2714223.02046  20672913.7424                   20672912.5864
        46.7504         36.2504
  -6020495.92647  -4670855.36746  22877033.4384                   22877034.4574
        43.7504         37.0004
   7016244.25447   5433800.26646  22284483.6094                   22284482.1294
        45.2504         39.2504
  -7421018.21947  -5724929.80945  21472163.9844                   21472163.2464
        45.0004         30.7504
   -537685.62547   -414954.00047  21415157.6334                   21415159.3054
        45.7504         42.0004
 25  8  7  0 28 15.0000000  0  8G01G06G03G04G09G31G16G26
   7400088.79346   5738405.89544  23545665.7664                   23545668.7974
        41.0004         24.5004
   -210303.91046   -156393.02344  24448262.0164                   24448265.1254
        38.5004         28.0004
   -107368.02348    -75361.67248  19880828.7584                   19880828.7734
        49.7504         50.0004
  -3523879.97747  -2727688.66046  20669625.2274                   20669623.9804
        46.2504         36.0004
  -6058752.45347  -4700665.62946  22869753.3284                   22869754.2304
        44.5004         37.5004
   7062540.76647   5469875.44546  22293293.6254                   22293292.0044
        46.0004         39.5004
  -7456869.57847  -5752865.89145  21465341.4534                   21465340.6254
        45.5004         30.7504
   -528021.41047   -407423.44147  21416996.7584                   21416998.3134
        46.7504         42.0004
 25  8  7  0 28 30.0000000  0  8G01G06G03G04G09G31G16G26
   7446824.09446   5774822.91444  23554558.4224                   23554562.3984
        40.5004         24.5004
   -224472.91446   -167433.78944  24445565.7894                   24445568.5004
        38.2504         29.2504
    -95976.45348    -66485.13348  19882996.4924                   19882996.7544
        50.0004         50.0004
  -3541118.10547  -2741120.96146  20666345.2274                   20666344.0164
        46.5004         36.5004
  -6096999.20347  -4730468.26246  22862475.4144                   22862476.6644
        43.7504         38.0004
   7108876.89847   5505981.49646  22302111.5314                   22302109.7504
        45.2504         39.5004
  -7492605.34047  -5780711.89845  21458541.8834                   21458540.2584
        45.5004         31.0004
   -518204.19547   -399773.66047  21418865.0234                   21418866.6134
        46.5004         42.2504
 25  8  7  0 28 45.0000000  0  8G01G06G03G04G09G31G16G26
   7493576.57446   5811253.31343  23563455.9304                   23563459.3674
        40.5004         23.0004
   -238510.32846   -178372.04344  24442894.5474                   24442896.9574
        38.5004         28.5004
    -84441.36748    -57496.77048  19885191.7894                   19885191.7504
        50.0004         50.0004
  -3558312.06647  -2754518.84446  20663073.2974                   20663072.0354
        45.5004         36.0004
  -6135234.90647  -4760262.28946  22855199.4144                   22855200.4454
        43.2504         38.5004
   7155253.48847   5542119.07046  22310936.4224                   22310934.1644
        44.5004         39.0004
  -7528223.91447  -5808466.58645  21451764.5004                   21451762.4264
        46.0004         31.0004
   -508232.86747   -392003.78947  21420762.6414                   21420763.6254
        46.7504         42.2504
 25  8  7  0 29  0.0000000  0  8G01G06G03G04G09G31G16G26
   7540344.53946   5847695.77343  23572354.4454                   23572359.0904
        40.0004         22.7504
   -252417.49246   -189208.78544  24440248.5864                   24440250.8834
        39.0004         28.5004
    -72764.19948    -48397.69948  19887413.6414                   19887414.0704
        48.5004         50.0004
  -3575463.30147  -2767883.43446  20659809.3914                   20659808.2974
        46.0004         36.0004
  -6173460.95347  -4790048.77346  22847924.9304                   22847926.4024
        42.0004         38.2504
   7201668.75447   5578286.79346  22319768.9384                   22319766.9534
        45.2504         39.5004
  -7563726.09047  -5836130.57845  21445007.6564                   21445006.7384
        46.0004         30.7504
   -498108.86747   -384114.95747  21422688.8674                   21422690.1174
        43.7504         42.2504
 25  8  7  0 29 15.0000000  0  8G01G06G03G04G09G31G16G26
   7587128.76646   5884150.85543  23581258.7894                   23581261.6454
        41.0004         22.5004
   -266193.18746   -199943.09844  24437627.2274                   24437629.5864
        37.5004         29.2504
    -60943.76648    -39186.98048  19889662.8364                   19889663.6054
        50.2504         50.0004
  -3592570.46547  -2781213.67646  20656554.0944                   20656552.4344
        46.0004         36.0004
  -6211676.02046  -4819826.69146  22840653.0634                   22840654.4774
        41.0004         37.5004
   7248123.60247   5614485.35946  22328608.3134                   22328606.8594
        44.5004         39.0004
  -7599110.60547  -5863702.89145  21438274.0084                   21438272.9924
        45.2504         31.2504
   -487831.09847   -376106.30147  21424644.7894                   21424645.8984
        45.5004         42.0004
 25  8  7  0 29 30.0000000  0  8G01G06G03G04G09G31G16G26
   7633927.75046   5920617.51243  23590163.8914                   23590167.6564
        39.2504         22.7504
   -279838.46146   -210575.77744  24435030.1884                   24435032.5394
        39.0004         28.7504
    -48981.24248    -29865.54748  19891939.6334                   19891939.6764
        50.2504         49.7504
  -3609634.62147  -2794510.42246  20653306.8204                   20653305.2894
        46.2504         36.7504
  -6249881.22746  -4849596.92246  22833382.1414                   22833384.4344
        40.2504         37.2504
   7294616.73447   5650713.74646  22337456.2344                   22337454.7584
        45.0004         39.0004
  -7634378.10247  -5891184.01645  21431563.2814                   21431561.8164
        45.7504         31.5004
   -477400.80547   -367978.80547  21426629.4224                   21426630.7664
        45.7504         42.0004
 25  8  7  0 29 45.0000000  0  8G01G06G03G04G09G31G16G26
   7680741.63746   5957095.74643  23599072.2504                   23599076.1484
        39.7504         23.5004
   -293352.58646   -221106.28144  24432458.2814                   24432460.8954
        39.0004         28.0004
    -36876.03948    -20432.93748  19894243.1334                   19894242.9304
        49.5004         50.0004
  -3626655.09847  -2807773.11746  20650067.7584                   20650066.3444
        46.0004         36.5004
  -6288075.93046  -4879358.96146  22826113.7274                   22826116.0394
        40.0004         37.2504
   7341148.34047   5686972.10946  22346311.0234                   22346309.3954
        44.5004         38.7504
  -7669527.57847  -5918573.17645  21424874.1094                   21424873.0784
        45.2504         30.5004
   -466817.44947   -359732.02746  21428643.6254                   21428644.9104
        45.5004         41.7504
 25  8  7  0 30  0.0000000  0  8G01G06G03G04G09G31G16G26
   7727570.27346   5993585.47743  23607983.7424                   23607987.6294
        40.0004         22.5004
   -306735.47746   -231534.49644  24429911.9454                   24429914.8794
        37.7504         27.7504
    -24628.05548    -10889.06648  19896573.6334                   19896573.9104
        48.0004         49.7504
  -3643631.70347  -2821001.63746  20646837.1174                   20646836.1294
        46.2504         36.5004
  -6326259.87946  -4909112.61746  22818848.0004                   22818849.8284
        40.7504         37.5004
   7387718.33647   5723260.39146  22355172.9534                   22355171.3984
        44.7504         39.2504
  -7704558.63347  -5945870.06245  21418208.3524                   21418206.9574
        45.7504         31.2504
   -456080.96147   -351365.93447  21430686.5554                   21430687.9494
        44.0004         42.0004
 25  8  7  0 30 15.0000000  0  8G01G06G03G04G09G31G16G26
   7774413.12146   6030086.25043  23616898.2344                   23616901.6094
        40.5004         22.5004
   -319987.14146   -241860.47344  24427390.0784                   24427392.5944
        38.0004         28.7504
    -12237.44948     -1234.06248  19898931.6644                   19898932.2974
        49.7504         50.0004
  -3660564.48847  -2834196.00046  20643615.2274                   20643613.7584
        45.7504         36.5004
  -6364433.14846  -4938857.95746  22811584.0474                   22811585.6414
        41.5004         37.7504
   7434326.28547   5759578.24646  22364042.6334                   22364040.5744
        44.0004         38.5004
  -7739470.82447  -5973074.32045  21411564.4534                   21411563.4414
        45.7504         32.7504
   -445191.60547   -342880.71947  21432758.4694                   21432760.1454
        45.7504         42.0004
 25  8  7  0 30 30.0000000  0  8G01G06G03G04G09G31G16G26
   7821269.43846   6066597.57443  23625814.0474                   23625817.9804
        40.0004         22.7504
   -333107.89546   -252084.42644  24424893.0474                   24424896.3714
        38.5004         28.5004
       295.42248      8531.79748  19901316.7424                   19901317.0204
        50.0004         50.0004
  -3677453.76647  -2847356.46546  20640400.7114                   20640399.4144
        46.2504         36.5004
  -6402596.03547  -4968595.22346  22804321.5944                   22804323.1484
        42.0004         38.7504
   7480971.53547   5795925.17646  22372918.6024                   22372916.8134
        44.0004         39.0004
  -7774264.24647  -6000186.04745  21404944.1174                   21404942.3914
        46.2504         30.7504
   -434149.81247   -334276.71947  21434859.8674                   21434861.4924
        45.7504         42.0004
 25  8  7  0 30 45.0000000  0  8G01G06G03G04G09G31G16G26
   7868138.59846   6103118.85243  23634733.5084                   23634736.5594
        41.0004         23.0004
   -346097.96546   -262206.56244  24422421.0474                   24422424.0124
        38.5004         27.2504
     12970.19148     18408.23048  19903728.4304                   19903728.9694
        48.5004         49.7504
  -3694299.68047  -2860483.15246  20637195.4774                   20637194.0664
        46.0004         36.5004
  -6440748.79347  -4998324.60246  22797061.4774                   22797062.6134
        43.0004         38.5004
   7527653.52347   5832300.73046  22381801.8984                   22381800.0514
        44.5004         39.0004
  -7808938.83247  -6027205.16845  21398344.6884                   21398343.9064
        45.5004         31.5004
   -422955.94147   -325554.22347  21436990.0864                   21436991.1484
        44.0004         42.0004
 25  8  7  0 31  0.0000000  0  8G01G06G03G04G09G31G16G26
   7915021.11346   6139650.58644  23643654.7894                   23643658.6454
        40.5004         24.5004
   -358956.25846   -272226.01644  24419974.4694                   24419977.1334
        37.7504         28.0004
     25787.89548     28396.03948  19906167.3674                   19906167.8134
        48.7504         50.0004
  -3711101.16047  -2873575.19946  20633998.2974                   20633997.2544
        46.2504         37.0004
  -6478890.28547  -5028045.21146  22789803.3754                   22789804.7154
        43.7504         38.5004
   7574372.98047   5868705.48046  22390692.3284                   22390690.5664
        43.7504         38.5004
  -7843493.20347  -6054130.60945  21391769.6094                   21391768.4964
        45.7504         32.2504
   -411609.10947   -316712.53546  21439149.1254                   21439150.5744
        44.5004         41.7504
 25  8  7  0 31 15.0000000  0  8G01G06G03G04G09G31G16G26
   7961916.20746   6176192.07043  23652579.2894                   23652582.5124
        41.0004         23.2504
   -371683.25446   -282143.16044  24417552.7974                   24417555.1604
        37.5004         27.7504
     38747.96948     38494.78148  19908633.8524                   19908634.0864
        49.7504         50.0004
  -3727858.63747  -2886632.96946  20630809.2664                   20630807.9924
        46.5004         36.7504
  -6517021.02047  -5057757.44546  22782547.5164                   22782548.2544
        43.5004         38.2504
   7621129.05547   5905138.75446  22399589.9064                   22399588.3014
        45.5004         38.7504
  -7877927.58247  -6080962.55945  21385217.3674                   21385215.2814
        46.0004         31.7504
   -400109.89147   -307752.09847  21441337.5864                   21441338.9024
        45.0004         42.0004
 25  8  7  0 31 30.0000000  0  8G01G06G03G04G09G31G16G26
   8008823.37546   6212742.99644  23661505.1024                   23661509.0204
        41.0004         24.0004
   -384278.93446   -291957.96544  24415155.2584                   24415158.5234
        37.5004         28.0004
     51850.30948     48704.39148  19911127.1804                   19911127.6334
        48.5004         50.0004
  -3744572.11347  -2899656.44546  20627628.9384                   20627627.8404
        46.0004         36.5004
  -6555140.91447  -5087461.23846  22775293.5394                   22775294.4224
        44.5004         37.2504
   7667921.66447   5941600.50046  22408493.8134                   22408492.4924
        45.2504         38.5004
  -7912241.53947  -6107700.66445  21378687.7504                   21378686.1024
        45.7504         32.0004
   -388458.44947   -298673.05946  21443554.4924                   21443556.0124
        43.5004         41.7504
 25  8  7  0 31 45.0000000  0  8G01G06G03G04G09G31G16G26
   8055742.44546   6249303.18844  23670433.4694                   23670437.4064
        40.0004         26.5004
   -396743.14546   -301670.35244  24412783.8284                   24412786.7814
        37.2504         27.5004
     65095.06348     59024.96148  19913647.4774                   19913647.7774
        49.5004         50.0004
  -3761241.33647  -2912645.44546  20624456.8524                   20624455.7854
        46.2504         37.0004
  -6593249.82847  -5117156.48446  22768042.1804                   22768042.1604
        43.7504         37.2504
   7714750.66047   5978090.61746  22417404.9774                   22417402.9884
        44.5004         38.0004
  -7946434.41447  -6134344.42645  21372180.4304                   21372179.2664
        45.7504         32.2504
   -376654.71147   -289475.33647  21445800.6414                   21445801.9924
        45.0004         42.0004
 25  8  7  0 32  0.0000000  0  8G01G06G03G04G09G31G16G26
   8102673.96946   6285873.08643  23679364.2504                   23679368.0314
        41.0004         22.5004
   -409074.81646   -311279.43744  24410437.2114                   24410439.6884
        36.5004         27.0004
     78483.10548     69457.18848  19916195.2584                   19916195.5704
        48.7504         49.7504
  -3777865.27047  -2925599.15246  20621293.4454                   20621291.9344
        46.2504         37.0004
  -6631346.73047  -5146842.36746  22760791.5634                   22760792.8204
        43.0004         36.5004
   7761616.41847   6014609.36346  22426323.5784                   22426322.0784
        45.0004         37.7504
  -7980505.03947  -6160892.92245  21365696.8364                   21365695.9454
        45.5004         32.0004
   -364697.86347   -280158.31646  21448075.7734                   21448077.7114
        45.2504         41.7504
 25  8  7  0 32 15.0000000  0  8G01G06G03G04G09G31G16G26
   8149616.42247   6322451.48844  23688297.5474                   23688301.3984
        42.0004         24.0004
   -421275.03146   -320786.09044  24408115.2584                   24408118.1724
        37.5004         25.5004
     92013.35948     80000.22748  19918769.9534                   19918770.4024
        49.5004         50.0004
  -3794444.92647  -2938518.35546  20618138.3914                   20618137.6644
        46.0004         36.0004
  -6669432.62547  -5176519.66046  22753544.1484                   22753544.9614
        42.5004         36.2504
   7808517.52347   6051155.66046  22435248.2424                   22435246.9534
        45.0004         37.5004
  -8014454.13347  -6187346.73045  21359237.1644                   21359235.2704
        46.0004         32.0004
   -352589.04747   -270722.86747  21450380.2664                   21450381.5594
        46.0004         42.0004
 25  8  7  0 32 30.0000000  0  8G01G06G03G04G09G31G16G26
   8196569.54746   6359038.18843  23697231.7504                   23697235.9414
        40.2504         22.2504
   -433343.68446   -330190.23044  24405818.7424                   24405821.2734
        36.5004         27.0004
    105685.78148     90654.05548  19921371.7274                   19921372.0204
        49.2504         50.0004
  -3810980.19547  -2951402.97746  20614991.8134                   20614990.6604
        46.0004         36.2504
  -6707507.40646  -5206188.28946  22746298.6024                   22746299.4924
        41.0004         36.5004
   7855453.81647   6087729.37946  22444179.8674                   22444178.5434
        44.5004         38.0004
  -8048281.40647  -6213705.60945  21352799.5004                   21352797.9104
        46.5004         32.0004
   -340328.36347   -261169.09047  21452713.6414                   21452715.1524
        45.7504         42.2504
 25  8  7  0 32 45.0000000  0  8G01G06G03G04G09G31G16G26
   8243532.53146   6395632.62943  23706169.0004                   23706172.6724
        41.5004         22.2504
   -445281.19546   -339492.19944  24403546.9304                   24403549.7974
        36.7504         27.2504
    119499.93048    101418.31348  19924000.7974                   19924001.0394
        49.2504         49.7504
  -3827471.41047  -2964253.27045  20611853.3674                   20611852.3874
        45.5004         35.7504
  -6745571.41046  -5235848.49646  22739055.3754                   22739056.6524
        41.0004         36.5004
   7902424.70747   6124330.05546  22453118.6414                   22453117.1294
        44.5004         38.0004
  -8081986.80947  -6239969.52345  21346385.4224                   21346383.7774
        45.7504         31.7504
   -327916.30947   -251497.35547  21455075.2664                   21455076.8594
        44.7504         42.0004
 25  8  7  0 33  0.0000000  0  8G01G06G03G04G09G31G16G26
   8290505.57846   6432234.87543  23715108.0394                   23715111.5434
        40.7504         22.7504
   -457086.84446   -348691.39844  24401300.1644                   24401302.8134
        37.2504         26.7504
    133456.39848    112293.46548  19926656.4534                   19926656.6684
        49.0004         49.7504
  -3843917.85547  -2977068.66846  20608723.8984                   20608722.6804
        46.2504         36.0004
  -6783623.99646  -5265499.80546  22731813.3674                   22731815.6094
        40.0004         36.0004
   7949430.48847   6160957.90246  22462063.3984                   22462061.8984
        44.7504         38.2504
  -8115569.30947  -6266137.66045  21339995.3674                   21339993.6724
        45.7504         32.0004
   -315352.37947   -241707.27747  21457466.0704                   21457467.5704
        45.0004         42.0004
 25  8  7  0 33 15.0000000  0  8G01G06G03G04G09G31G16G26
   8337488.39846   6468844.75843  23724048.6094                   23724052.7274
        40.7504         22.5004
   -468760.56646   -357787.80544  24399079.9614                   24399081.9414
        37.0004         27.0004
    147555.16847    123279.50848  19929339.3364                   19929339.5744
        47.7504         49.7504
  -3860319.40647  -2989849.09046  20605603.0704                   20605601.3874
        45.5004         36.0004
  -6821665.02046  -5295142.09046  22724574.4144                   22724576.7934
        40.5004         37.2504
   7996470.93847   6197612.78146  22471014.3914                   22471013.3094
        44.5004         38.5004
  -8149028.43047  -6292209.67245  21333627.6564                   21333626.7734
        45.7504         31.2504
   -302636.64547   -231798.91847  21459885.7814                   21459887.7034
        43.7504         42.0004
 25  8  7  0 33 30.0000000  0  8G01G06G03G04G09G31G16G26
   8384480.67646   6505461.97743  23732991.2344                   23732994.7814
        41.2504         22.7504
   -480302.19946   -366781.28144  24396882.9924                   24396885.4534
        36.7504         28.2504
    161796.29347    134376.47348  19932049.0704                   19932049.6174
        47.7504         49.7504
  -3876675.91447  -3002594.41846  20602490.2894                   20602489.3324
        45.0004         36.5004
  -6859694.29746  -5324775.23846  22717338.6804                   22717340.2114
        41.7504         38.2504
   8043545.93847   6234294.57046  22479973.4614                   22479971.5824
        44.7504         37.5004
  -8182363.91447  -6318185.33645  21327284.2344                   21327282.9344
        45.5004         30.7504
   -289769.10947   -221772.26247  21462334.3754                   21462336.1764
        43.7504         42.0004
 25  8  7  0 33 45.0000000  0  8G01G06G03G04G09G31G16G26
   8431481.99246   6542086.27043  23741934.9614                   23741938.9734
        40.5004         22.5004
   -491711.78946   -375671.87944  24394712.0474                   24394714.5784
        36.5004         27.2504
    176179.71148    145584.32048  19934786.5554                   19934786.6414
        49.5004         49.7504
  -3892987.31647  -3015304.59446  20599386.0234                   20599385.3834
        46.7504         36.5004
  -6897711.78947  -5354399.20346  22710103.8914                   22710105.7704
        43.0004         38.7504
   8090655.12947   6271003.00846  22488937.6334                   22488936.0744
        44.2504         37.5004
  -8215575.35247  -6344064.34445  21320964.5474                   21320963.0124
        45.5004         32.0004
   -276749.93447   -211627.44947  21464812.1254                   21464813.6954
        44.7504         42.0004
 25  8  7  0 34  0.0000000  0  8G01G06G03G04G09G31G16G26
   8478491.66446   6578717.03144  23750881.6094                   23750885.3244
        41.5004         25.2504
   -502989.62946   -384459.80144  24392564.5394                   24392568.6564
        36.5004         27.2504
    190704.94948    156902.68048  19937550.5474                   19937550.8014
        48.2504         49.7504
  -3909253.91447  -3027979.85546  20596290.6644                   20596289.8364
        45.5004         36.7504
  -6935717.81247  -5384014.24646  22702871.6804                   22702873.3834
        44.2504         40.2504
   8137797.96547   6307737.66446  22497909.0234                   22497906.9654
        44.7504         38.2504
  -8248662.76247  -6369846.70745  21314668.0474                   21314666.6954
        45.7504         31.5004
   -263579.62547   -201364.87147  21467317.9224                   21467319.6454
        45.2504         42.0004
 25  8  7  0 34 15.0000000  0  8G01G06G03G04G09G31G16G26
   8525508.79746   6615353.65244  23759827.4384                   23759832.2344
        39.7504         24.0004
   -514136.11746   -393145.37544  24390444.4064                   24390447.3634
        36.5004         28.5004
    205371.55548    168331.18848  19940341.5084                   19940341.9694
        49.5004         49.7504
  -3925476.05147  -3040620.48046  20593203.8054                   20593202.9614
        44.7504         37.0004
  -6973712.75047  -5413620.64846  22695642.0634                   22695642.7154
        44.5004         40.0004
   8184973.51247   6344497.80946  22506886.1094                   22506884.5234
        44.2504         38.0004
  -8281626.32047  -6395532.55945  21308394.9774                   21308393.8284
        45.5004         33.0004
   -250258.66847   -190984.89847  21469853.1484                   21469854.8554
        44.7504         42.0004
 25  8  7  0 34 30.0000000  0  8G01G06G03G04G09G31G16G26
   8572533.70346   6651996.28543  23768777.2664                   23768781.4024
        40.7504         22.7504
   -525150.63746   -401728.11744  24388348.3364                   24388351.2114
        36.5004         27.5004
    220180.16448    179870.34448  19943159.1804                   19943159.6254
        49.2504         49.5004
  -3941652.95747  -3053225.84846  20590125.4694                   20590124.6254
        45.2504         36.5004
  -7011695.87947  -5443217.86346  22688413.5704                   22688414.5004
        44.5004         40.5004
   8232182.19947   6381283.78946  22515868.7194                   22515867.5164
        44.0004         38.0004
  -8314464.92647  -6421121.04745  21302146.4144                   21302144.3914
        45.0004         32.2504
   -236786.56647   -180487.15646  21472416.9224                   21472418.4304
        44.5004         41.7504
 25  8  7  0 34 45.0000000  0  8G01G06G03G04G09G31G16G26
   8619565.48846   6688644.30943  23777725.6954                   23777730.8014
        39.0004         22.0004
   -536033.56246   -410208.32044  24386278.9304                   24386280.5234
        36.5004         27.7504
    235130.13748    191519.66448  19946004.7664                   19946004.8324
        49.5004         49.7504
  -3957785.09047  -3065796.33246  20587055.7504                   20587054.5084
        45.2504         36.2504
  -7049667.64147  -5472806.21546  22681188.1024                   22681188.7504
        44.2504         39.0004
   8279423.24247   6418094.95746  22524859.4454                   22524857.2664
        44.2504         37.5004
  -8347178.61347  -6446612.19545  21295921.3984                   21295919.2814
        46.0004         32.5004
   -223163.93747   -169872.12547  21475008.7114                   21475010.8134
        44.7504         42.0004
 25  8  7  0 35  0.0000000  0  8G01G06G03G04G09G31G16G26
   8666603.91446   6725297.49643  23786678.0634                   23786682.2274
        41.0004         22.0004
   -546784.68746   -418585.81644  24384231.9924                   24384234.7504
        36.2504         28.0004
    250221.67248    203279.28548  19948876.2664                   19948876.2424
        49.5004         49.5004
  -3973872.22347  -3078331.76246  20583994.0314                   20583993.1414
        45.7504         36.2504
  -7087627.77747  -5502385.51646  22673964.4224                   22673964.8284
        44.2504         38.0004
   8326696.60247   6454931.32446  22533855.0474                   22533853.4924
        43.7504         37.5004
  -8379766.93747  -6472005.66045  21289719.5634                   21289718.1644
        45.7504         32.2504
   -209390.73847   -159139.75447  21477630.2274                   21477631.2154
        44.5004         42.0004
 25  8  7  0 35 15.0000000  0  8G01G06G03G04G09G31G16G26
   8713649.18046   6761956.02743  23795629.2974                   23795634.9804
        37.7504         22.5004
   -557403.62146   -426860.30944  24382210.6484                   24382213.9844
        36.0004         26.5004
    265455.18048    215149.53948  19951775.1334                   19951775.3014
        48.0004         49.5004
  -3989913.73047  -3090831.62946  20580941.5234                   20580940.4774
        45.5004         36.2504
  -7125575.73447  -5531955.32446  22666742.6804                   22666743.5664
        42.5004         36.0004
   8374002.45347   6491793.00046  22542857.7504                   22542855.5274
        43.7504         37.5004
  -8412229.04747  -6497300.77745  21283542.1334                   21283540.9574
        46.5004         32.2504
   -195466.55947   -148289.74247  21480279.8834                   21480280.8914
        44.0004         42.0004
 25  8  7  0 35 30.0000000  0  8G01G06G03G04G09G31G16G26
   8760701.31346   6798619.86743  23804584.9384                   23804588.5354
        40.7504         21.7504
   -567889.70346   -435031.28544  24380215.6884                   24380218.2504
        36.7504         27.0004
    280831.00448    227130.68848  19954700.8674                   19954701.2774
        48.7504         49.5004
  -4005909.09447  -3103295.54346  20577897.8204                   20577896.8164
        44.7504         36.7504
  -7163510.96146  -5561515.21545  22659523.8134                   22659524.5944
        41.2504         34.5004
   8421341.05147   6528680.19946  22551865.8914                   22551863.5274
        44.0004         37.5004
  -8444564.19547  -6522496.96945  21277388.9534                   21277387.5744
        45.7504         33.0004
   -181391.13747   -137321.89147  21482958.1564                   21482959.5824
        44.7504         42.0004
 25  8  7  0 35 45.0000000  0  8G01G06G03G04G09G31G16G26
   8807759.48846   6835288.48443  23813538.3754                   23813543.6374
        39.2504         22.5004
   -578243.52346   -443099.19144  24378244.8754                   24378248.1294
        36.7504         27.5004
    296348.65248    239222.34848  19957653.7894                   19957654.3554
        49.0004         49.5004
  -4021858.72747  -3115723.81646  20574862.7664                   20574861.4654
        45.5004         36.2504
  -7201433.95346  -5591065.56645  22652307.0474                   22652308.1954
        41.0004         34.2504
   8468711.55547   6565592.25446  22560879.8284                   22560877.8324
        43.7504         38.0004
  -8476772.48847  -6547594.30145  21271259.4614                   21271258.7704
        44.7504         33.7504
   -167165.05947   -126236.62947  21485665.6724                   21485666.8524
        45.0004         42.0004
 25  8  7  0 36  0.0000000  0  8G01G06G03G04G09G31G16G26
   8854823.63346   6871961.68443  23822495.8204                   23822499.5474
        40.5004         22.5004
   -588464.74246   -451063.78144  24376300.6094                   24376303.2234
        36.5004         27.2504
    312008.40648    251424.73848  19960633.4774                   19960634.2274
        48.7504         49.5004
  -4037762.18747  -3128116.12146  20571836.8134                   20571835.3404
        45.7504         36.2504
  -7239344.22746  -5620606.00045  22645092.3594                   22645093.6094
        41.0004         35.2504
   8516114.08247   6602529.27346  22569900.3054                   22569898.3054
        43.5004         37.5004
  -8508853.21147  -6572592.23445  21265155.7584                   21265153.8834
        45.5004         33.7504
   -152788.07047   -115033.78146  21488400.9454                   21488402.2504
        43.7504         41.7504
 25  8  7  0 36 15.0000000  0  8G01G06G03G04G09G31G16G26
   8901893.17246   6908639.16043  23831451.1724                   23831456.9844
        38.5004         21.7504
   -598553.33246   -458925.01644  24374380.8204                   24374383.7544
        37.0004         28.0004
    327810.03147    263737.68048  19963640.7894                   19963641.1994
        47.7504         49.5004
  -4053619.55147  -3140472.50046  20568818.9224                   20568817.7074
        45.7504         37.0004
  -7277241.87947  -5650136.59446  22637880.9774                   22637882.4104
        42.0004         36.5004
   8563548.24647   6639490.93046  22578926.6804                   22578924.7704
        43.5004         37.5004
  -8540806.19547  -6597490.62545  21259075.0634                   21259073.0274
        45.7504         33.0004
   -138260.52747   -103713.62147  21491165.4384                   21491167.4454
        43.5004         42.0004
 25  8  7  0 36 30.0000000  0  8G01G06G03G04G09G31G16G26
   8948967.97346   6945320.64543  23840411.6804                   23840414.9534
        41.0004         22.5004
   -608509.32846   -466682.94144  24372485.8204                   24372488.8014
        37.2504         28.5004
    343753.56348    276161.19548  19966674.6174                   19966674.9494
        48.5004         49.5004
  -4069430.62547  -3152792.80946  20565810.4304                   20565809.2424
        45.2504         37.0004
  -7315126.71147  -5679657.21146  22630671.9534                   22630673.3094
        43.5004         37.5004
   8611013.73847   6676477.01646  22587959.2814                   22587957.2854
        42.2504         37.5004
  -8572631.07847  -6622289.20345  21253018.8914                   21253016.9734
        45.5004         32.7504
   -123582.39547    -92276.11347  21493958.8524                   21493960.2584
        43.7504         42.0004
 25  8  7  0 36 45.0000000  0  8G01G06G03G04G09G31G16G26
   8996046.37546   6982005.03143  23849369.4304                   23849374.1094
        39.7504         22.7504
   -618333.65246   -474338.24644  24370616.1804                   24370619.6684
        37.0004         27.7504
    359837.86348    288694.40248  19969735.6804                   19969735.8634
        48.7504         49.5004
  -4085196.44547  -3165077.85246  20562809.7194                   20562809.0044
        44.7504         36.2504
  -7352999.73847  -5709168.62546  22623465.4304                   22623466.3014
        44.2504         39.5004
   8658509.20347   6713486.44946  22596996.7814                   22596994.6884
        43.2504         37.5004
  -8604328.41047  -6646988.39845  21246986.8134                   21246985.1024
        45.2504         33.0004
   -108754.87547    -80722.20747  21496780.2584                   21496781.9304
        44.2504         42.0004
 25  8  7  0 37  0.0000000  0  8G01G06G03G04G09G31G16G26
   9043128.85546   7018692.50443  23858329.1954                   23858333.5864
        40.5004         21.5004
   -628025.78146   -481890.54744  24368772.6564                   24368774.9734
        37.2504         29.2504
    376063.49648    301337.73848  19972823.0234                   19972823.4774
        49.0004         49.5004
  -4100916.22747  -3177327.03146  20559818.6174                   20559817.6844
        45.0004         36.7504
  -7390860.25047  -5738670.28946  22616261.2194                   22616262.1994
        44.5004         40.7504
   8706035.01247   6750519.51246  22606041.3674                   22606039.5594
        43.0004         37.0004
  -8635897.28547  -6671587.48445  21240979.3364                   21240978.0514
        45.0004         33.0004
    -93777.52747    -69051.54747  21499630.2194                   21499632.0434
        45.5004         42.0004
 25  8  7  0 37 15.0000000  0  8G01G06G03G04G09G31G16G26
   9090216.02746   7055383.67243  23867289.7584                   23867293.9104
        40.2504         22.2504
   -637584.47746   -489338.89144  24366953.4534                   24366956.0474
        37.0004         28.2504
    392431.55147    314092.05148  19975937.7894                   19975938.2624
        47.7504         49.5004
  -4116588.77347  -3189539.39546  20556836.0314                   20556835.0314
        44.7504         36.5004
  -7428707.02347  -5768161.24646  22609058.8204                   22609059.7194
        44.7504         40.2504
   8753592.19947   6787577.04346  22615090.7814                   22615088.4344
        43.2504         36.5004
  -8667336.20747  -6696085.31245  21234996.8134                   21234995.3364
        45.5004         32.5004
    -78649.27747    -57263.29747  21502509.0704                   21502510.9884
        43.7504         42.2504
 25  8  7  0 37 30.0000000  0  9G01G06G03G04G07G09G31G16G26
   9137305.71146   7092076.80543  23876250.2664                   23876255.0434
        39.5004         21.5004
   -647011.55146   -496684.65644  24365159.7274                   24365161.9224
        37.2504         28.0004
    408940.06648    326955.81648  19979079.1174                   19979079.8484
        48.0004         49.5004
  -4132215.87547  -3201716.35546  20553862.8444                   20553861.2274
        46.0004         36.5004
   -116037.17656    -71797.57054  24382126.6254                   24382129.2974
        37.7504         25.5004
  -7466541.88347  -5797642.92646  22601859.4144                   22601860.4534
        44.7504         40.5004
   8801178.57847   6824657.31346  22624146.3914                   22624144.4414
        43.0004         36.2504
  -8698646.78547  -6720483.12145  21229038.5474                   21229036.5514
        46.0004         33.0004
    -63372.17247    -45359.06247  21505416.7814                   21505418.4224
        44.2504         42.2504
 25  8  7  0 37 45.0000000  0  9G01G06G03G04G07G09G31G16G26
   9184398.06646   7128771.99243  23885212.3054                   23885216.4734
        40.7504         21.7504
   -656306.61746   -503927.56244  24363389.9694                   24363393.1414
        37.7504         28.0004
    425589.45348    339929.34048  19982247.5234                   19982247.7424
        49.5004         49.2504
  -4147796.97347  -3213857.46146  20550897.2344                   20550896.7384
        46.0004         36.7504
   -155740.32846   -102734.92244  24374570.1644                   24374574.0354
        38.0004         26.0004
  -7504364.28547  -5827114.89146  22594661.5784                   22594662.9844
        44.7504         41.0004
   8848794.23847   6861760.40246  22633207.3284                   22633205.4534
        43.5004         37.0004
  -8729828.08247  -6744780.19945  21223105.0634                   21223103.1174
        45.5004         32.0004
    -47945.90647    -33338.59447  21508351.9304                   21508353.3674
        44.7504         42.0004
 25  8  7  0 38  0.0000000  0  9G01G06G03G04G07G09G31G16G26
   9231492.07046   7165468.50443  23894173.3284                   23894178.2934
        41.0004         21.2504
   -665470.21546   -511068.01244  24361646.8204                   24361649.4304
        37.0004         29.0004
    442379.08648    353012.16048  19985442.5864                   19985443.1134
        49.2504         49.2504
  -4163332.50447  -3225963.06246  20547941.1024                   20547940.1914
        46.0004         36.7504
   -195402.12946   -133640.04744  24367023.5004                   24367026.6954
        37.7504         25.5004
  -7542174.70347  -5856577.51646  22587466.2344                   22587467.4264
        43.2504         40.0004
   8896438.46547   6898885.75846  22642273.8524                   22642271.7504
        43.5004         37.2504
  -8760880.43047  -6768976.80145  21217195.4534                   21217194.2734
        45.0004         33.2504
    -32371.09447    -21202.38747  21511315.3754                   21511317.1804
        44.7504         42.2504
 25  8  7  0 38 15.0000000  0  9G01G06G03G04G07G09G31G16G26
   9278587.19146   7202165.82843  23903135.5554                   23903140.4774
        40.0004         21.7504
   -674502.39146   -518106.07844  24359928.0314                   24359930.3284
        36.7504         29.7504
    459308.71547    366204.06348  19988664.5314                   19988664.8714
        47.5004         49.2504
  -4178822.57447  -3238033.24646  20544993.8204                   20544992.2344
        46.2504         36.5004
   -235022.66046   -164513.02744  24359483.3444                   24359486.7814
        37.7504         25.5004
  -7579973.19547  -5886030.85246  22580273.2194                   22580274.4614
        42.2504         38.0004
   8944110.66847   6936032.90246  22651345.6954                   22651343.6054
        43.7504         36.7504
  -8791803.52747  -6793072.68745  21211310.6954                   21211309.8244
        45.2504         33.2504
    -16648.12947     -8950.72747  21514307.7734                   21514309.1174
        43.7504         42.0004
 25  8  7  0 38 30.0000000  0  9G01G06G03G04G07G09G31G16G26
   9325682.59446   7238863.43443  23912098.2894                   23912102.7464
        40.7504         22.0004
   -683403.77046   -525042.21144  24358234.3134                   24358236.7854
        37.5004         29.2504
    476377.74248    379504.59048  19991912.3444                   19991912.4884
        48.5004         49.5004
  -4194267.64847  -3250068.36346  20542054.9454                   20542053.0784
        45.5004         37.0004
   -274602.17646   -195354.03944  24351952.2584                   24351955.3204
        38.0004         25.2504
  -7617760.26646  -5915475.27346  22573082.5634                   22573083.4384
        41.0004         37.0004
   8991810.10947   6973201.28946  22660422.3594                   22660420.5634
        43.5004         37.2504
  -8822597.73447  -6817068.13745  21205451.5474                   21205449.4264
        45.7504         33.2504
      -777.62547      3415.89847  21517328.0864                   21517329.5664
        44.0004         42.0004
 25  8  7  0 38 45.0000000  0  9G01G06G03G04G07G09G31G16G26
   9372778.14146   7275561.14143  23921059.6334                   23921064.6094
        39.7504         21.2504
   -692173.94946   -531876.11744  24356565.2974                   24356567.5984
        37.2504         29.0004
    493586.41848    392913.93848  19995187.1254                   19995187.3364
        48.5004         49.5004
  -4209667.25447  -3262068.05146  20539124.2274                   20539122.8714
        46.5004         37.0004
   -314140.33646   -226162.81644  24344428.0634                   24344430.9024
        38.7504         25.5004
  -7655535.49646  -5944910.47346  22565893.8134                   22565895.0904
        41.5004         36.0004
   9039536.94147   7010390.99646  22669504.8524                   22669502.6604
        44.5004         36.7504
  -8853262.30947  -6840962.57045  21199616.2894                   21199614.8984
        45.7504         33.2504
     15240.57847     15897.60947  21520376.1254                   21520377.7894
        44.0004         42.0004
 25  8  7  0 39  0.0000000  0  9G01G06G03G04G07G09G31G16G26
   9419873.64846   7312258.80143  23930022.0314                   23930026.8204
        38.5004         22.0004
   -700812.89146   -538607.74644  24354921.2034                   24354924.2154
        37.5004         29.2504
    510934.75448    406432.10248  19998488.2664                   19998488.7664
        50.0004         49.5004
  -4225021.28147  -3274032.22746  20536202.3594                   20536200.9654
        46.0004         36.7504
   -353636.74246   -256939.06644  24336911.3674                   24336914.8364
        38.0004         26.2504
  -7693298.71946  -5974336.32046  22558707.9844                   22558708.8364
        41.5004         36.2504
   9087290.92247   7047601.87546  22678591.7664                   22678589.9304
        43.7504         36.5004
  -8883796.67247  -6864755.55145  21193805.5084                   21193803.9304
        46.2504         32.5004
     31406.44147     28494.38347  21523452.2504                   21523453.6254
        44.7504         42.0004
 25  8  7  0 39 15.0000000  0  9G01G06G03G04G07G09G31G16G26
   9466969.00846   7348956.33643  23938983.8674                   23938988.5234
        40.5004         21.2504
   -709320.12546   -545236.76244  24353302.1484                   24353305.0984
        38.2504         29.5004
    528423.07048    420059.34848  20001816.4534                   20001816.6414
        49.7504         49.2504
  -4240329.22347  -3285960.48846  20533288.8134                   20533287.7234
        47.5004         37.0004
   -393091.48046   -287682.85944  24329403.9144                   24329406.6844
        38.7504         26.5004
  -7731049.41047  -6003752.41846  22551524.8134                   22551525.1024
        43.0004         36.0004
   9135072.16447   7084833.99246  22687683.5084                   22687682.6844
        44.0004         36.7504
  -8914200.19147  -6888446.56645  21188019.4384                   21188018.0744
        46.2504         33.0004
     47720.19547     41206.39547  21526556.3914                   21526558.1914
        44.7504         42.0004
 25  8  7  0 39 30.0000000  0  9G01G06G03G04G07G09G31G16G26
   9514064.52746   7385654.01643  23947946.0474                   23947950.8714
        39.7504         20.7504
   -717695.16846   -551762.77044  24351709.2344                   24351711.3054
        37.5004         29.2504
    546051.80148    433796.00848  20005171.0704                   20005171.5784
        49.5004         49.2504
  -4255590.39547  -3297852.30546  20530385.2894                   20530383.6254
        46.5004         37.0004
   -432503.76246   -318393.57444  24321903.7034                   24321906.7304
        39.0004         26.2504
  -7768786.96547  -6033158.28946  22544343.1414                   22544343.6134
        43.2504         37.5004
   9182880.94947   7122087.55946  22696782.1094                   22696779.5824
        43.5004         36.5004
  -8944472.14547  -6912035.07045  21182259.1954                   21182257.7154
        46.2504         33.0004
     64182.22747     54033.94547  21529689.2504                   21529690.6764
        43.7504         42.0004
 25  8  7  0 39 45.0000000  0  9G01G06G03G04G07G09G31G16G26
   9561158.95746   7422350.83243  23956907.8984                   23956912.7344
        39.5004         20.2504
   -725938.75046   -558186.34044  24350139.7274                   24350142.7624
        37.2504         29.0004
    563820.08248    447641.41048  20008552.1884                   20008552.6454
        49.0004         49.2504
  -4270805.56247  -3309708.27746  20527489.6954                   20527488.8524
        46.7504         37.0004
   -471874.27746   -349071.73044  24314411.6884                   24314414.6844
        38.5004         27.0004
  -7806512.16447  -6062554.53146  22537164.9844                   22537165.1684
        44.0004         38.7504
   9230716.15647   7159361.73046  22705884.3364                   22705882.8634
        44.0004         36.5004
  -8974612.94147  -6935521.37145  21176523.6024                   21176522.2304
        46.0004         32.5004
     80791.64847     66976.35247  21532849.8834                   21532851.2544
        43.7504         42.0004
 25  8  7  0 40  0.0000000  0  9G01G06G03G04G07G09G31G16G26
   9608252.66446   7459047.09443  23965870.6954                   23965874.7304
        39.7504         19.7504
   -734050.22746   -564506.96144  24348596.2114                   24348599.2624
        38.0004         29.2504
    581728.53947    461596.03548  20011960.1564                   20011960.6804
        47.5004         49.2504
  -4285973.91847  -3321527.77346  20524603.5084                   20524601.6414
        46.5004         37.2504
   -511202.23846   -379716.73444  24306927.9844                   24306930.2584
        38.7504         26.5004
  -7844224.14847  -6091940.48046  22529988.1954                   22529988.9654
        44.5004         40.0004
   9278578.38747   7196656.94946  22714992.5004                   22714990.4964
        43.5004         36.5004
  -9004621.41847  -6958904.55945  21170813.5634                   21170811.5984
        47.0004         33.0004
     97548.91047     80033.95747  21536038.5944                   21536040.0084
        43.5004         42.0004
 25  8  7  0 40 15.0000000  0  9G01G06G03G04G07G09G31G16G26
   9655344.88346   7495742.19943  23974830.6954                   23974835.8754
        38.2504         21.2504
   -742029.99646   -570724.96544  24347077.6484                   24347080.6954
        38.0004         29.5004
    599776.69947    475659.52048  20015394.4064                   20015394.6764
        47.7504         49.2504
  -4301095.77047  -3333311.03946  20521725.8364                   20521724.2074
        46.0004         36.5004
   -550487.96946   -410328.83644  24299452.0554                   24299454.5354
        39.2504         26.0004
  -7881923.28947  -6121316.40646  22522813.9774                   22522815.2464
        44.5004         40.2504
   9326466.87947   7233972.65246  22724105.2814                   22724103.9454
        43.5004         36.7504
  -9034497.78947  -6982184.81245  21165128.3674                   21165126.4964
        47.0004         33.2504
    114453.52047     93206.37546  21539255.6804                   21539256.7894
        43.5004         41.7504
 25  8  7  0 40 30.0000000  0  9G01G06G03G04G07G09G31G16G26
   9702436.27746   7532436.63343  23983792.4454                   23983796.9454
        37.7504         20.7504
   -749876.95746   -576839.48044  24345585.1884                   24345587.4844
        37.7504         29.5004
    617965.50048    489832.59848  20018855.7274                   20018855.8054
        49.0004         49.2504
  -4316169.96547  -3345057.16046  20518857.2664                   20518855.8444
        46.2504         36.2504
   -589730.27746   -440907.09844  24291984.0234                   24291986.6294
        39.2504         27.0004
  -7919608.41847  -6150681.41046  22515642.4304                   22515644.0594
        43.7504         39.5004
   9374382.46947   7271309.44946  22733223.2274                   22733221.5554
        43.5004         36.2504
  -9064240.54747  -7005360.95345  21159467.8524                   21159466.4694
        46.2504         33.5004
    131506.39147    106494.32846  21542500.5474                   21542502.0904
        44.7504         41.5004
 25  8  7  0 40 45.0000000  0  9G01G06G03G04G07G09G31G16G26
   9749526.39546   7569130.09043  23992754.5314                   23992758.4344
        39.5004         21.7504
   -757591.20746   -582850.59444  24344116.7424                   24344119.1914
        38.0004         29.2504
    636294.77048    504115.14148  20022343.4224                   20022344.0744
        49.0004         49.2504
  -4331196.52747  -3356766.16446  20515997.5784                   20515996.6764
        46.2504         36.7504
   -628929.28546   -471451.65244  24284524.4064                   24284527.1684
        39.0004         26.0004
  -7957279.58647  -6180035.53146  22508474.0314                   22508475.4804
        43.7504         39.2504
   9422324.76647   7308667.06346  22742346.7734                   22742345.1484
        43.5004         36.7504
  -9093849.48047  -7028432.81245  21153833.6804                   21153831.8674
        45.5004         33.5004
    148707.26247    119897.60247  21545773.5474                   21545775.2304
        43.7504         42.0004
 25  8  7  0 41  0.0000000  0  9G01G06G03G04G07G09G31G16G26
   9796613.99246   7605821.60943  24001713.7584                   24001718.9614
        38.5004         20.7504
   -765173.59446   -588758.94144  24342674.0234                   24342676.5234
        38.0004         29.5004
    654763.56648    518506.39148  20025858.2894                   20025858.5044
        49.5004         49.5004
  -4346176.18447  -3368438.62946  20513147.2664                   20513146.0984
        46.0004         36.7504
   -668085.81246   -501963.07844  24277072.8524                   24277075.7344
        39.5004         27.5004
  -7994937.55147  -6209379.35246  22501307.3594                   22501309.2464
        42.5004         39.5004
   9470292.62947   7346044.58246  22751474.8754                   22751473.2194
        43.5004         36.5004
  -9123325.19547  -7051400.87145  21148224.4924                   21148222.8364
        45.5004         34.0004
    166055.10947    133415.40246  21549075.0084                   21549076.7234
        44.5004         41.7504
 25  8  7  0 41 15.0000000  0  9G01G06G03G04G07G09G31G16G26
   9843699.17646   7642511.18843  24010673.8364                   24010679.4804
        37.7504         19.2504
   -772623.80146   -594564.29344  24341256.4694                   24341258.6414
        38.5004         29.7504
    673372.23047    533006.62948  20029399.3134                   20029399.5234
        47.7504         49.2504
  -4361108.47747  -3380074.17646  20510305.5314                   20510304.7664
        46.2504         36.5004
   -707199.26246   -532440.94544  24269630.0314                   24269632.8364
        39.0004         26.7504
  -8032581.80547  -6238712.48446  22494144.0394                   22494145.5864
        42.2504         38.0004
   9518286.14547   7383442.11346  22760607.8914                   22760605.7544
        43.0004         36.7504
  -9152666.84847  -7074264.46545  21142641.0944                   21142639.0704
        45.0004         33.7504
    183550.21947    147047.95347  21552404.1484                   21552405.7894
        43.5004         42.0004
 25  8  7  0 41 30.0000000  0  9G01G06G03G04G07G09G31G16G26
   9890781.99646   7679198.95343  24019633.7344                   24019639.2034
        38.2504         20.2504
   -779941.36746   -600266.30144  24339864.0084                   24339866.5594
        36.7504         29.0004
    692121.03548    547616.07848  20032967.2034                   20032967.3484
        48.5004         49.2504
  -4375992.87947  -3391672.41046  20507473.2734                   20507471.9924
        46.7504         36.2504
   -746269.16446   -562884.84844  24262194.8204                   24262197.5044
        39.0004         27.0004
  -8070211.89147  -6268034.57846  22486983.4304                   22486984.8954
        42.0004         37.7504
   9566305.51247   7420859.79746  22769744.4224                   22769743.4804
        42.7504         36.7504
  -9181873.76247  -7097023.07045  21137083.1884                   21137081.2114
        45.2504         34.5004
    201192.77347    160795.39846  21555761.3284                   21555763.4844
        44.5004         41.7504
 25  8  7  0 41 45.0000000  0  9G01G06G03G04G07G09G31G16G26
   9937861.34446   7715884.02343  24028593.0394                   24028597.7304
        39.2504         20.5004
   -787126.91446   -605865.43744  24338496.3284                   24338499.0784
        38.0004         28.7504
    711009.29348    562334.18848  20036561.3284                   20036562.1024
        49.7504         49.0004
  -4390829.90647  -3403233.73046  20504649.9774                   20504648.9534
        46.0004         37.0004
   -785296.00446   -593295.23444  24254768.7424                   24254771.1414
        39.2504         28.0004
  -8107828.29347  -6297346.02046  22479825.0554                   22479826.3554
        42.5004         37.7504
   9614349.91847   7458296.97346  22778887.3054                   22778886.1024
        43.5004         36.5004
  -9210946.19147  -7119676.87545  21131551.2344                   21131548.9224
        45.2504         33.5004
    218982.02047    174657.15246  21559146.3984                   21559148.0704
        45.0004         41.7504
 25  8  7  0 42  0.0000000  0  9G01G06G03G04G07G09G31G16G26
   9984936.84846   7752566.07843  24037551.3914                   24037556.1294
        37.7504         19.5004
   -794180.54346   -611361.77744  24337153.8204                   24337156.9224
        38.0004         29.5004
    730036.81648    577160.81348  20040182.1024                   20040182.4024
        50.0004         49.0004
  -4405619.55947  -3414758.13746  20501835.5784                   20501834.4104
        46.2504         36.5004
   -824280.02346   -623672.26244  24247350.1954                   24247352.3954
        39.0004         26.7504
  -8145431.00447  -6326646.81246  22472669.8524                   22472670.7464
        43.5004         38.0004
   9662419.14147   7495753.48846  22788035.1254                   22788033.6764
        43.0004         36.2504
  -9239883.89847  -7142225.70345  21126043.9844                   21126042.3324
        45.5004         33.7504
    236917.73847    188633.03146  21562559.1724                   21562560.9024
        45.7504         41.7504
 25  8  7  0 42 15.0000000  0  9G01G06G03G04G07G09G31G16G26
  10032008.68446   7789245.28143  24046509.0944                   24046514.2894
        38.2504         20.0004
   -801101.79346   -616754.96544  24335837.1094                   24335839.7624
        37.7504         28.7504
    749203.93848    592096.21148  20043829.7114                   20043829.7504
        49.5004         49.2504
  -4420361.27747  -3426245.19546  20499030.1884                   20499028.8404
        45.5004         36.2504
   -863220.63746   -654015.44944  24239939.6804                   24239942.1914
        39.0004         26.7504
  -8183019.53947  -6355936.56246  22465516.8594                   22465517.7774
        44.0004         38.2504
   9710513.25847   7533229.40246  22797187.1644                   22797185.5004
        42.5004         36.5004
  -9268686.07447  -7164668.91845  21120563.0164                   21120561.5864
        44.5004         33.7504
    255000.23047    202723.28146  21566000.8284                   21566001.8794
        45.7504         41.5004
 25  8  7  0 42 30.0000000  0  9G01G06G03G04G07G09G31G16G26
  10079076.37546   7825921.27043  24055465.9694                   24055470.4804
        37.2504         19.7504
   -807890.58646   -622044.93744  24334545.2584                   24334547.9344
        37.7504         29.2504
    768510.71548    607140.44148  20047503.4694                   20047503.7854
        49.5004         49.2504
  -4435054.89847  -3437694.77046  20496234.3444                   20496232.7424
        46.2504         36.7504
   -902117.69146   -684324.71544  24232537.8364                   24232540.0514
        38.7504         27.0004
  -8220593.68447  -6385215.10546  22458367.1724                   22458367.0554
        44.2504         38.7504
   9758631.87547   7570724.40246  22806343.4144                   22806342.3054
        42.0004         36.5004
  -9297352.42247  -7187006.30545  21115107.9534                   21115106.8554
        45.2504         33.5004
    273229.36747    216927.80146  21569469.4774                   21569471.2854
        46.2504         41.7504
 25  8  7  0 42 45.0000000  0  9G01G06G03G04G07G09G31G16G26
  10126140.24246   7862594.27043  24064422.3524                   24064426.7074
        38.7504         19.2504
   -814546.46546   -627231.34844  24333278.5634                   24333280.6914
        37.7504         29.0004
    787957.52048    622293.78148  20051204.3674                   20051204.4614
        49.7504         49.2504
  -4449699.82447  -3449106.39846  20493447.5634                   20493446.4064
        46.0004         37.2504
   -940970.53546   -714599.53944  24225144.6094                   24225146.8094
        40.2504         28.7504
  -8258152.88347  -6414482.00846  22451220.0394                   22451220.5044
        45.0004         39.2504
   9806775.50847   7608238.90246  22815504.8984                   22815503.2344
        43.0004         36.0004
  -9325882.07847  -7209237.17245  21109679.2274                   21109677.0594
        45.5004         33.5004
    291605.48447    231246.85246  21572966.4224                   21572967.8134
        46.0004         41.5004
 25  8  7  0 43  0.0000000  0  9G01G06G03G04G07G09G31G16G26
  10173198.81646   7899263.15243  24073377.9384                   24073382.0474
        38.2504         19.2504
   -821070.52346   -632315.02744  24332036.6724                   24332040.1094
        37.7504         28.7504
    807543.19948    637555.32848  20054931.3364                   20054931.9184
        50.0004         49.2504
  -4464297.07047  -3460480.87546  20490669.6564                   20490668.3914
        46.2504         37.2504
   -979780.21946   -744840.72344  24217758.4144                   24217761.6054
        39.7504         28.0004
  -8295698.12947  -6443738.03146  22444075.5704                   22444075.4384
        44.2504         38.7504
   9854942.68847   7645771.73446  22824671.3524                   22824669.3874
        42.5004         36.5004
  -9354275.75047  -7231362.07845  21104275.8594                   21104274.2034
        45.2504         33.5004
    310127.37147    245679.48446  21576491.3054                   21576492.5354
        45.5004         41.5004
 25  8  7  0 43 15.0000000  0  9G01G06G03G04G07G09G31G16G26
  10220251.99646   7935927.83243  24082330.6174                   24082336.2894
        38.0004         19.2504
   -827462.35546   -637295.68444  24330820.0394                   24330823.2384
        37.2504         28.5004
    827267.97748    652925.27348  20058684.7734                   20058685.1174
        49.5004         49.0004
  -4478846.10247  -3471817.78946  20487900.8204                   20487899.8634
        46.0004         37.0004
  -1018546.32446   -775047.93744  24210381.4614                   24210384.3794
        39.7504         28.0004
  -8333228.93047  -6472982.78146  22436932.5394                   22436933.7814
        43.5004         39.0004
   9903133.64147   7683323.11746  22833841.4304                   22833839.9774
        43.2504         36.2504
  -9382532.84047  -7253380.56645  21098899.0784                   21098897.1134
        45.2504         33.5004
    328795.25047    260225.88746  21580043.4534                   21580044.9224
        44.2504         41.5004
 25  8  7  0 43 30.0000000  0  9G01G06G03G04G07G09G31G16G26
  10267299.89146   7972588.34043  24091284.0784                   24091288.8404
        38.5004         19.2504
   -833721.68046   -642173.08244  24329629.5234                   24329632.4184
        37.7504         29.2504
    847132.10248    668403.79348  20062464.9144                   20062465.1254
        48.2504         49.2504
  -4493346.52347  -3483116.81646  20485141.6254                   20485140.5864
        46.5004         36.7504
  -1057268.57046   -805221.00444  24203013.3444                   24203015.3324
        39.2504         28.5004
  -8370744.87947  -6502215.95746  22429793.9224                   22429794.9734
        43.0004         39.0004
   9951348.46947   7720893.08646  22843015.7894                   22843015.1684
        42.0004         36.7504
  -9410652.68447  -7275292.09845  21093548.1024                   21093546.1214
        46.0004         33.5004
    347609.19947    274886.10946  21583623.4774                   21583625.1684
        43.5004         41.5004
 25  8  7  0 43 45.0000000  0  9G01G06G03G04G07G09G31G16G26
  10314341.28946   8009243.82043  24100235.2424                   24100240.3134
        38.7504         19.5004
   -839849.28146   -646947.83244  24328463.0474                   24328466.1294
        37.7504         29.0004
    867134.69948    683990.21548  20066271.0634                   20066271.4494
        49.2504         49.0004
  -4507799.00447  -3494378.48846  20482391.5634                   20482390.2114
        46.2504         36.5004
  -1095947.64546   -835360.39844  24195652.7734                   24195654.9144
        38.7504         28.0004
  -8408246.69147  -6531438.11346  22422656.8134                   22422658.6644
        42.7504         39.0004
   9999585.94947   7758480.69946  22852196.2034                   22852194.2384
        44.0004         36.0004
  -9438635.69547  -7297097.00845  21088222.8674                   21088220.5434
        46.2504         33.5004
    366568.31647    289659.44146  21587231.2584                   21587232.9884
        44.7504         41.5004
 25  8  7  0 44  0.0000000  0  9G01G06G03G04G07G09G31G16G26
  10361376.84046   8045894.73843  24109186.7274                   24109191.8404
        37.5004         18.5004
   -845844.19146   -651619.18744  24327323.1094                   24327325.2034
        37.7504         29.0004
    887276.68048    699685.24248  20070103.9144                   20070104.5004
        49.7504         49.0004
  -4522202.41047  -3505601.92246  20479650.7814                   20479649.1764
        45.5004         36.7504
  -1134582.21946   -865465.13344  24188300.6414                   24188302.8834
        39.0004         28.5004
  -8445733.19547  -6560648.33246  22415524.1254                   22415525.3794
        42.5004         39.0004
  10047846.88347   7796086.62146  22861379.5084                   22861378.3094
        43.0004         36.5004
  -9466480.59447  -7318794.30545  21082924.1024                   21082922.0274
        46.5004         33.7504
    385673.48447    304546.58646  21590866.8674                   21590868.7544
        45.0004         41.7504
 25  8  7  0 44 15.0000000  0  9G01G06G03G04G07G09G31G16G26
  10408406.47746   8082541.07443  24118136.1644                   24118141.2934
        37.2504         19.0004
   -851706.08246   -656186.90644  24326207.1024                   24326210.0824
        38.0004         28.5004
    907558.23448    715489.03548  20073963.7974                   20073964.1374
        49.5004         49.2504
  -4536556.37147  -3516786.82046  20476918.9534                   20476918.3134
        46.0004         37.5004
  -1173172.19146   -895535.11344  24180957.1414                   24180959.5904
        38.5004         29.0004
  -8483204.07047  -6589846.39146  22408393.4614                   22408394.8244
        42.7504         38.7504
  10096131.37547   7833710.86346  22870568.3284                   22870566.6214
        44.0004         36.5004
  -9494186.60247  -7340383.37145  21077651.7814                   21077650.0744
        46.0004         34.0004
    404924.81347    319547.61346  21594530.5864                   21594531.5514
        45.5004         41.5004
 25  8  7  0 44 30.0000000  0  9G01G06G03G04G07G09G31G16G26
  10455429.68446   8119182.39143  24127083.7814                   24127090.0124
        37.2504         19.0004
   -857435.12546   -660651.10544  24325117.3364                   24325119.7504
        38.0004         29.5004
    927979.09048    731401.37548  20077849.6484                   20077849.8014
        49.5004         49.0004
  -4550860.96147  -3527933.25046  20474196.8754                   20474195.5704
        46.2504         37.5004
  -1211717.50846   -925570.29744  24173622.3914                   24173624.2774
        38.5004         27.2504
  -8520659.33247  -6619032.27746  22401266.0944                   22401266.9924
        42.2504         39.2504
  10144439.10247   7871353.22745  22879760.3364                   22879759.2584
        42.7504         35.5004
  -9521753.75047  -7361864.23045  21072405.9224                   21072403.7544
        46.5004         34.2504
    424321.91847    334662.24246  21598221.7974                   21598223.3204
        45.2504         41.5004
 25  8  7  0 44 45.0000000  0  9G01G06G03G04G07G09G31G16G26
  10502443.85946   8155816.62943  24136030.6094                   24136036.8954
        36.5004         20.0004
   -863033.68746   -665013.62144  24324051.5864                   24324054.4144
        37.7504         29.0004
    948536.87948    747420.41048  20081761.6414                   20081762.0084
        49.7504         49.0004
  -4565118.32047  -3539042.88746  20471483.8444                   20471482.5354
        46.5004         37.5004
  -1250220.41846   -955572.44944  24166295.4774                   24166297.4734
        39.5004         28.0004
  -8558101.21547  -6648207.75046  22394141.4774                   22394142.2384
        44.0004         39.0004
  10192767.38747   7909011.59846  22888957.5314                   22888955.5704
        43.7504         37.0004
  -9549183.99647  -7383238.42245  21067185.9694                   21067183.9264
        45.7504         34.0004
    443862.40247    349888.59046  21601940.1804                   21601941.2774
        44.7504         41.5004
 25  8  7  0 45  0.0000000  0  9G01G06G03G04G07G09G31G16G26
  10549452.03546   8192446.25843  24144976.9614                   24144982.7704
        37.7504         19.2504
   -868498.36746   -669271.82444  24323012.4614                   24323014.9264
        37.7504         29.5004
    969234.90648    763548.72748  20085700.4694                   20085700.9774
        50.0004         49.0004
  -4579324.99247  -3550113.01646  20468780.2274                   20468779.2074
        46.0004         37.0004
  -1288677.54746   -985538.91844  24158976.9144                   24158979.2584
        40.0004         29.0004
  -8595526.14847  -6677370.02346  22387019.6484                   22387019.8134
        42.7504         39.2504
  10241119.73847   7946688.73046  22898158.8054                   22898156.6914
        43.2504         36.2504
  -9576473.44547  -7404502.90245  21061992.8834                   21061991.0314
        46.2504         34.0004
    463549.45347    365229.14846  21605686.2114                   21605687.7154
        45.5004         41.5004
 25  8  7  0 45 15.0000000  0  9G01G06G03G04G07G09G31G16G26
  10596451.69946   8229069.24243  24153919.5944                   24153925.4734
        37.7504         19.0004
   -873831.28146   -673427.34844  24321997.5864                   24321999.5434
        38.2504         29.2504
    990070.89148    779784.53948  20089665.3284                   20089665.7304
        49.7504         49.2504
  -4593482.94547  -3561145.18446  20466086.5314                   20466085.1454
        46.0004         37.2504
  -1327090.94146  -1015471.31644  24151667.1804                   24151669.4144
        39.0004         29.0004
  -8632936.27347  -6706520.75846  22379900.5004                   22379900.9184
        42.0004         39.0004
  10289493.34047   7984382.42245  22907363.2894                   22907362.3984
        43.5004         35.7504
  -9603624.16847  -7425659.27345  21056825.8204                   21056824.1094
        46.2504         33.5004
    483380.74647    380682.10246  21609460.4224                   21609461.5904
        45.2504         41.7504
 25  8  7  0 45 30.0000000  0  8G06G03G04G07G09G31G16G26
   -879030.87946   -677478.98844  24321008.2584                   24321010.5314
        39.0004         29.0004
   1011046.35948    796129.05148  20093657.0634                   20093657.0124
        49.7504         49.2504
  -4607590.54747  -3572138.12146  20463401.9534                   20463400.6254
        47.0004         36.5004
  -1365458.56646  -1045368.05545  24144365.5234                   24144367.8014
        40.2504         30.0004
  -8670329.78147  -6735658.54746  22372785.2504                   22372785.1564
        42.2504         38.2504
  10337889.60947   8022093.77746  22916572.6884                   22916571.3984
        44.0004         36.0004
  -9630634.06647  -7446705.92245  21051686.6884                   21051684.4924
        46.7504         33.7504
    503357.77347    396248.60946  21613261.5704                   21613263.1994
        45.2504         41.7504
 25  8  7  0 45 45.0000000  0  8G06G03G04G07G09G31G16G26
   -884098.30546   -681427.63744  24320043.6954                   24320045.8244
        38.5004         29.7504
   1032160.06348    812581.25848  20097674.5164                   20097675.2814
        50.0004         49.0004
  -4621648.75847  -3583092.57446  20460726.4694                   20460725.1414
        45.7504         36.5004
  -1403782.01246  -1075230.35944  24137073.1254                   24137074.7894
        40.0004         29.0004
  -8707707.78147  -6764784.24646  22365671.9144                   22365672.3954
        42.0004         37.7504
  10386307.14147   8059821.68046  22925787.1804                   22925784.9534
        43.5004         36.0004
  -9657504.09447  -7467643.57445  21046573.4064                   21046571.7034
        47.0004         34.0004
    523479.18847    411927.63746  21617090.2034                   21617092.3754
        45.0004         41.5004
 25  8  7  0 46  0.0000000  0  8G06G03G04G07G09G31G16G26
   -889033.32846   -685273.11744  24319103.6644                   24319106.7504
        38.7504         29.5004
   1053412.11748    829141.28148  20101718.8834                   20101719.1414
        50.5004         49.0004
  -4635657.22347  -3594008.25446  20458060.6414                   20458059.6524
        46.5004         37.0004
  -1442060.73846  -1105057.82044  24129788.5474                   24129790.6764
        41.7504         29.5004
  -8745069.86747  -6793897.54346  22358561.7974                   22358562.6294
        42.5004         38.7504
  10434746.14147   8097566.33646  22935003.5474                   22935002.5904
        43.5004         36.2504
  -9684233.66447  -7488471.78545  21041486.7734                   21041484.6374
        47.2504         33.7504
    543745.08647    427719.24246  21620947.2664                   21620948.8364
        45.5004         41.5004
 25  8  7  0 46 15.0000000  0  8G06G03G04G07G09G31G16G26
   -893835.48446   -689015.05544  24318190.6484                   24318192.7114
        39.0004         29.2504
   1074802.98048    845809.46948  20105789.1644                   20105789.7934
        49.5004         49.0004
  -4649615.32847  -3604884.69946  20455404.7194                   20455403.6844
        46.7504         37.2504
  -1480294.20746  -1134850.02744  24122513.1724                   24122515.0354
        41.2504         29.2504
  -8782415.45346  -6822997.97746  22351455.0314                   22351455.9384
        41.5004         39.2504
  10483206.89547   8135327.93446  22944226.7344                   22944224.6844
        44.2504         36.5004
  -9710821.79747  -7509189.78545  21036427.2504                   21036425.4384
        46.7504         34.5004
    564155.77047    443623.67646  21624830.6484                   21624832.8094
        44.5004         41.0004
 25  8  7  0 46 30.0000000  0  8G06G03G04G07G09G31G16G26
   -898503.57046   -692652.53544  24317301.5164                   24317304.3204
        38.0004         28.5004
   1096333.71948    862586.64548  20109886.6804                   20109886.9804
        48.5004         49.2504
  -4663521.82447  -3615720.92646  20452758.2974                   20452757.0274
        46.7504         38.0004
  -1518481.19546  -1164606.00845  24115246.4844                   24115248.0394
        41.0004         30.2504
  -8819743.23447  -6852084.52746  22344352.2584                   22344353.1524
        42.5004         39.5004
  10531690.32447   8173107.19546  22953452.0474                   22953450.4184
        43.7504         36.2504
  -9737267.18747  -7529796.55145  21031394.6334                   21031392.9574
        47.0004         34.2504
    584712.26647    459641.71546  21628742.9534                   21628744.7664
        43.2504         41.5004
 25  8  7  0 46 45.0000000  0  8G06G03G04G07G09G31G16G26
   -903039.12146   -696186.73844  24316438.8594                   24316441.3594
        38.0004         28.2504
   1118002.73048    879471.57448  20114009.6954                   20114010.0044
        49.2504         49.0004
  -4677377.99247  -3626517.93746  20450121.5784                   20450120.4964
        47.0004         37.5004
  -1556623.05946  -1194326.82045  24107988.3204                   24107990.1094
        41.0004         30.2504
  -8857054.55547  -6881158.25846  22337251.9694                   22337253.0044
        42.5004         39.5004
  10580194.65247   8210902.75446  22962682.8444                   22962680.7584
        44.5004         36.0004
  -9763570.85247  -7550292.89145  21026389.0784                   21026387.2114
        46.7504         34.5004
    605412.93047    475772.10246  21632681.7664                   21632683.5664
        44.7504         41.0004
 25  8  7  0 47  0.0000000  0  8G06G03G04G07G09G31G16G26
   -907440.43046   -699616.33244  24315601.6094                   24315603.8524
        38.7504         28.5004
   1139811.55547    896465.44548  20118159.8444                   20118160.3364
        47.7504         49.0004
  -4691182.10247  -3637274.38346  20447494.7584                   20447493.7234
        47.5004         37.0004
  -1594718.15246  -1224011.20745  24100738.2034                   24100740.0434
        41.7504         30.5004
  -8894347.70347  -6910217.82446  22330155.8984                   22330156.2504
        43.2504         39.7504
  10628721.38747   8248715.76246  22971917.1414                   22971915.2234
        44.0004         36.0004
  -9789730.80547  -7570677.23445  21021411.4064                   21021409.2544
        47.0004         34.2504
    626259.24247    492015.98446  21636649.0634                   21636650.3204
        43.0004         41.0004
 25  8  7  0 47 15.0000000  0  8G06G03G04G07G09G31G16G26
   -911707.27046   -702941.14544  24314789.2664                   24314791.7854
        38.7504         29.2504
   1161760.40647    913568.42648  20122336.9144                   20122337.3674
        47.5004         49.0004
  -4704933.75047  -3647989.94946  20444877.9774                   20444876.6764
        46.7504         37.5004
  -1632765.82446  -1253658.64144  24093498.0234                   24093500.4304
        41.2504         29.7504
  -8931622.22347  -6939262.88346  22323062.6024                   22323062.8444
        42.7504         40.0004
  10677270.44547   8286546.17646  22981155.2274                   22981153.5984
        43.5004         36.0004
  -9815746.45747  -7590949.14845  21016460.5234                   21016458.7074
        46.5004         34.0004
    647251.32847    508373.45346  21640643.7424                   21640644.8754
        43.0004         41.0004
 25  8  7  0 47 30.0000000  0  8G06G03G04G07G09G31G16G26
   -915840.40646   -706161.78144  24314003.4454                   24314005.2734
        38.0004         29.7504
   1183848.47748    930779.89148  20126540.1564                   20126540.5204
        49.7504         49.0004
  -4718633.46547  -3658665.04346  20442271.1254                   20442269.8834
        46.0004         37.5004
  -1670766.85546  -1283269.73045  24086266.3834                   24086268.8444
        40.0004         30.2504
  -8968878.71547  -6968293.88346  22315972.9694                   22315973.5044
        43.0004         40.2504
  10725841.04347   8324393.37546  22990397.1334                   22990396.1914
        43.0004         36.0004
  -9841618.25447  -7611108.96545  21011537.4924                   21011535.0904
        47.0004         34.0004
    668388.27747    524843.79746  21644665.8444                   21644667.2774
        45.0004         41.0004
 25  8  7  0 47 45.0000000  0  8G06G03G04G07G09G31G16G26
   -919840.23046   -709278.52744  24313241.7974                   24313244.6684
        39.0004         29.5004
   1206075.24648    948099.43448  20130769.5944                   20130770.4534
        49.0004         49.0004
  -4732281.57847  -3669299.93746  20439673.5634                   20439672.2584
        46.7504         37.5004
  -1708721.67246  -1312844.82445  24079043.8834                   24079046.3984
        40.7504         31.0004
  -9006117.48447  -6997311.07846  22308886.3444                   22308887.0984
        42.0004         39.7504
  10774432.56347   8362256.84046  22999645.1564                   22999643.0164
        44.2504         36.2504
  -9867346.39847  -7631156.84045  21006641.5554                   21006639.2344
        47.0004         33.7504
    689669.53947    541426.59846  21648715.4454                   21648716.7774
        43.0004         41.0004
 25  8  7  0 48  0.0000000  0  8G06G03G04G07G09G31G16G26
   -923707.40246   -712291.91844  24312506.3594                   24312508.2384
        39.0004         29.5004
   1228440.02348    965526.52048  20135025.2894                   20135025.9384
        49.2504         49.0004
  -4745878.57847  -3679894.98846  20437086.1644                   20437085.1724
        47.0004         37.5004
  -1746630.87146  -1342384.36344  24071830.7274                   24071831.9264
        41.7504         29.7504
  -9043339.01647  -7026314.84846  22301802.5864                   22301803.8204
        43.5004         38.7504
  10823044.10547   8400135.93445  23008895.5234                   23008893.6484
        43.0004         35.7504
  -9892931.03547  -7651092.89545  21001772.7664                   21001770.8874
        46.7504         34.7504
    711094.36347    558121.25846  21652792.5634                   21652793.9534
        43.7504         41.2504
 25  8  7  0 48 15.0000000  0  8G06G03G04G07G09G31G16G26
   -927441.77346   -715201.80944  24311795.2194                   24311797.9224
        39.0004         29.5004
   1250942.69948    983061.05148  20139307.4534                   20139308.2584
        49.2504         49.0004
  -4759424.28547  -3690450.08246  20434508.8284                   20434507.6644
        46.7504         37.2504
  -1784494.29346  -1371888.23445  24064624.9844                   24064626.3914
        41.5004         30.2504
  -9080543.10947  -7055305.01646  22294723.0634                   22294724.0474
        43.0004         39.0004
  10871675.48047   8438030.50045  23018149.3914                   23018147.8714
        43.0004         35.7504
  -9918371.77347  -7670916.82045  20996931.3984                   20996929.6724
        47.5004         34.5004
    732662.56347    574927.64846  21656897.1024                   21656898.0274
        43.2504         41.0004
 25  8  7  0 48 30.0000000  0  8G06G03G04G07G09G31G16G26
   -931043.47746   -718008.33644  24311109.9774                   24311112.9384
        39.0004         29.2504
   1273583.19948   1000702.98448  20143616.0084                   20143616.5434
        50.5004         49.0004
  -4772918.49647  -3700965.04746  20431940.7344                   20431939.7074
        47.7504         37.7504
  -1822311.76347  -1401356.30545  24057428.3674                   24057430.3244
        42.0004         30.5004
  -9117729.64547  -7084281.51646  22287647.2344                   22287647.5234
        43.0004         39.2504
  10920326.56347   8475940.39846  23027406.9614                   23027406.0864
        42.7504         36.0004
  -9943668.41047  -7690628.45745  20992117.9924                   20992115.8754
        47.2504         34.0004
    754374.00847    591845.66046  21661028.5084                   21661029.8484
        44.5004         40.7504
 25  8  7  0 48 45.0000000  0  8G06G03G04G07G09G31G16G26
   -934514.49646   -720713.03945  24310449.8914                   24310452.0274
        39.0004         30.5004
   1296359.51648   1018450.74248  20147949.9924                   20147950.5004
        49.5004         49.0004
  -4786363.13747  -3711441.38346  20429382.3054                   20429381.4304
        47.0004         37.0004
  -1860085.10547  -1430790.00845  24050239.9144                   24050242.2304
        42.0004         30.7504
  -9154900.48047  -7113245.77046  22280573.7894                   22280574.5004
        43.5004         39.2504
  10968994.98447   8513863.80946  23036668.7974                   23036667.2304
        42.5004         36.0004
  -9968822.66447  -7710229.14545  20987330.9224                   20987329.1414
        47.0004         34.0004
    776226.53947    608873.60546  21665187.1804                   21665188.4144
        43.5004         40.7504
 25  8  7  0 49  0.0000000  0  8G06G03G04G07G09G31G16G26
   -937851.69946   -723313.45344  24309814.6414                   24309817.0784
        39.5004         29.5004
   1319274.56348   1036306.60948  20152311.0314                   20152311.2894
        48.7504         49.0004
  -4799754.91847  -3721876.52746  20426833.9614                   20426832.6254
        47.0004         37.5004
  -1897811.15246  -1460186.84045  24043061.6724                   24043062.6764
        41.2504         31.0004
  -9192052.39847  -7142195.28146  22273504.0394                   22273504.7274
        43.5004         38.7504
  11017683.74247   8551803.08246  23045933.8594                   23045932.4774
        43.2504         36.0004
  -9993830.91847  -7729716.07045  20982572.1024                   20982570.1684
        47.0004         34.5004
    798223.12147    626013.79746  21669372.6024                   21669374.1254
        42.7504         40.5004
 25  8  7  0 49 15.0000000  0  8G06G03G04G07G09G31G16G26
   -941056.19146   -725810.46144  24309204.8204                   24309207.0394
        39.0004         29.5004
   1342327.15648   1054269.65248  20156697.7664                   20156698.0514
        49.5004         49.0004
  -4813094.80547  -3732271.23446  20424295.6254                   20424294.4534
        47.0004         38.0004
  -1935490.96146  -1489547.64545  24035891.2584                   24035892.2734
        41.7504         30.5004
  -9229186.28947  -7171130.75046  22266437.2194                   22266438.1054
        43.7504         39.2504
  11066391.69947   8589757.29745  23055202.8834                   23055201.6214
        43.2504         35.2504
 -10018694.03947  -7749089.90645  20977840.4844                   20977838.5234
        47.7504         34.0004
    820362.44547    643265.21946  21673585.7664                   21673587.1214
        45.0004         40.7504
 25  8  7  0 49 30.0000000  0  8G06G03G04G07G09G31G16G26
   -944128.83646   -728204.72745  24308619.4694                   24308622.4454
        39.7504         30.0004
   1365516.51248   1072339.25848  20161110.1334                   20161111.0004
        49.7504         49.0004
  -4826383.42247  -3742625.99646  20421766.9144                   20421765.3594
        47.0004         38.0004
  -1973125.16046  -1518872.90245  24028729.1024                   24028730.8914
        41.2504         30.5004
  -9266302.85547  -7200052.71546  22259374.4844                   22259375.2034
        43.0004         40.2504
  11115117.74247   8627725.62545  23064474.5394                   23064474.0474
        42.7504         35.5004
 -10043412.42247  -7768350.96145  20973137.2974                   20973134.8554
        47.2504         33.5004
    842643.65647    660627.19146  21677825.1094                   21677826.8094
        45.5004         41.0004
 25  8  7  0 49 45.0000000  0  8G06G03G04G07G09G31G16G26
   -947069.86746   -730496.44145  24308060.6254                   24308063.2154
        39.2504         30.5004
   1388842.15248   1090515.07448  20165549.4144                   20165549.6254
        49.2504         48.7504
  -4839620.96147  -3752940.94946  20419247.6334                   20419246.4224
        46.5004         37.5004
  -2010714.05546  -1548162.84045  24021576.6094                   24021578.2424
        40.5004         30.2504
  -9303402.23047  -7228961.27346  22252314.7274                   22252315.6334
        42.7504         39.7504
  11163861.35947   8665707.62146  23073750.8364                   23073749.1804
        42.2504         36.0004
 -10067985.98447  -7787499.16045  20968461.0394                   20968458.7704
        47.2504         34.2504
    865066.16447    678099.27346  21682092.7734                   21682094.1334
        46.0004         41.2504
 25  8  7  0 50  0.0000000  0  8G06G03G04G07G09G31G16G26
   -949879.21946   -732685.55145  24307525.8284                   24307528.3754
        40.0004         30.0004
   1412304.08648   1108797.08248  20170013.9694                   20170014.4924
        48.7504         48.7504
  -4852807.14147  -3763215.88746  20416738.4534                   20416737.1454
        46.7504         36.7504
  -2048257.35546  -1577417.27344  24014432.0704                   24014433.4734
        40.5004         29.7504
  -9340484.15247  -7257856.23846  22245258.1724                   22245258.8014
        42.5004         39.5004
  11212622.44147   8703703.25846  23083029.3914                   23083028.5044
        43.2504         36.2504
 -10092414.37147  -7806534.23845  20963811.9144                   20963809.9884
        46.5004         34.2504
    887630.02047    695681.50046  21686386.2584                   21686387.9414
        44.0004         40.7504
 25  8  7  0 50 15.0000000  0  8G06G03G04G07G09G31G16G26
   -952556.17646   -734771.49245  24307016.1804                   24307018.7894
        39.2504         30.2504
   1435902.93448   1127185.77748  20174504.3364                   20174504.7384
        48.0004         48.7504
  -4865941.10547  -3773450.14546  20414239.0704                   20414237.7584
        47.5004         37.5004
  -2085754.43046  -1606635.70345  24007296.7584                   24007298.0864
        40.2504         30.7504
  -9377547.81247  -7286736.97346  22238205.1724                   22238206.0084
        42.5004         39.7504
  11261401.81647   8741713.09846  23092312.8444                   23092310.6644
        43.2504         36.0004
 -10116696.58247  -7825455.41445  20959191.6564                   20959189.6764
        47.2504         34.7504
    910335.70347    713374.23846  21690706.8674                   21690708.1724
        43.0004         40.5004
 25  8  7  0 50 30.0000000  0  8G06G03G04G07G09G31G16G26
   -955101.89146   -736755.15645  24306531.6024                   24306534.5744
        39.5004         30.5004
   1459637.56648   1145680.28148  20179020.9384                   20179021.6804
        49.2504         48.7504
  -4879023.76247  -3783644.40646  20411749.4924                   20411748.4654
        46.2504         38.0004
  -2123206.16046  -1635818.78145  24000170.4694                   24000171.1724
        40.5004         31.0004
  -9414594.09447  -7315604.17246  22231155.4304                   22231156.0704
        43.0004         40.0004
  11310197.79347   8779735.92645  23101597.8984                   23101596.1724
        42.7504         35.5004
 -10140833.35947  -7844263.27045  20954598.5164                   20954596.3284
        47.5004         34.5004
    933182.03547    731176.57446  21695054.5634                   21695055.8244
        44.0004         40.7504
 25  8  7  0 50 45.0000000  0  8G06G03G04G07G09G31G16G26
   -957517.12546   -738637.14845  24306072.0474                   24306074.4694
        39.7504         30.7504
   1483506.98048   1164279.80548  20183563.1484                   20183563.9884
        49.2504         48.5004
  -4892055.84847  -3793799.27046  20409269.4844                   20409268.5274
        47.5004         37.5004
  -2160613.22346  -1664967.05945  23993051.0554                   23993052.7624
        40.5004         30.5004
  -9451623.74647  -7344458.40646  22224108.8444                   22224109.7734
        42.5004         40.0004
  11359009.38347   8817770.92245  23110886.1414                   23110885.2734
        43.7504         35.7504
 -10164825.25847  -7862958.22345  20950033.0084                   20950030.7934
        46.7504         34.7504
    956167.94147    749087.66446  21699428.4454                   21699430.1054
        45.2504         40.5004
 25  8  7  0 51  0.0000000  0  8G06G03G04G07G09G31G16G26
   -959801.03946   -740416.82845  24305637.5394                   24305640.3834
        40.0004         30.2504
   1507512.00048   1182985.00048  20188131.4924                   20188131.9304
        49.5004         48.5004
  -4905036.31247  -3803913.91446  20406800.0394                   20406798.3634
        47.0004         37.2504
  -2197974.89146  -1694079.96145  23985941.0634                   23985943.0044
        40.2504         30.5004
  -9488635.65647  -7373298.81246  22217065.7114                   22217066.1564
        42.0004         40.0004
  11407837.37547   8855818.66045  23120178.6334                   23120176.2814
        42.7504         35.0004
 -10188670.91047  -7881539.22345  20945495.6094                   20945493.0434
        47.5004         34.5004
    979294.17647    767108.10946  21703829.0234                   21703830.9884
        45.7504         40.7504
 25  8  7  0 51 15.0000000  0  8G06G03G04G07G09G31G16G26
   -961952.13746   -742093.00044  24305228.0864                   24305230.7234
        40.0004         29.5004
   1531654.06648   1201796.98048  20192725.3754                   20192726.0594
        49.7504         48.5004
  -4917963.41447  -3813986.96146  20404339.6884                   20404338.3834
        46.5004         38.0004
  -2235289.20746  -1723155.96545  23978841.2344                   23978842.0664
        41.0004         30.7504
  -9525628.18447  -7402124.12546  22210026.2814                   22210027.2074
        42.2504         39.5004
  11456683.09847   8893880.27345  23129471.9304                   23129471.4454
        42.0004         35.5004
 -10212368.64547  -7900004.96545  20940985.2584                   20940983.3204
        47.5004         34.5004
   1002562.10547    785238.96546  21708256.8834                   21708258.6724
        45.5004         40.5004
 25  8  7  0 51 30.0000000  0  8G06G03G04G07G09G31G16G26
   -963971.10946   -743666.21945  24304843.9614                   24304846.3914
        38.0004         30.0004
   1555932.42248   1220715.16448  20197345.6484                   20197346.4534
        49.0004         48.7504
  -4930837.71947  -3824018.88346  20401889.7814                   20401888.5744
        46.7504         37.2504
  -2272556.80946  -1752195.56245  23971749.1724                   23971750.0314
        40.0004         31.0004
  -9562601.84447  -7430934.72346  22202989.7424                   22202991.1134
        42.0004         39.5004
  11505545.81347   8931955.05545  23138771.0944                   23138769.8094
        43.5004         35.5004
 -10235918.78947  -7918355.69145  20936503.8914                   20936501.7424
        47.0004         34.2504
   1025970.87947    803479.56346  21712711.3134                   21712713.1024
        45.0004         40.7504
 25  8  7  0 51 45.0000000  0  8G06G03G04G07G09G31G16G26
   -965858.53946   -745136.94144  24304485.3364                   24304487.3404
        39.5004         29.7504
   1580346.32448   1239738.96548  20201991.0634                   20201991.9304
        49.0004         48.5004
  -4943659.66847  -3834010.00446  20399449.5164                   20399448.1914
        46.5004         38.0004
  -2309778.25046  -1781199.20345  23964666.2504                   23964667.2894
        41.0004         31.2504
  -9599557.11747  -7459730.99646  22195957.8204                   22195958.8714
        42.0004         39.5004
  11554424.63347   8970042.44145  23148072.0164                   23148071.2074
        43.2504         35.0004
 -10259321.59447  -7936591.62145  20932050.7734                   20932048.4694
        47.5004         34.7504
   1049519.74247    821829.32046  21717193.0234                   21717194.2234
        43.5004         41.2504
 25  8  7  0 52  0.0000000  0  8G06G03G04G07G09G31G16G26
   -967615.21146   -746505.77745  24304150.8444                   24304153.0164
        37.7504         30.2504
   1604894.96148   1258867.76248  20206662.7504                   20206663.3204
        48.0004         48.5004
  -4956429.79347  -3843960.74646  20397019.6804                   20397018.5984
        46.7504         37.7504
  -2346954.25046  -1810167.43445  23957591.0164                   23957592.9734
        40.5004         31.5004
  -9636494.50847  -7488513.33246  22188928.5554                   22188929.3484
        42.5004         40.0004
  11603318.71547   9008141.68445  23157376.9064                   23157375.4774
        42.7504         35.2504
 -10282577.45747  -7954713.04345  20927625.1094                   20927623.4264
        46.2504         34.5004
   1073207.79747    840287.55146  21721700.4064                   21721701.8594
        42.5004         40.5004
 25  8  7  0 52 15.0000000  0  8G06G03G04G07G09G31G16G26
   -969240.64146   -747772.34445  24303841.2034                   24303843.9654
        37.5004         30.0004
   1629578.74248   1278101.86348  20211359.7974                   20211360.1334
        48.7504         48.5004
  -4969147.52747  -3853870.65646  20394599.3444                   20394598.0514
        47.2504         37.0004
  -2384084.13346  -1839099.71945  23950525.6414                   23950527.1484
        41.0004         31.2504
  -9673413.42247  -7517281.27046  22181903.2114                   22181904.2194
        42.5004         40.0004
  11652228.28147   9046253.01645  23166683.5784                   23166682.6294
        42.7504         35.2504
 -10305685.55547  -7972719.32845  20923228.0234                   20923225.7114
        47.0004         34.0004
   1097035.36347    858854.47746  21726234.8524                   21726236.0004
        44.0004         41.0004
 25  8  7  0 52 30.0000000  0  8G06G03G04G07G09G31G16G26
   -970735.22746   -748936.94944  24303556.7344                   24303559.1884
        38.0004         29.7504
   1654397.17248   1297440.87948  20216082.8204                   20216083.5234
        49.5004         48.5004
  -4981813.02347  -3863739.87146  20392189.1174                   20392188.0594
        46.5004         38.0004
  -2421168.08646  -1867996.22345  23943469.3524                   23943470.3284
        41.7504         31.2504
  -9710314.03147  -7546034.95746  22174881.8984                   22174882.2464
        43.2504         40.5004
  11701152.77347   9084375.97345  23175994.3134                   23175992.8484
        42.5004         35.5004
 -10328645.99247  -7990610.54745  20918858.8204                   20918856.8404
        47.2504         34.2504
   1121001.91847    877529.71146  21730794.9694                   21730796.5514
        44.7504         41.0004
 25  8  7  0 52 45.0000000  0  8G06G03G04G07G09G31G16G26
   -972097.87546   -749998.74644  24303297.5634                   24303300.1054
        39.0004         29.2504
   1679351.24248   1316885.59448  20220831.3364                   20220831.8794
        48.5004         48.5004
  -4994425.06247  -3873567.42246  20389789.4384                   20389787.7704
        47.0004         37.7504
  -2458205.16446  -1896856.19545  23936421.3134                   23936422.0434
        41.5004         31.5004
  -9747195.13347  -7574773.43446  22167863.3204                   22167864.0594
        43.5004         40.5004
  11750093.19947   9122511.34445  23185306.8524                   23185305.7234
        43.5004         34.7504
 -10351457.31247  -8008385.57445  20914517.6094                   20914515.7464
        47.2504         34.7504
   1145108.30947    896313.91046  21735382.7274                   21735384.0044
        43.0004         40.2504
 25  8  7  0 53  0.0000000  0  8G06G03G04G07G09G31G16G26
   -973329.74246   -750958.64844  24303063.3754                   24303065.0984
        38.7504         28.7504
   1704439.73848   1336435.05548  20225605.4534                   20225606.3404
        48.5004         48.5004
  -5006984.52747  -3883354.00846  20387399.5634                   20387397.8444
        47.5004         37.0004
  -2495196.16046  -1925680.26245  23929381.8444                   23929382.9774
        41.7504         32.5004
  -9784057.66447  -7603497.44546  22160848.5234                   22160848.9654
        43.2504         40.7504
  11799048.15247   9160658.03945  23194622.7194                   23194621.3594
        42.0004         35.0004
 -10374120.30147  -8026045.01245  20910205.3984                   20910202.9064
        47.0004         35.5004
   1169353.34047    915206.14546  21739996.2114                   21739997.9384
        42.5004         40.5004
 25  8  7  0 53 15.0000000  0  8G06G03G04G07G09G31G16G26
   -974431.73046   -751817.31644  24302853.2974                   24302855.4414
        40.0004         29.5004
   1729661.68448   1356088.50448  20230405.1954                   20230405.6414
        49.2504         48.5004
  -5019492.19947  -3893100.23846  20385019.1804                   20385017.8204
        47.0004         37.2504
  -2532142.06246  -1954469.19145  23922350.9454                   23922352.0124
        41.5004         32.0004
  -9820902.32447  -7632207.53946  22153837.2974                   22153837.9104
        43.2504         40.0004
  11848016.68447   9198815.31345  23203941.3524                   23203939.9224
        42.7504         34.2504
 -10396635.53147  -8043589.32445  20905920.3914                   20905918.1414
        47.0004         34.5004
   1193735.94147    934205.56346  21744636.1484                   21744637.7384
        44.2504         40.7504
 25  8  7  0 53 30.0000000  0  8G06G03G04G07G09G31G16G26
   -975403.02346   -752574.17245  24302669.1094                   24302671.1414
        40.2504         30.0004
   1755017.76248   1375846.47348  20235230.0474                   20235230.7384
        49.7504         48.5004
  -5031947.14848  -3902805.38346  20382648.9384                   20382648.0204
        48.0004         37.7504
  -2569041.72746  -1983222.09045  23915329.4144                   23915330.6214
        41.7504         32.2504
  -9857728.22347  -7660903.00046  22146829.3054                   22146830.3284
        43.0004         40.7504
  11896999.27746   9236983.55545  23213262.3524                   23213261.0124
        40.5004         34.7504
 -10419001.94147  -8061017.66845  20901664.4454                   20901662.3404
        47.0004         35.0004
   1218256.68847    953312.64146  21749302.3364                   21749303.6724
        44.2504         40.5004
 25  8  7  0 53 45.0000000  0  8G06G03G04G07G09G31G16G26
   -976242.73046   -753228.48845  24302508.8054                   24302511.3554
        38.7504         30.0004
   1780508.79347   1395709.59048  20240081.0164                   20240081.5474
        47.5004         48.5004
  -5044348.20347  -3912468.54746  20380289.5314                   20380287.9884
        47.0004         38.0004
  -2605894.32447  -2011938.31245  23908315.8984                   23908317.5274
        42.2504         32.5004
  -9894534.19947  -7689582.93746  22139825.7344                   22139826.2774
        43.0004         40.0004
  11945996.75447   9275163.36745  23222586.7194                   23222585.3914
        42.0004         34.5004
 -10441218.34847  -8078329.12145  20897436.3134                   20897434.5204
        47.5004         34.7504
   1242916.40247    972527.99646  21753994.7974                   21753996.6374
        43.0004         41.0004
 25  8  7  0 54  0.0000000  0  8G06G03G04G07G09G31G16G26
   -976951.74646   -753780.95744  24302373.5554                   24302376.1254
        38.5004         29.7504
   1806133.87548   1415677.17248  20244956.9144                   20244958.0274
        49.0004         48.5004
  -5056696.11747  -3922090.28946  20377939.5394                   20377938.1804
        47.5004         37.5004
  -2642700.53146  -2040618.37545  23901312.3134                   23901313.7584
        41.2504         33.0004
  -9931320.94947  -7718247.89546  22132825.2274                   22132825.8134
        43.2504         40.5004
  11995008.24246   9313354.12145  23231912.8524                   23231911.5234
        41.0004         34.0004
 -10463285.10248  -8095523.97345  20893237.9534                   20893235.3484
        48.0004         34.5004
   1267714.02747    991850.82046  21758713.7114                   21758714.8754
        43.0004         41.0004
 25  8  7  0 54 15.0000000  0  8G06G03G04G07G09G31G16G26
   -977529.84346   -754231.41145  24302263.5084                   24302265.7544
        38.0004         30.0004
   1831893.05148   1435749.23848  20249859.2504                   20249859.7974
        49.5004         48.5004
  -5068990.43447  -3931670.26646  20375600.3204                   20375598.9064
        47.7504         37.2504
  -2679460.10547  -2069262.11345  23894317.0704                   23894318.3324
        42.5004         32.5004
  -9968088.12947  -7746897.60246  22125828.6094                   22125828.8524
        43.7504         41.2504
  12044033.60946   9351555.69145  23241241.8054                   23241241.2544
        41.7504         34.0004
 -10485201.80147  -8112601.89145  20889066.9924                   20889065.0904
        47.2504         34.7504
   1292649.62547   1011281.15646  21763458.7814                   21763460.5594
        44.5004         40.5004
 25  8  7  0 54 30.0000000  0  8G06G03G04G07G09G31G16G26
   -977977.16446   -754579.97344  24302179.3054                   24302180.8404
        38.2504         29.5004
   1857786.16848   1455925.67648  20254786.5474                   20254787.1174
        48.7504         48.5004
  -5081231.12547  -3941208.46546  20373270.8204                   20373269.3134
        47.5004         38.5004
  -2716173.05147  -2097869.51645  23887330.5554                   23887332.1334
        42.0004         32.5004
 -10004835.57447  -7775531.93046  22118835.8524                   22118836.5474
        43.2504         41.0004
  12093072.62946   9389767.86745  23250573.4924                   23250572.7544
        40.7504         34.7504
 -10506968.12547  -8129562.63745  20884925.5004                   20884922.7464
        47.0004         35.2504
   1317722.93847   1030818.79746  21768230.6484                   21768231.5634
        43.5004         40.5004
 25  8  7  0 54 45.0000000  0  8G06G03G04G07G09G31G16G26
   -978294.47746   -754827.22345  24302118.7274                   24302121.1524
        38.7504         30.0004
   1883812.35247   1476205.80148  20259739.1804                   20259739.8914
        47.7504         48.5004
  -5093418.77347  -3950705.32446  20370951.1414                   20370950.1684
        47.5004         38.0004
  -2752839.95747  -2126441.03945  23880353.0164                   23880354.1414
        42.7504         33.5004
 -10041563.92247  -7804151.39146  22111846.8204                   22111847.1294
        44.2504         41.0004
  12142124.49246   9427990.08645  23259908.0394                   23259906.7934
        41.2504         34.5004
 -10528584.58647  -8146406.60245  20880811.4694                   20880809.1454
        47.5004         34.2504
   1342933.04747   1050463.03946  21773027.5474                   21773028.8404
        42.7504         41.0004
 25  8  7  0 55  0.0000000  0  8G06G03G04G07G09G31G16G26
   -978480.91846   -754972.49645  24302082.7584                   24302085.3364
        39.0004         30.7504
   1909972.41048   1496590.24648  20264717.1954                   20264717.9734
        49.2504         48.5004
  -5105552.28947  -3960160.00446  20368642.4384                   20368641.6294
        47.2504         37.7504
  -2789459.77347  -2154975.85945  23873384.7194                   23873385.8914
        42.2504         33.2504
 -10078272.13347  -7832755.15646  22104861.0864                   22104861.6374
        44.0004         40.7504
  12191189.80946   9466222.78545  23269244.8444                   23269243.9024
        40.2504         33.7504
 -10550049.94547  -8163132.83245  20876726.6564                   20876724.4384
        47.5004         35.0004
   1368280.64147   1070214.40246  21777850.7584                   21777852.3984
        43.2504         40.7504
 25  8  7  0 55 15.0000000  0  8G06G03G04G07G09G31G16G26
   -978536.79746   -755016.03545  24302071.6564                   24302074.8204
        40.0004         30.5004
   1936265.89148   1517078.65248  20269720.5944                   20269721.1524
        49.7504         48.5004
  -5117631.82047  -3969572.62546  20366344.1094                   20366342.5394
        47.7504         37.7504
  -2826032.72347  -2183474.16845  23866424.9774                   23866425.8364
        42.2504         32.0004
 -10114960.30547  -7861343.31646  22097879.5004                   22097879.8714
        44.2504         41.0004
  12240268.13347   9504465.57845  23278585.6174                   23278583.3284
        42.7504         34.7504
 -10571364.32447  -8179741.41045  20872670.7664                   20872668.5124
        47.5004         34.5004
   1393765.26647   1090072.55146  21782700.7114                   21782701.9104
        45.7504         40.7504
 25  8  7  0 55 30.0000000  0  8G06G03G04G07G09G31G16G26
   -978461.80546   -754957.59845  24302086.4774                   24302089.1724
        39.0004         30.5004
   1962693.11748   1537671.27748  20274749.4534                   20274750.4344
        49.7504         48.2504
  -5129656.80547  -3978942.73046  20364055.6484                   20364054.0234
        47.2504         37.5004
  -2862558.31247  -2211935.57845  23859474.0004                   23859475.1994
        42.0004         32.2504
 -10151627.88347  -7889915.41846  22090901.6884                   22090902.5744
        44.0004         40.7504
  12289359.67246   9542718.74245  23287925.5394                   23287925.1954
        40.2504         35.2504
 -10592526.96947  -8196231.75845  20868643.2894                   20868641.6994
        47.5004         35.0004
   1419387.11347   1110037.62946  21787576.0164                   21787577.5274
        45.5004         40.5004
 25  8  7  0 55 45.0000000  0  8G06G03G04G07G09G31G16G26
   -978256.33646   -754797.49645  24302125.6174                   24302128.0784
        39.2504         30.5004
   1989253.48848   1558367.66048  20279803.6414                   20279804.6214
        49.5004         48.2504
  -5141627.57847  -3988270.60246  20361777.3284                   20361776.1094
        47.7504         37.7504
  -2899037.00446  -2240360.43445  23852532.9224                   23852533.5434
        41.5004         32.5004
 -10188275.16447  -7918471.71546  22083928.0634                   22083928.9494
        43.7504         40.2504
  12338463.81347   9580981.62545  23297271.2424                   23297269.4224
        42.0004         34.5004
 -10613537.96147  -8212603.93745  20864645.3284                   20864643.0824
        47.0004         34.0004
   1445145.52747   1130109.11746  21792477.9384                   21792479.1844
        45.0004         40.7504
 25  8  7  0 56  0.0000000  0  8G06G03G04G07G09G31G16G26
   -977920.91846   -754536.13344  24302189.2504                   24302191.6994
        37.7504         29.2504
   2015946.51248   1579167.40248  20284883.2504                   20284884.2854
        49.5004         48.2504
  -5153544.28947  -3997556.34846  20359510.0634                   20359508.6524
        47.5004         37.5004
  -2935469.05147  -2268748.94145  23845599.7974                   23845600.9144
        42.2504         32.7504
 -10224902.41047  -7947012.38746  22076958.4534                   22076958.8714
        44.5004         41.0004
  12387579.91846   9619253.95745  23306616.1644                   23306616.2854
        41.2504         33.7504
 -10634397.42247  -8228858.03145  20860676.0634                   20860673.6804
        47.2504         34.5004
   1471040.01247   1150286.63346  21797405.9694                   21797406.9024
        44.5004         40.7504
 25  8  7  0 56 15.0000000  0  8G06G03G04G07G09G31G16G26
   -977454.99646   -754173.07445  24302278.4844                   24302280.6914
        37.7504         30.0004
   2042772.64148   1600070.85948  20289988.3674                   20289988.9694
        49.5004         48.2504
  -5165406.25047  -4006799.43046  20357252.7344                   20357251.6724
        47.2504         37.2504
  -2971853.74246  -2297100.55945  23838675.7734                   23838677.0784
        41.5004         32.7504
 -10261508.81247  -7975536.82446  22069992.1564                   22069992.6994
        44.5004         40.7504
  12436708.52746   9657535.91845  23315965.8054                   23315964.7194
        40.7504         34.0004
 -10655104.44947  -8244993.35545  20856735.4924                   20856733.2504
        47.0004         34.0004
   1497070.88747   1170570.42646  21802358.8444                   21802360.3054
        44.7504         40.7504
 25  8  7  0 56 30.0000000  0  8G06G03G04G07G09G31G16G26
   -976859.39546   -753708.95345  24302391.8834                   24302393.7304
        38.5004         30.0004
   2069730.89148   1621077.27048  20295118.2194                   20295119.0514
        48.2504         48.0004
  -5177214.12547  -4016000.36746  20355005.8984                   20355004.0084
        47.2504         37.7504
  -3008191.90646  -2325415.91045  23831760.6884                   23831762.1254
        40.5004         32.7504
 -10298095.08247  -8004045.57846  22063030.0554                   22063030.6684
        43.7504         41.2504
  12485848.56646   9695826.84845  23325316.9144                   23325315.8404
        41.0004         34.0004
 -10675659.73447  -8261010.43045  20852823.7894                   20852821.7704
        46.5004         34.5004
   1523237.16047   1190959.72746  21807338.4534                   21807340.0164
        43.0004         40.7504
 25  8  7  0 56 45.0000000  0  8G06G03G04G07G09G31G16G26
   -976134.40246   -753144.03545  24302529.0234                   24302531.4534
        39.5004         30.7504
   2096820.96948   1642186.40648  20300273.3204                   20300274.0044
        48.0004         48.0004
  -5188967.93447  -4025159.18046  20352769.3524                   20352767.8324
        47.5004         37.7504
  -3044483.61746  -2353695.06645  23824855.4534                   23824855.7424
        41.0004         32.0004
 -10334661.27347  -8032538.68046  22056071.9304                   22056072.2424
        43.5004         41.5004
  12534999.85246   9734126.53145  23334669.4844                   23334668.6294
        41.2504         34.2504
 -10696063.03947  -8276909.08645  20848941.3674                   20848938.9384
        47.0004         34.7504
   1549538.41047   1211454.20746  21812343.8204                   21812344.6914
        43.0004         40.7504
 25  8  7  0 57  0.0000000  0  8G06G03G04G07G09G31G16G26
   -975279.27346   -752477.68444  24302691.8594                   24302694.8754
        39.0004         29.7504
   2124043.51248   1663398.76248  20305454.0004                   20305454.5434
        49.0004         48.0004
  -5200666.76247  -4034275.14546  20350542.9924                   20350541.7114
        47.5004         37.2504
  -3080727.91846  -2381937.28945  23817957.4924                   23817958.5124
        40.2504         32.2504
 -10371206.39847  -8061015.37946  22049118.1724                   22049117.8984
        43.5004         41.0004
  12584162.73846   9772435.23445  23344025.5394                   23344024.1684
        41.5004         34.0004
 -10716313.30147  -8292688.48445  20845087.4774                   20845085.4414
        47.0004         35.0004
   1575975.26247   1232054.35246  21817373.6094                   21817375.1484
        44.5004         40.0004
 25  8  7  0 57 15.0000000  0  8G06G03G04G07G09G31G16G26
   -974293.80546   -751709.78144  24302879.1334                   24302881.8204
        39.5004         29.2504
   2151398.70748   1684714.47348  20310658.9304                   20310659.5274
        49.0004         48.2504
  -5212310.10547  -4043347.87546  20348327.1564                   20348325.7974
        47.7504         37.5004
  -3116924.55146  -2410142.35945  23811069.8524                   23811070.4494
        40.2504         32.2504
 -10407729.97747  -8089475.28546  22042167.0784                   22042167.8014
        44.5004         41.0004
  12633337.38346   9810753.11745  23353383.0164                   23353382.0824
        41.7504         34.2504
 -10736409.90647  -8308348.14845  20841263.2974                   20841261.0904
        47.5004         34.7504
   1602547.78947   1252760.21546  21822430.5944                   21822431.9414
        45.2504         40.0004
 25  8  7  0 57 30.0000000  0  8G06G03G04G07G09G31G16G26
   -973178.24646   -750840.50844  24303092.1094                   24303094.2814
        38.5004         29.7504
   2178886.11748   1706133.22348  20315889.8284                   20315890.9774
        49.2504         48.0004
  -5223898.13747  -4052377.50046  20346122.0234                   20346120.8554
        47.5004         37.2504
  -3153073.66946  -2438310.41345  23804190.3204                   23804191.4924
        39.2504         32.5004
 -10444232.20347  -8117918.55546  22035220.9144                   22035221.5514
        43.7504         41.0004
  12682523.37546   9849079.85545  23362742.5554                   23362741.8554
        40.7504         34.0004
 -10756353.03147  -8323888.22345  20837468.0084                   20837465.8204
        46.7504         35.0004
   1629255.51647   1273571.42646  21827513.0784                   21827514.1994
        45.2504         40.2504
 25  8  7  0 57 45.0000000  0  8G06G03G04G07G09G31G16G26
   -971933.79346   -749870.80145  24303327.7504                   24303331.1094
        39.5004         30.0004
   2206504.55548   1727654.06348  20321145.5004                   20321145.9844
        49.0004         48.2504
  -5235431.73847  -4061364.72346  20343927.2734                   20343925.9304
        47.5004         38.5004
  -3189176.32446  -2466442.25845  23797320.6564                   23797321.1644
        41.0004         32.5004
 -10480713.90647  -8146345.82846  22028278.7504                   22028279.3134
        43.2504         41.0004
  12731719.43847   9887414.39845  23372105.0394                   23372103.7624
        42.2504         34.7504
 -10776143.32447  -8339309.20745  20833702.7194                   20833699.7664
        47.2504         35.5004
   1656097.16847   1294487.00046  21832620.3754                   21832622.3244
        45.0004         40.7504
 25  8  7  0 58  0.0000000  0  8G06G03G04G07G09G31G16G26
   -970559.68046   -748800.06245  24303589.9774                   24303592.3874
        38.5004         30.0004
   2234254.61348   1749277.46548  20326426.3594                   20326426.8484
        49.2504         48.0004
  -5246910.00848  -4070308.82046  20341743.2894                   20341741.8554
        48.2504         37.7504
  -3225231.60246  -2494537.19145  23790458.6564                   23790460.0864
        40.0004         33.0004
 -10517174.24647  -8174756.45346  22021340.8284                   22021341.0044
        44.5004         40.7504
  12780926.14146   9925757.28945  23381468.0864                   23381467.9804
        41.2504         34.7504
 -10795779.93047  -8354610.43045  20829965.0704                   20829963.4384
        47.0004         34.5004
   1683073.32847   1315507.38746  21837754.0164                   21837755.6764
        45.5004         40.5004
 25  8  7  0 58 15.0000000  0  8G06G03G04G07G09G31G16G26
   -969055.99646   -747628.35544  24303876.3984                   24303878.7854
        38.0004         29.2504
   2262136.27048   1771003.41848  20331732.0004                   20331732.9144
        50.0004         48.5004
  -5258332.72348  -4079209.62946  20339568.9614                   20339567.7344
        48.0004         37.5004
  -3261239.41846  -2522595.13745  23783607.0864                   23783607.6884
        40.2504         32.7504
 -10553612.97347  -8203150.24246  22014406.6094                   22014407.0634
        43.7504         41.2504
  12830143.48846   9964108.38745  23390834.8594                   23390833.2624
        41.5004         34.0004
 -10815262.43447  -8369791.57445  20826258.1414                   20826255.6374
        46.2504         35.0004
   1710183.84047   1336632.45746  21842913.0864                   21842914.4024
        44.5004         40.2504
 25  8  7  0 58 30.0000000  0  8G06G03G04G07G09G31G16G26
   -967422.15246   -746355.23045  24304187.4694                   24304189.4654
        38.0004         30.5004
   2290149.87148   1792832.18448  20337062.8914                   20337063.5984
        48.7504         48.2504
  -5269699.20347  -4088066.62546  20337406.3364                   20337404.8244
        47.5004         37.2504
  -3297199.05846  -2550615.54945  23776763.8834                   23776765.2074
        40.7504         33.0004
 -10590029.34847  -8231526.61746  22007476.5084                   22007477.1484
        44.5004         41.7504
  12879371.76646  10002468.08645  23400202.0944                   23400201.0944
        41.7504         34.5004
 -10834589.96147  -8384851.96545  20822580.1564                   20822578.1054
        46.7504         35.2504
   1737428.98847   1357862.44546  21848097.6254                   21848098.9414
        44.7504         40.0004
 25  8  7  0 58 45.0000000  0  8G06G03G04G07G09G31G16G26
   -965659.06246   -744981.37945  24304522.3204                   24304524.8404
        38.2504         30.0004
   2318294.55948   1814763.08648  20342418.6564                   20342419.2034
        48.7504         48.0004
  -5281010.00447  -4096880.22746  20335253.9224                   20335252.9454
        47.5004         37.2504
  -3333111.23846  -2578598.97345  23769930.0634                   23769930.9144
        40.5004         33.5004
 -10626423.98047  -8259886.05546  22000551.2974                   22000551.7154
        45.2504         41.2504
  12928610.21947  10040835.68045  23409572.1724                   23409570.6484
        42.0004         33.7504
 -10853762.91847  -8399791.90245  20818931.9614                   20818929.5784
        47.0004         34.5004
   1764807.88347   1379196.63346  21853307.7734                   21853309.1994
        45.5004         40.2504
 25  8  7  0 59  0.0000000  0  8G06G03G04G07G09G31G16G26
   -963766.75446   -743506.85544  24304882.6564                   24304884.7814
        38.0004         29.5004
   2346570.15648   1836796.00448  20347798.9774                   20347799.4104
        48.2504         48.0004
  -5292264.98448  -4105650.33646  20333112.5234                   20333110.9534
        48.0004         37.7504
  -3368976.02746  -2606545.47345  23763105.4064                   23763105.9774
        41.2504         33.2504
 -10662796.69947  -8288228.40647  21993629.8524                   21993630.1414
        45.5004         42.0004
  12977858.44146  10079210.89545  23418943.5234                   23418942.4224
        41.5004         33.7504
 -10872781.06247  -8414611.20745  20815312.6724                   20815310.3204
        47.0004         34.7504
   1792320.32047   1400634.89146  21858542.6564                   21858544.5164
        42.7504         40.2504
 25  8  7  0 59 15.0000000  0  8G06G03G04G07G09G31G16G26
   -961745.59446   -741931.92244  24305267.6954                   24305269.9454
        39.0004         29.0004
   2374976.25447   1858930.60548  20353204.7584                   20353205.5944
        47.5004         48.0004
  -5303464.30548  -4114377.07446  20330981.0474                   20330979.4964
        48.0004         37.7504
  -3404793.53546  -2634455.12545  23756288.6484                   23756290.0824
        41.5004         33.5004
 -10699147.68447  -8316553.82846  21986712.3984                   21986712.8364
        45.5004         41.7504
  13027116.09846  10117593.44945  23428316.6954                   23428316.0204
        41.5004         34.2504
 -10891644.57047  -8429310.01645  20811723.0394                   20811721.0234
        47.0004         34.7504
   1819965.74247   1422176.77346  21863804.0394                   21863805.4144
        43.0004         40.7504
 25  8  7  0 59 30.0000000  0  8G06G03G04G07G09G31G16G26
   -959596.73446   -740257.49644  24305676.2274                   24305678.5594
        39.2504         29.0004
   2403511.55948   1881165.89548  20358634.9534                   20358635.6334
        49.2504         48.0004
  -5314608.88347  -4123061.15246  20328859.8674                   20328859.3554
        47.7504         37.2504
  -3440564.79746  -2662328.75045  23749482.2194                   23749482.9804
        41.5004         33.2504
 -10735477.84447  -8344863.02346  21979799.0704                   21979799.5594
        45.2504         41.2504
  13076381.80946  10155982.29345  23437690.8284                   23437690.8094
        41.2504         34.0004
 -10910354.16447  -8443888.89145  20808162.8594                   20808160.4304
        47.5004         35.5004
   1847742.88347   1443821.30146  21869089.8754                   21869091.2814
        44.5004         40.2504
 25  8  7  0 59 45.0000000  0  8G06G03G04G07G09G31G16G26
   -957318.41446   -738482.18044  24306109.4384                   24306111.8404
        38.5004         29.2504
   2432177.78948   1903503.19948  20364089.9454                   20364090.5984
        48.5004         48.0004
  -5325696.77747  -4131701.06646  20326750.2894                   20326748.9534
        47.5004         37.5004
  -3476287.87146  -2690164.82845  23742684.4064                   23742685.0354
        41.5004         32.5004
 -10771785.19547  -8373154.43446  21972889.7344                   21972890.4654
        45.0004         41.5004
  13125657.21946  10194378.67645  23447068.1414                   23447067.5124
        40.5004         33.5004
 -10928907.86747  -8458346.29745  20804632.0164                   20804629.8554
        47.0004         34.7504
   1875653.27047   1465569.65246  21874400.6804                   21874402.2774
        44.5004         40.2504
 25  8  7  1  0  0.0000000  0  8G06G03G04G07G09G31G16G26
   -954911.99646   -736607.05144  24306567.6564                   24306570.0164
        39.2504         28.5004
   2460973.55148   1925941.44147  20369569.6954                   20369570.4144
        48.5004         47.7504
  -5336729.03148  -4140297.62546  20324651.1804                   20324649.1914
        48.0004         37.7504
  -3511963.90646  -2717964.24645  23735895.1254                   23735895.9414
        41.7504         33.2504
 -10808070.79747  -8401428.91046  21965984.8284                   21965985.1134
        45.2504         41.5004
  13174940.94946  10232781.58645  23456446.4064                   23456446.0474
        41.2504         34.5004
 -10947306.63747  -8472682.97745  20801130.9614                   20801128.5044
        46.7504         34.7504
   1903695.57047   1487420.78946  21879737.3524                   21879738.7504
        45.0004         40.0004
 25  8  7  1  0 15.0000000  0  8G06G03G04G07G09G31G16G26
   -952376.71546   -734631.50444  24307050.6724                   24307052.8134
        39.0004         28.7504
   2489899.43048   1948481.06348  20375073.7504                   20375074.8594
        48.5004         48.0004
  -5347704.74247  -4148850.12146  20322562.1174                   20322561.1054
        47.7504         37.7504
  -3547592.14846  -2745726.42245  23729115.3204                   23729115.9344
        41.0004         33.0004
 -10844333.77047  -8429685.75047  21959084.0864                   21959084.8674
        45.7504         42.0004
  13224233.73446  10271191.52045  23465825.4774                   23465826.0664
        40.0004         34.0004
 -10965549.29747  -8486898.00845  20797659.5634                   20797656.9774
        47.0004         35.5004
   1931870.22347   1509375.06346  21885098.5234                   21885099.8404
        44.7504         40.0004
 25  8  7  1  0 30.0000000  0  8G06G03G04G07G09G31G16G26
   -949713.01646   -732555.89144  24307557.4534                   24307559.1294
        39.5004         29.0004
   2518954.97748   1971121.73848  20380603.1724                   20380603.7854
        48.5004         48.0004
  -5358624.04347  -4157358.66446  20320484.3364                   20320483.1564
        47.0004         38.0004
  -3583172.87946  -2773451.58245  23722344.7034                   23722344.9414
        41.5004         33.7504
 -10880574.21947  -8457925.04346  21952188.0394                   21952188.6094
        45.5004         41.7504
  13273535.06347  10309608.06345  23475209.9064                   23475207.4024
        43.0004         34.0004
 -10983636.07447  -8500991.56645  20794218.0164                   20794215.2774
        47.2504         35.5004
   1960176.77347   1531432.10546  21890485.4694                   21890486.5664
        44.0004         39.7504
 25  8  7  1  0 45.0000000  0  8G06G03G04G07G09G31G16G26
   -946921.83646   -730380.94144  24308088.0554                   24308090.6994
        39.0004         28.7504
   2548139.16048   1993862.64548  20386156.6024                   20386157.1334
        48.2504         48.0004
  -5369487.69147  -4165823.84046  20318416.9924                   20318415.9494
        47.2504         38.2504
  -3618706.84846  -2801140.29345  23715582.8674                   23715583.4964
        39.5004         34.0004
 -10916792.87147  -8486147.35547  21945296.0084                   21945296.0514
        44.5004         42.0004
  13322843.68047  10348030.38745  23484592.4304                   23484590.8914
        43.0004         33.7504
 -11001567.55947  -8514964.12945  20790805.2734                   20790802.7974
        47.2504         35.0004
   1988614.08647   1553591.05146  21895896.5004                   21895898.3054
        43.7504         39.7504
 25  8  7  1  1  0.0000000  0  8G06G03G04G07G09G31G16G26
   -944002.10246   -728105.82844  24308643.9534                   24308646.3134
        39.5004         28.7504
   2577453.00848   2016704.59048  20391735.0864                   20391735.5354
        48.7504         48.0004
  -5380294.30147  -4174244.57046  20316360.9694                   20316359.5944
        47.0004         37.2504
  -3654192.78546  -2828791.60245  23708829.9144                   23708830.4734
        40.0004         33.7504
 -10952988.39547  -8514351.63747  21938407.7034                   21938408.0824
        45.2504         42.0004
  13372160.79746  10386459.28545  23493975.5084                   23493975.9144
        41.0004         33.7504
 -11019342.09847  -8528814.38745  20787423.0554                   20787420.8634
        46.5004         35.2504
   2017183.10547   1575852.62146  21901332.8754                   21901334.3364
        43.5004         40.2504
 25  8  7  1  1 15.0000000  0  8G06G03G04G07G09G31G16G26
   -940952.93446   -725729.85244  24309224.3364                   24309226.4844
        39.2504         29.0004
   2606897.22348   2039648.11748  20397337.8834                   20397338.7154
        48.2504         48.0004
  -5391042.87547  -4182620.07846  20314315.2424                   20314314.2344
        47.5004         37.7504
  -3689629.69147  -2856404.68045  23702085.9144                   23702087.0634
        42.0004         33.5004
 -10989159.75047  -8542537.08646  21931524.4844                   21931525.1994
        45.2504         41.5004
  13421487.08246  10424895.29345  23503363.9844                   23503362.1134
        41.2504         33.7504
 -11036958.74647  -8542541.63345  20784070.3364                   20784068.2424
        46.5004         34.5004
   2045884.54347   1598217.37146  21906794.8914                   21906795.8284
        43.5004         40.0004
 25  8  7  1  1 30.0000000  0  8G06G03G04G07G09G31G16G26
   -937776.85246   -723254.99644  24309828.3204                   24309831.2114
        40.2504         28.5004
   2636469.36348   2062691.32048  20402965.2504                   20402966.0784
        48.0004         48.0004
  -5401735.58247  -4190952.04746  20312280.6254                   20312279.2664
        47.2504         37.7504
  -3725019.89147  -2883981.37145  23695351.8054                   23695352.1604
        42.0004         33.5004
 -11025309.05547  -8570705.34447  21924645.5234                   21924645.8094
        45.5004         42.0004
  13470819.97347  10463336.48045  23512751.8524                   23512749.5164
        42.5004         34.2504
 -11054419.69947  -8556147.53545  20780747.5084                   20780745.4844
        46.7504         35.5004
   2074715.80547   1620683.28146  21912281.1024                   21912282.8554
        44.5004         40.5004
 25  8  7  1  1 45.0000000  0  8G06G03G04G07G09G31G16G26
   -934472.78546   -720680.39544  24310457.3204                   24310459.5514
        39.7504         29.7504
   2666170.30948   2085834.90247  20408617.1254                   20408617.5784
        49.0004         47.7504
  -5412371.16048  -4199239.50846  20310256.9064                   20310255.1844
        48.0004         38.2504
  -3760362.00846  -2911520.60545  23688626.0944                   23688627.0234
        41.5004         33.0004
 -11061435.09047  -8598855.47346  21917770.9064                   21917771.6764
        45.5004         41.7504
  13520160.46946  10501783.62545  23522139.6644                   23522139.1764
        41.0004         33.7504
 -11071723.47747  -8569630.98045  20777454.9694                   20777452.5984
        46.5004         35.0004
   2103677.80547   1643251.07046  21917792.2584                   21917793.7814
        44.5004         40.2504
 25  8  7  1  2  0.0000000  0  8G06G03G04G07G09G31G16G26
   -931041.66846   -718006.80144  24311110.3984                   24311112.3594
        39.2504         29.5004
   2695999.10248   2109078.09847  20414293.7114                   20414294.2734
        49.0004         47.7504
  -5422950.28547  -4207482.97746  20308243.9694                   20308242.0314
        47.0004         38.5004
  -3795657.00846  -2939023.11345  23681909.6484                   23681910.8054
        41.5004         33.5004
 -11097538.54347  -8626988.01647  21910901.1334                   21910901.3554
        45.7504         42.2504
  13569507.42646  10540235.75445  23531530.8134                   23531529.6644
        41.5004         34.0004
 -11088870.70747  -8582992.43045  20774192.4844                   20774189.5204
        46.2504         35.0004
   2132769.42647   1665919.86746  21923328.4454                   21923329.6254
        44.5004         39.7504
 25  8  7  1  2 15.0000000  0  8G06G03G04G07G09G31G16G26
   -927482.69946   -715233.57444  24311787.5164                   24311790.1134
        40.0004         29.5004
   2725956.44948   2132421.46547  20419994.1644                   20419994.9024
        49.0004         47.7504
  -5433471.91048  -4215681.64146  20306241.4614                   20306240.1054
        48.0004         38.2504
  -3830904.25446  -2966488.42645  23675202.1724                   23675202.8874
        41.5004         32.7504
 -11133618.34847  -8655102.12946  21904034.9844                   21904035.4304
        45.2504         41.7504
  13618861.62546  10578693.56345  23540922.4304                   23540921.7194
        41.5004         33.7504
 -11105860.24247  -8596231.00045  20770959.2344                   20770956.6724
        47.0004         34.7504
   2161991.37947   1688690.21546  21928889.4844                   21928890.9184
        44.0004         40.0004
 25  8  7  1  2 30.0000000  0  8G06G03G04G07G09G31G16G26
   -923795.79746   -712360.68044  24312488.5474                   24312491.4924
        39.5004         29.2504
   2756042.32848   2155864.99247  20425719.1954                   20425720.1764
        48.7504         47.7504
  -5443935.75848  -4223835.28546  20304250.3984                   20304248.9454
        48.0004         38.5004
  -3866103.26246  -2993916.14145  23668503.6884                   23668504.5124
        41.5004         33.5004
 -11169674.18447  -8683197.56647  21897173.7274                   21897173.6914
        45.7504         42.0004
  13668223.08246  10617156.99245  23550315.0704                   23550315.1214
        40.2504         33.7504
 -11122691.82047  -8609346.48445  20767755.6414                   20767753.1954
        46.5004         34.7504
   2191343.58647   1711562.06346  21934474.3834                   21934476.0514
        44.2504         39.5004
 25  8  7  1  2 45.0000000  0  8G06G03G04G07G09G31G16G26
   -919981.53546   -709388.53944  24313215.6414                   24313217.4384
        40.7504         29.2504
   2786256.12948   2179408.19947  20431468.7664                   20431469.4804
        48.2504         47.5004
  -5454342.10547  -4231944.11346  20302269.6644                   20302268.7424
        47.5004         38.0004
  -3901254.48246  -3021306.61545  23661814.5864                   23661815.8554
        41.5004         33.5004
 -11205706.34047  -8711274.54747  21890317.1414                   21890317.2584
        46.0004         42.5004
  13717591.21946  10655625.59845  23559711.3984                   23559709.4184
        41.5004         34.0004
 -11139365.54747  -8622338.97345  20764583.3834                   20764580.6484
        45.5004         35.2504
   2220825.29747   1734534.81646  21940085.1884                   21940086.5234
        43.5004         40.2504
 25  8  7  1  3  0.0000000  0  8G06G03G04G07G09G31G16G26
   -916039.75446   -706317.01244  24313964.9844                   24313967.3984
        39.5004         28.5004
   2816597.91448   2203051.12547  20437242.7504                   20437243.1174
        48.7504         47.7504
  -5464690.57447  -4240007.85946  20300300.7114                   20300299.3484
        47.2504         38.0004
  -3936357.43446  -3048659.48045  23655134.9614                   23655135.6294
        41.0004         33.2504
 -11241714.44947  -8739332.79347  21883464.5084                   21883465.3134
        44.7504         42.0004
  13766966.06647  10694099.51245  23569106.6954                   23569104.9144
        43.0004         34.2504
 -11155880.96147  -8635208.09445  20761440.2894                   20761437.7464
        46.0004         35.5004
   2250436.56647   1757608.52746  21945720.2194                   21945721.1134
        44.0004         39.5004
 25  8  7  1  3 15.0000000  0  8G06G03G04G07G09G31G16G26
   -911970.46546   -703146.13744  24314739.3914                   24314741.9064
        39.0004         28.7504
   2847067.57048   2226793.69947  20443040.8984                   20443041.6724
        48.2504         47.7504
  -5474980.91047  -4248026.29746  20298342.7194                   20298341.1214
        47.7504         37.7504
  -3971412.11346  -3075974.73045  23648464.0704                   23648464.7854
        40.2504         33.5004
 -11277698.19547  -8767372.04347  21876617.2504                   21876617.8634
        44.5004         42.0004
  13816347.54746  10732578.59845  23578502.2194                   23578501.7304
        41.7504         34.0004
 -11172237.77047  -8647953.64145  20758327.1644                   20758325.2664
        46.0004         35.7504
   2280177.27347   1780783.09446  21951379.3364                   21951380.5044
        43.7504         40.0004
 25  8  7  1  3 30.0000000  0  8G06G03G04G07G09G31G16G26
   -907774.40646   -699876.48444  24315537.7274                   24315540.3284
        38.7504         27.7504
   2877664.41048   2250635.37147  20448863.4454                   20448864.1024
        48.2504         47.5004
  -5485213.53947  -4255999.77046  20296395.2344                   20296394.1684
        47.2504         38.0004
  -4006418.98446  -3103252.76245  23641802.6564                   23641803.3914
        40.5004         33.0004
 -11313658.04747  -8795392.68447  21869774.7194                   21869774.5904
        45.0004         42.7504
  13865734.91046  10771062.22745  23587900.1174                   23587899.7974
        40.5004         33.5004
 -11188436.27047  -8660575.82845  20755245.0634                   20755242.7584
        45.7504         35.5004
   2310046.54747   1804057.85246  21957063.3204                   21957064.5704
        44.5004         39.5004
 25  8  7  1  3 45.0000000  0  8G06G03G04G07G09G31G16G26
   -903451.29746   -696507.82444  24316360.8524                   24316362.8204
        40.2504         28.5004
   2908388.43848   2274576.15647  20454710.0394                   20454710.7734
        48.0004         47.5004
  -5495388.03547  -4263927.94146  20294458.9224                   20294457.3324
        47.7504         38.2504
  -4041377.64146  -3130493.18445  23635149.8674                   23635150.5044
        41.5004         33.0004
 -11349593.55547  -8823394.34847  21862936.2974                   21862936.3954
        46.0004         42.2504
  13915128.18647  10809550.43445  23597300.4224                   23597299.0904
        42.5004         33.0004
 -11204476.01647  -8673074.29745  20752192.9774                   20752190.6374
        45.2504         35.2504
   2340044.45347   1827432.83646  21962771.6174                   21962772.8404
        44.0004         39.7504
 25  8  7  1  4  0.0000000  0  8G06G03G04G07G09G31G16G26
   -899001.37146   -693040.36344  24317207.3134                   24317209.7034
        39.5004         28.5004
   2939239.46148   2298615.89147  20460580.8134                   20460581.5864
        48.2504         47.5004
  -5505504.36747  -4271810.79746  20292533.9304                   20292532.8594
        47.7504         38.0004
  -4076288.20346  -3157696.13745  23628506.7894                   23628507.0514
        38.7504         33.2504
 -11385504.66447  -8851377.00447  21856102.6414                   21856102.7624
        45.0004         42.0004
  13964527.29747  10848043.21545  23606701.6484                   23606699.0594
        42.2504         32.7504
 -11220356.97347  -8685449.04345  20749170.8754                   20749168.5554
        46.5004         35.2504
   2370170.65247   1850907.78946  21968504.3834                   21968505.9384
        44.5004         40.0004
 25  8  7  1  4 15.0000000  0  8G06G03G04G07G09G31G16G26
   -894425.78546   -689474.96144  24318077.5234                   24318079.8594
        39.7504         28.5004
   2970216.25047   2322753.62947  20466475.5944                   20466475.9804
        47.7504         47.5004
  -5515563.37947  -4279648.98046  20290619.8524                   20290618.4574
        47.5004         38.0004
  -4111151.73446  -3184862.43745  23621872.5164                   23621872.8594
        41.0004         33.0004
 -11421392.23847  -8879341.32847  21849273.3134                   21849273.7934
        44.7504         42.0004
  14013930.95347  10886539.57845  23616102.3834                   23616100.7424
        42.5004         33.7504
 -11236079.89547  -8697700.64545  20746178.5314                   20746176.2504
        47.0004         35.2504
   2400423.83247   1874481.69146  21974261.3754                   21974262.9414
        44.0004         40.2504
 25  8  7  1  4 30.0000000  0  8G06G03G04G07G09G31G16G26
   -889723.99246   -685811.23844  24318972.6644                   24318974.8484
        40.0004         28.2504
   3001319.29747   2346989.75047  20472393.9694                   20472394.8444
        47.7504         47.5004
  -5525564.21947  -4287441.83646  20288716.8984                   20288714.9024
        47.7504         37.7504
  -4145967.58246  -3211991.56645  23615247.7734                   23615247.6604
        40.2504         33.0004
 -11457255.37947  -8907286.60246  21842448.7894                   21842449.1994
        45.2504         41.7504
  14063339.69546  10925039.87945  23625504.0704                   23625502.9924
        41.5004         33.5004
 -11251643.70747  -8709828.27045  20743217.3524                   20743214.6914
        46.0004         35.2504
   2430804.55147   1898154.96946  21980043.1414                   21980043.9574
        43.5004         39.7504
 25  8  7  1  4 45.0000000  0  8G06G03G04G07G09G31G16G26
   -884895.35946   -682048.66844  24319891.7814                   24319893.9804
        39.7504         28.2504
   3032549.08648   2371324.62947  20478336.6254                   20478337.3874
        48.0004         47.5004
  -5535506.13348  -4295188.77746  20286824.7504                   20286823.5664
        48.0004         37.7504
  -4180734.85546  -3239082.87545  23608631.2664                   23608631.4924
        40.0004         32.2504
 -11493093.34447  -8935212.27046  21835629.0314                   21835629.6294
        45.0004         41.7504
  14112753.87146  10963544.38745  23634906.5314                   23634906.1214
        40.5004         33.0004
 -11267047.73047  -8721831.38345  20740285.4694                   20740283.3874
        46.5004         35.7504
   2461313.07447   1921927.84046  21985847.8204                   21985849.5704
        43.7504         39.7504
 25  8  7  1  5  0.0000000  0  8G06G03G04G07G09G31G16G26
   -879940.10246   -678187.43744  24320834.7974                   24320836.8754
        39.7504         27.5004
   3063905.40648   2395758.10547  20484303.6804                   20484304.3954
        48.0004         47.5004
  -5545388.97747  -4302889.69146  20284944.3204                   20284942.7584
        47.5004         37.7504
  -4215453.48446  -3266136.27345  23602024.4224                   23602024.8874
        40.5004         33.0004
 -11528905.94147  -8963118.15647  21828813.9844                   21828814.4384
        45.2504         42.0004
  14162173.33246  11002052.99245  23644311.9064                   23644310.4144
        40.2504         33.0004
 -11282291.69947  -8733709.77045  20737385.2424                   20737382.6134
        46.7504         35.5004
   2491949.22747   1945800.15646  21991678.3204                   21991679.6484
        44.0004         40.0004
 25  8  7  1  5 15.0000000  0  8G06G03G04G07G09G31G16G26
   -874859.20746   -674228.29344  24321801.9224                   24321803.6414
        40.0004         27.7504
   3095387.19548   2420289.34847  20490294.5554                   20490295.4064
        48.5004         47.5004
  -5555213.46948  -4310545.13746  20283075.0084                   20283073.4104
        48.0004         38.0004
  -4250124.31246  -3293152.42245  23595426.5864                   23595427.1884
        41.2504         33.2504
 -11564693.93747  -8991004.88747  21822004.1024                   21822004.1954
        46.0004         42.2504
  14211597.08646  11040564.96545  23653717.1094                   23653715.6134
        41.2504         32.7504
 -11297376.18047  -8745463.89545  20734514.2734                   20734512.0824
        45.7504         35.0004
   2522711.86347   1969771.03546  21997532.3364                   21997533.6334
        43.5004         39.7504
