     2.11           OBSERVATION DATA    G (GPS)             RINEX VERSION / TYPE
teqc  2019Feb25     K Baraggiotta       20250724 23:32:58UTCPGM / RUN BY / DATE
Linux 2.6.32-573.12.1.x86_64|x86_64|gcc -static|Linux 64|=+ COMMENT
teqc  2019Feb25                         20250724 21:41:00UTCCOMMENT
BIT 2 OF LLI FLAGS DATA COLLECTED UNDER A/S CONDITION       COMMENT
DANE                                                        MARKER NAME
                                                            MARKER NUMBER
K Baraggiotta       University of California, Riverside     OBSERVER / AGENCY
0220413532          TRIMBLE R7          2.32                REC # / TYPE / VERS
1441045101          TRM57971.00                             ANT # / TYPE
 -2382849.0132 -4663312.8820  3629794.1450                  APPROX POSITION XYZ
        1.0538        0.0000        0.0000                  ANTENNA: DELTA H/E/N
     1     1                                                WAVELENGTH FACT L1/2
     7    L1    L2    C1    P1    P2    S1    S2            # / TYPES OF OBSERV
    18                                                      LEAP SECONDS
 SNR is mapped to RINEX snr flag value [0-9]                COMMENT
  L1 & L2: min(max(int(snr_dBHz/6), 0), 9)                  COMMENT
  2025     7    15     0    10   30.0000000     GPS         TIME OF FIRST OBS
                                                            END OF HEADER
 25  7 15  0 10 30.0000000  0  8G01G02G03G10G28G31G32G26
   -325338.73857   -182730.09856  21266180.6954                   21266177.1174
        47.7504         37.2504
   -264613.17657   -138840.65655  22243548.8914                   22243543.3014
        46.7504         35.7504
   -443371.85957   -233136.90257  21638049.5004                   21638047.4414
        46.7504         45.2504
   -226950.24655    -94479.22754  24570831.2274                   24570833.3794
        35.0004         26.7504
   -253781.45757   -139270.71956  21664182.1334                   21664177.5044
        45.7504         36.5004
   -332192.36757   -179800.11758  20257787.8284                   20257782.4144
        47.5004         49.7504
   -252235.66057   -132556.44956  23869727.2814                   23869725.4654
        42.5004         36.0004
   -442669.89556   -189606.16055  23378385.6484                   23378386.6414
        40.5004         35.2504
 25  7 15  0 11  0.0000000  0 10G01G02G03G10G28G31G32G04G25G26
   -582152.09847   -382844.42646  21217310.5394                   21217306.6054
        47.5004         36.5004
   -467440.19947   -296887.75446  22204952.8204                   22204947.0004
        46.7504         36.0004
   -781300.21147   -496457.67647  21573743.8204                   21573741.7034
        46.7504         45.5004
   -400321.56246   -229574.02345  24537841.9924                   24537842.8014
        39.0004         31.2504
   -455418.23047   -296390.30546  21625811.6484                   21625807.2894
        46.2504         36.0004
   -594397.56247   -384115.85948  20207892.2274                   20207886.3954
        47.0004         49.7504
   -446004.31647   -283545.09045  23832854.2194                   23832852.8404
        42.0004         35.0004
   -675333.16057   -428685.27354  23213962.2814                   23213960.0744
        42.0004         27.5004
   -456766.89156   -263175.46554  24657547.3134                   24657547.8164
        37.5004         26.7504
   -790630.46546   -460744.19545  23312171.2894                   23312171.0234
        40.7504         34.5004
 25  7 15  0 11 30.0000000  0 10G01G02G03G10G28G31G32G04G25G26
   -838440.43747   -582549.64846  21168540.9224                   21168536.9224
        47.5004         37.0004
   -669961.12147   -454696.34446  22166413.9534                   22166408.3524
        47.0004         36.0004
  -1119092.08247   -759672.11747  21509464.2114                   21509461.9224
        47.5004         45.0004
   -573549.70746   -364557.18045  24504877.5784                   24504879.0434
        39.0004         31.7504
   -656699.58647   -453232.96546  21587508.8754                   21587505.0474
        45.5004         37.0004
   -856048.81247   -587999.96548  20158101.3284                   20158096.2154
        47.2504         49.5004
   -639820.11347   -434570.48446  23795972.7504                   23795971.3714
        42.2504         36.0004
  -1004076.85946   -684849.11344  23151403.6644                   23151402.0044
        41.2504         25.7504
                                  24614789.1564                   24614790.0314
        34.2504         19.2504
  -1138472.64146   -731789.97345  23245978.2974                   23245979.5904
        39.7504         35.0004
 25  7 15  0 12  0.0000000  0 10G01G02G03G10G28G31G32G04G25G26
  -1094125.23048   -781784.60546  21119885.7034                   21119882.0004
        49.0004         38.5004
   -872099.27747   -612206.62945  22127948.3914                   22127942.8754
        44.5004         35.5004
  -1456666.62147  -1022717.19547  21445225.8444                   21445224.0044
        47.0004         44.0004
   -746556.50845   -499367.87544  24471953.8204                   24471957.3094
        35.0004         26.5004
   -857549.08247   -609739.10946  21549288.8984                   21549283.9494
        47.7504         37.7504
  -1117067.94547   -791391.49248  20108431.0394                   20108425.6214
        47.0004         50.2504
   -833604.46546   -585571.27745  23759096.9774                   23759095.4064
        40.7504         30.0004
  -1332673.68447   -940898.51244  23088874.2194                   23088872.3324
        42.2504         27.2504
                                  24572133.5474                   24572134.2464
        29.7504         19.5004
  -1486114.34046  -1002679.54745  23179824.7734                   23179825.5044
        40.7504         35.7504
 25  7 15  0 12 30.0000000  0 10G01G02G03G10G28G31G32G04G25G26
  -1349187.10547   -980534.14846  21071349.0084                   21071345.0474
        47.7504         38.0004
  -1073837.02347   -769404.94545  22089559.3674                   22089553.6954
        45.0004         34.5004
  -1794001.80147  -1285575.73047  21381033.1174                   21381031.0204
        46.5004         44.5004
   -919323.14855   -607979.41853  24439079.1724                   24439080.7384
        34.7504         23.0004
  -1057949.16447   -765895.04346  21511153.7114                   21511149.1134
        45.0004         37.2504
  -1377435.71547   -994275.46148  20058884.7034                   20058879.1374
        46.5004         48.7504
  -1027337.73447   -736532.43746  23722230.8914                   23722229.9264
        44.5004         38.7504
  -1661104.03146  -1196818.20344  23026375.1174                   23026373.7344
        41.5004         28.0004
  -1129218.59855   -706859.86353  24529584.7114                   24529585.5944
        35.0004         22.5004
  -1833532.50445  -1273394.85244  23113713.3754                   23113714.3794
        35.5004         28.2504
 25  7 15  0 13  0.0000000  0 10G01G02G03G10G28G31G32G04G25G26
  -1603612.09448  -1178787.36745  21022933.6724                   21022929.2774
        48.0004         35.0004
  -1275161.98447   -926281.59045  22051248.3914                   22051242.2894
        45.2504         33.7504
  -2131081.16047  -1548234.96547  21316889.0864                   21316887.0434
        46.2504         42.7504
  -1091836.35946   -742405.59045  24406251.6024                   24406253.0634
        40.0004         33.5004
  -1257887.94547   -921691.50046  21473106.6094                   21473102.5124
        45.7504         36.2504
  -1637138.36347  -1196641.19148  20009464.9774                   20009459.4064
        47.0004         50.0004
  -1221005.73846   -887442.61745  23685376.5704                   23685375.4654
        41.7504         34.7504
  -1989353.63745  -1452596.96143  22963912.1564                   22963910.5984
        34.5004         19.7504
  -1352239.37946   -880642.33644  24487145.8594                   24487146.3094
        37.2504         24.0004
  -2180709.46956  -1543922.29755  23047647.2974                   23047647.8984
        40.0004         35.0004
 25  7 15  0 13 30.0000000  0 10G01G02G03G10G28G31G32G04G25G26
   -281965.46947   -148932.89146  21274434.4924                   21274430.1334
        47.5004         37.0004
     99356.47747    144771.66846  22312810.8674                   22312804.6254
        45.2504         36.0004
   -892464.69547   -583079.26247  21552589.6804                   21552587.7934
        47.7504         45.5004
    311335.36746    350974.68045  24673266.0314                   24673268.8404
        39.5004         33.2504
    118065.55147    150480.01246  21734942.0784                   21734937.5274
        45.7504         36.0004
   -320741.51647   -170877.39848  20259966.5004                   20259961.7274
        47.5004         49.5004
    160824.42247    189308.07446  23948330.2034                   23948329.6134
        43.0004         36.0004
   -741984.95347   -480621.31244  23201277.7114                   23201276.3874
        42.5004         27.5004
       747.00046    173632.67243  24744609.9614                   24744610.6644
        36.2504         21.5004
   -952203.80146   -586645.04745  23281424.3524                   23281424.5514
        39.7504         35.7504
 25  7 15  0 14  0.0000000  0 10G01G02G03G10G28G31G32G04G25G26
   -535102.57048   -346182.60246  21226264.2734                   21226259.9414
        48.5004         37.0004
   -101135.15247    -11455.64845  22274658.0704                   22274652.5514
        46.0004         35.2504
  -1229010.57847   -845322.77747  21488547.0784                   21488545.1644
        47.5004         45.7504
    139341.59846    216953.36744  24640535.1884                   24640538.3444
        37.0004         28.5004
    -80942.26247     -4591.04346  21697072.0784                   21697067.9924
        45.2504         36.5004
   -579100.84047   -372196.35948  20210802.7734                   20210797.4574
        47.0004         49.5004
    -32698.23447     38511.14846  23911503.8984                   23911502.8714
        43.0004         36.0004
  -1069857.96947   -736106.68044  23138885.9534                   23138884.1564
        42.5004         27.0004
   -221113.09446       754.65243  24702391.8834                   24702391.9844
        37.0004         21.2504
  -1298873.25446   -856777.01645  23215455.3524                   23215455.7194
        40.2504         35.5004
 25  7 15  0 14 30.0000000  0 10G01G02G03G10G28G31G32G04G25G26
   -787598.74648   -542932.89546  21178215.8984                   21178211.5084
        48.0004         36.7504
   -301215.61747   -167362.57445  22236584.1174                   22236578.4024
        45.7504         35.0004
  -1565288.80147  -1107357.73847  21424555.4924                   21424553.7584
        47.7504         45.7504
    -32396.06646     83131.59844  24607857.0004                   24607856.9574
        39.5004         28.2504
   -279490.45347   -159303.95346  21659289.4304                   21659285.0984
        46.0004         37.0004
   -836791.62947   -572994.37948  20161765.7194                   20161760.4734
        47.2504         49.5004
   -226150.80947   -112231.19146  23874691.7274                   23874690.7894
        42.0004         36.7504
  -1397545.21947   -991447.32844  23076529.0634                   23076527.0554
        42.0004         26.7504
   -442396.69046   -171674.13343  24660282.6724                   24660282.2464
        38.0004         20.2504
  -1645286.34046  -1126709.19946  23149534.4144                   23149535.2934
        40.2504         36.0004
 25  7 15  0 15  0.0000000  0 10G01G02G03G10G28G31G32G04G25G26
  -1039455.22347   -739184.71546  21130289.0474                   21130285.2384
        47.2504         36.7504
   -500888.49647   -322951.87545  22198587.5314                   22198582.0124
        45.0004         34.5004
  -1901297.95348  -1369183.02747  21360614.8754                   21360612.9304
        48.0004         46.0004
   -203879.45346    -50492.05145  24575225.1174                   24575226.2624
        41.5004         33.2504
   -477582.14147   -313661.14546  21621593.7974                   21621589.6254
        45.2504         36.2504
  -1093815.62547   -773272.81648  20112855.4384                   20112850.0084
        47.5004         49.5004
   -419534.07847   -262919.52046  23837891.8284                   23837890.6524
        42.2504         36.7504
  -1725047.52747  -1246643.83244  23014207.5704                   23014205.0084
        42.2504         28.7504
   -663105.43446   -343654.98443  24618283.7424                   24618282.8794
        38.2504         20.0004
  -1991440.48446  -1396439.64145  23083664.9694                   23083663.9414
        40.2504         35.7504
 25  7 15  0 15 30.0000000  0 10G01G02G03G10G28G31G32G04G25G26
  -1290674.01247   -934939.63746  21082483.7274                   21082479.6134
        47.7504         36.5004
   -700156.72347   -478225.89145  22160668.4774                   22160662.5904
        46.0004         35.2504
  -2237037.31648  -1630798.10247  21296726.2734                   21296724.0434
        48.0004         46.0004
   -375111.12546   -183919.58245  24542640.1724                   24542642.5704
        37.7504         30.7504
   -675221.23847   -467665.66846  21583984.3594                   21583980.2234
        46.2504         36.2504
  -1350174.95748   -973033.34048  20064072.1094                   20064066.9024
        48.0004         49.5004
   -612849.72746   -413555.16045  23801105.3284                   23801103.8244
        40.5004         35.5004
  -2052366.53547  -1501697.50844  22951920.6484                   22951918.6174
        42.5004         27.7504
   -883241.97346   -515189.94143  24576392.3284                   24576393.1844
        37.5004         20.0004
  -2337333.96946  -1665966.92645  23017842.9384                   23017843.2854
        40.2504         35.7504
 25  7 15  0 16  0.0000000  0 10G01G02G03G10G28G31G32G04G25G26
  -1541258.18047  -1130200.03946  21034798.8594                   21034794.9924
        47.5004         36.7504
   -899025.25847   -633188.44545  22122824.8984                   22122819.6134
        46.2504         35.5004
  -2572507.21547  -1892203.19547  21232888.2114                   21232886.1764
        47.5004         46.2504
   -546094.41846   -317153.66444  24510103.8984                   24510105.9304
        36.7504         29.5004
   -872412.60247   -621321.30546  21546460.3284                   21546455.7344
        45.0004         36.5004
  -1605873.14147  -1172278.67648  20015414.5314                   20015408.8164
        47.0004         49.5004
   -806100.37946   -564140.16045  23764330.5474                   23764329.8204
        39.5004         35.5004
  -2379504.90647  -1756610.43744  22889667.5864                   22889666.1054
        42.0004         26.0004
  -1102809.80946   -686281.73443  24534610.2344                   24534610.3204
        37.5004         20.5004
  -2682965.95346  -1935290.45746  22952071.3754                   22952071.1844
        40.7504         36.5004
 25  7 15  0 16 30.0000000  0 10G01G02G03G10G28G31G32G04G25G26
   -215783.62148    -97362.74646  21287028.1334                   21287024.3244
        48.0004         36.7504
    477926.16847    439760.66845  22384850.3054                   22384844.8244
        45.7504         35.0004
  -1332277.93047   -925790.73847  21468896.0634                   21468893.9024
        47.7504         46.0004
    858591.70746    777406.70745  24777406.7344                   24777407.9804
        38.2504         30.0004
    506264.30947    452972.35946  21808814.1094                   21808809.2194
        46.5004         36.2504
   -285485.96147   -143405.55148  20266675.6024                   20266670.3014
        47.5004         49.5004
    576136.60947    512927.53546  24027362.7034                   24027360.8014
        42.0004         36.0004
  -1131035.41047   -783776.96144  23127243.7424                   23127241.9384
        42.5004         28.5004
    253613.59446    370671.56344  24792729.1804                   24792729.8244
        39.0004         25.2504
  -1452905.29746   -976801.56246  23186143.9064                   23186143.8554
        40.5004         36.0004
 25  7 15  0 17  0.0000000  0 10G01G02G03G10G28G31G32G04G25G26
   -465112.69947   -291645.16846  21239582.6094                   21239578.5044
        47.0004         36.5004
    279836.72347    285405.19145  22347155.4064                   22347149.2344
        46.2504         34.7504
  -1667214.75047  -1186780.44147  21405159.6884                   21405157.2464
        47.2504         46.0004
    688089.57846    644547.70745  24744960.8364                   24744963.5864
        39.0004         31.0004
    309948.76647    299999.18446  21771456.3834                   21771452.0594
        45.2504         36.5004
   -539876.47748   -341631.92648  20218266.9454                   20218261.2234
        48.0004         49.5004
    383003.06347    362433.81646  23990609.8674                   23990609.0204
        43.5004         37.5004
  -1457825.14547  -1038418.22344  23065057.7504                   23065055.9844
        42.0004         27.7504
     35167.36346    200453.68444  24751160.0004                   24751160.9964
        37.5004         27.7504
  -1798016.93746  -1245719.62546  23120471.2274                   23120472.1134
        41.0004         36.2504
 25  7 15  0 17 30.0000000  0 10G01G02G03G10G28G31G32G04G25G26
   -713818.28147   -485441.74246  21192255.5864                   21192251.6604
        47.0004         36.2504
     82130.55947    131348.37945  22309533.1954                   22309527.1414
        45.2504         35.0004
  -2001884.88747  -1447562.34447  21341474.3674                   21341472.4774
        47.0004         46.2504
    517823.43846    511872.52345  24712560.5634                   24712563.8484
        37.2504         33.2504
    114064.39547    147361.97746  21734181.0084                   21734176.1604
        45.5004         36.5004
   -793617.49647   -539352.19948  20169981.2504                   20169976.1564
        47.5004         49.5004
    189924.81347    211983.16846  23953869.1094                   23953866.9534
        44.0004         37.0004
  -1784443.90647  -1292926.24644  23002904.2584                   23002902.0204
        43.0004         28.0004
   -182722.83645     30669.06644  24709697.2034                   24709698.0124
        35.2504         25.5004
  -2142866.57846  -1514433.53146  23054848.2194                   23054848.2424
        41.0004         36.0004
 25  7 15  0 18  0.0000000  0 10G01G02G03G10G28G31G32G04G25G26
   -961901.84847   -678753.63346  21145046.7664                   21145042.7774
        47.7504         36.2504
   -115195.57847    -22412.30545  22271983.3364                   22271976.9774
        46.2504         34.5004
  -2336286.92247  -1708135.33647  21277839.5634                   21277837.1484
        47.5004         46.0004
    347791.38346    379379.65245  24680204.8674                   24680207.8484
        37.5004         33.5004
    -81392.05547     -4941.78546  21696986.4144                   21696982.6844
        46.0004         36.7504
  -1046710.66447   -736567.66848  20121819.3134                   20121813.6334
        47.7504         49.2504
     -3099.12547     61574.86746  23917137.8204                   23917135.8054
        43.5004         37.5004
  -2110892.69547  -1547301.85244  22940782.8364                   22940781.0044
        42.5004         28.5004
   -400058.83645   -138683.72343  24668339.2814                   24668340.3834
        32.0004         22.5004
  -2487451.80146  -1782941.44146  22989275.9384                   22989275.9924
        40.5004         36.2504
 25  7 15  0 18 30.0000000  0 11G01G02G03G10G28G31G32G04G25G26G16
  -1209368.66847   -871584.93446  21097955.5234                   21097951.3404
        47.5004         36.5004
   -312148.46947   -175882.14145  22234503.8754                   22234498.5664
        45.2504         34.5004
  -2670423.21947  -1968501.25447  21214255.3444                   21214252.9734
        47.5004         46.0004
    177987.74246    247064.87145  24647892.3594                   24647895.2384
        36.2504         30.5004
   -276427.54747   -156917.52046  21659872.8284                   21659868.5124
        46.5004         36.0004
  -1299161.48447   -933282.59448  20073779.6024                   20073773.8874
        47.5004         49.2504
   -196073.39546    -88794.75046  23880414.8754                   23880414.1524
        41.7504         36.5004
  -2437176.11747  -1801548.57844  22878693.4534                   22878690.9924
        43.0004         28.2504
                                  24627086.2974                   24627086.3954
        31.2504         22.5004
  -2831773.91846  -2051244.29746  22923754.0084                   22923753.5984
        40.7504         36.2504
   2702569.34415                  25137086.000
        33.000
 25  7 15  0 19  0.0000000  0 11G01G02G03G10G28G31G32G04G25G26G16
  -1456223.25447  -1063939.17646  21050980.8834                   21050976.6214
        46.5004         36.2504
   -508734.82047   -329066.37145  22197095.2344                   22197089.4144
        46.2504         34.2504
  -3004295.42647  -2228661.39547  21150721.7114                   21150719.2624
        47.0004         46.2504
      8407.75046    114924.35544  24615622.4924                   24615625.2384
        38.0004         29.0004
   -471048.36347   -308570.13746  21622837.4774                   21622833.2234
        46.7504         36.0004
  -1550975.06248  -1129500.96948  20025860.8284                   20025855.5554
        48.2504         49.2504
   -389002.00846   -239128.81246  23843702.7344                   23843701.6334
        41.7504         36.7504
  -2763298.16447  -2055669.55544  22816634.1954                   22816632.3444
        42.5004         28.0004
   -833090.99655   -476111.46153  24585936.1884                   24585936.5164
        31.0004         22.5004
  -3175833.47346  -2319342.59046  22858281.1724                   22858281.2344
        40.2504         36.0004
   2342818.03145   2406602.09053  25068627.1254                   25068633.1024
        35.5004         19.2504
 25  7 15  0 19 30.0000000  0 11G01G02G03G10G28G31G32G04G25G26G16
   -127045.06247    -28215.92246  21303914.8284                   21303910.6174
        46.7504         36.0004
    870462.84047    745633.05545  22459547.7274                   22459542.0704
        45.0004         34.5004
  -1762477.07847  -1261010.71947  21387031.8284                   21387029.5904
        47.0004         46.5004
   1414469.07845   1210556.30144  24883186.4384                   24883190.0314
        34.7504         28.2504
    910162.64847    767698.16446  21885672.9534                   21885669.0314
        45.0004         36.0004
   -226730.55948    -97622.13748  20277856.6094                   20277851.1134
        48.0004         49.2504
    993534.56647    838172.33646  24106790.2664                   24106789.5944
        42.2504         36.2504
  -1513835.05547  -1082061.84044  23054399.0234                   23054397.0274
        43.0004         28.5004
                                  24844682.1954                   24844682.5824
        25.2504         18.2504
  -1944202.58246  -1359630.14146  23092652.7344                   23092653.0084
        41.2504         36.7504
   3558346.35546   3353767.52043  25299934.4924                   25299939.4414
        37.5004         18.2504
 25  7 15  0 20  0.0000000  0 10G01G02G03G10G28G31G32G04G26G16
   -372693.06247   -219629.96946  21257169.3834                   21257165.6294
        46.2504         36.5004
    674587.19947    593002.62145  22422273.6414                   22422268.2114
        46.7504         34.5004
  -2095830.05547  -1520766.25847  21323597.0164                   21323594.7074
        46.7504         46.2504
   1245317.62946   1078749.62945  24850999.5634                   24851002.1174
        36.0004         30.5004
    716348.28147    616673.95346  21848791.8524                   21848787.0474
        47.0004         36.2504
   -477287.76647   -292861.52348  20230177.3204                   20230171.6414
        47.5004         49.2504
    800681.50047    687897.14846  24070092.0474                   24070091.2814
        42.5004         37.5004
  -1839650.43047  -1335943.86744  22992398.5864                   22992395.8324
        43.5004         28.5004
  -2287742.78146  -1627323.72746  23027279.1884                   23027279.0394
        40.2504         36.0004
   3198290.91046   3073205.15642  25231417.5864                   25231422.5554
        36.0004         16.2504
 25  7 15  0 20 30.0000000  0 11G01G02G03G10G28G31G32G04G25G26G16
   -617739.97747   -410575.64546  21210538.7734                   21210534.6884
        47.2504         36.2504
    479062.39547    440645.56345  22385066.9454                   22385061.1804
        45.7504         34.5004
  -2428921.09447  -1780317.69947  21260211.5004                   21260209.0164
        47.0004         46.2504
   1076377.66846    947107.81345  24818851.4844                   24818854.5164
        37.7504         31.0004
    522932.41447    465960.26246  21811986.3204                   21811981.7114
        46.0004         36.0004
   -727219.29348   -487613.36348  20182616.8204                   20182610.9534
        48.0004         49.2504
    607865.00847    537650.46546  24033400.4614                   24033398.7704
        43.0004         37.0004
  -2165313.68047  -1589707.34444  22930427.2034                   22930424.1604
        43.0004         29.0004
     96800.11355    394835.10554  24762889.4304                   24762890.4064
        34.0004         26.0004
  -2631019.45746  -1894811.95746  22961956.0864                   22961955.7274
        41.2504         36.2504
   2838086.56646   2792526.77742  25162872.6564                   25162878.5514
        36.2504         14.7504
 25  7 15  0 21  0.0000000  0 11G01G02G03G10G28G31G32G04G25G26G16
   -862188.53947   -601055.06246  21164021.7504                   21164017.2424
        47.2504         36.5004
    283883.96147    288558.41445  22347925.8834                   22347919.6954
        46.0004         34.2504
  -2761749.93747  -2039664.83647  21196876.1024                   21196874.2234
        47.0004         46.2504
    907646.18846    815628.48044  24786743.0554                   24786746.0554
        36.5004         27.5004
    329910.64547    315553.65645  21775254.8984                   21775250.2384
        46.5004         35.5004
   -976528.19548   -681880.04348  20135174.9304                   20135169.4494
        48.2504         49.0004
    415083.07847    387430.73446  23996715.1564                   23996713.9414
        43.2504         37.0004
  -2490826.88347  -1843353.90644  22868483.2894                   22868480.9384
        43.0004         28.5004
   -117319.01245    227988.98843  24722143.5394                   24722144.0314
        34.7504         22.2504
  -2974031.24646  -2162093.80946  22896683.0554                   22896683.0704
        41.5004         37.0004
   2477733.645 5                  25094298.484
        31.250
 25  7 15  0 21 30.0000000  0 10G01G02G03G28G31G32G04G25G26G16
  -1106037.05147   -791066.91446  21117619.5554                   21117615.1994
        47.5004         36.5004
     89052.12147    136741.33245  22310850.6884                   22310844.9344
        46.2504         34.5004
  -3094311.75847  -2298803.90247  21133591.9454                   21133589.9494
        47.0004         46.7504
    137283.11347    165454.25845  21738599.3754                   21738594.6884
        46.7504         35.5004
  -1225213.07048   -875660.46948  20087851.6484                   20087845.9924
        49.5004         49.2504
    222338.19147    237239.85246  23960036.7974                   23960036.2344
        42.7504         36.7504
  -2816187.62147  -2096881.66444  22806569.3674                   22806566.8054
        43.0004         28.2504
   -330909.25446     61555.00443  24681498.7734                   24681499.3324
        36.5004         22.7504
  -3316772.35546  -2429164.72746  22831461.2344                   22831461.1454
        41.5004         38.0004
   2117237.270 5                  25025699.539
        34.500
 25  7 15  0 22  0.0000000  0 11G01G02G03G10G28G31G32G04G25G26G16
  -1349281.30547   -980607.91046  21071331.0704                   21071326.9734
        47.5004         36.2504
   -105430.73047    -14803.80945  22273841.7034                   22273835.9384
        45.5004         34.5004
  -3426599.31647  -2557729.24647  21070359.2584                   21070357.0124
        47.2504         46.5004
    570812.52056    596026.99654  24722647.8204                   24722649.7664
        37.2504         29.0004
    -54947.60547     15664.05945  21702019.0704                   21702014.6214
        45.2504         35.5004
  -1473269.85548  -1068951.47348  20040648.0554                   20040642.4534
        48.7504         49.2504
     29635.29746     87081.68046  23923366.2274                   23923365.4224
        41.2504         36.7504
  -3141390.99647  -2350286.79344  22744684.9774                   22744683.0514
        43.0004         27.5004
   -543967.08646   -104464.11344  24640955.8754                   24640956.0434
        38.2504         25.7504
  -3659234.49646  -2696018.25846  22766292.3284                   22766292.0984
        41.2504         37.2504
   1756605.25446   2605196.19152  24957073.4774                   24957074.8094
        38.0004         17.2504
 25  7 15  0 22 30.0000000  0 11G01G02G03G10G28G31G32G04G25G26G16
    -16495.84847     57926.18846  21324951.3284                   21324947.7854
        47.5004         36.0004
   1275857.89147   1061524.92245  22536692.0084                   22536686.2384
        46.5004         34.2504
  -2183181.01647  -1588831.85547  21306974.3914                   21306971.7894
        47.0004         46.5004
   1978141.73846   1692646.89145  24990453.8134                   24990456.5514
        40.5004         33.0004
   1328640.68447   1093784.78145  21965307.0394                   21965302.5474
        46.2504         35.2504
   -145273.14548    -34148.84848  20293357.4144                   20293351.7074
        48.7504         49.0004
   1412399.04347   1164559.85546  24186497.9694                   24186496.9384
        42.0004         36.0004
  -1891008.09047  -1375962.37544  22982625.4304                   22982622.8524
        43.5004         28.7504
    818931.46646    957534.74944  24900307.0004                   24900306.9104
        38.0004         24.0004
  -2425984.72346  -1735044.33646  23000972.3284                   23000972.1374
        41.2504         36.7504
   2971270.62546   3551689.11342  25188217.0084                   25188219.4384
        39.0004         16.2504
 25  7 15  0 23  0.0000000  0 11G01G02G03G10G28G31G32G04G25G26G16
   -258542.41047   -130681.54346  21278891.7734                   21278887.7114
        47.7504         36.0004
   1082057.81347    910511.80545  22499813.3594                   22499807.7074
        44.7504         34.5004
  -2514921.40648  -1847330.83647  21243846.2584                   21243843.9024
        48.0004         46.5004
   1810250.78546   1561822.45345  24958505.2734                   24958509.1334
        37.2504         30.7504
   1137188.05547    944600.89545  21928874.9304                   21928870.5904
        46.0004         35.0004
   -392085.40248   -226470.09048  20246390.5864                   20246384.9414
        49.0004         49.0004
   1219771.88746   1014460.71945  24149842.0314                   24149841.0784
        41.0004         35.5004
  -2215905.26247  -1629128.92244  22920798.8674                   22920796.9774
        43.0004         28.7504
    606926.40646    792336.00843  24859963.2814                   24859963.6764
        37.5004         22.2504
  -2767887.18747  -2001461.74246  22935910.5554                   22935910.1884
        42.0004         37.0004
   2610367.09046   3270465.88342  25119538.6334                   25119541.5354
        36.5004         16.2504
 25  7 15  0 23 30.0000000  0 10G01G02G03G10G28G31G32G04G26G16
   -499996.55947   -318827.65646  21232944.8444                   21232940.6214
        47.5004         36.5004
    888590.46947    759757.97745  22462997.6884                   22462991.9264
        44.5004         34.5004
  -2846389.87148  -2105617.92647  21180769.6254                   21180767.3094
        48.0004         47.0004
   1642561.32845   1431154.96944  24926595.8284                   24926598.6764
        35.7504         25.0004
    946115.72747    795713.34045  21892515.2974                   21892510.8284
        44.7504         34.7504
   -638282.09448   -418311.67648  20199541.0634                   20199535.1994
        48.7504         49.2504
   1027177.41847    864387.02345  24113192.7974                   24113191.6454
        42.2504         35.7504
  -2540654.64547  -1882180.30944  22859001.2814                   22858998.8914
        43.0004         28.7504
  -3109510.05546  -2267661.31646  22870901.3284                   22870901.2464
        40.5004         36.7504
                                  25050834.070
        32.750
 25  7 15  0 24  0.0000000  0 10G01G02G03G10G28G31G32G04G26G16
   -740860.87947   -506514.16446  21187109.9384                   21187105.5314
        47.7504         36.2504
    695451.71547    609260.18045  22426244.6644                   22426239.0234
        45.2504         34.0004
  -3177585.76647  -2363692.62947  21117745.2504                   21117743.3324
        47.0004         47.0004
   1475070.78946   1300642.63744  24894722.6334                   24894725.4774
        36.7504         25.2504
    755419.64547    647118.96145  21856226.7584                   21856222.2584
        46.5004         35.2504
   -883866.14148   -609675.87548  20152807.5784                   20152802.3284
        49.0004         49.2504
    834614.03947    714337.57845  24076549.6024                   24076547.9304
        42.7504         35.5004
  -2865257.88747  -2135117.82044  22797231.4224                   22797228.9614
        43.0004         28.5004
  -3450851.60247  -2533641.65246  22805946.5864                   22805946.2114
        42.2504         37.2504
   1888149.72716                  24982103.945
        36.250
 25  7 15  0 24 30.0000000  0 10G01G02G03G10G28G31G32G04G26G16
   -981134.02347   -693740.00846  21141387.4614                   21141383.2584
        47.5004         36.7504
    502641.45747    459018.35545  22389554.3204                   22389548.5164
        46.5004         33.7504
  -3508504.53147  -2621551.37947  21054773.3674                   21054771.1724
        47.5004         47.0004
   1307780.07046   1170285.95344  24862889.8364                   24862891.9844
        39.2504         27.0004
    565099.58647    498817.59445  21820010.0704                   21820006.1454
        46.0004         35.0004
  -1128836.22348   -800561.66048  20106191.2114                   20106185.7974
        49.0004         49.0004
    642083.97746    564314.09845  24039911.5784                   24039910.8954
        41.0004         35.2504
  -3189712.89147  -2387939.81244  22735489.3914                   22735487.2154
        42.5004         28.7504
  -3791906.31646  -2799398.50046  22741045.5864                   22741045.8134
        41.0004         37.0004
   1526842.49646   2917717.06653  24913349.2344                   24913351.4734
        36.0004         19.2504
 25  7 15  0 25  0.0000000  0 10G01G02G03G10G28G31G32G04G26G16
  -1220814.16447   -880503.77046  21095777.3834                   21095773.5824
        46.7504         36.2504
    310160.05547    309032.77745  22352926.3984                   22352920.5434
        44.2504         34.5004
  -3839141.03547  -2879190.19147  20991855.2034                   20991853.1524
        47.0004         47.0004
   1140690.98046   1040086.44945  24831093.5474                   24831096.9884
        41.7504         34.2504
    375155.98047    350809.56345  21783865.1024                   21783860.7704
        44.0004         34.5004
  -1373190.64848   -990967.71148  20059692.6564                   20059686.6414
        48.2504         49.0004
    449590.05147    414318.75045  24003281.8284                   24003280.2424
        42.5004         35.0004
  -3514016.86747  -2640644.12544  22673777.1804                   22673773.8634
        42.5004         28.5004
  -4132668.07847  -3064927.07046  22676201.3674                   22676200.6604
        42.0004         37.7504
   1165409.86745   2636081.77742  24844569.6564                   24844574.3984
        32.7504         17.2504
 25  7 15  0 25 30.0000000  0 10G01G02G03G10G28G31G32G04G26G16
    115523.41047    160798.20745  21350074.2584                   21350070.3204
        46.0004         35.5004
   1693429.26247   1386904.80945  22616153.7584                   22616147.8364
        45.2504         34.0004
  -2594064.21547  -1909000.42647  21228785.5784                   21228783.8094
        46.0004         46.5004
   2549225.80946   2137645.73444  25099127.9224                   25099131.6684
        36.7504         27.2504
   1761010.41847   1430696.11345  22047584.8674                   22047580.2974
        44.7504         33.5004
    -41505.13747     46709.30948  20313104.0704                   20313098.3244
        46.7504         48.7504
   1832556.51647   1491954.87545  24266451.4614                   24266450.8594
        42.0004         35.5004
  -2262741.41047  -1665624.21144  22911886.8594                   22911883.9884
        42.2504         28.0004
  -2897704.46146  -2102617.69946  22911206.4224                   22911206.1994
        41.2504         36.5004
   2379284.17644   3581958.20342  25075562.0554                   25075567.4844
        28.7504         15.5004
 25  7 15  0 26  0.0000000  0 10G01G02G03G10G28G31G32G04G26G16
   -122980.24647    -25048.81646  21304688.6564                   21304684.2974
        47.0004         36.2504
   1501591.52747   1237420.79745  22579648.2664                   22579642.5864
        45.5004         33.5004
  -2924135.80147  -2166199.04747  21165975.0554                   21165972.8754
        46.0004         47.2504
   2382530.26246   2007752.68444  25067407.1804                   25067411.0234
        36.7504         27.2504
   1571805.83647   1283263.94945  22011579.6174                   22011575.6254
        46.0004         34.5004
   -284638.92247   -142745.59848  20266837.1954                   20266831.8484
        47.7504         49.0004
   1640128.41446   1342010.82045  24229833.4304                   24229832.6254
        41.5004         34.5004
  -2586750.20347  -1918098.52344  22850229.0784                   22850226.7814
        42.7504         28.0004
  -3237876.97747  -2367687.11746  22846473.5944                   22846473.8914
        42.0004         38.0004
   2017602.44955   3300128.55952  25006738.1724                   25006742.2664
        35.0004         15.5004
 25  7 15  0 26 30.0000000  0 10G01G02G03G10G28G31G32G04G26G16
   -360900.16047   -210440.98046  21259414.0704                   21259409.8984
        47.0004         36.0004
   1310069.05147   1088182.43845  22543202.7664                   22543197.1454
        44.5004         33.5004
  -3253924.38347  -2423177.13747  21103218.2114                   21103216.3404
        46.2504         47.5004
   2216026.96146   1878009.51643  25035722.7504                   25035726.1414
        37.5004         22.5004
   1382964.14547   1136114.55945  21975644.6644                   21975640.1994
        44.0004         34.7504
   -527167.35548   -331728.79748  20220685.4144                   20220679.4844
        48.5004         49.0004
   1447730.34046   1192090.18445  24193220.9694                   24193220.8524
        40.2504         34.0004
  -2910614.51646  -2170460.25044  22788599.7894                   22788597.4884
        41.5004         28.7504
  -3577752.85247  -2632525.39846  22781797.8134                   22781797.1294
        42.0004         37.5004
   1655797.40645   3018202.84042  24937887.6414                   24937891.6214
        32.0004         17.2504
 25  7 15  0 27  0.0000000  0 10G01G02G03G10G28G31G32G04G26G16
   -598238.31647   -395379.82846  21214250.0394                   21214246.0514
        46.5004         36.5004
   1118858.42647    939187.06345  22506816.4454                   22506811.1764
        44.0004         33.5004
  -3583428.56647  -2679933.62547  21040515.6094                   21040513.3914
        46.2504         47.2504
   2049713.60547   1748414.56644  25004074.7734                   25004078.7274
        42.0004         29.0004
   1194482.05547    989245.35945  21939777.7664                   21939773.2274
        43.7504         34.5004
   -769092.40647   -520241.82848  20174648.3364                   20174642.7154
        47.7504         49.0004
   1255361.41846   1042192.21145  24156614.2114                   24156614.2854
        38.2504         34.5004
  -3234335.31246  -2422710.15644  22726997.7504                   22726994.9224
        41.5004         28.0004
  -3917329.73446  -2897130.67646  22717177.8674                   22717177.5824
        41.5004         37.7504
                                  24869013.6804                   24869019.0744
        31.5004         15.5004
 25  7 15  0 27 30.0000000  0 10G01G02G03G10G28G31G32G04G26G16
   -834996.90647   -579867.06246  21169196.4144                   21169192.2544
        46.2504         36.2504
    927956.05147    790431.89845  22470488.9534                   22470483.0514
        45.0004         34.2504
  -3912647.14547  -2936467.55547  20977867.3754                   20977865.2154
        46.7504         47.2504
   1883588.08246   1618965.88344  24972462.9774                   24972465.5474
        39.7504         26.0004
   1006355.92647    842653.54345  21903978.2734                   21903974.0984
        44.5004         34.5004
  -1010416.44948   -708286.54348  20128725.9534                   20128720.6174
        48.2504         49.0004
   1063020.48846    892316.05145  24120014.6564                   24120012.9384
        39.5004         32.7504
  -3557913.81247  -2674849.16444  22665422.5164                   22665420.4534
        42.5004         28.2504
  -4256605.49247  -3161501.33646  22652615.9384                   22652615.9144
        42.0004         37.0004
    931824.52746   2454069.04742  24800120.2194                   24800122.4414
        36.0004         15.5004
 25  7 15  0 28  0.0000000  0 10G01G02G03G10G28G31G32G04G26G16
  -1071179.80147   -763905.70746  21124252.2814                   21124248.3404
        45.7504         36.5004
    737356.58647    641912.77745  22434219.1484                   22434214.2464
        46.0004         33.5004
  -4241580.50447  -3192779.23847  20915273.4384                   20915271.2854
        46.0004         47.5004
   1717646.52046   1489660.44944  24940885.4614                   24940889.7974
        39.5004         27.2504
    818580.57047    696335.05945  21868246.0864                   21868241.5084
        46.0004         34.5004
  -1251143.77747   -895866.27748  20082917.1644                   20082911.6604
        47.5004         49.0004
    870704.89846    742459.67645  24083417.8204                   24083415.8324
        41.2504         33.0004
  -3881352.88347  -2926879.53944  22603874.3674                   22603871.6054
        42.0004         27.5004
  -4595579.52747  -3425636.86746  22588110.7974                   22588110.9774
        42.0004         37.7504
    569658.46545   2171862.05542  24731201.0084                   24731204.5944
        31.2504         17.2504
 25  7 15  0 28 30.0000000  0 10G01G02G03G10G28G31G32G04G26G16
    268638.34047    280108.40646  21379211.1174                   21379207.2774
        46.0004         36.2504
   2122482.61347   1721231.69945  22697799.9614                   22697794.8634
        45.5004         34.0004
  -2994796.79747  -2221259.43747  21152528.4064                   21152526.3714
        46.0004         47.5004
   3127311.88346   2588100.69145  25209136.1414                   25209139.4384
        40.0004         30.0004
   2206578.43047   1777891.79745  22132373.3984                   22132369.0204
        45.2504         34.7504
     84151.18847    144623.30148  20337015.3134                   20337009.8524
        47.5004         49.0004
   2253839.63347   1820226.94145  24346620.1414                   24346618.1644
        42.5004         33.5004
  -2629223.19146  -1951194.00444  22842146.4774                   22842144.1994
        41.7504         28.2504
  -3358818.80146  -2461927.12546  22823459.2114                   22823458.2934
        41.7504         37.5004
   1782806.05145   3117172.28142  24962054.4694                   24962058.5394
        32.7504         16.2504
 25  7 15  0 29  0.0000000  0 10G01G02G03G10G28G31G32G04G26G16
     33600.60947     96962.10546  21334484.8364                   21334481.1564
        45.5004         36.5004
   1932478.94947   1573176.81645  22661643.8914                   22661638.2304
        45.5004         33.5004
  -3323155.60247  -2477123.41847  21090044.0944                   21090041.7774
        47.5004         47.5004
   2961731.96146   2459077.00045  25177627.5314                   25177631.7974
        38.7504         31.5004
   2019494.50847   1632112.09045  22096772.4774                   22096768.0744
        46.2504         35.5004
   -155389.18747    -42031.53948  20291432.4224                   20291426.9574
        47.5004         49.0004
   2061572.00446   1670407.95745  24310031.9534                   24310031.1684
        41.5004         34.0004
  -2952386.41847  -2203009.43444  22780650.4774                   22780647.7814
        42.5004         28.0004
  -3697182.56647  -2725587.13346  22759070.4064                   22759070.7154
        42.0004         37.5004
   1420406.01645   2834783.05542  24893092.9454                   24893094.9304
        35.5004         16.7504
 25  7 15  0 29 30.0000000  0 10G01G02G03G10G28G31G32G04G26G16
   -200868.66047    -85741.24245  21289866.8594                   21289863.4534
        46.0004         35.5004
   1742766.89847   1425349.16845  22625543.1564                   22625537.0124
        46.0004         33.5004
  -3651225.98047  -2732762.64547  21027614.5944                   21027611.9844
        47.0004         47.5004
   2796328.75046   2330191.00845  25146153.1804                   25146156.3134
        40.2504         30.0004
   1832750.20347   1486597.02045  22061236.3364                   22061231.8094
        46.2504         34.5004
   -394340.82047   -228227.62148  20245961.8364                   20245955.9654
        47.5004         49.0004
   1869326.09446   1520605.85545  24273448.7504                   24273448.0944
        40.2504         33.5004
  -3275414.27347  -2454719.37544  22719179.9064                   22719177.8324
        42.0004         28.5004
  -4035238.67247  -2989007.39846  22694740.7894                   22694739.9924
        42.0004         38.2504
   1057890.89545   2552304.13342  24824108.5004                   24824110.6294
        35.5004         16.7504
 25  7 15  0 30  0.0000000  0 10G01G02G03G10G28G31G32G04G26G16
   -434770.01247   -268002.06645  21245356.9774                   21245353.1764
        46.5004         35.7504
   1553344.98847   1277747.60945  22589497.0944                   22589491.1954
        45.0004         34.0004
  -3979004.89148  -2988174.75447  20965239.9384                   20965237.6414
        48.0004         47.7504
   2631101.74246   2201442.34043  25114711.8984                   25114715.2734
        38.7504         23.2504
   1646343.84447   1341345.27345  22025764.1564                   22025760.0664
        45.7504         35.5004
   -632704.09848   -413965.23848  20200602.4614                   20200596.8164
        48.5004         49.0004
   1677102.59046   1370821.21145  24236870.0554                   24236869.0164
        41.0004         32.7504
  -3598306.10946  -2706323.34044  22657735.7894                   22657733.3794
        41.7504         28.2504
  -4372983.14547  -3252184.84846  22630469.4844                   22630469.5044
        42.0004         37.7504
    695264.29345   2269738.40242  24755102.2274                   24755104.5704
        35.5004         16.7504
 25  7 15  0 30 30.0000000  0  9G01G02G03G28G31G32G04G26G16
   -668106.75447   -449822.92646  21200954.3834                   21200950.7464
        46.2504         36.0004
   1364208.19947   1130368.23845  22553505.0704                   22553500.0514
        45.0004         33.0004
  -4306492.13747  -3243359.59847  20902921.3524                   20902918.9964
        47.7504         47.7504
   1460270.80947   1196353.26245  21990355.7974                   21990351.3244
        46.2504         35.2504
   -870482.65648   -599247.23448  20155354.2424                   20155348.7934
        48.0004         49.0004
   1484899.49646   1221052.49245  24200294.5084                   24200294.5744
        39.2504         30.5004
  -3921064.16446  -2957823.05144  22596317.6414                   22596314.4804
        41.5004         28.7504
  -4710414.85947  -3515118.58646  22566258.6254                   22566257.8954
        42.0004         38.0004
    332526.87546   1987086.27343  24686075.4144                   24686076.5784
        37.2504         18.2504
 25  7 15  0 31  0.0000000  0  9G01G02G03G28G31G32G04G26G16
   -900879.39847   -631204.22746  21156659.3754                   21156655.5084
        47.5004         36.0004
   1175354.91847    983209.75845  22517567.6644                   22517562.2304
        44.7504         32.5004
  -4633684.54347  -3498314.68747  20840658.7584                   20840656.7584
        47.5004         47.7504
   1274529.42647   1051619.68045  21955010.3834                   21955006.1954
        46.2504         35.0004
  -1107677.21547   -784074.16848  20110217.5864                   20110211.9064
        47.7504         48.7504
   1292717.63346   1071300.32045  24163723.5784                   24163723.4884
        39.5004         31.0004
  -4243687.70747  -3209217.94944  22534924.0784                   22534921.4344
        42.2504         28.7504
  -5047529.76247  -3777805.46546  22502107.7584                   22502107.2544
        42.0004         37.5004
    -30317.99646   1704350.43443  24617027.8754                   24617029.5944
        36.5004         20.7504
 25  7 15  0 31 30.0000000  0  9G01G02G03G28G31G32G04G26G16
    442340.25447    415460.41846  21412265.9144                   21412261.7974
        46.5004         36.2504
   2562210.64547   2063876.47745  22781478.0164                   22781472.6524
        44.0004         33.2504
  -3385147.14148  -2525428.37948  21078247.3284                   21078244.7544
        48.2504         48.0004
   2664545.19147   2134748.81645  22219521.8524                   22219517.5234
        45.7504         34.7504
    231140.40248    259160.33648  20364986.6254                   20364981.1764
        48.2504         49.0004
   2675985.32046   2149171.15245  24426951.1334                   24426950.9064
        39.2504         32.7504
  -2990744.34447  -2232898.39844  22773350.3444                   22773348.8014
        42.2504         28.7504
  -3808891.64547  -2812632.83246  22737812.8134                   22737812.1804
        42.5004         38.0004
   1182166.88745   2649144.28542  24847755.5864                   24847756.9964
        33.7504         17.2504
 25  7 15  0 32  0.0000000  0  9G01G02G03G28G31G32G04G26G16
    210700.44947    234961.84446  21368185.8054                   21368182.1844
        46.5004         36.0004
   2373925.41047   1917160.64545  22745648.4384                   22745643.2814
        45.0004         32.0004
  -3711734.36348  -2779911.90247  21016099.4534                   21016097.2304
        48.0004         47.7504
   2479468.32047   1990533.02345  22184302.6254                   22184298.8324
        46.2504         35.2504
     -4882.04747     75246.73448  20320072.6254                   20320067.3524
        47.7504         49.0004
   2483854.74646   1999458.91845  24390390.0004                   24390390.0594
        40.7504         33.0004
  -3313090.61747  -2484077.23044  22712010.7664                   22712007.5904
        42.0004         29.0004
  -4145354.71547  -3074811.77346  22673785.8524                   22673785.8244
        42.2504         38.5004
    819124.91046   2366254.89543  24778670.5314                   24778672.3754
        36.0004         18.2504
 25  7 15  0 32 30.0000000  0  9G01G02G03G28G31G32G04G26G16
    -20373.99647     54903.81346  21324214.2034                   21324210.0164
        47.0004         36.0004
   2185921.23447   1770663.80945  22709872.5084                   22709867.4534
        44.7504         33.5004
  -4038014.53947  -3034156.16447  20954010.8524                   20954008.1134
        47.2504         47.7504
   2294720.87547   1846573.95345  22149146.3134                   22149142.0234
        45.5004         34.5004
   -240319.71548   -108211.19548  20275270.6334                   20275265.0434
        48.2504         48.7504
   2291750.88746   1849767.50045  24353834.1804                   24353833.8714
        41.2504         32.7504
  -3635297.51647  -2735147.48044  22650696.5164                   22650693.9694
        42.2504         28.0004
  -4481486.09447  -3336732.25446  22609822.1564                   22609820.9964
        42.2504         38.0004
    455989.66446   2083292.74243  24709568.5634                   24709569.7034
        36.7504         18.5004
 25  7 15  0 33  0.0000000  0  9G01G02G03G28G31G32G04G26G16
   -250886.79747   -124716.56245  21280348.7274                   21280345.1374
        46.2504         35.5004
   1998193.22347   1624382.16445  22674149.6174                   22674143.7114
        45.5004         32.2504
  -4363987.71547  -3288161.20747  20891980.1024                   20891977.8134
        47.5004         47.7504
   2110298.03147   1702867.78945  22114051.9454                   22114047.8874
        46.5004         35.5004
   -475176.64547   -291216.59448  20230578.7734                   20230573.4344
        47.5004         48.7504
   2099671.34447   1700095.05545  24317283.5084                   24317281.8634
        42.2504         32.5004
  -3957367.50846  -2986111.04744  22589408.1334                   22589406.2114
        41.7504         28.2504
  -4817284.99247  -3598393.66046  22545921.6484                   22545921.1564
        42.5004         39.0004
     92761.45346   1800258.25843  24640447.9534                   24640449.0434
        37.5004         19.2504
 25  7 15  0 33 30.0000000  0  9G01G02G03G28G31G32G04G26G16
   -480839.73447   -303900.69145  21236590.5554                   21236586.2704
        46.5004         35.5004
   1810738.28947   1478313.31645  22638477.4534                   22638471.9384
        45.5004         32.5004
  -4689651.93047  -3541925.50848  20830008.2114                   20830005.9104
        47.5004         48.2504
   1926196.98047   1559412.40245  22079018.4924                   22079014.6174
        46.2504         34.2504
   -709454.60247   -473770.84848  20185997.2894                   20185992.0234
        46.7504         48.7504
   1907615.83247   1550441.37945  24280736.4694                   24280734.6094
        42.2504         30.7504
  -4279301.03147  -3236968.27344  22528146.7034                   22528144.3594
        42.5004         29.7504
  -5152748.58647  -3859793.78146  22482085.3364                   22482084.8874
        43.2504         39.0004
   -270557.26246   1517153.10943  24571309.7194                   24571311.1024
        37.5004         19.5004
 25  7 15  0 34  0.0000000  0  9G01G02G03G28G31G32G04G26G16
   -710237.16047   -482651.95745  21192937.4224                   21192933.5354
        47.2504         35.7504
   1623551.09447   1332453.09845  22602857.1804                   22602851.8874
        45.0004         31.7504
  -5015007.79347  -3795449.53948  20768094.9844                   20768092.4304
        47.0004         48.0004
   1742412.22347   1416203.45745  22044045.4614                   22044041.6994
        45.7504         34.5004
   -943158.36747   -655877.68048  20141524.6804                   20141519.2384
        47.0004         48.7504
   1715581.52346   1400804.20744  24244192.8284                   24244191.3484
        40.2504         29.5004
  -4601101.15247  -3487721.55144  22466909.7664                   22466907.6134
        42.0004         28.5004
  -5487876.54747  -4120932.39546  22418312.2424                   22418311.7114
        42.0004         38.7504
   -633966.37146   1233977.55543  24502155.8914                   24502155.4964
        38.5004         19.2504
 25  7 15  0 34 30.0000000  0  9G01G02G03G28G31G32G04G26G16
    636347.86347    566635.05545  21449184.4534                   21449179.7504
        47.5004         35.7504
   3012055.71547   2414404.65645  22867081.0864                   22867075.2154
        46.2504         31.7504
  -3764621.36747  -2821122.43448  21006035.6254                   21006033.1914
        47.2504         48.0004
   3134368.21947   2500844.45745  22308926.3594                   22308921.6844
        46.0004         34.2504
    399139.02347    390068.33248  20396955.5634                   20396949.8444
        47.2504         48.5004
   3098995.71146   2478789.22744  24507446.4304                   24507446.8794
        39.0004         28.7504
  -3347336.48447  -2510761.99644  22705493.4384                   22705490.7234
        43.0004         28.5004
  -4247233.89147  -3154197.79346  22654398.4844                   22654397.9694
        42.7504         38.5004
    577969.68045   2178343.81343  24732778.9774                   24732780.1524
        34.2504         18.5004
 25  7 15  0 35  0.0000000  0  9G01G02G03G28G31G32G04G26G16
    408055.65647    388745.00445  21405741.4774                   21405737.4844
        46.5004         35.7504
   2825394.47747   2268954.27745  22831560.3134                   22831555.1414
        45.0004         32.2504
  -4089354.93447  -3074161.55548  20944241.0864                   20944238.7194
        47.0004         48.2504
   2951207.28947   2358121.60945  22274071.8984                   22274067.3284
        45.7504         34.7504
    166577.46147    208851.53548  20352700.5084                   20352695.1214
        46.5004         48.5004
   2907002.68746   2329184.19345  24470912.0394                   24470912.1914
        39.7504         31.5004
  -3668871.48447  -2761308.69144  22644307.7194                   22644304.6484
        43.2504         28.5004
  -4581682.62547  -3414807.13346  22590755.6174                   22590754.2664
        42.7504         38.7504
    214387.34446   1895033.27743  24663590.9924                   24663592.3324
        38.7504         19.7504
 25  7 15  0 35 30.0000000  0  9G01G02G03G28G31G32G04G26G16
    180313.76647    211283.77045  21362403.9384                   21362399.5554
        46.5004         35.5004
   2638992.45347   2123705.87945  22796088.6884                   22796083.9494
        45.5004         31.7504
  -4413773.89147  -3326955.52748  20882506.0004                   20882503.4344
        47.0004         48.0004
   2768354.46947   2215638.87945  22239276.0084                   22239271.9494
        45.7504         34.2504
    -65415.38747     28077.87548  20308553.6254                   20308548.2854
        47.2504         48.5004
   2715030.34046   2179595.24245  24434382.7734                   24434381.6054
        41.7504         33.0004
  -3990274.24647  -3011752.35245  22583146.6094                   22583143.8134
        43.2504         30.2504
  -4915787.05547  -3675148.19546  22527176.9144                   22527176.5554
        43.2504         38.2504
   -149277.68446   1611658.27042  24594387.7974                   24594388.4184
        38.0004         16.2504
 25  7 15  0 36  0.0000000  0  9G01G02G03G28G31G32G04G26G16
    -46880.60547     34249.18445  21319170.2504                   21319166.2934
        47.0004         35.2504
   2452845.48447   1978656.21145  22760666.9224                   22760661.6684
        45.0004         31.5004
  -4737877.24647  -3579503.57448  20820831.4844                   20820828.6954
        47.0004         48.2504
   2585805.98047   2073393.23845  22204538.0634                   22204534.2974
        45.5004         34.0004
   -296842.64147   -152255.05548  20264514.8134                   20264509.1844
        46.2504         48.5004
   2523077.40247   2030021.47345  24397854.5944                   24397853.7544
        42.5004         33.5004
  -4311546.07447  -3262093.96944  22522010.4844                   22522007.1844
        43.2504         27.0004
  -5249545.26647  -3935219.48046  22463664.7344                   22463664.2464
        42.7504         38.5004
   -513023.69946   1328220.18042  24525169.2424                   24525169.2894
        37.5004         16.7504
 25  7 15  0 36 30.0000000  0  9G01G02G03G28G31G32G04G26G16
   -273529.96147   -142360.72745  21276040.5164                   21276036.5904
        47.0004         35.7504
   2266949.96147   1833802.48045  22725291.8674                   22725286.7234
        44.5004         31.7504
  -5061663.57847  -3831804.59048  20759216.8364                   20759214.4494
        47.5004         48.2504
   2403558.38347   1931382.10545  22169857.5784                   22169853.5314
        44.5004         34.2504
   -527706.89847   -332149.28948  20220582.7734                   20220577.0594
        47.2504         48.5004
   2331143.06347   1880462.15245  24361331.2504                   24361330.3674
        42.0004         33.7504
  -4632688.11347  -3512334.46944  22460899.1484                   22460896.3014
        42.2504         29.2504
  -5582955.14147  -4195019.31646  22400218.7034                   22400218.7464
        42.0004         38.5004
   -876848.53146   1044720.68443  24455935.2344                   24455936.2074
        36.7504         19.0004
 25  7 15  0 37  0.0000000  0  9G01G02G03G28G31G32G04G26G16
   -499634.74647   -318546.29745  21233014.0004                   21233010.2734
        47.0004         35.5004
   2081304.67247   1689143.73845  22689964.8834                   22689959.8054
        45.0004         31.5004
  -5385129.43447  -4083855.88748  20697663.2504                   20697660.6094
        47.5004         48.5004
   2221610.28147   1789604.31645  22135234.2034                   22135230.0004
        45.2504         34.2504
   -758008.88347   -511605.37948  20176757.5084                   20176752.1214
        46.2504         48.5004
   2139228.52747   1730918.27045  24324811.0864                   24324809.9734
        42.0004         33.0004
  -4953699.27747  -3762472.97744  22399812.3444                   22399809.3284
        43.5004         28.7504
  -5916012.35247  -4454544.36746  22336840.3674                   22336839.8954
        43.2504         39.5004
  -1240748.05945    761163.03542  24386686.6024                   24386687.5164
        35.2504         16.2504
 25  7 15  0 37 30.0000000  0  9G01G02G03G28G31G32G04G26G16
    850230.89147    733297.03545  21489884.8204                   21489881.0664
        46.5004         35.5004
   3471333.10947   2772282.71545  22954478.7974                   22954473.2304
        45.5004         32.2504
  -4132841.85947  -3108047.37148  20935965.7584                   20935963.4024
        47.0004         48.7504
   3615385.15247   2875662.62945  22400460.6254                   22400456.3914
        45.2504         33.2504
    587677.34847    536981.28148  20432832.9454                   20432827.5124
        47.0004         48.5004
   3522760.24246   2808994.86345  24588087.7424                   24588087.4104
        40.5004         31.5004
  -3699149.12146  -2784901.37545  22638545.6564                   22638542.7234
        41.7504         30.0004
  -4673282.78547  -3486183.60546  22573323.6334                   22573323.3954
        43.5004         39.0004
    -29287.39546   1705158.74242  24617220.1884                   24617220.0044
        39.2504         17.2504
 25  7 15  0 38  0.0000000  0  9G01G02G03G28G31G32G04G26G16
    625210.54347    557956.48046  21447064.8204                   21447061.1054
        47.5004         36.2504
   3286180.33647   2628007.73845  22919245.3134                   22919240.3094
        45.5004         31.0004
  -4455659.74648  -3359593.75848  20874535.2194                   20874532.8164
        48.2504         48.5004
   3434028.73447   2734345.89545  22365949.8364                   22365945.6914
        45.2504         33.7504
    358494.86747    358397.52348  20389221.4774                   20389215.7504
        47.5004         48.2504
   3330885.71946   2659482.17644  24551574.9064                   24551574.4384
        40.5004         29.2504
  -4019898.89547  -3034836.20345  22577509.3834                   22577506.1374
        43.0004         30.2504
  -5005625.27347  -3745151.72346  22510081.1484                   22510080.8554
        43.5004         38.7504
   -393327.47346   1421491.46542  24547946.0164                   24547944.8014
        37.2504         17.7504
 25  7 15  0 38 30.0000000  0  9G01G02G03G28G31G32G04G26G16
    400730.30147    383036.78546  21404347.7584                   21404343.7114
        47.7504         36.0004
   3101269.96947   2483921.67645  22884058.0234                   22884052.6724
        44.2504         31.0004
  -4778149.85247  -3610884.73448  20813167.6024                   20813165.1294
        46.7504         48.7504
   3252964.69547   2593257.01645  22331494.4144                   22331490.3914
        44.2504         32.5004
    129869.91847    180248.20348  20345715.5164                   20345709.8594
        47.5004         48.2504
   3139031.71146   2509985.48445  24515066.6334                   24515065.8834
        40.0004         30.0004
  -4340517.76646  -3284669.05145  22516497.1954                   22516493.9414
        41.7504         30.7504
  -5337605.39147  -4003837.47346  22446907.3754                   22446906.6844
        43.2504         38.5004
   -757433.09045   1137773.10942  24478656.9614                   24478658.6804
        34.2504         16.2504
 25  7 15  0 39  0.0000000  0  9G01G02G03G28G31G32G04G26G16
    176787.68047    208536.01246  21361733.1564                   21361729.1764
        47.7504         36.0004
   2916598.56347   2340021.77345  22848916.9144                   22848911.7194
        46.0004         31.7504
  -5100310.62947  -3861919.09448  20751862.8524                   20751859.8484
        47.7504         49.0004
   3072189.78547   2452393.40245  22297094.4224                   22297090.0044
        45.2504         33.7504
    -98200.41847      2531.05948  20302314.9224                   20302309.5634
        47.5004         48.2504
   2947197.47746   2360504.19945  24478562.7504                   24478561.4774
        41.5004         32.0004
  -4661006.69547  -3534400.62144  22455510.1954                   22455507.3524
        43.0004         29.7504
  -5669220.82047  -4262239.05546  22383803.0394                   22383802.4304
        44.0004         39.5004
  -1121601.996 5                  24409359.461
        35.500
 25  7 15  0 39 30.0000000  0  9G01G02G03G28G31G32G04G26G16
    -46619.69547     34452.32845  21319219.9924                   21319216.0744
        47.0004         35.2504
   2732162.74247   2196305.48045  22813819.4774                   22813813.8244
        45.0004         31.0004
  -5422140.46548  -4112695.57048  20690620.0314                   20690617.4024
        48.2504         49.0004
   2891700.76247   2311752.57445  22262748.5394                   22262743.7854
        45.0004         33.2504
   -325718.44147   -174755.71948  20259019.8364                   20259014.2624
        47.0004         48.2504
   2755382.32047   2211037.75445  24442061.3594                   24442060.6254
        42.2504         34.2504
  -4981366.46947  -3784031.56645  22394547.4844                   22394544.1804
        42.5004         31.5004
  -6000469.23447  -4520354.64846  22320768.4924                   22320768.1994
        43.7504         39.2504
  -1485831.96546    961825.28153  24340047.1174                   24340047.9694
        36.5004         19.5004
 25  7 15  0 40  0.0000000  0  9G01G02G03G28G31G32G04G26G16
   -269493.19147   -139215.36345  21276808.4534                   21276804.7074
        47.2504         34.7504
   2547960.38747   2052771.09045  22778766.7344                   22778762.0394
        44.5004         32.0004
  -5743636.69947  -4363212.10948  20629441.6334                   20629438.8954
        47.5004         48.7504
   2711495.53547   2171332.86745  22228456.2734                   22228452.3204
        44.5004         33.0004
   -552685.62947   -351613.27348  20215829.1884                   20215824.0474
        47.5004         48.2504
   2563586.80146   2061586.64145  24405563.5864                   24405563.0784
        41.7504         34.0004
  -5301596.93447  -4033561.74245  22333609.3204                   22333606.8364
        43.7504         30.5004
  -6331347.18447  -4778181.55546  22257805.0944                   22257804.2274
        44.2504         39.7504
  -1850119.71145    677965.03942  24270725.8284                   24270725.7344
        35.7504         17.2504
 25  7 15  0 40 30.0000000  0  9G01G02G03G28G31G32G04G26G16
   1083592.75047    915137.28145  21534292.1254                   21534288.2814
        47.5004         35.7504
   3939414.62547   3137021.07445  23043552.1644                   23043546.8524
        45.2504         31.7504
  -4489366.43447  -3385858.64848  20868121.2814                   20868118.9804
        47.7504         48.7504
   4106997.43447   3258736.91845  22494011.7814                   22494007.3014
        45.7504         32.5004
    796323.52348    699562.68448  20472537.2664                   20472531.6374
        48.2504         48.2504
   3947237.28546   3139755.77045  24668863.5864                   24668863.2704
        41.5004         33.5004
  -4046267.57447  -3055382.96544  22572491.5784                   22572488.0434
        42.5004         29.7504
  -5086420.73047  -3808108.94946  22494706.0084                   22494705.4104
        43.5004         39.0004
   -639030.18045   1621671.41842  24501187.7114                   24501188.3954
        32.7504         14.7504
 25  7 15  0 41  0.0000000  0  9G01G02G03G28G31G32G04G26G16
    861780.10947    742296.23045  21492082.7734                   21492078.8014
        46.7504         35.5004
   3755669.14547   2993842.67645  23008586.3914                   23008580.9654
        45.5004         31.5004
  -4810190.17647  -3635851.16448  20807070.3444                   20807068.3874
        47.2504         48.7504
   3927350.55947   3118752.29345  22459826.4534                   22459822.2774
        45.2504         32.5004
    570450.81347    523557.96148  20429555.0084                   20429549.2344
        47.2504         48.0004
   3755479.61746   2990334.14145  24632373.0944                   24632373.2464
        41.0004         34.0004
  -4366241.30947  -3304713.09845  22511601.5314                   22511598.8984
        43.5004         30.0004
  -5416550.22347  -4065352.66446  22431884.4144                   22431883.6804
        44.0004         39.5004
  -1003426.08645   1337727.03142  24431844.4844                   24431846.5554
        33.5004         14.7504
 25  7 15  0 41 30.0000000  0  9G01G02G03G28G31G32G04G26G16
    640495.10547    569866.32046  21449973.5084                   21449969.3594
        46.2504         36.0004
   3572148.08647   2850839.19145  22973663.2814                   22973658.1994
        45.0004         31.5004
  -5130674.39548  -3885579.11748  20746084.4144                   20746081.8984
        48.0004         49.2504
   3747978.97347   2978982.19545  22425693.0394                   22425688.1484
        46.0004         33.2504
    345122.12147    347977.16048  20386676.8754                   20386670.7814
        47.5004         48.0004
   3563740.99246   2840927.29345  24595886.3914                   24595886.6724
        40.0004         33.0004
  -4686087.02747  -3553943.48444  22450737.5944                   22450734.0354
        43.2504         29.2504
  -5746301.08647  -4322301.33246  22369134.4064                   22369134.6174
        43.5004         39.5004
  -1367871.35946   1053743.84442  24362493.5864                   24362493.9224
        37.0004         16.7504
 25  7 15  0 42  0.0000000  0  9G01G02G03G28G31G32G04G26G16
    419736.51247    397846.59445  21407964.8754                   21407960.4614
        47.5004         35.2504
   3388849.31347   2708008.87545  22938783.1564                   22938777.9304
        44.5004         31.2504
  -5450816.09447  -4135040.16448  20685163.3134                   20685160.9224
        47.7504         49.0004
   3568880.81647   2839425.14845  22391611.7194                   22391607.6564
        45.2504         32.7504
    120336.09448    172819.21948  20343900.9064                   20343895.3834
        48.5004         48.0004
   3372021.96146   2691535.77045  24559403.8134                   24559403.8874
        39.5004         34.0004
  -5005804.24647  -3803073.73044  22389896.7344                   22389893.6724
        43.2504         29.5004
  -6075669.62547  -4578952.08246  22306458.2894                   22306457.5744
        44.2504         39.2504
  -1732362.55146    769725.06643  24293132.8914                   24293133.2734
        36.2504         19.5004
 25  7 15  0 42 30.0000000  0  9G01G02G03G28G31G32G04G26G16
    199500.62947    226234.18446  21366055.1334                   21366051.5434
        47.0004         36.0004
   3205768.19547   2565348.19145  22903943.9844                   22903938.7624
        44.5004         31.5004
  -5770614.91848  -4384234.05548  20624307.7814                   20624305.1414
        48.0004         49.2504
   3390051.63747   2700077.69945  22357581.4844                   22357576.9344
        45.5004         33.0004
   -103910.99648     -1918.78548  20301227.9454                   20301222.8714
        48.0004         48.2504
   3180320.81646   2542158.19545  24522924.5634                   24522924.0354
        40.7504         32.0004
  -5325394.97347  -4052105.42245  22329080.7424                   22329077.8484
        43.2504         30.5004
  -6404654.77747  -4835304.08246  22243854.6174                   22243853.9304
        44.2504         40.0004
  -2096898.76646    485671.19943  24223764.0234                   24223763.0864
        36.7504         19.5004
 25  7 15  0 43  0.0000000  0  9G01G02G03G28G31G32G04G26G16
    -20212.01247     55029.48045  21324245.2034                   21324241.4064
        47.5004         35.2504
   3022904.21947   2422856.67645  22869146.1564                   22869141.4694
        45.7504         31.2504
  -6090066.19148  -4633157.10948  20563517.7814                   20563515.6134
        48.2504         49.2504
   3211491.35947   2560939.77745  22323602.1644                   22323598.4064
        45.7504         33.2504
   -327618.44948   -176236.28148  20258658.3284                   20258652.8204
        48.0004         48.0004
   2988640.08646   2392796.46145  24486448.5704                   24486448.8554
        40.0004         32.0004
  -5644856.94547  -4301036.77045  22268288.9924                   22268285.9614
        43.7504         31.0004
  -6733251.15647  -5091353.16446  22181324.7504                   22181324.0704
        44.5004         39.7504
  -2461474.67246    201586.45343  24154386.7424                   24154386.8204
        37.2504         18.5004
 25  7 15  0 43 30.0000000  0  9G01G02G03G28G31G32G04G26G16
   1336022.42347   1111835.49545  21582327.8524                   21582324.4534
        46.7504         35.5004
   4415679.40547   3508135.97245  23134182.6724                   23134177.3794
        43.7504         30.0004
  -4833738.53347  -3654200.48248  20802589.3364                   20802586.7894
        47.2504         49.2504
   4608621.78647   3649612.79945  22589467.6564                   22589463.6644
        45.2504         33.2504
   1024637.26648    877469.46148  20515983.7504                   20515978.0434
        48.5004         48.0004
   4372404.61146   3471054.44345  24749770.5704                   24749770.1334
        40.0004         33.0004
  -4388761.24847  -3322260.86045  22507316.0234                   22507312.6884
        43.2504         31.2504
  -5486026.43047  -4119489.68746  22418663.2424                   22418662.7704
        43.5004         40.2504
  -1250656.43946   1145081.39343  24384798.3134                   24384797.3054
        39.2504         20.0004
 25  7 15  0 44  0.0000000  0  9G01G02G03G28G31G32G04G26G16
   1117348.72747    941440.36745  21540715.9144                   21540712.3164
        47.2504         35.0004
   4233240.03547   3365975.32845  23099465.5164                   23099460.6954
        44.2504         30.7504
  -5152489.71148  -3902578.01648  20741933.1644                   20741930.4304
        48.2504         49.2504
   4430589.86747   3510886.59045  22555589.4224                   22555585.2034
        45.7504         32.5004
    802000.48048    703986.25048  20473617.2344                   20473612.2664
        48.0004         48.0004
   4180762.99646   3321723.20745  24713302.7974                   24713302.7034
        39.5004         33.5004
  -4707967.98447  -3570993.33644  22446573.2114                   22446570.0744
        43.5004         28.7504
  -5813838.16847  -4374927.39146  22356283.0164                   22356282.0474
        43.5004         40.0004
  -1615303.92646    860940.69943  24315408.0314                   24315406.1454
        39.7504         19.0004
 25  7 15  0 44 30.0000000  0  9G01G02G03G28G31G32G04G26G16
    899190.67247    771447.04345  21499201.8594                   21499197.8914
        46.2504         35.2504
   4051008.10947   3223976.35245  23064787.7584                   23064782.9304
        45.0004         30.7504
  -5470888.29348  -4150680.79348  20681343.7894                   20681341.3554
        49.0004         49.2504
   4252817.47347   3372362.60245  22521760.9614                   22521755.7234
        45.5004         31.7504
    579895.18848    530917.18447  20431352.3204                   20431346.7384
        48.0004         47.7504
   3989140.29746   3172406.70345  24676838.3674                   24676838.2384
        40.7504         33.5004
  -5027048.19947  -3819627.22345  22385854.2584                   22385851.2774
        43.5004         30.5004
  -6141253.98447  -4630056.55146  22293977.9304                   22293976.7464
        44.2504         39.2504
  -1979983.90646    576774.77043  24246010.5784                   24246011.0664
        37.2504         22.2504
 25  7 15  0 45  0.0000000  0  9G01G02G03G28G31G32G04G26G16
    681545.09847    601853.06345  21457785.4384                   21457781.6254
        47.0004         35.0004
   3868979.65647   3082135.91444  23030149.1334                   23030144.1054
        43.7504         29.2504
  -5788933.32047  -4398508.07048  20620821.5314                   20620819.1094
        47.7504         49.2504
   4075300.80547   3234037.89845  22487979.9384                   22487976.1254
        45.2504         33.0004
    358317.92648    358259.57447  20389187.3444                   20389181.8674
        48.2504         47.7504
   3797535.30946   3023104.05545  24640376.7274                   24640376.6024
        40.5004         33.0004
  -5346003.34047  -4068163.63745  22325158.9144                   22325155.9614
        43.0004         30.2504
  -6468272.25447  -4884875.91846  22231748.0164                   22231747.6414
        44.2504         40.0004
  -2344693.96946    292585.42643  24176608.4064                   24176608.4344
        38.0004         21.5004
 25  7 15  0 45 30.0000000  0  9G01G02G03G28G31G32G04G26G16
    464412.85947    432659.05945  21416466.5474                   21416462.5784
        47.2504         35.0004
   3687154.44147   2940453.85945  22995549.4614                   22995544.2774
        44.5004         31.0004
  -6106619.63748  -4646055.83648  20560367.6564                   20560365.3954
        48.5004         49.2504
   3898040.25847   3095912.74245  22454248.9614                   22454244.4304
        45.0004         32.7504
    137269.78148    186014.25847  20347123.3674                   20347118.4884
        48.2504         47.5004
   3605950.87547   2873817.39545  24603920.1804                   24603918.6294
        42.5004         32.5004
  -5664830.61347  -4316600.43445  22264488.0164                   22264485.3324
        43.2504         30.5004
  -6794887.22347  -5139381.04346  22169594.9844                   22169594.6054
        43.7504         40.0004
  -2709428.54746      8376.95743  24107202.4384                   24107201.2814
        40.0004         23.0004
 25  7 15  0 46  0.0000000  0  9G01G02G03G28G31G32G04G26G16
    247788.61747    263860.92645  21375243.9224                   21375240.1844
        47.0004         35.5004
   3505526.37947   2798925.39845  22960986.4614                   22960982.1804
        44.0004         31.0004
  -6423948.34848  -4893324.93748  20499982.2344                   20499979.7424
        48.5004         49.5004
   3721029.94147   2957982.60245  22420564.8284                   22420560.7624
        45.5004         32.2504
    -83254.61748     14177.06347  20305159.0314                   20305153.7464
        49.0004         47.5004
   3414383.84046   2724544.28945  24567466.3444                   24567465.5554
        41.5004         32.7504
  -5983533.55147  -4564940.32045  22203841.0944                   22203837.7424
        43.2504         30.7504
  -7121099.25047  -5393572.18446  22107519.2734                   22107518.4384
        43.5004         39.7504
  -3074187.83246   -275850.87143  24037790.8524                   24037788.8554
        39.0004         20.7504
 25  7 15  0 46 30.0000000  0  9G01G02G03G28G31G32G04G26G16
     31673.05547     95459.14545  21334119.2114                   21334115.1644
        46.0004         35.2504
   3324095.32447   2657550.48444  22926462.0164                   22926456.0434
        44.7504         29.5004
  -6740914.52348  -5140311.55148  20439665.8594                   20439662.7504
        48.5004         49.5004
   3544270.03547   2820247.55145  22386929.0164                   22386924.3204
        45.5004         32.2504
   -303254.89147   -157251.73447  20263294.3524                   20263289.0124
        47.5004         47.5004
   3222837.02346   2575286.92245  24531015.5084                   24531015.3094
        39.0004         30.7504
  -6302109.59847  -4813181.34445  22143217.7894                   22143214.6884
        44.0004         31.2504
  -7446902.78147  -5647445.01646  22045520.6414                   22045520.5004
        44.0004         40.2504
  -3438966.37546   -560093.71143  23968375.7974                   23968373.4654
        39.5004         22.0004
 25  7 15  0 47  0.0000000  0  9G01G02G03G28G31G32G04G26G16
   1391490.42647   1155057.06345  21592883.9224                   21592879.6684
        47.2504         35.2504
   4718284.12547   3743931.29745  23191766.9304                   23191762.0554
        44.5004         30.0004
  -5482086.15247  -4159406.30948  20679212.4224                   20679209.8284
        47.0004         49.2504
   4943183.07847   3910309.62945  22653132.4774                   22653128.3484
        44.2504         32.5004
   1052693.27348    899331.24247  20521322.8284                   20521316.9734
        48.0004         47.5004
   4606736.13746   3653649.73045  24794362.7114                   24794362.7814
        37.7504         30.7504
  -5045129.10947  -3833715.98045  22382413.9534                   22382410.5354
        42.0004         30.2504
  -6196864.91447  -4673389.48846  22283395.0474                   22283394.0514
        44.2504         40.0004
  -2228329.22746    383260.20743  24198751.8054                   24198751.0704
        38.7504         22.7504
 25  7 15  0 47 30.0000000  0  9G01G02G03G28G31G32G04G26G16
   1176384.23047    987441.82045  21551950.5704                   21551946.7234
        47.7504         34.7504
   4537237.66847   3602856.02045  23157314.3914                   23157309.8594
        44.7504         30.2504
  -5798322.24648  -4405824.01648  20619034.8204                   20619032.1644
        48.5004         49.5004
   4766914.70747   3772957.59845  22619590.3984                   22619585.9614
        45.0004         33.2504
    833733.19148    728713.00047  20479655.9454                   20479650.7504
        48.5004         47.5004
   4415228.35946   3504422.76645  24757920.5944                   24757920.0864
        40.0004         33.0004
  -5363453.55147  -4081760.94545  22321837.7114                   22321835.1454
        43.0004         30.0004
  -6521844.57447  -4926620.34446  22221553.8364                   22221552.9734
        43.2504         40.2504
  -2593138.21546     98993.71944  24129331.6954                   24129329.5944
        40.0004         24.2504
 25  7 15  0 48  0.0000000  0  9G01G02G03G28G31G32G04G26G16
    961781.35947    820218.77745  21511112.6564                   21511108.6954
        46.0004         35.0004
   4356380.80947   3461928.52744  23122899.1804                   23122893.8874
        43.7504         29.7504
  -6114188.19148  -4651953.30148  20558927.6484                   20558925.2584
        48.7504         49.5004
   4590890.11347   3635795.53945  22586093.9144                   22586089.6214
        45.0004         32.7504
    615291.59047    558498.76247  20438088.4224                   20438082.3554
        47.5004         47.5004
   4223741.84447   3355212.40245  24721483.0164                   24721481.6724
        42.2504         34.7504
  -5681650.68047  -4329706.70344  22261287.1024                   22261283.8164
        43.5004         29.7504
  -6846406.26247  -5179525.50446  22159791.3914                   22159790.5864
        43.2504         40.0004
  -2957955.94146   -185279.62943  24059909.1884                   24059907.2154
        40.7504         22.7504
 25  7 15  0 48 30.0000000  0  9G01G02G03G28G31G32G04G26G16
    747677.90647    653384.88745  21470370.2974                   21470366.1644
        46.0004         35.0004
   4175709.11347   3321145.27045  23088519.1334                   23088513.7034
        43.7504         30.5004
  -6429683.57448  -4897793.84048  20498890.7424                   20498888.6564
        48.0004         49.5004
   4415104.90647   3498820.00845  22552642.9304                   22552639.3164
        44.5004         32.5004
    397364.79747    388685.66047  20396618.2504                   20396612.3244
        47.5004         47.5004
   4032275.03146   3206017.44545  24685046.8524                   24685046.3954
        41.0004         34.2504
  -5999722.41847  -4577554.76245  22200759.6564                   22200756.8674
        42.7504         30.5004
  -7170548.92247  -5432104.15246  22098109.3054                   22098107.8674
        44.0004         40.0004
  -3322781.34846   -469558.94143  23990484.1804                   23990482.5554
        37.0004         21.2504
 25  7 15  0 49  0.0000000  0  9G01G02G03G28G31G32G04G26G16
    534072.26647    486938.91445  21429722.4774                   21429718.6334
        47.2504         35.0004
   3995220.29747   3180504.56345  23054172.2664                   23054167.1524
        43.7504         30.2504
  -6744805.57448  -5143343.43748  20438925.2274                   20438922.4964
        48.0004         49.7504
   4239557.24247   3362029.57045  22519237.3594                   22519232.9614
        44.0004         32.5004
    179950.62148    219272.01247  20355245.0084                   20355239.6054
        48.7504         47.2504
   3840828.60946   3056838.36745  24648616.5944                   24648615.9734
        41.2504         33.5004
  -6317668.35947  -4825304.78944  22140256.8754                   22140253.9344
        44.2504         29.7504
  -7494269.15247  -5684353.61346  22036506.8914                   22036506.3834
        43.0004         40.5004
  -3687610.51246   -753841.16843  23921059.6484                   23921057.2624
        38.0004         19.5004
 25  7 15  0 49 30.0000000  0  9G01G02G03G28G31G32G04G26G16
    320962.58247    320879.38745  21389169.1334                   21389165.3834
        47.0004         34.7504
   3814911.97747   3040004.46145  23019861.0944                   23019856.3164
        43.7504         30.0004
  -7059551.80147  -5388600.21548  20379031.2894                   20379028.1334
        47.7504         49.7504
   4064244.78947   3225422.41445  22485876.8204                   22485872.9574
        44.0004         32.5004
    -36952.38348     50256.68047  20313970.3914                   20313964.8014
        48.5004         47.5004
   3649402.95346   2907675.42245  24612189.0634                   24612188.8134
        37.7504         31.0004
  -6635488.39147  -5072956.71145  22079777.9304                   22079774.7624
        42.7504         30.2504
  -7817563.93447  -5936271.57046  21974985.8204                   21974985.2734
        43.0004         40.5004
  -4052440.34446  -1038123.93043  23851634.0704                   23851633.1684
        38.0004         20.5004
 25  7 15  0 50  0.0000000  0  9G01G02G03G28G31G32G04G26G16
   1683773.29747   1382809.78545  21648503.4064                   21648499.7074
        46.7504         35.2504
   5210206.90647   4127247.18845  23285376.9534                   23285372.5944
        43.7504         30.2504
  -5798489.83248  -4405954.50448  20619002.8754                   20619000.2034
        48.7504         49.5004
   5464590.50447   4316600.84045  22752353.7584                   22752349.9224
        43.5004         32.7504
   1322080.25848   1109243.14847  20572585.6804                   20572580.0354
        49.0004         47.5004
   5033424.00446   3986133.33644  24875558.4534                   24875559.0314
        36.0004         29.0004
  -5377752.49247  -4092902.71945  22319117.2504                   22319113.8484
        44.0004         31.0004
  -6565000.09047  -4960247.74646  22213341.1484                   22213340.2974
        44.5004         40.5004
  -2841835.86746    -94795.53543  24082004.9224                   24082003.1914
        38.5004         22.5004
 25  7 15  0 50 30.0000000  0  9G01G02G03G28G31G32G04G26G16
   1471648.33247   1217517.58245  21608137.0784                   21608133.6024
        46.7504         35.0004
   5030250.53547   3987021.32844  23251132.3834                   23251127.8444
        43.5004         29.5004
  -6112478.31648  -4650620.84048  20559253.2584                   20559250.3634
        48.5004         49.7504
   5289740.42647   4180354.00045  22719080.4774                   22719076.8754
        44.2504         31.7504
   1106191.99648    941018.52047  20531503.4064                   20531497.5634
        49.2504         47.5004
   4842039.56346   3837002.46944  24839139.5084                   24839139.9104
        36.0004         28.7504
  -5695321.70747  -4340359.20345  22258685.6334                   22258682.1884
        44.5004         30.2504
  -6887436.10547  -5211496.54346  22151983.2424                   22151982.1884
        45.0004         40.5004
  -3206658.18746   -379072.45743  24012580.6884                   24012579.2074
        36.5004         19.2504
 25  7 15  0 51  0.0000000  0  9G01G02G03G28G31G32G04G26G16
   1260012.93847   1052606.85245  21567864.5864                   21567860.4574
        46.7504         34.7504
   4850466.32047   3846929.66044  23216920.9384                   23216916.0784
        44.0004         29.2504
  -6426084.09848  -4894988.96548  20499575.7894                   20499572.9964
        48.0004         49.7504
   5115118.34047   4044284.77045  22685851.6564                   22685847.5984
        43.7504         33.2504
    890808.17648    773186.96547  20490517.1564                   20490511.3984
        49.2504         47.2504
   4650676.26246   3687888.10244  24802724.8134                   24802725.1914
        38.5004         29.2504
  -6012765.21947  -4587717.73845  22198278.1174                   22198274.7814
        45.0004         31.0004
  -7209438.05147  -5462407.09046  22090708.4384                   22090707.3674
        45.5004         40.7504
  -3571471.43046   -663342.32843  23943159.3134                   23943157.0234
        38.5004         18.5004
 25  7 15  0 51 30.0000000  0  9G01G02G03G28G31G32G04G26G16
   1048864.66447    888075.70345  21527684.2664                   21527680.5704
        46.2504         34.7504
   4670851.27747   3706969.80145  23182741.3134                   23182737.0234
        43.0004         30.0004
  -6739305.18448  -5139057.32448  20439972.2584                   20439968.9734
        48.7504         49.7504
   4940721.48847   3908391.08245  22652664.3054                   22652660.7234
        42.5004         32.0004
    675926.38748    605746.59847  20449626.5474                   20449621.0664
        48.2504         47.2504
   4459334.18846   3538790.32445  24766313.6564                   24766313.9024
        39.7504         31.2504
  -6330083.35247  -4834978.57045  22137894.1564                   22137891.0314
        45.0004         30.2504
  -7531003.39147  -5712977.42646  22029516.3364                   22029515.8094
        44.2504         41.0004
  -3936272.60246   -947602.76243  23873738.3284                   23873738.1054
        38.7504         20.0004
 25  7 15  0 52  0.0000000  0  9G01G02G03G28G31G32G04G26G16
    838200.01647    723921.40245  21487596.2814                   21487592.4494
        45.0004         34.7504
   4491401.47347   3567138.66044  23148592.6564                   23148588.4734
        43.5004         28.5004
  -7052140.61348  -5382825.17648  20380441.1884                   20380438.2664
        48.5004         49.7504
   4766546.19147   3772670.01245  22619520.5474                   22619516.7074
        44.0004         32.5004
    461543.00847    438694.60947  20408830.5084                   20408825.2704
        47.7504         47.5004
   4268012.09446   3389708.09445  24729906.9614                   24729906.7034
        40.7504         32.2504
  -6647277.47747  -5082142.78145  22077534.3524                   22077531.0904
        45.5004         30.5004
  -7852130.58647  -5963206.34846  21968408.2664                   21968407.0594
        45.2504         41.0004
  -4301060.03946  -1231852.53143  23804322.3444                   23804320.2304
        37.5004         19.0004
 25  7 15  0 52 30.0000000  0  9G01G02G03G28G31G32G04G26G16
    628018.50047    560143.55545  21447600.3134                   21447596.6804
        46.5004         35.0004
   4312115.64147   3427435.35944  23114476.2814                   23114471.3874
        44.0004         29.0004
  -7364586.51248  -5626289.50048  20320984.7734                   20320981.9884
        48.7504         49.7504
   4592591.67247   3637120.99245  22586417.7344                   22586413.7774
        44.0004         31.7504
    247657.94548    272030.90647  20368129.8444                   20368124.0634
        48.0004         47.2504
   4076711.90246   3240642.95745  24693503.8594                   24693503.2774
        41.0004         33.5004
  -6964346.03147  -5329209.14545  22017198.1564                   22017195.2114
        44.2504         30.0004
  -8172815.17247  -6213090.37946  21907383.6024                   21907382.8984
        44.5004         41.2504
  -4665828.80146  -1516087.71943  23734909.5784                   23734907.2774
        37.0004         19.0004
 25  7 15  0 53  0.0000000  0  9G01G02G03G28G31G32G04G26G16
   1993742.78547   1624344.26245  21707488.8914                   21707484.8014
        44.7504         35.0004
   5708414.92647   4515460.64544  23380183.1954                   23380179.0664
        43.0004         28.5004
  -6101212.23848  -4641842.00448  20561396.7894                   20561393.9844
        48.7504         50.0004
   5994279.22347   4729345.00845  22853150.0554                   22853146.5704
        44.5004         31.7504
   1609693.45747   1333357.27047  20627316.8134                   20627310.9964
        47.0004         47.2504
   5460858.07046   4319198.38745  24956898.1174                   24956897.4414
        40.0004         32.7504
  -5705860.53547  -4348571.05545  22256680.0234                   22256676.5314
        44.5004         30.7504
  -6917625.82847  -5235020.69546  22146238.1804                   22146237.4104
        44.5004         41.0004
  -3455145.44146   -572697.83243  23965294.7344                   23965293.2344
        39.5004         18.5004
 25  7 15  0 53 30.0000000  0  9G01G02G03G28G31G32G04G26G16
   1784516.37547   1461310.65645  21667673.9384                   21667670.0744
        45.5004         34.5004
   5529444.69147   4376003.22744  23346126.2734                   23346121.6884
        43.2504         28.5004
  -6412876.68748  -4884697.40648  20502089.1024                   20502086.3634
        48.2504         50.0004
   5820754.58247   4594130.95345  22820129.9614                   22820125.6094
        44.0004         32.2504
   1396792.75447   1167460.60247  20586803.0474                   20586797.1564
        47.5004         47.0004
   5269597.80146   4170164.28945  24920502.5554                   24920502.2344
        39.2504         32.0004
  -6022682.52747  -4595445.29745  22196390.8754                   22196387.3754
        44.2504         30.5004
  -7237421.39147  -5484211.99246  22085383.8054                   22085382.3134
        44.0004         41.5004
  -3819871.32446   -856899.70343  23895889.1484                   23895886.8164
        38.0004         18.5004
 25  7 15  0 54  0.0000000  0  9G01G02G03G28G31G32G04G26G16
   1575766.30547   1298648.23445  21627950.3364                   21627946.7504
        46.7504         34.5004
   5350630.52747   4236667.41444  23312099.4774                   23312094.9654
        42.5004         28.0004
  -6724144.88348  -5127244.03948  20442856.5084                   20442854.0164
        48.5004         50.0004
   5647443.42647   4459083.26245  22787149.2504                   22787145.9454
        44.2504         32.0004
   1184383.24248   1001946.68447  20546382.7114                   20546377.1564
        49.0004         47.2504
   5078360.03546   4021147.71545  24884110.8594                   24884111.5044
        38.5004         32.2504
  -6339379.13347  -4842221.84445  22136124.8754                   22136121.9414
        44.5004         31.2504
  -7556766.15247  -5733052.01246  22024613.8524                   22024612.8754
        44.5004         41.0004
  -4184568.89146  -1141079.38343  23826489.3364                   23826487.6994
        38.0004         19.2504
 25  7 15  0 54 30.0000000  0  9G01G02G03G28G31G32G04G26G16
   1367488.16847   1136353.54345  21588316.3364                   21588312.4774
        45.2504         34.2504
   5171967.09047   4097449.05544  23278100.8594                   23278096.1294
        43.2504         29.0004
  -7035016.71148  -5369481.82448  20383699.6564                   20383697.0824
        48.5004         50.0004
   5474341.26247   4324198.38745  22754209.5944                   22754205.5314
        44.2504         31.5004
    972460.65647    836812.18447  20506055.2504                   20506049.5864
        47.0004         47.0004
   4887142.59446   3872146.99245  24847722.8054                   24847724.5704
        38.2504         31.7504
  -6655952.58647  -5088902.41845  22075883.0634                   22075880.1524
        45.0004         30.2504
  -7875659.48447  -5981540.26646  21963930.3524                   21963929.4844
        45.0004         41.2504
  -4549236.84446  -1425236.00043  23757095.3754                   23757093.6954
        37.5004         19.0004
 25  7 15  0 55  0.0000000  0  9G01G02G03G28G31G32G04G26G16
   1159681.41847    974426.16845  21548772.0234                   21548768.1884
        46.5004         34.5004
   4993453.50047   3958347.46544  23244130.6724                   23244126.4414
        42.7504         28.7504
  -7345488.25448  -5611407.69148  20324618.8754                   20324616.2304
        49.0004         50.0004
   5301447.34047   4189475.81645  22721308.7894                   22721304.6334
        44.5004         31.5004
    761024.37948    672056.63347  20465820.2734                   20465814.4144
        48.5004         47.2504
   4695947.57446   3723163.74244  24811340.6724                   24811340.7424
        38.7504         29.0004
  -6972401.21547  -5335485.73045  22015665.4144                   22015661.8874
        44.0004         30.7504
  -8194096.93747  -6229673.28946  21903333.7424                   21903332.8874
        43.7504         41.5004
  -4913870.22746  -1709365.76243  23687707.9384                   23687705.3324
        39.0004         20.7504
 25  7 15  0 55 30.0000000  0  9G01G02G03G28G31G32G04G26G16
    952341.62547    812862.64845  21509316.6414                   21509312.8284
        46.0004         34.5004
   4815084.89147   3819358.84844  23210188.3204                   23210183.3594
        42.2504         27.7504
  -7655559.33648  -5853021.51248  20265614.1174                   20265611.7464
        49.0004         50.0004
   5128757.23847   4054912.04345  22688446.7344                   22688443.1844
        44.5004         32.2504
    550069.78148    507676.41047  20425677.0704                   20425671.5634
        48.0004         47.0004
   4504773.06346   3574196.48044  24774959.7894                   24774961.0394
        37.7504         24.0004
  -7288727.14847  -5581973.44145  21955470.1724                   21955466.9734
        45.0004         30.7504
  -8512077.88747  -6477450.59846  21842823.9844                   21842822.8244
        44.5004         41.5004
  -5278468.14546  -1993467.80143  23618326.2974                   23618324.6054
        37.7504         19.0004
 25  7 15  0 56  0.0000000  0  9G01G02G03G28G31G32G04G26G16
   2320893.74647   1879266.85945  21769743.3444                   21769739.9064
        46.5004         34.7504
   6212285.11347   4908086.19544  23476067.1564                   23476062.5004
        42.5004         29.5004
  -6389797.04348  -4866713.22348  20506480.8524                   20506477.9804
        49.0004         50.0004
   6531694.64147   5148109.97345  22955417.0314                   22955413.1054
        44.7504         30.7504
   1915021.94547   1571275.48847  20685418.5634                   20685413.1094
        47.7504         47.0004
   5889045.99646   4652850.67243  25038379.8984                   25038378.2384
        39.5004         23.7504
  -6029499.53147  -4600757.07445  22195093.1644                   22195090.1684
        45.0004         30.7504
  -7254168.70347  -5497261.58246  22082196.3134                   22082195.0784
        45.5004         41.5004
  -4067594.59046  -1049929.77043  23848748.2584                   23848745.8914
        39.7504         20.5004
 25  7 15  0 56 30.0000000  0  9G01G02G03G28G31G32G04G26G16
   2114483.03947   1718427.31345  21730464.7344                   21730461.2154
        44.5004         34.0004
   6034200.65646   4769318.96144  23442178.0634                   23442174.4804
        40.5004         27.7504
  -6699058.44548  -5107696.12948  20447630.3674                   20447627.6134
        49.0004         50.0004
   6359407.11747   5013859.91045  22922631.6174                   22922628.1524
        44.7504         31.7504
   1705026.09047   1407642.33647  20645458.1334                   20645452.4924
        47.5004         47.0004
   5697915.13746   4503917.55144  25002008.8594                   25002006.6024
        41.2504         26.7504
  -6345578.09047  -4847052.02345  22134945.7344                   22134942.3634
        45.0004         30.7504
  -7571226.45347  -5744319.50446  22021861.9844                   22021860.9304
        45.0004         41.5004
  -4432109.12946  -1333966.94143  23779383.6644                   23779381.3834
        39.7504         22.2504
 25  7 15  0 57  0.0000000  0  9G01G02G03G28G31G32G04G26G16
   1908534.74647   1557948.08245  21691274.2814                   21691270.5164
        45.7504         33.7504
   5856255.42247   4630660.26244  23408317.0234                   23408311.5944
        42.5004         27.7504
  -7007910.29748  -5348359.89848  20388857.8524                   20388855.0124
        49.5004         50.0004
   6187318.68047   4879764.97345  22889884.8674                   22889880.8134
        44.2504         30.5004
   1495507.39848   1244381.00847  20605588.1094                   20605582.5314
        48.2504         47.0004
   5506807.86346   4355002.73445  24965642.0234                   24965642.0434
        41.0004         30.7504
  -6661531.62947  -5093249.55145  22074821.6644                   22074818.2234
        45.0004         31.2504
  -7887817.23447  -5991013.57046  21961616.9144                   21961615.8794
        46.0004         41.5004
  -4796575.72346  -1617966.69943  23710027.2664                   23710025.2854
        38.5004         21.2504
 25  7 15  0 57 30.0000000  0  9G01G02G03G28G31G32G04G26G16
   1703044.28947   1397825.60945  21652171.4144                   21652166.6254
        46.0004         34.0004
   5678444.44946   4492106.16444  23374480.1564                   23374476.5004
        41.5004         28.0004
  -7316352.57048  -5588704.52348  20330163.5004                   20330160.4884
        49.5004         50.2504
   6015424.79747   4745821.64545  22857174.1804                   22857170.3794
        44.5004         31.0004
   1286461.43848   1081488.03547  20565807.5084                   20565801.9574
        48.2504         47.2504
   5315722.16446   4206104.66045  24929280.1094                   24929280.3014
        40.5004         32.0004
  -6977362.40647  -5339351.41445  22014720.6884                   22014717.5704
        45.0004         30.7504
  -8203940.57447  -6237343.39846  21901460.7894                   21901459.3794
        46.2504         41.5004
  -5160993.38346  -1901928.30543  23640680.8284                   23640678.6054
        40.0004         19.7504
 25  7 15  0 58  0.0000000  0  9G01G02G03G28G31G32G04G26G16
   1498010.50447   1238058.98045  21613154.4844                   21613150.7384
        46.0004         34.2504
   5500766.61347   4353655.78944  23340669.3754                   23340665.4884
        42.0004         27.5004
  -7624381.87148  -5828727.34848  20271547.1884                   20271544.2344
        49.5004         50.5004
   5843724.32847   4612029.01645  22824501.0164                   22824497.4064
        43.7504         31.2504
   1077887.14148    918962.59847  20526117.3594                   20526111.4414
        49.0004         47.0004
   5124659.48446   4057224.54345  24892922.5554                   24892922.5904
        41.2504         34.0004
  -7293069.18447  -5585356.65645  21954643.3984                   21954640.3054
        45.0004         30.5004
  -8519592.60947  -6483305.96946  21841393.6954                   21841392.2664
        45.5004         41.5004
  -5525357.44946  -2185848.21543  23571345.2894                   23571342.6684
        40.2504         22.5004
 25  7 15  0 58 30.0000000  0  9G01G02G03G28G31G32G04G26G16
   1293432.49247   1078647.50045  21574224.4064                   21574220.8794
        45.5004         34.0004
   5323219.99247   4215307.68844  23306883.8134                   23306878.9454
        43.2504         26.7504
  -7931994.55148  -6068425.53148  20213010.6564                   20213007.6174
        50.0004         50.2504
   5672216.35947   4478386.37945  22791863.8134                   22791859.9964
        44.5004         30.5004
    869783.75448    756804.09047  20486516.4844                   20486510.9344
        48.2504         47.0004
   4933621.51246   3908363.65245  24856569.5234                   24856568.6134
        40.2504         31.5004
  -7608650.60247  -5831264.22345  21894590.7814                   21894587.4144
        45.5004         31.5004
  -8834769.26647  -6728898.11746  21781417.8444                   21781416.6454
        45.7504         41.5004
  -5889663.23446  -2469722.64543  23502019.1334                   23502017.4844
        39.0004         21.5004
 25  7 15  0 59  0.0000000  0 10G01G02G03G09G28G31G32G04G26G16
   2664728.75447   2147190.00045  21835173.4304                   21835169.7624
        45.0004         34.0004
   6721222.25846   5304659.99644  23572914.9384                   23572910.5234
        41.2504         27.7504
  -6663764.01648  -5080193.93048  20454346.7734                   20454343.8794
        49.5004         50.2504
  24518486.71955  19370851.78154  25097965.3444                   25097964.9414
        32.0004         24.7504
   7076318.40247   5572491.81645  23059055.8754                   23059051.9614
        43.7504         31.0004
   2237569.73848   1822611.34047  20746797.6024                   20746791.8794
        48.0004         47.0004
   6318028.89846   4987122.49245  25120013.6024                   25120014.3364
        38.0004         31.5004
  -6348681.95747  -4849470.43445  22134354.7974                   22134351.7274
        45.0004         32.0004
  -7574043.32047  -5746514.20346  22021325.7584                   22021324.5634
        45.7504         41.5004
  -4678480.87146  -1525944.02743  23732499.7504                   23732497.1294
        40.0004         22.2504
 25  7 15  0 59 30.0000000  0 10G01G02G03G09G28G31G32G04G26G16
   2461040.81647   1988472.09045  21796412.6024                   21796409.1524
        43.7504         34.0004
   6543916.50447   5166499.53144  23539175.1884                   23539170.9454
        42.2504         26.7504
  -6970551.03948  -5319248.74248  20395966.8674                   20395964.1564
        49.0004         50.2504
  24178909.41045  19106246.33644  25033345.7034                   25033345.6684
        35.5004         28.0004
   6905174.22747   5439132.65245  23026488.3364                   23026484.5084
        44.0004         30.0004
   2030386.39847   1661169.75847  20707371.5784                   20707366.0744
        47.0004         47.0004
   6127026.79746   4838289.54744  25083665.9844                   25083666.6484
        36.5004         28.5004
  -6664026.81247  -5095193.66845  22074346.0944                   22074343.2194
        45.5004         32.2504
  -7888275.63747  -5991370.50046  21961528.9694                   21961528.4304
        45.7504         41.7504
  -5042674.04746  -1809730.81643  23663196.7114                   23663192.5944
        40.0004         22.0004
 25  7 15  1  0  0.0000000  0 10G01G02G03G09G28G31G32G04G26G16
   2257794.20747   1830098.07445  21757736.3364                   21757732.8524
        44.2504         34.0004
   6366726.71847   5028429.49044  23505456.6884                   23505452.7194
        42.5004         27.2504
  -7276922.02348  -5557979.36348  20337666.7344                   20337663.9494
        49.2504         50.2504
  23839339.35945  18841646.44944  24968726.3834                   24968727.4654
        34.7504         28.7504
   6734208.42247   5305912.49644  22993954.1484                   22993950.5354
        43.2504         29.0004
   1823659.61347   1500083.93447  20668032.7344                   20668027.5474
        47.5004         47.0004
   5936042.91046   4689470.73444  25047324.0164                   25047324.4844
        40.0004         29.0004
  -6979253.44947  -5340824.78145  22014360.7734                   22014357.5594
        45.0004         32.0004
  -8202031.96147  -6235855.90246  21901823.7034                   21901822.3014
        45.0004         41.5004
  -5406806.05146  -2093469.82843  23593903.7974                   23593901.3094
        39.7504         23.2504
 25  7 15  1  0 30.0000000  0 10G01G02G03G09G28G31G32G04G26G16
   2054984.14147   1672064.21545  21719142.7814                   21719139.0354
        44.5004         34.0004
   6189647.93047   4890445.89544  23471760.1174                   23471755.6914
        42.0004         27.0004
  -7582877.08248  -5796385.88348  20279445.2974                   20279442.3834
        49.0004         50.5004
  23499774.08245  18577050.23844  24904109.5474                   24904109.9774
        35.7504         24.5004
   6563416.32047   5172827.68845  22961453.9844                   22961450.4064
        43.7504         30.2504
   1617384.71147   1339350.23047  20628780.1174                   20628774.4184
        47.5004         46.7504
   5745075.05547   4540664.57043  25010983.9304                   25010983.5314
        42.7504         22.0004
  -7294364.19947  -5586365.59445  21954397.7974                   21954393.7504
        42.7504         32.2504
  -8515311.99647  -6479970.15646  21842208.3594                   21842207.0164
        43.5004         41.7504
  -5770875.74646  -2377160.33243  23524623.6484                   23524621.1994
        40.2504         22.5004
 25  7 15  1  1  0.0000000  0 10G01G02G03G09G28G31G32G04G26G16
   1852611.37947   1514371.11345  21680632.8754                   21680628.6374
        45.2504         33.2504
   6012680.89847   4752549.39144  23438084.6644                   23438079.8484
        42.7504         27.7504
  -7888410.90648  -6034464.16848  20221304.0314                   20221301.2344
        49.5004         50.5004
  23160216.70745  18312460.26243  24839495.3674                   24839493.6484
        32.0004         21.2504
   6392798.77747   5039878.89144  22928986.4614                   22928982.9304
        42.5004         29.7504
   1411562.34848   1178969.14547  20589613.7504                   20589607.9454
        48.0004         46.7504
   5554126.73847   4391873.01244  24974648.1564                   24974648.4734
        45.2504         27.0004
  -7609355.89847  -5831813.63745  21894456.3834                   21894453.1374
        45.0004         32.2504
  -8828110.12547  -6723708.90646  21782684.5394                   21782683.1764
        45.5004         41.7504
  -6134876.70346  -2660797.28543  23455355.9304                   23455353.9104
        40.0004         22.0004
 25  7 15  1  1 30.0000000  0 10G01G02G03G09G28G31G32G04G26G16
   1650674.24247   1357017.46945  21642205.2734                   21642201.5234
        45.5004         33.5004
   5835823.48846   4614738.28944  23404429.5084                   23404425.0474
        41.0004         27.5004
  -8193520.47348  -6272211.86748  20163243.4774                   20163240.8714
        49.2504         50.5004
  22820668.03545  18047877.09844  24774877.6804                   24774880.3984
        31.5004         24.5004
   6222354.31347   4907064.96144  22896552.5164                   22896548.5594
        42.7504         29.7504
   1206190.96548   1018939.48047  20550532.5314                   20550527.0864
        48.0004         46.5004
   5363198.98447   4243097.97745  24938315.1254                   24938316.2034
        44.7504         34.5004
  -7924227.65247  -6077168.22745  21834538.0864                   21834534.8524
        45.0004         33.2504
  -9140422.89547  -6967069.44947  21723253.5164                   21723252.2544
        45.7504         42.0004
  -6498804.56246  -2944377.30543  23386102.5084                   23386100.6764
        40.0004         22.5004
 25  7 15  1  2  0.0000000  0 10G01G02G03G09G28G31G32G04G26G16
   3024599.87947   2427608.83245  21903654.2194                   21903651.1134
        46.5004         33.5004
   7234501.87946   5704617.45344  23670588.7584                   23670584.5744
        40.7504         28.0004
  -6922770.57448  -5282017.11748  20405059.2814                   20405056.7934
        50.0004         50.5004
  24056562.52745  19010911.91043  25010063.1254                   25010063.1724
        32.7504         22.0004
   7627509.27747   6001990.84044  23163944.1254                   23163940.6054
        42.2504         29.0004
   2576697.95747   2086866.99247  20811331.3984                   20811325.9774
        47.2504         46.7504
   6747721.37547   5321946.50445  25201781.5634                   25201781.7234
        43.7504         35.5004
  -6663546.14847  -5094818.96945  22074438.4224                   22074434.2774
        44.2504         32.5004
  -7876814.53147  -5982439.51246  21963710.1174                   21963708.7934
        44.2504         41.7504
  -5287221.14546  -2000286.16844  23616659.9454                   23616657.8484
        41.2504         26.5004
 25  7 15  1  2 30.0000000  0 10G01G02G03G09G28G31G32G04G26G16
   2823532.04347   2270932.56345  21865393.0474                   21865389.4774
        46.5004         33.7504
   7057861.12946   5566975.21144  23636975.2664                   23636971.6954
        39.7504         28.2504
  -7227019.69548  -5519094.34448  20347162.6804                   20347159.8404
        49.5004         50.5004
  23717036.78545  18746346.57043  24945453.0554                   24945452.6564
        34.0004         20.2504
   7457409.64547   5869445.60944  23131574.9924                   23131571.3754
        42.5004         29.0004
   2372226.77347   1927538.77347  20772422.2274                   20772416.5084
        46.5004         46.7504
   6556841.09046   5173208.53145  25165458.0004                   25165458.4264
        40.2504         34.0004
  -6978172.64147  -5339982.43045  22014566.4224                   22014563.1174
        45.5004         33.2504
  -8188143.59447  -6225033.53946  21904465.9534                   21904464.8754
        46.5004         41.7504
  -5650987.50046  -2283740.28943  23547437.1254                   23547434.4264
        41.2504         22.2504
 25  7 15  1  3  0.0000000  0 10G01G02G03G09G28G31G32G04G26G16
   2622894.83247   2114591.83245  21827213.0394                   21827209.2074
        46.2504         33.7504
   6881324.44946   5429413.99644  23603382.4454                   23603378.3874
        41.0004         28.5004
  -7530835.60948  -5755834.00048  20289348.2664                   20289345.6454
        49.5004         50.5004
  23377522.37946  18481790.00044  24880844.5004                   24880845.5704
        37.5004         28.7504
   7287478.72746   5737031.85244  23099238.4224                   23099235.1174
        41.5004         29.0004
   2168201.84047   1768558.28947  20733597.5864                   20733591.8984
        47.5004         46.7504
   6365984.68445   5024489.12544  25129139.5704                   25129140.3324
        33.5004         28.0004
  -7292676.64847  -5585050.47345  21954718.2034                   21954715.2774
        45.2504         32.5004
  -8498977.36347  -6467241.62946  21845316.4064                   21845314.9534
        46.0004         41.7504
  -6014668.21946  -2567127.74643  23478231.5314                   23478227.6844
        41.2504         22.5004
 25  7 15  1  3 30.0000000  0  9G01G02G03G09G28G31G04G26G16
   2422686.48447   1958585.28945  21789114.6954                   21789110.7544
        44.7504         34.2504
   6704889.73047   5291932.32444  23569807.5784                   23569803.2464
        42.0004         28.2504
  -7834215.39548  -5992233.81648  20231617.1094                   20231614.7424
        49.7504         50.5004
  23038019.98446  18217242.87944  24816240.5634                   24816240.3594
        38.0004         28.2504
   7117715.04346   5604748.40245  23066933.4454                   23066930.1294
        41.7504         30.0004
   1964621.52047   1609924.25047  20694857.2734                   20694851.8714
        46.5004         46.5004
  -7607057.42647  -5830022.46145  21894893.2344                   21894890.2704
        45.0004         32.5004
  -8809312.57047  -6709061.23046  21786261.2974                   21786260.1604
        46.2504         41.7504
  -6378259.25046  -2850445.25443  23409041.1564                   23409039.4344
        40.2504         23.0004
 25  7 15  1  4  0.0000000  0 10G01G02G03G09G28G31G32G04G26G16
   2222904.23047   1802910.77045  21751097.6724                   21751094.2274
        43.7504         33.5004
   6528554.05546   5154527.77344  23536252.0554                   23536248.3914
        41.2504         27.5004
  -8137157.24648  -6228292.39148  20173969.0314                   20173966.2664
        49.5004         50.5004
  22698529.18046  17952704.75444  24751635.6414                   24751636.7274
        37.0004         24.7504
   6948115.98047   5472593.23044  23034660.0474                   23034656.1724
        42.2504         29.0004
   1761483.09047   1451634.55147  20656201.5164                   20656196.2624
        46.0004         46.5004
  26649858.82855   4877779.55954  25056514.4844                   25056516.0204
        35.5004         27.7504
  -7921315.20747  -6074898.62945  21835092.0314                   21835088.9654
        46.0004         33.0004
  -9119147.05547  -6950490.66047  21727301.6174                   21727300.4534
        46.0004         42.0004
  -6741757.46947  -3133690.46944  23339870.3204                   23339867.0274
        42.0004         24.2504
 25  7 15  1  4 30.0000000  0 10G01G02G03G09G28G31G32G04G26G16
   2023545.30147   1647566.10245  21713160.7504                   21713157.0514
        45.5004         34.0004
   6352314.35247   5017197.98444  23502714.9844                   23502711.3554
        42.5004         28.7504
  -8439659.16448  -6464008.15248  20116404.8284                   20116402.0594
        49.2504         50.5004
  22359049.90646  17688175.55544  24687036.0864                   24687035.6214
        37.5004         27.0004
   6778679.18447   5340564.49244  23002417.7734                   23002414.2234
        42.0004         29.0004
   1558783.96147   1293687.15247  20617628.6334                   20617623.5664
        46.7504         46.5004
  26459077.06346   4729118.35545  25020211.7814                   25020212.2544
        40.7504         30.5004
  -8235450.17247  -6319679.09045  21775314.4064                   21775311.1764
        46.0004         33.2504
  -9428478.52047  -7191528.12547  21668438.0314                   21668436.8134
        46.0004         42.0004
  -7105159.44946  -3416860.69143  23270717.0474                   23270714.1094
        39.7504         22.7504
 25  7 15  1  5  0.0000000  0 10G01G02G03G09G28G31G32G04G26G16
   3400032.89547   2720153.80145  21975097.5394                   21975093.6334
        46.0004         34.2504
   7751593.18446   6107545.02344  23768988.2664                   23768985.4144
        40.7504         27.7504
  -7166289.87148  -5471772.32848  20358719.2734                   20358716.1684
        49.7504         50.5004
  23595012.56645  18651263.50044  24922231.5164                   24922232.0164
        35.2504         27.0004
   8184827.13747   6436264.14144  23269998.9384                   23269994.7934
        42.7504         29.5004
   2931947.49247   2363684.69147  20878933.5634                   20878928.2424
        47.5004         46.7504
  27843745.98446   5808081.12144  25283705.8204                   25283705.7304
        41.7504         29.0004
  -6974032.60547  -5336756.28545  22015353.7664                   22015350.5554
        45.0004         32.5004
  -8161875.15247  -6204564.41447  21909464.6804                   21909463.2734
        45.7504         42.2504
  -5893030.66446  -2472344.60244  23501377.1724                   23501375.0234
        38.7504         24.5004
 25  7 15  1  5 30.0000000  0 10G01G02G03G09G28G31G32G04G26G16
   3201510.78947   2565461.21145  21937319.9304                   21937316.2154
        46.0004         33.7504
   7575535.77746   5970357.30144  23735486.5394                   23735482.5314
        41.5004         27.7504
  -7467907.76248  -5706799.23848  20301322.8054                   20301320.0824
        50.0004         50.7504
  23255554.05145  18386750.59844  24857633.2344                   24857635.3484
        35.2504         25.7504
   8015705.95747   6304481.34844  23237815.8284                   23237812.4804
        42.2504         29.2504
   2730117.35548   2206414.43447  20840526.4694                   20840520.8014
        48.2504         47.0004
  27653012.72346   5659457.85244  25247409.9304                   25247409.9064
        40.7504         28.0004
  -7287923.85247  -5581346.83645  21955622.5084                   21955619.0664
        45.2504         32.7504
  -8470195.59447  -6444814.07047  21850793.2114                   21850791.4614
        46.5004         42.2504
  -6256232.22746  -2755358.66843  23432262.3674                   23432259.1024
        39.5004         22.2504
 25  7 15  1  6  0.0000000  0 10G01G02G03G09G28G31G32G04G26G16
   3003406.14847   2411093.91845  21899622.2584                   21899618.4534
        46.0004         33.7504
   7399568.09846   5833239.50444  23702001.1174                   23701997.1954
        41.2504         27.7504
  -7769077.57448  -5941477.00048  20244012.3364                   20244009.4384
        49.0004         50.7504
  22916108.93846  18122248.01244  24793040.3284                   24793040.1334
        38.5004         28.5004
   7846742.10546   6172821.15245  23205663.0864                   23205659.9804
        41.5004         30.2504
   2528721.18047   2049482.32847  20802201.8834                   20802196.4224
        47.0004         46.5004
  27462307.11746   5510856.00044  25211119.9694                   25211120.2934
        39.0004         29.5004
  -7601690.21547  -5825840.07045  21895915.3134                   21895911.4104
        45.5004         33.5004
  -8778003.96547  -6684664.71547  21792219.1094                   21792218.3094
        46.2504         42.0004
  -6619325.43746  -3038288.28943  23363167.1174                   23363164.9344
        37.7504         22.0004
 25  7 15  1  6 30.0000000  0 10G01G02G03G09G28G31G32G04G26G16
   2805718.20347   2257051.32445  21862003.2034                   21861999.9494
        44.0004         33.7504
   7223689.36747   5696191.02344  23668532.0784                   23668527.9804
        42.0004         26.5004
  -8069795.39848  -6175802.57048  20186787.5634                   20186784.7664
        49.0004         50.7504
  22576679.00846  17857757.29744  24728447.7584                   24728449.2934
        36.2504         27.0004
   7677935.23846   6041283.25444  23173540.7584                   23173537.0864
        41.0004         29.7504
   2327757.90647   1892887.54747  20763959.9774                   20763954.6884
        46.2504         46.5004
  27271631.23046   5362277.26244  25174835.6644                   25174836.2504
        38.7504         29.0004
  -7915329.91047  -6070234.61745  21836231.2664                   21836227.6684
        45.5004         33.5004
  -9085296.12147  -6924113.10947  21733743.4454                   21733741.9774
        46.0004         42.5004
  -6982305.12946  -3321129.47343  23294094.6724                   23294092.3954
        39.2504         22.7504
 25  7 15  1  7  0.0000000  0 10G01G02G03G09G28G31G32G04G26G16
   2608442.10947   2103329.64845  21824462.8444                   21824459.5864
        43.7504         34.5004
   7047894.64147   5559207.96944  23635080.6644                   23635076.9574
        42.7504         28.2504
  -8370061.34448  -6409776.01648  20129648.8594                   20129646.0084
        49.0004         50.7504
  22237261.94946  17593276.59844  24663859.6174                   24663859.9534
        37.7504         28.7504
   7509280.85546   5909864.21145  23141446.5634                   23141442.8244
        41.0004         30.0004
   2127223.21947   1736626.73447  20725799.5004                   20725793.9924
        46.0004         46.5004
  27080982.92646   5213720.14144  25138556.2584                   25138555.9534
        37.5004         26.0004
  -8228845.00447  -6314532.05945  21776571.0944                   21776567.8364
        45.0004         33.7504
  -9392071.96947  -7163159.18747  21675365.9224                   21675364.5204
        46.5004         42.0004
  -7345170.03546  -3603881.19943  23225044.2034                   23225041.4144
        40.0004         22.5004
 25  7 15  1  7 30.0000000  0 10G01G02G03G09G28G31G32G04G26G16
   2411573.89147   1949925.80545  21786999.9694                   21786996.6764
        46.0004         34.5004
   6872179.79347   5422287.18844  23601643.1644                   23601638.1684
        42.5004         27.0004
  -8669874.74248  -6643396.84448  20072596.1954                   20072593.5634
        49.2504         50.7504
  21897856.52346  17328805.00044  24599272.3524                   24599273.3364
        37.7504         27.7504
   7340775.42246   5778561.20344  23109380.8134                   23109377.5514
        41.7504         29.7504
   1927113.23447   1580696.86347  20687720.0314                   20687714.4534
        46.7504         46.5004
  26890361.35945   5065183.73844  25102282.1954                   25102282.4924
        35.5004         26.0004
  -8542236.86747  -6558733.48445  21716934.6174                   21716931.1454
        45.0004         33.5004
  -9698330.53147  -7401802.18047  21617086.6804                   21617085.3444
        47.0004         42.5004
  -7707918.28946  -3886542.05543  23156015.0864                   23156011.7464
        38.7504         22.5004
 25  7 15  1  8  0.0000000  0 10G01G02G03G09G28G31G32G04G26G16
   3790539.10247   3024444.09045  22049408.4844                   22049404.6214
        46.2504         34.0004
   8271969.84846   6513032.54344  23868013.9064                   23868010.1724
        40.7504         25.0004
  -7393801.87148  -5649054.33648  20315424.8364                   20315422.1844
        48.7504         51.0004
  23133895.66846  18291952.43444  24834483.3444                   24834483.2894
        38.0004         26.5004
   8747843.97347   6874978.18445  23377137.4144                   23377133.7344
        43.5004         30.0004
   3302853.69547   2652702.39847  20949514.4844                   20949509.2584
        47.5004         46.5004
  28275194.60546   6144274.48043  25365807.6174                   25365808.3204
        36.5004         22.7504
  -7280073.26647  -5575229.35245  21957116.4694                   21957112.9414
        44.7504         33.5004
  -8428637.62547  -6412431.04347  21858701.1884                   21858700.2464
        46.5004         42.2504
  -6495112.54346  -2941498.50843  23386803.7344                   23386802.1884
        39.0004         23.2504
 25  7 15  1  8 30.0000000  0 10G01G02G03G09G28G31G32G04G26G16
   3594481.90647   2871672.20745  22012100.0554                   22012096.5944
        45.7504         33.5004
   8096410.13046   6376232.64244  23834606.6254                   23834602.3404
        40.2504         25.5004
  -7692700.77048  -5881962.57848  20258546.5314                   20258543.5514
        49.2504         51.0004
  22794516.60546  18027501.41444  24769901.8594                   24769902.2154
        39.0004         29.0004
   8579632.96547   6743904.63744  23345127.6954                   23345124.2384
        42.5004         28.5004
   3103588.58647   2497430.85947  20911595.8204                   20911590.1524
        47.5004         46.5004
  28084630.35244   5995782.78543  25329541.6414                   25329543.9694
        27.5004         19.7504
  -7593215.16447  -5819235.99645  21897527.3524                   21897524.1524
        45.5004         33.2504
  -8733851.51647  -6650260.01247  21800620.9694                   21800619.8244
        46.0004         42.7504
  -6857613.23446  -3223966.42644  23317822.8054                   23317819.2304
        41.5004         25.0004
 25  7 15  1  9  0.0000000  0 10G01G02G03G09G28G31G32G04G26G16
   3398827.43047   2719214.12545  21974868.6884                   21974864.7464
        46.2504         34.0004
   7920925.13746   6239490.94144  23801212.7584                   23801208.8554
        40.2504         25.7504
  -7991138.13748  -6114511.16848  20201755.1884                   20201752.6414
        48.7504         51.0004
  22455152.00846  17763061.62544  24705322.2114                   24705322.4924
        38.2504         29.0004
   8411567.14847   6612944.18844  23313146.3754                   23313142.4694
        43.5004         29.5004
   2904743.70748   2342486.78947  20873756.6724                   20873751.3324
        48.0004         47.0004
  27894096.26645   5847314.50844  25293286.4144                   25293287.8954
        33.0004         25.7504
  -7906230.80947  -6063144.26645  21837962.6334                   21837959.0904
        45.2504         33.7504
  -9038538.44147  -6887678.35247  21742640.7584                   21742639.6644
        46.5004         42.5004
  -7219983.93746  -3506333.12943  23248865.4144                   23248862.4224
        39.7504         22.0004
 25  7 15  1  9 30.0000000  0 10G01G02G03G09G28G31G32G04G26G16
   3203571.36347   2567066.50445  21937712.4384                   21937708.8364
        44.0004         33.0004
   7745510.55946   6102804.08643  23767833.3054                   23767828.7504
        39.5004         23.7504
  -8289113.57048  -6346699.82048  20145052.5004                   20145049.9264
        48.5004         51.0004
  22115800.28146  17498631.80545  24640746.0164                   24640745.9614
        39.2504         30.5004
   8243642.61347   6482093.84444  23281191.3054                   23281187.6054
        43.0004         28.7504
   2706314.44147   2187866.56347  20835996.9844                   20835991.6914
        47.0004         46.5004
  27703590.94946   5698868.64145  25257035.5554                   25257036.5234
        37.5004         30.0004
  -8219121.69947  -6306955.32845  21778421.6334                   21778417.9224
        45.5004         32.5004
  -9342697.84847  -7124685.64147  21684761.1724                   21684760.1484
        46.5004         42.7504
  -7582222.84846  -3788597.05543  23179933.7344                   23179930.7424
        40.2504         23.0004
 25  7 15  1 10  0.0000000  0 10G01G02G03G09G28G31G32G04G26G16
   3008712.52747   2415228.39845  21900632.0474                   21900628.5554
        45.5004         32.5004
   7570164.96546   5966171.04344  23734465.8914                   23734461.0234
        40.0004         24.0004
  -8586623.58648  -6578525.80548  20088438.6024                   20088435.5984
        48.7504         50.7504
  21776462.75846  17234213.12544  24576171.5164                   24576171.6604
        38.2504         29.0004
   8075858.67247   6351353.05944  23249262.9304                   23249259.5594
        42.7504         28.7504
   2508299.84848   2033569.44947  20798316.2894                   20798310.5514
        48.0004         46.5004
  27513116.25846   5550446.68445  25220789.6484                   25220789.8094
        40.2504         33.2504
  -8531886.33647  -6550668.00445  21718903.9224                   21718900.8754
        45.7504         33.2504
  -9646326.04347  -7361279.00047  21626982.7664                   21626981.2234
        46.2504         42.7504
  -7944325.02747  -4070754.50044  23111028.1804                   23111024.7234
        42.5004         25.5004
 25  7 15  1 10 30.0000000  0  9G01G02G03G09G28G31G04G26G16
   2814247.30547   2263697.01245  21863626.8284                   21863623.0084
        46.0004         33.2504
   7394884.91046   5829588.99643  23701110.5084                   23701107.3484
        39.0004         23.0004
  -8883667.06248  -6809988.25048  20031912.8284                   20031910.0274
        49.0004         51.0004
  21437138.76246  16969804.90644  24511600.5554                   24511600.4064
        37.2504         27.7504
   7908212.25047   6220719.42644  23217361.0314                   23217357.6994
        43.2504         29.0004
   2310696.71547   1879592.96147  20760713.5554                   20760708.0634
        47.5004         46.2504
  -8844525.47747  -6794282.89545  21659410.8834                   21659407.5044
        44.7504         33.0004
  -9949421.64147  -7597457.35247  21569305.6564                   21569303.8954
        46.0004         42.5004
  -8306287.69946  -4352803.22343  23042148.4694                   23042144.8134
        40.0004         21.7504
 25  7 15  1 11  0.0000000  0  9G01G02G03G09G28G31G04G26G16
   4195600.57047   3340076.12545  22126489.3594                   22126485.7814
        45.5004         33.2504
   8795094.89546   6920661.57443  23967561.7894                   23967558.3794
        37.5004         22.5004
  -7604811.08248  -5813477.09848  20275270.8754                   20275268.1684
        49.2504         51.0004
  22673260.51246  17933016.81345  24746826.2034                   24746826.3874
        38.7504         30.2504
   9316127.93047   7317796.48444  23485278.4694                   23485274.7704
        42.5004         28.5004
   3688930.37548   2953541.25047  21022982.8054                   21022977.3364
        48.5004         46.2504
  -7581607.56647  -5810190.98445  21899736.1174                   21899732.6524
        45.0004         33.2504
  -8676551.39147  -6605610.35547  21811524.3914                   21811523.2034
        46.5004         43.0004
  -7092674.28547  -3407130.31643  23273091.8444                   23273087.6764
        42.2504         22.7504
 25  7 15  1 11 30.0000000  0  9G01G02G03G09G28G31G04G26G16
   4001919.01247   3189155.37945  22089632.9384                   22089629.6414
        46.0004         33.2504
   8619942.56646   6784179.12543  23934231.0394                   23934227.4144
        38.7504         22.7504
  -7900911.02048  -6044204.32048  20218925.1334                   20218922.7074
        48.7504         51.0004
  22333967.93446  17668633.07045  24682261.0394                   24682261.5634
        39.0004         30.7504
   9148754.60247   7187375.67244  23453428.8134                   23453424.5984
        43.5004         28.5004
   3492147.06348   2800203.58247  20985536.2894                   20985530.7934
        48.0004         46.5004
  -7893990.97347  -6053606.59845  21840291.5164                   21840287.8714
        45.5004         33.7504
  -8978570.91447  -6840950.19147  21754052.4774                   21754050.8554
        45.7504         43.0004
  -7454343.06646  -3688950.03543  23204267.9064                   23204264.4734
        40.5004         22.7504
 25  7 15  1 12  0.0000000  0  9G01G02G03G09G28G31G04G26G16
   3808631.68847   3038541.82845  22052851.8984                   22052848.5124
        46.5004         32.7504
   8444856.52346   6647748.22344  23900914.5314                   23900911.3954
        40.0004         24.2504
  -8196529.72348  -6274556.55148  20162670.4454                   20162667.9574
        48.5004         51.0004
  21994697.63746  17404266.76245  24617700.5084                   24617699.6174
        39.0004         30.7504
   8981521.16447   7057063.82844  23421605.1414                   23421602.2854
        42.5004         29.0004
   3295776.37948   2647187.45347  20948167.9304                   20948162.3874
        48.2504         46.7504
  -8206239.83247  -6296917.36745  21780872.5004                   21780869.0044
        45.0004         33.5004
  -9280042.69947  -7075863.23847  21696683.9534                   21696682.4774
        46.5004         42.7504
  -7815853.05546  -3970646.02044  23135474.6094                   23135471.2894
        41.0004         24.7504
 25  7 15  1 12 30.0000000  0  9G01G02G03G09G28G31G04G26G16
   3615735.66047   2888233.18845  22016144.9224                   22016141.2894
        45.5004         32.7504
   8269833.72346   6511366.69543  23867609.0314                   23867604.6604
        38.7504         22.2504
  -8491665.40248  -6504532.39548  20106508.5474                   20106505.4184
        48.7504         51.0004
  21655449.48446  17139917.67245  24553143.3054                   24553142.8634
        37.5004         30.7504
   8814425.21547   6926859.10944  23389807.9454                   23389804.3914
        42.2504         29.0004
   3099815.55548   2494490.68047  20910878.0164                   20910872.2034
        48.2504         46.2504
  -8518354.28947  -6540123.41045  21721479.4614                   21721475.9804
        45.0004         34.0004
  -9580964.81647  -7310347.97347  21639420.2344                   21639418.7584
        46.2504         43.0004
  -8177201.43046  -4252216.05544  23066712.6644                   23066708.5554
        41.2504         24.0004
 25  7 15  1 13  0.0000000  0  9G01G02G03G09G28G31G04G26G16
   3423227.41047   2738226.69945  21979511.5704                   21979507.9844
        45.0004         33.0004
   8094870.75846   6375031.74243  23834314.0554                   23834311.2544
        38.7504         22.2504
  -8786316.89548  -6734130.95748  20050438.0394                   20050435.4024
        48.5004         51.0004
  21316222.64546  16875585.22345  24488590.2274                   24488590.5004
        38.5004         31.5004
   8647463.84847   6796759.30144  23358036.1564                   23358032.4184
        42.7504         27.0004
   2904261.20747   2342110.65247  20873664.9844                   20873659.3524
        47.2504         46.2504
  -8830334.94147  -6783225.18445  21662111.0554                   21662107.8244
        46.2504         33.7504
  -9881335.91847  -7544403.34447  21582261.8284                   21582260.1024
        46.5004         43.2504
  -8538385.02346  -4533657.72744  22997981.2584                   22997978.3594
        41.0004         25.2504
 25  7 15  1 13 30.0000000  0  9G01G02G03G09G28G31G04G26G16
   3231103.14847   2588519.43845  21942951.7734                   21942948.2584
        46.0004         33.0004
   7919964.07446   6238740.70743  23801030.0234                   23801026.8364
        38.5004         22.2504
  -9080483.24648  -6963351.48448  19994460.0474                   19994457.0634
        48.2504         51.0004
  20977016.23046  16611268.67245  24424041.9224                   24424041.1684
        38.2504         30.5004
   8480633.96146   6666761.90244  23326289.7664                   23326286.1024
        41.5004         27.7504
   2709109.97347   2190044.73447  20836529.1644                   20836524.0784
        47.5004         46.2504
  -9142182.69547  -7026223.40245  21602768.6254                   21602764.6484
        45.7504         34.0004
 -10181154.97347  -7778028.54347  21525208.2274                   21525206.5944
        46.0004         43.2504
  -8899401.44146  -4814969.09044  22929281.8054                   22929279.2774
        40.5004         24.2504
 25  7 15  1 14  0.0000000  0  9G01G02G03G09G28G31G04G26G16
   4614785.05547   3666713.07445  22206257.8364                   22206253.5514
        46.0004         33.5004
   9320535.44946   7330094.83644  24067551.1484                   24067547.8054
        40.0004         25.5004
  -7798734.27348  -5964586.03948  20238368.7034                   20238365.7814
        48.2504         51.0004
  22213260.02746  17574575.67645  24659290.3984                   24659291.3594
        37.5004         32.5004
   9889357.46946   7764468.45344  23594361.1564                   23594357.4454
        41.7504         27.5004
   4089784.27047   3265894.81647  21099262.6724                   21099257.3524
        47.5004         46.0004
  -7878468.57447  -6041511.08245  21843245.2114                   21843241.8324
        46.2504         33.5004
  -8904991.40247  -6783615.33647  21768053.7114                   21768052.6994
        46.2504         43.0004
  -7684816.48846  -3868539.14143  23160409.9304                   23160406.0944
        41.5004         22.7504
 25  7 15  1 14 30.0000000  0  9G01G02G03G09G28G31G04G26G16
   4423416.75447   3517594.86345  22169841.9534                   22169838.1174
        45.7504         33.5004
   9145729.53146   7193882.27743  24034285.9774                   24034283.1684
        38.2504         22.7504
  -8091928.40648  -6193048.99648  20182575.8054                   20182572.5164
        48.7504         51.0004
  21874090.77046  17310288.07845  24594748.9304                   24594748.7384
        37.0004         31.0004
   9722780.38746   7634668.07044  23562662.3914                   23562658.3164
        40.7504         25.5004
   3895427.78947   3114448.18447  21062277.8284                   21062272.4534
        47.2504         46.0004
  -8190053.98047  -6284304.87945  21783952.5234                   21783949.1024
        45.2504         34.0004
  -9203704.04347  -7016378.40247  21711210.5164                   21711209.3244
        45.2504         43.0004
  -8045491.93446  -4149584.83244  23091775.3524                   23091772.5984
        40.5004         26.7504
 25  7 15  1 15  0.0000000  0  9G01G02G03G09G28G31G04G26G16
   4232417.89547   3368764.52745  22133496.2344                   22133492.5784
        45.7504         33.0004
   8970965.69546   7057702.49243  24001030.6564                   24001026.3794
        39.5004         23.0004
  -8384637.93448  -6421134.32848  20126874.6804                   20126872.0554
        48.7504         51.0004
  21534935.71146  17046011.57045  24530209.6954                   24530210.0234
        37.5004         32.7504
   9556322.15246   7504960.26644  23530986.5474                   23530983.1134
        40.7504         25.7504
   3701460.27347   2963304.65247  21025367.1884                   21025361.9534
        47.5004         45.7504
  -8501512.41047  -6526999.72345  21724683.9384                   21724680.2194
        45.7504         34.5004
  -9501864.77047  -7248711.41047  21654472.5084                   21654471.1764
        46.0004         43.2504
  -8405996.00847  -4430496.95344  23023174.0474                   23023170.9494
        42.0004         27.2504
 25  7 15  1 15 30.0000000  0  9G01G02G03G09G28G31G04G26G16
   4041787.96947   3220221.68445  22097220.1884                   22097216.8134
        43.0004         32.0004
   8796243.41046   6921555.12944  23967781.5394                   23967778.2464
        39.7504         26.0004
  -8676858.68748  -6648838.80148  20071266.9144                   20071264.5554
        49.0004         51.0004
  21195797.36746  16781748.06345  24465673.4144                   24465673.3984
        36.0004         30.5004
   9389983.01646   7375345.28544  23499333.1804                   23499329.9804
        41.5004         25.7504
   3507881.90247   2812464.34447  20988530.4844                   20988524.6374
        46.0004         45.7504
  -8812841.37547  -6769593.69945  21665439.7034                   21665436.1294
        45.0004         34.0004
  -9799469.33247  -7480611.03947  21597840.3754                   21597838.8874
        46.2504         43.5004
  -8766322.66846  -4711270.88743  22954606.2894                   22954602.5434
        41.5004         23.7504
 25  7 15  1 16  0.0000000  0  9G01G02G03G09G28G31G04G26G16
   3851526.19147   3071965.69945  22061014.4144                   22061011.5084
        43.0004         32.5004
   8621561.91446   6785439.48844  23934541.3674                   23934537.9574
        39.7504         25.0004
  -8968586.70348  -6876159.32448  20015753.1804                   20015750.1524
        49.0004         51.0004
  20856677.64146  16517499.05545  24401142.1094                   24401140.8444
        37.7504         32.7504
   9223762.91846   7245823.06344  23467702.6484                   23467698.8794
        40.7504         25.2504
   3314691.84447   2661926.61347  20951767.8444                   20951762.0864
        46.0004         45.5004
  -9124038.72347  -7012085.10545  21606221.0234                   21606217.4924
        44.7504         34.2504
 -10096513.73047  -7712074.18047  21541314.7034                   21541312.7154
        46.0004         43.2504
  -9126466.75846  -4991902.53144  22886072.7274                   22886068.8914
        41.5004         26.5004
 25  7 15  1 16 30.0000000  0  9G01G02G03G09G28G31G04G26G16
   3661627.35947   2923992.52745  22024877.9144                   22024874.7734
        46.0004         32.7504
   8446916.48046   6649351.93843  23901308.0554                   23901303.9264
        39.2504         22.7504
  -9259822.50048  -7103096.28948  19960332.8754                   19960330.3794
        48.5004         51.2504
  20517574.35545  16253262.92244  24336611.0314                   24336611.3404
        34.7504         28.5004
   9057657.41046   7116390.12944  23436093.5554                   23436090.6054
        41.0004         27.7504
   3121885.21547   2511687.66447  20915077.3914                   20915072.2304
        47.7504         45.5004
  -9435106.71547  -7254475.71945  21547026.6724                   21547023.4064
        45.0004         34.5004
 -10392998.44547  -7943101.19547  21484895.4694                   21484893.5354
        46.5004         43.2504
  -9486426.53146  -5272390.54744  22817574.7034                   22817571.2974
        41.5004         25.5004
 25  7 15  1 17  0.0000000  0  9G01G02G03G09G28G31G04G26G16
   5047514.12947   4003904.22345  22288603.3674                   22288600.5234
        44.0004         32.0004
   9847729.31646   7740894.27044  24167873.4454                   24167870.0664
        41.7504         27.0004
  -7975135.46947  -6102041.44548  20204800.6254                   20204798.1844
        47.7504         51.0004
  21753917.95345  17216647.63744  24571879.7034                   24571879.4774
        35.0004         29.7504
  10467089.05646   8214648.47744  23704299.7274                   23704296.2234
        39.7504         25.2504
   4504885.08647   3589349.87947  21178253.8524                   21178248.4964
        46.2504         45.5004
  -8170615.68447  -6269158.00845  21787651.2734                   21787647.6644
        45.0004         34.2504
  -9113492.52347  -6946083.56647  21728376.9924                   21728375.7234
        46.5004         43.5004
  -8270767.69947  -4325123.80944  23048906.2584                   23048903.0784
        42.0004         27.0004
 25  7 15  1 17 30.0000000  0  9G01G02G03G09G28G31G04G26G16
   4858332.35247   3856489.80945  22252603.7814                   22252600.1374
        44.0004         32.7504
   9673147.52346   7604856.36744  24134651.1094                   24134648.4774
        40.5004         25.5004
  -8265381.73448  -6328207.35248  20149568.6804                   20149565.9024
        48.5004         51.2504
  21414847.24646  16952436.83245  24507357.0704                   24507356.7934
        36.7504         31.2504
  10301206.18846   8085389.02744  23672733.5314                   23672729.4884
        40.7504         25.7504
   4312837.19947   3439702.15247  21141708.2814                   21141702.8554
        47.0004         45.5004
  -8481424.84447  -6511346.94145  21728506.3524                   21728502.7424
        45.5004         33.7504
  -9408852.46947  -7176234.14847  21672171.8444                   21672170.6454
        46.5004         43.2504
  -8630349.35947  -4605317.19944  22980480.7814                   22980477.2814
        42.5004         25.7504
 25  7 15  1 18  0.0000000  0  9G01G02G03G09G28G31G04G26G16
   4669502.82047   3709349.86745  22216670.6024                   22216667.1644
        44.0004         32.5004
   9498591.36346   7468838.34443  24101434.0554                   24101431.2504
        38.5004         22.7504
  -8555132.54748  -6553987.19548  20094431.0864                   20094428.3014
        48.5004         51.2504
  21075790.78546  16688237.15245  24442836.8674                   24442836.5164
        37.5004         31.5004
  10135429.39546   7956212.25444  23641187.1334                   23641183.4144
        40.7504         28.0004
   4121163.10547   3290345.69147  21105234.2664                   21105228.7384
        47.0004         45.7504
  -8792106.44547  -6753436.47345  21669385.8364                   21669381.7934
        45.5004         33.5004
  -9703649.28947  -7405945.93047  21616074.6094                   21616072.7624
        45.7504         43.5004
  -8989738.94546  -4885360.93444  22912090.8204                   22912086.9454
        41.5004         25.7504
 25  7 15  1 18 30.0000000  0  9G01G02G03G09G28G31G04G26G16
   4481023.87947   3562483.10945  22180804.1254                   22180800.7304
        45.7504         32.2504
   9324059.59046   7332839.40644  24068222.4304                   24068219.4384
        40.2504         26.5004
  -8844384.86348  -6779378.60248  20039387.8524                   20039385.0904
        48.5004         51.2504
  20736749.96145  16424049.64145  24378319.6954                   24378318.8524
        35.5004         32.2504
   9969757.98446   7827117.57044  23609660.5394                   23609657.3634
        40.5004         26.5004
   3929861.13747   3141279.19947  21068830.5704                   21068825.2504
        47.7504         45.5004
  -9102659.05547  -6995425.50045  21610289.3444                   21610285.7894
        45.2504         34.7504
  -9997879.89847  -7635216.50447  21560083.5634                   21560082.0434
        45.5004         43.5004
  -9348931.68046  -5165251.21944  22843738.3754                   22843735.1024
        41.5004         25.5004
 25  7 15  1 19  0.0000000  0  9G01G02G03G09G28G31G04G26G16
   4292893.17247   3415887.71545  22145004.2034                   22145001.1134
        44.5004         32.5004
   9149549.93446   7196857.66844  24035014.6804                   24035011.7234
        40.0004         24.0004
  -9133136.42248  -7004379.80948  19984440.1024                   19984437.1884
        48.2504         51.2504
  20397725.31646  16159874.73045  24313804.7814                   24313804.6644
        36.7504         32.0004
   9804190.38346   7698103.78544  23578155.0704                   23578150.9414
        41.5004         27.7504
   3738929.18448   2992501.02347  21032497.4844                   21032492.0904
        48.0004         45.5004
  -9413082.00447  -7237313.48845  21551218.0394                   21551214.1844
        45.0004         34.2504
 -10291542.02347  -7864044.10547  21504201.9064                   21504200.1804
        46.0004         43.5004
  -9707923.13747  -5444984.73444  22775424.9454                   22775420.5984
        42.7504         27.5004
 25  7 15  1 19 30.0000000  0  9G01G02G03G09G28G31G04G26G16
   4105108.19947   3269561.69545  22109269.9224                   22109266.6054
        45.0004         32.5004
   8975060.19146   7060891.44544  24001810.9614                   24001807.3794
        39.5004         24.5004
  -9421385.03148  -7228989.10248  19929588.3984                   19929585.8324
        48.5004         51.2504
  20058717.26245  15895712.72345  24249294.4844                   24249293.5704
        35.5004         31.0004
   9638724.88346   7569169.55144  23546667.3754                   23546664.2704
        40.7504         26.2504
   3548365.28148   2844009.65647  20996234.3134                   20996228.9494
        48.0004         45.2504
  -9723374.77747  -7479100.03945  21492171.1484                   21492167.5434
        46.0004         34.0004
 -10584633.44547  -8092427.00047  21448428.0704                   21448426.6684
        45.5004         43.5004
 -10066709.76247  -5724558.61344  22707149.3834                   22707145.6764
        42.2504         25.7504
 25  7 15  1 20  0.0000000  0  9G01G02G03G09G28G31G04G26G16
   5493090.78147   4351106.51645  22373394.5634                   22373391.2814
        43.0004         32.2504
  10376012.05146   8152542.03944  24268402.3134                   24268400.3634
        38.5004         25.2504
  -8133700.93048  -6225598.88748  20174626.4304                   20174623.8164
        48.5004         51.2504
  21295155.61345  16859171.32844  24484578.8444                   24484579.5124
        34.0004         28.2504
  11048783.51246   8667916.46144  23814992.8914                   23814990.1914
        41.5004         29.2504
   4933591.44947   3923406.64147  21259833.9774                   21259828.3324
        47.0004         45.2504
  -8458108.39847  -6493178.16445  21732943.1804                   21732939.7504
        46.0004         34.0004
  -9301724.22747  -7092757.44947  21692557.6094                   21692556.0554
        46.2504         43.5004
  -8849856.94947  -4776361.48044  22938709.8984                   22938705.8054
        42.7504         26.7504
 25  7 15  1 20 30.0000000  0  9G01G02G03G09G28G31G04G26G16
   5305988.56347   4205312.52745  22337790.6644                   22337786.6174
        45.0004         32.0004
  10201554.36346   8016600.77344  24235205.0944                   24235203.0124
        40.5004         26.5004
  -8420938.45348  -6449420.33248  20119967.1644                   20119963.9964
        48.7504         51.2504
  20956180.96145  16595035.35944  24420073.9844                   24420075.3754
        33.5004         29.7504
  10883516.19146   8539136.67644  23783543.6094                   23783540.3874
        41.5004         28.2504
   4743755.69548   3775482.64147  21223709.8674                   21223703.9844
        49.0004         45.5004
  -8768140.30547  -6734761.44945  21673946.1174                   21673942.8404
        46.0004         34.2504
  -9593669.07447  -7320246.91047  21637002.4144                   21637000.6334
        45.7504         43.5004
  -9208222.65646  -5055607.39544  22870513.8524                   22870510.2734
        41.2504         25.5004
 25  7 15  1 21  0.0000000  0  9G01G02G03G09G28G31G04G26G16
   5119221.66047   4059779.82845  22302249.3984                   22302245.8204
        44.7504         31.0004
  10027106.72746   7880667.37944  24202008.8134                   24202005.9304
        40.0004         25.0004
  -8707669.56248  -6672847.15648  20065403.6414                   20065401.1174
        48.7504         51.2504
  20617221.39145  16330911.10244  24355573.5314                   24355572.7544
        34.7504         29.5004
  10718343.24646   8410430.42244  23752111.9774                   23752109.2344
        41.0004         26.5004
   4554278.40648   3627837.96147  21187653.1564                   21187648.3714
        48.5004         45.5004
  -9078043.29347  -6976244.28545  21614973.0944                   21614969.7504
        45.7504         34.0004
  -9885039.82447  -7547289.02747  21581556.6094                   21581554.8914
        45.0004         43.7504
  -9566374.44547  -5334686.59844  22802360.5554                   22802356.9774
        43.0004         27.0004
 25  7 15  1 21 30.0000000  0  9G01G02G03G09G28G31G04G26G16
   4932787.50847   3914506.42245  22266771.7424                   22266769.1724
        42.7504         32.7504
   9852667.15246   7744740.22344  24168814.4694                   24168811.5904
        39.7504         25.0004
  -8993892.22348  -6895877.79748  20010937.4924                   20010934.7854
        49.0004         51.2504
  20278277.21545  16066798.89145  24291073.5474                   24291073.7704
        35.2504         30.2504
  10553263.00447   8281796.38344  23720698.8754                   23720695.8594
        42.0004         28.5004
   4365157.51247   3480471.00847  21151664.3674                   21151659.2194
        46.0004         45.7504
  -9387816.76647  -7217626.19545  21556025.6174                   21556021.9344
        46.2504         34.5004
 -10175834.32447  -7773882.11747  21526220.2274                   21526218.3364
        46.0004         43.5004
  -9924308.90247  -5613596.45744  22734247.3284                   22734243.1914
        42.0004         25.7504
 25  7 15  1 22  0.0000000  0  9G01G02G03G09G28G31G04G26G16
   4746685.16047   3769491.54345  22231358.3364                   22231354.4574
        43.5004         32.0004
   9678234.90646   7608818.77043  24135621.6174                   24135617.9844
        40.0004         22.5004
  -9279602.74248  -7118509.36748  19956568.6564                   19956566.3324
        49.0004         51.5004
  19939350.68845  15802700.33645  24226578.5864                   24226577.7734
        34.7504         30.7504
  10388275.37947   8153234.54744  23689302.7274                   23689299.2664
        42.7504         29.0004
   4176392.04747   3333380.99647  21115744.0784                   21115738.5474
        47.5004         45.5004
  -9697458.55947  -7458905.50045  21497102.6804                   21497099.2704
        45.5004         34.7504
 -10466049.07847  -8000023.46147  21470994.0314                   21470992.5744
        45.7504         43.7504
 -10282019.73447  -5892332.07844  22666177.0634                   22666173.6414
        43.0004         28.5004
 25  7 15  1 22 30.0000000  0  9G01G02G03G09G28G31G04G26G16
   4560910.12947   3624731.72345  22196006.0474                   22196003.1844
        43.2504         31.0004
   9503805.76646   7472899.76644  24102428.5314                   24102425.3914
        40.5004         25.2504
  -9564801.00048  -7340741.77348  19902297.5864                   19902294.2854
        49.5004         51.2504
  19600440.10246  15538614.29345  24162086.3594                   24162085.9574
        37.0004         31.2504
  10223376.85247   8024742.11744  23657923.5084                   23657920.3834
        43.0004         26.5004
   3987978.02348   3186564.84447  21079890.1024                   21079884.4804
        48.0004         46.0004
 -10006970.13747  -7700083.32845  21438204.8284                   21438201.0004
        45.7504         34.2504
 -10755683.93447  -8225712.93747  21415878.4844                   21415876.5664
        45.7504         44.0004
 -10639505.28547  -6170892.13744  22598150.1804                   22598146.2814
        42.7504         28.0004
 25  7 15  1 23  0.0000000  0  9G01G02G03G09G28G31G04G26G16
   5950889.02747   4707832.11345  22460510.5164                   22460506.8204
        45.5004         31.0004
  10904806.57046   8564588.47344  24369030.1884                   24369028.1684
        40.0004         25.7504
  -8274052.47748  -6334963.69948  20147918.5784                   20147916.0314
        49.0004         51.5004
  20836980.43846  16502152.31345  24397391.9924                   24397390.9844
        36.2504         30.0004
  11633994.32847   9123924.48444  23926355.3134                   23926351.9924
        43.0004         27.5004
   5375342.56347   4267628.09447  21343896.5394                   21343891.0434
        47.0004         45.5004
  -8740917.51647  -6713548.80545  21679126.0864                   21679123.0084
        46.0004         34.5004
  -9469304.27047  -7223339.15247  21660668.2814                   21660666.7704
        46.2504         43.7504
  -9421326.85947  -5221662.09844  22829961.6954                   22829958.1094
        42.2504         27.0004
 25  7 15  1 23 30.0000000  0  9G01G02G03G09G28G31G04G26G16
   5765763.92247   4563578.71945  22425282.5554                   22425279.8794
        45.5004         31.5004
  10730379.91846   8428671.34043  24335837.6334                   24335835.3914
        38.2504         22.7504
  -8558217.19948  -6556390.75848  20093843.9534                   20093840.9844
        48.7504         51.5004
  20498106.39146  16238094.73445  24332905.6484                   24332905.5004
        36.5004         31.0004
  11469272.13347   8995569.47744  23895009.2194                   23895006.2774
        42.2504         27.0004
   5187628.01248   4121356.98047  21308175.7584                   21308170.7934
        48.0004         45.5004
  -9050163.87147  -6954519.96545  21620278.4454                   21620275.2624
        45.7504         34.7504
  -9757770.52747  -7448118.02347  21605775.0084                   21605773.5274
        46.0004         43.7504
  -9778347.43047  -5499859.85544  22762023.2894                   22762018.3594
        43.2504         27.5004
 25  7 15  1 24  0.0000000  0  9G01G02G03G09G28G31G04G26G16
   5580958.16847   4419574.18845  22390115.3134                   22390112.4104
        45.7504         30.7504
  10555949.55946   8292751.36343  24302644.4064                   24302641.4344
        38.7504         20.2504
  -8841863.80548  -6777414.08648  20039867.6954                   20039864.7114
        48.7504         51.5004
  20159249.57845  15974050.51244  24268421.4064                   24268422.8954
        33.5004         28.7504
  11304634.07046   8867279.98044  23863679.9384                   23863677.0474
        40.7504         28.7504
   5000257.91847   3975354.26647  21272520.3984                   21272515.1294
        46.5004         45.5004
  -9359278.41847  -7195388.43745  21561456.6024                   21561452.3404
        45.5004         34.5004
 -10045651.19147  -7672440.60547  21550993.7274                   21550991.3484
        46.2504         43.7504
 -10135131.31647  -5777873.16044  22694128.7194                   22694124.9024
        42.5004         27.0004
 25  7 15  1 24 30.0000000  0  9G01G02G03G09G28G31G04G26G16
   5396469.49647   4275816.71545  22355007.7894                   22355005.0554
        44.7504         31.2504
  10381513.36346   8156826.87144  24269451.4454                   24269449.0164
        40.5004         25.0004
  -9124990.09048  -6998031.97748  19985990.8364                   19985987.6884
        49.2504         51.5004
  19820410.75845  15710020.38345  24203944.1484                   24203944.0234
        35.7504         31.0004
  11140078.75846   8739055.01244  23832365.9304                   23832363.1454
        41.5004         28.0004
   4813230.52347   3829618.59047  21236930.5784                   21236925.3554
        47.7504         45.5004
  -9668260.37147  -7436153.58245  21502658.5084                   21502655.2344
        45.5004         35.5004
 -10332944.19147  -7896305.26247  21496322.9144                   21496321.4734
        46.0004         43.7504
 -10491674.20747  -6055698.69544  22626281.4384                   22626277.1484
        42.5004         27.7504
 25  7 15  1 25  0.0000000  0  9G01G02G03G09G28G31G04G26G16
   5212295.68847   4132304.59845  22319961.2584                   22319958.3324
        45.5004         31.2504
  10207069.46946   8020896.32843  24236255.1024                   24236253.6914
        38.5004         21.5004
  -9407593.67648  -7218242.56248  19932212.8674                   19932210.3954
        49.2504         51.5004
  19481590.68046  15446004.83645  24139469.2734                   24139468.6524
        37.5004         31.7504
  10975605.05146   8610893.61744  23801067.5314                   23801065.3204
        40.0004         26.5004
   4626543.94148   3684148.49247  21201405.1254                   21201399.9344
        48.5004         45.2504
  -9977108.70747  -7676814.60945  21443887.1024                   21443883.8054
        44.5004         34.7504
 -10619647.19947  -8119710.18747  21441765.1884                   21441763.7344
        46.5004         44.0004
 -10847971.97347  -6333333.21144  22558479.5554                   22558475.8594
        42.7504         28.0004
 25  7 15  1 25 30.0000000  0  9G01G02G03G09G28G31G04G26G16
   5028434.13747   3989035.78945  22284973.3914                   22284970.4224
        45.5004         31.7504
  10032615.87546   7884958.15643  24203057.8754                   24203056.3134
        37.7504         20.7504
  -9689672.64548  -7438044.36348  19878534.7664                   19878532.2234
        48.5004         51.5004
  19142789.90246  15182004.30945  24074997.3984                   24074996.2194
        37.5004         31.5004
  10811211.35946   8482794.55144  23769785.0314                   23769781.9384
        40.0004         26.5004
   4440196.12947   3538942.36747  21165944.2584                   21165938.8324
        46.7504         45.5004
 -10285822.89847  -7917371.11745  21385140.1954                   21385136.8674
        44.7504         35.5004
 -10905758.44547  -8342654.00047  21387320.2584                   21387318.6954
        46.7504         44.0004
 -11204020.52747  -6610773.54344  22490726.3134                   22490721.8364
        43.5004         27.5004
 25  7 15  1 26  0.0000000  0 10G01G02G03G09G28G31G06G04G26G16
   6420306.19947   5073611.36345  22549838.0164                   22549835.1254
        45.5004         31.5004
  11433573.76646   8976613.43043  24469651.8054                   24469649.5164
        37.5004         21.5004
  -8395797.80948  -6429830.20348  20124751.1804                   20124748.3714
        48.0004         51.5004
  20379437.97746  16145626.27745  24310323.4454                   24310323.4454
        38.0004         31.5004
  12222319.38746   9582359.16044  24038310.3674                   24038307.1054
        39.7504         25.0004
   5829608.54347   4621601.35947  21430340.6024                   21430335.6644
        47.0004         45.5004
  38977096.27056  30449852.96554  25535652.6484                   25535652.6454
        38.0004         29.2504
  -9018974.18747  -6930216.25845  21626213.7664                   21626210.4224
        44.0004         35.0004
  -9615848.68047  -7337529.47747  21632782.0314                   21632780.2734
        47.0004         44.2504
  -9984386.16447  -5660409.01244  22722814.6644                   22722810.2464
        42.5004         27.2504
 25  7 15  1 26 30.0000000  0 10G01G02G03G09G28G31G06G04G26G16
   6237053.05947   4930816.64145  22514966.1254                   22514962.8094
        44.5004         30.5004
  11259085.30146   8840648.15243  24436448.3914                   24436445.2504
        38.5004         19.5004
  -8676830.05548  -6648816.36748  20071272.3364                   20071269.5864
        48.7504         51.5004
  20040668.80946  15881650.36745  24245858.2504                   24245856.5434
        38.5004         31.5004
  12058072.62946   9454374.61744  24007054.6954                   24007051.9264
        40.5004         25.5004
   5643922.52048   4476910.92247  21395005.9454                   21395001.0944
        48.0004         45.5004
  38650980.91446  30195737.11344  25473594.9144                   25473594.8634
        38.7504         29.2504
  -9327426.56247  -7170568.75045  21567517.2274                   21567513.9924
        45.0004         34.2504
  -9900779.18747  -7559553.23447  21578561.2114                   21578559.4454
        47.0004         44.0004
 -10339933.24247  -5937458.59444  22655156.2274                   22655151.9384
        43.0004         28.0004
 25  7 15  1 27  0.0000000  0 10G01G02G03G09G28G31G06G04G26G16
   6054093.43847   4788250.64845  22480149.5314                   22480146.9104
        44.7504         31.5004
  11084569.46546   8704661.59843  24403238.6564                   24403236.3954
        36.7504         18.2504
  -8957342.79348  -6867397.72748  20017892.7734                   20017889.8204
        49.0004         51.5004
  19701909.43446  15617682.13745  24181394.6334                   24181394.0824
        38.7504         32.0004
  11893890.37546   9326440.30144  23975812.4144                   23975808.7504
        39.5004         24.0004
   5458557.78947   4332470.83647  21359732.2274                   21359727.4024
        47.7504         46.0004
  38325283.25446  29941946.77344  25411616.8054                   25411616.6724
        36.7504         29.2504
  -9635753.87947  -7410823.79345  21508844.7734                   21508840.7664
        44.5004         35.0004
 -10185123.35247  -7781120.09847  21524452.5234                   21524450.6644
        46.2504         44.0004
 -10695230.41047  -6214313.44544  22587545.0634                   22587541.2274
        42.7504         27.7504
 25  7 15  1 27 30.0000000  0 10G01G02G03G09G28G31G06G04G26G16
   5871422.92647   4645909.91845  22445388.9224                   22445386.2774
        44.7504         31.0004
  10910022.12946   8568650.39143  24370023.2344                   24370021.8444
        37.2504         20.2504
  -9237335.98048  -7085574.23848  19964611.7734                   19964609.2504
        48.5004         51.2504
  19363158.51646  15353720.45345  24116931.3134                   24116931.0394
        39.2504         32.0004
  11729769.18446   9198553.57443  23944581.0474                   23944578.1954
        39.0004         22.5004
   5273510.00847   4188277.71947  21324518.8524                   21324513.7344
        47.5004         45.5004
  38000003.53946  29688482.07444  25349717.5084                   25349717.8524
        37.5004         28.7504
  -9943957.30547  -7650982.29345  21450195.6334                   21450191.7074
        44.5004         35.2504
 -10468881.32447  -8002230.17647  21470454.8204                   21470453.2504
        47.2504         44.2504
 -11050275.37947  -6490971.76644  22519982.1484                   22519977.8594
        43.0004         28.5004
 25  7 15  1 28  0.0000000  0 10G01G02G03G09G28G31G06G04G26G16
   5689039.34047   4503792.77045  22410682.7814                   22410679.7074
        45.0004         30.2504
  10735441.49646   8432613.23843  24336802.0554                   24336800.8164
        38.2504         20.2504
  -9516807.31248  -7303344.10948  19911430.0004                   19911427.4734
        49.0004         51.5004
  19024417.01646  15089766.12545  24052471.3834                   24052471.1604
        39.2504         32.0004
  11565708.03146   9070713.64143  23913360.7274                   23913358.2934
        39.2504         22.7504
   5088777.42248   4044330.21947  21289365.3984                   21289360.4694
        48.2504         45.0004
  37675144.78946  29435345.46545  25287898.8364                   25287899.6254
        37.0004         30.0004
 -10252035.78947  -7891043.43445  21391570.1804                   21391566.4064
        45.5004         34.7504
 -10752050.87547  -8222881.76247  21416569.4694                   21416567.9494
        45.5004         44.0004
 -11405064.12547  -6767430.44944  22452468.7424                   22452463.7774
        43.0004         27.2504
 25  7 15  1 28 30.0000000  0 10G01G02G03G09G28G31G06G04G26G16
   5506941.99247   4361898.66445  22376031.0084                   22376028.1024
        44.7504         31.7504
  10560827.26646   8296549.93043  24303574.6024                   24303572.6024
        38.7504         20.5004
  -9795752.98448  -7520704.37548  19858348.7664                   19858345.8324
        48.7504         51.5004
  18685687.32046  14825820.99245  23988013.1484                   23988013.1214
        38.5004         31.7504
  11401707.36346   8942920.80943  23882153.4304                   23882150.3204
        40.0004         22.0004
   4904359.86348   3900628.18047  21254271.8914                   21254267.0004
        48.0004         44.7504
  37350711.15645  29182540.08644  25226161.8834                   25226161.8674
        35.2504         28.7504
 -10559986.80547  -8131005.25445  21332968.7114                   21332965.0944
        45.0004         35.0004
 -11034628.36347  -8443071.99247  21362796.5944                   21362795.2274
        46.5004         44.2504
 -11759590.62947  -7043684.77044  22385003.6954                   22385000.2464
        43.0004         28.7504
 25  7 15  1 29  0.0000000  0 10G01G02G03G09G28G31G06G04G26G16
   6900556.42247   5447831.91445  22641226.0634                   22641223.6804
        45.0004         30.2504
  11961605.77046   9388065.44543  24570134.1254                   24570131.7194
        37.2504         18.2504
  -8498739.72348  -6510044.69148  20105161.8444                   20105159.1174
        48.5004         51.5004
  19922403.43046  15789495.97345  24223352.0784                   24223351.8794
        39.5004         33.0004
  12813193.24646  10042779.90243  24150749.4844                   24150746.9144
        38.5004         22.5004
   6295683.47347   4984776.41847  21519032.1334                   21519026.8754
        47.7504         45.0004
  38602137.77746  30157677.76245  25464300.0164                   25464300.0824
        38.0004         31.0004
  -9292377.26647  -7143257.54345  21574187.4224                   21574183.5594
        45.2504         35.0004
  -9741180.60547  -7435190.60247  21608931.7274                   21608929.9734
        45.7504         44.0004
 -10538417.14847  -6092120.93444  22617385.4614                   22617381.6604
        42.2504         28.5004
 25  7 15  1 29 30.0000000  0 10G01G02G03G09G28G31G06G04G26G16
   6719029.75447   5306382.50045  22606683.6174                   22606680.8364
        44.5004         31.7504
  11786924.21946   9251949.68843  24536893.8984                   24536892.0124
        39.0004         21.2504
  -8776622.49647  -6726576.73048  20052282.3834                   20052279.8594
        47.7504         51.5004
  19583705.03946  15525575.22745  24158899.9064                   24158899.3524
        38.5004         32.0004
  12649315.10546   9915082.55143  24119565.6414                   24119561.7624
        40.5004         22.7504
   6111895.53148   4841565.00047  21484058.5944                   21484053.3324
        48.0004         44.5004
  38278567.29746  29905544.89845  25402727.5164                   25402727.0664
        40.0004         34.0004
  -9600065.30947  -7383014.45746  21515635.7424                   21515632.3284
        45.7504         36.0004
 -10022562.95347  -7654449.54747  21555386.7734                   21555384.7424
        45.0004         44.2504
 -10892401.53547  -6367952.83244  22550024.3364                   22550020.2664
        42.7504         29.2504
 25  7 15  1 30  0.0000000  0 10G01G02G03G09G28G31G06G04G26G16
   6537783.72347   5165151.73045  22572193.0864                   22572190.0554
        44.5004         30.7504
  11612205.03546   9115804.57043  24503647.1024                   24503644.0474
        41.0004         22.0004
  -9053971.84048  -6942693.10548  19999504.5234                   19999501.9654
        48.7504         51.5004
  19245022.32446  15261666.69945  24094450.6884                   24094450.4304
        39.5004         31.7504
  12485495.16846   9787430.58643  24088390.7194                   24088387.8094
        39.0004         21.7504
   5928418.27347   4698595.68447  21449143.7114                   21449138.6454
        47.5004         44.5004
  37955431.17246  29653750.55145  25341236.1724                   25341236.6254
        38.5004         34.7504
  -9907621.61747  -7622668.70745  21457109.7584                   21457106.0944
        44.5004         35.5004
 -10303346.00047  -7873241.51647  21501955.1174                   21501953.8054
        46.0004         44.0004
 -11246109.35247  -6643569.23444  22482715.5554                   22482712.0864
        43.0004         28.2504
 25  7 15  1 30 30.0000000  0 10G01G02G03G09G28G31G06G04G26G16
   6356816.87547   5024138.55145  22537757.0704                   22537753.6024
        44.0004         30.5004
  11437447.04346   8979629.27343  24470390.9694                   24470388.8134
        39.0004         22.0004
  -9330784.77048  -7158391.49248  19946829.0314                   19946826.2344
        49.5004         51.5004
  18906356.89546  14997771.62545  24030005.2114                   24030004.6214
        38.7504         31.7504
  12321733.29746   9659823.84443  24057229.0394                   24057225.1174
        40.0004         21.2504
   5745250.68447   4555867.66447  21414288.3284                   21414282.9184
        46.7504         44.0004
  37632732.85946  29402297.35945  25279829.3054                   25279829.1764
        38.7504         35.2504
 -10215044.35547  -7862218.87545  21398609.3834                   21398605.5354
        45.0004         35.5004
 -10583527.00847  -8091564.37147  21448638.4064                   21448636.8284
        46.5004         44.0004
 -11599536.14547  -6918966.64844  22415461.1884                   22415456.7624
        42.5004         29.5004
 25  7 15  1 31  0.0000000  0 10G01G02G03G09G28G31G06G04G26G16
   6176128.22747   4883342.12945  22503372.8524                   22503369.9774
        44.5004         30.7504
  11262649.84446   8843423.34043  24437129.0004                   24437127.4104
        38.7504         21.5004
  -9607057.94548  -7373669.30148  19894256.3674                   19894253.1604
        48.7504         51.5004
  18567711.03946  14733891.81645  23965562.9304                   23965562.0354
        40.5004         32.5004
  12158029.53146   9532262.41043  24026076.9304                   24026073.4884
        40.5004         22.5004
   5562392.13347   4413380.44947  21379491.3914                   21379486.5514
        47.5004         44.2504
  37310476.28146  29151188.32845  25218505.3364                   25218505.3484
        40.2504         33.0004
 -10522331.27047  -8101663.21145  21340134.2584                   21340130.8364
        44.5004         34.7504
 -10863102.73447  -8309415.57047  21395436.9144                   21395435.1994
        46.0004         44.2504
 -11952675.98847  -7194140.46144  22348260.8444                   22348257.0394
        43.2504         29.0004
 25  7 15  1 31 30.0000000  0 10G01G02G03G09G28G31G06G04G26G16
   5995713.80547   4742759.41045  22469040.6254                   22469038.1214
        43.5004         30.0004
  11087809.90646   8707184.18043  24403857.9844                   24403856.0124
        39.5004         20.0004
  -9882790.85548  -7588526.11748  19841785.9064                   19841782.9224
        48.2504         51.5004
  18229083.96146  14470026.67645  23901124.4844                   23901122.8874
        38.2504         31.2504
  11994381.26246   9404744.21543  23994935.6644                   23994932.0704
        41.2504         23.7504
   5379839.23447   4271131.40247  21344752.8754                   21344747.7154
        47.0004         44.0004
  36988662.41446  28900424.25445  25157266.0394                   25157266.4884
        36.5004         31.0004
 -10829482.88747  -8341002.12545  21281685.2584                   21281681.7384
        44.7504         35.5004
 -11142072.87547  -8526794.88747  21342350.6884                   21342349.3014
        45.5004         44.2504
 -12305526.46147  -7469088.80944  22281115.3444                   22281111.1414
        42.7504         29.0004
 25  7 15  1 32  0.0000000  0 10G01G02G03G09G28G31G06G04G26G16
   7390996.78547   5829992.84445  22734554.3364                   22734551.5904
        43.0004         30.5004
  12488350.85546   9798514.53143  24670372.5314                   24670370.2664
        40.2504         21.7504
  -8582552.73047  -6575353.55948  20089213.2114                   20089210.0904
        47.7504         51.5004
  19465907.25446  15433785.16845  24136483.7974                   24136483.5514
        40.5004         32.0004
  13406212.21146  10504872.17243  24263597.4844                   24263594.6884
        40.5004         23.0004
   6773015.65247   5356723.38747  21609865.4774                   21609860.3834
        46.5004         44.0004
  38242723.91446  29877615.07845  25395905.2734                   25395906.0084
        36.5004         30.2504
  -9561068.59047  -7352627.34045  21523056.2734                   21523052.9304
        44.0004         35.2504
  -9845006.91047  -7516094.11747  21589174.1884                   21589172.4494
        47.2504         44.5004
 -11082651.85547  -6516199.43745  22513820.8594                   22513816.9924
        43.2504         30.0004
 25  7 15  1 32 30.0000000  0 10G01G02G03G09G28G31G06G04G26G16
   7211121.10947   5689829.89845  22700326.0314                   22700322.9494
        42.5004         30.5004
  12313417.19946   9662202.32044  24637084.2974                   24637082.2344
        41.0004         25.5004
  -8857201.68048  -6789365.71948  20036949.1484                   20036946.4064
        48.7504         51.5004
  19127317.53946  15169949.09545  24072051.9304                   24072051.0004
        39.7504         32.0004
  13242668.71547  10377435.61743  24232477.0084                   24232473.8874
        42.0004         22.7504
   6591065.71547   5214944.19547  21575241.7814                   21575236.4774
        45.5004         43.7504
  37921800.26645  29627544.71544  25334835.3444                   25334836.4614
        35.2504         29.7504
  -9867949.59047  -7591755.37545  21464659.2974                   21464655.5904
        45.0004         35.5004
 -10122763.27347  -7732527.62947  21536318.9454                   21536317.3204
        46.5004         44.5004
 -11434913.18447  -6790688.71544  22446787.6564                   22446783.6334
        43.5004         29.2504
 25  7 15  1 33  0.0000000  0 10G01G02G03G09G28G31G06G04G26G16
   7031509.38347   5549872.65644  22666146.1024                   22666143.4494
        42.7504         29.2504
  12138432.24246   9525850.08243  24603784.3444                   24603783.8674
        38.0004         22.7504
  -9131307.57048  -7002954.72348  19984788.3914                   19984785.4264
        48.2504         51.5004
  18788745.74246  14906127.02745  24007624.2424                   24007622.5004
        38.7504         31.0004
  13079174.08246  10250037.14843  24201364.2274                   24201361.6884
        41.7504         23.2504
   6409412.50447   5073396.20747  21540673.9454                   21540668.8984
        47.2504         44.2504
  37601323.77345  29377822.80944  25273851.4534                   25273851.3674
        35.7504         28.0004
 -10174695.59047  -7830778.22745  21406287.1644                   21406283.8134
        45.0004         35.2504
 -10399911.92247  -7948487.60247  21483579.6564                   21483577.5594
        46.7504         44.5004
 -11786875.75047  -7064945.19144  22379811.0704                   22379806.7234
        43.0004         29.0004
 25  7 15  1 33 30.0000000  0 10G01G02G03G09G28G31G06G04G26G16
   6852161.18446   5410120.74645  22632017.0634                   22632015.6684
        41.2504         30.7504
  11963395.79346   9389457.67643  24570477.6644                   24570475.7664
        38.7504         21.2504
  -9404866.43048  -7216117.46148  19932731.6884                   19932728.9734
        48.0004         51.5004
  18450194.85546  14642321.22745  23943199.6724                   23943198.7154
        39.7504         32.5004
  12915729.08246  10122677.32844  24170262.0314                   24170259.4264
        41.7504         24.7504
   6228056.49647   4932079.81647  21506163.1094                   21506157.4884
        45.0004         43.5004
  37281298.60946  29128452.57844  25212952.9224                   25212952.6724
        36.7504         29.5004
 -10481303.73447  -8069693.63746  21347941.4924                   21347938.3134
        45.7504         36.0004
 -10676449.24247  -8163971.21947  21430955.8524                   21430954.2504
        46.5004         44.5004
 -12138533.22347  -7338963.92644  22312893.2894                   22312889.1414
        43.5004         29.2504
 25  7 15  1 34  0.0000000  0 10G01G02G03G09G28G31G06G04G26G16
   6673072.48847   5270571.04344  22597938.1724                   22597935.3204
        42.5004         28.5004
  11788304.74646   9253022.89143  24537158.0314                   24537156.6684
        38.7504         21.2504
  -9677877.95348  -7428853.71148  19880779.4144                   19880776.5784
        48.7504         51.5004
  18111664.00046  14378531.02745  23878779.7194                   23878778.4804
        38.5004         31.0004
  12752330.92647   9995354.03544  24139169.0394                   24139166.2194
        42.5004         26.0004
   6046993.38747   4790991.66047  21471708.1254                   21471703.2384
        46.5004         44.0004
  36961725.77346  28879434.77345  25152139.6954                   25152139.9024
        37.0004         30.2504
 -10787774.63347  -8308502.11345  21289621.9454                   21289618.5474
        45.7504         35.5004
 -10952375.09447  -8378978.35947  21378448.8754                   21378447.5004
        47.0004         44.5004
 -12489883.27747  -7612743.12144  22246033.4694                   22246028.7274
        43.2504         28.7504
 25  7 15  1 34 30.0000000  0 10G01G02G03G09G28G31G06G04G26G16
   6494239.71946   5131220.77344  22563907.5314                   22563905.3484
        41.5004         29.0004
  11613155.61746   9116542.78943  24503829.2344                   24503828.0784
        40.0004         22.7504
  -9950341.48047  -7641162.94148  19828931.4384                   19828928.2424
        47.7504         51.5004
  17773152.76646  14114756.13745  23814363.5314                   23814361.0234
        39.7504         31.7504
  12588977.33247   9868065.44944  24108083.8134                   24108080.4694
        42.7504         26.7504
   5866220.28147   4650129.46947  21437307.9454                   21437302.9614
        46.0004         43.2504
  36642606.45346  28630770.42245  25091413.9534                   25091413.8714
        37.0004         31.2504
 -11094108.59447  -8547203.87545  21231328.7114                   21231325.2304
        46.5004         35.7504
 -11227689.09447  -8593508.73047  21326058.2034                   21326056.4384
        45.0004         44.2504
 -12840922.95747  -7886280.45744  22179232.6094                   22179228.4964
        43.7504         29.5004
 25  7 15  1 35  0.0000000  0 10G01G02G03G09G28G31G06G04G26G16
   7891087.52746   6219673.53544  22829719.0634                   22829716.0944
        41.5004         29.0004
  13013373.69146  10207621.48043  24770282.1644                   24770281.4024
        38.5004         22.2504
  -8646824.91848  -6625435.75448  20076982.1484                   20076979.4694
        49.0004         51.5004
  19010094.39846  15078606.87545  24049744.3054                   24049744.0864
        38.5004         31.5004
  14001093.80947  10968415.89144  24376800.1724                   24376797.6604
        42.0004         25.7504
   7261162.59047   5737097.48047  21702756.9144                   21702751.9734
        47.0004         43.7504
  37899374.81346  29610070.48045  25330568.2734                   25330568.4304
        36.7504         31.2504
  -9824873.25047  -7558189.30145  21472855.9064                   21472852.5004
        46.0004         35.7504
  -9926959.34047  -7579953.07047  21573579.1094                   21573577.6334
        46.2504         44.5004
 -11616214.93447  -6931962.44145  22412286.6884                   22412282.4384
        42.7504         30.0004
 25  7 15  1 35 30.0000000  0 10G01G02G03G09G28G31G06G04G26G16
   7712760.87547   6080717.63744  22795784.8914                   22795781.8984
        43.0004         29.5004
  12838104.61346  10071047.90643  24736928.7664                   24736928.4344
        37.0004         21.0004
  -8918185.26648  -6836885.37148  20025343.9454                   20025341.2544
        48.5004         51.5004
  18671626.48446  14814865.75845  23985336.8594                   23985335.4024
        38.7504         32.2504
  13837827.55547  10841195.35244  24345731.7974                   24345729.2544
        42.7504         26.0004
   7080965.65647   5596684.27747  21668466.4144                   21668461.3204
        46.2504         43.7504
  37581171.32446  29362119.72345  25270016.7344                   25270016.9264
        36.5004         32.0004
 -10130928.75847  -7796674.09446  21414615.9924                   21414612.2344
        46.0004         36.5004
 -10201043.24647  -7793524.92247  21521422.6094                   21521420.8954
        46.0004         44.2504
 -11966619.45347  -7205004.86344  22345606.8674                   22345602.6524
        43.0004         29.2504
 25  7 15  1 36  0.0000000  0 10G01G02G03G09G28G31G06G04G26G16
   7534681.15646   5941954.16844  22761897.3674                   22761894.8324
        41.5004         29.0004
  12662770.34446   9934423.46543  24703564.7734                   24703563.5944
        36.0004         20.5004
  -9188993.77748  -7047904.99248  19973811.0004                   19973808.1454
        48.5004         51.5004
  18333178.89846  14551140.40245  23920932.1644                   23920930.7384
        39.0004         33.0004
  13674600.75447  10714005.55144  24314671.0164                   24314668.3524
        42.5004         25.7504
   6901051.48447   5456491.39547  21634229.8984                   21634225.1174
        47.0004         44.0004
  37263426.74646  29114526.57045  25209551.9384                   25209551.7854
        36.5004         32.0004
 -10436846.09847  -8035051.21946  21356401.5554                   21356398.0164
        46.5004         36.2504
 -10474512.28147  -8006617.66847  21469382.9304                   21469381.7194
        46.0004         44.5004
 -12316702.62547  -7477796.85944  22278988.2814                   22278984.3284
        44.2504         29.5004
 25  7 15  1 36 30.0000000  0 10G01G02G03G09G28G31G06G04G26G16
   7356845.57447   5803380.89844  22728056.9774                   22728053.7384
        43.5004         29.2504
  12487368.54746   9797746.41443  24670188.8134                   24670185.9614
        39.0004         21.7504
  -9459248.98048  -7258493.46548  19922383.1804                   19922380.4414
        48.5004         51.5004
  17994752.17246  14287431.35545  23856531.5554                   23856530.4804
        39.0004         33.2504
  13511411.99247  10586845.39144  24283617.2424                   24283614.9774
        42.0004         27.5004
   6721417.77747   5316517.05547  21600046.7034                   21600041.7424
        46.5004         43.7504
  36946143.00445  28867292.56645  25149173.3134                   25149174.7194
        35.7504         30.5004
 -10742624.67247  -8273320.19945  21298213.8524                   21298210.5554
        46.0004         35.7504
 -10747365.24247  -8219230.35247  21417461.2034                   21417459.5164
        46.5004         44.5004
 -12666460.83647  -7750335.64545  22212431.1954                   22212426.8874
        43.2504         30.0004
 25  7 15  1 37  0.0000000  0 10G01G02G03G09G28G31G06G04G26G16
   7179251.31646   5664995.69544  22694261.5004                   22694258.4024
        40.7504         29.0004
  12311897.22646   9661015.24343  24636796.8284                   24636795.8524
        38.5004         21.5004
  -9728949.42248  -7468649.66048  19871060.9774                   19871058.1884
        48.7504         51.5004
  17656346.73846  14023738.91045  23792134.3984                   23792133.8794
        37.2504         31.7504
  13348259.78147  10459713.73444  24252570.6644                   24252568.0354
        42.0004         26.7504
   6542062.29347   5176759.51247  21565916.6644                   21565911.5824
        45.5004         43.5004
  36629322.25046  28620419.33245  25088885.1804                   25088885.8204
        36.7504         31.2504
 -11048263.82447  -8511480.54745  21240052.5234                   21240048.8674
        46.5004         35.5004
 -11019601.03547  -8431362.12547  21365656.0474                   21365654.1994
        46.5004         44.5004
 -13015890.50047  -8022618.44144  22145937.2274                   22145932.6484
        44.0004         29.5004
 25  7 15  1 37 30.0000000  0 10G01G02G03G09G28G31G06G04G26G16
   7001896.87147   5526797.35544  22660512.1174                   22660509.7344
        42.0004         29.5004
  12136355.46544   9524229.20342  24603388.8444                   24603390.8914
        29.5004         17.7504
  -9998092.40248  -7678371.46148  19819844.9064                   19819842.0394
        48.5004         51.5004
  17317964.28946  13760064.39145  23727742.5784                   23727741.9224
        38.5004         33.0004
  13185144.00846  10332610.44544  24221530.0554                   24221528.4304
        41.5004         25.5004
   6362983.98847   5037217.95347  21531838.8364                   21531834.4224
        46.7504         44.0004
  36312967.58645  28373909.27044  25028684.9224                   25028685.5944
        35.0004         28.5004
 -11353761.69547  -8749530.81246  21181918.0474                   21181914.4964
        46.7504         36.5004
 -11291217.21147  -8643011.08247  21313969.2814                   21313967.6644
        46.0004         44.5004
 -13364986.38347  -8294641.12545  22079506.1334                   22079501.7734
        43.7504         30.0004
 25  7 15  1 38  0.0000000  0 10G01G02G03G09G28G31G06G04G26G16
   8400204.75847   6616387.82044  22926601.1564                   22926598.3834
        42.7504         29.7504
  13536166.23455  10614990.46153  24869767.7504                   24869766.6054
        35.0004         20.0004
  -8691248.22748  -6660051.32448  20068528.9534                   20068526.2854
        48.5004         51.5004
  18555036.11346  14724016.51245  23963149.8594                   23963148.9694
        38.0004         33.2504
  14597487.96546  11433138.13344  24490290.7894                   24490288.3244
        41.5004         25.5004
   7759605.73047   6125494.60247  21797607.3984                   21797602.6844
        45.7504         44.0004
  37572510.86345  29355371.59844  25268368.2894                   25268368.1684
        35.7504         29.2504
 -10083688.10547  -7759863.05146  21423605.4924                   21423601.7544
        46.7504         36.0004
  -9986784.35547  -7626569.88347  21562194.8364                   21562193.1094
        46.0004         44.5004
 -12138313.55547  -7338792.11744  22312934.3754                   22312929.6564
        43.5004         29.7504
 25  7 15  1 38 30.0000000  0 10G01G02G03G09G28G31G06G04G26G16
   8223320.59446   6478555.94145  22892941.6094                   22892938.9964
        41.5004         30.0004
  13360475.70346  10478088.43043  24836335.0164                   24836334.0904
        37.5004         21.5004
  -8959273.23848  -6868901.98848  20017525.4144                   20017522.4694
        48.5004         51.5004
  18216700.22746  14460378.27745  23898766.6024                   23898765.2704
        38.0004         34.0004
  14434439.66446  11306087.40644  24459264.0164                   24459261.4454
        39.2504         25.5004
   7581073.89147   5986378.87547  21763633.9694                   21763628.7704
        46.2504         44.0004
  37257093.23046  29109591.65644  25208346.3204                   25208346.5514
        36.7504         29.7504
 -10388902.47347  -7997692.39546  21365524.7114                   21365521.0904
        47.2504         36.0004
 -10257159.21547  -7837251.57047  21510743.8364                   21510742.2814
        45.5004         44.5004
 -12486731.32447  -7610286.41444  22246632.6724                   22246628.6054
        44.0004         29.7504
 25  7 15  1 39  0.0000000  0 10G01G02G03G09G28G31G06G04G26G16
   8046667.14846   6340903.81644  22859325.6484                   22859322.6644
        41.7504         29.7504
  13184707.35245  10341125.78543  24802887.3054                   24802886.9024
        35.0004         19.2504
  -9226737.35548  -7077315.58648  19966628.5164                   19966625.7584
        48.0004         51.5004
  17878388.19946  14196758.59845  23834387.8594                   23834386.9534
        38.2504         34.0004
  14271422.82446  11179061.19543  24428243.3674                   24428240.8324
        39.0004         23.2504
   7402811.84047   5847473.34847  21729711.8204                   21729706.3164
        46.7504         44.0004
  36942146.69546  28864178.80545  25148414.2034                   25148413.6024
        37.5004         31.0004
 -10693974.30147  -8235410.68046  21307471.7274                   21307468.2814
        47.5004         36.2504
 -10526912.00447  -8047448.53947  21459411.9064                   21459409.9264
        46.0004         44.5004
 -12834804.79347  -7881512.44144  22180396.5234                   22180391.6374
        43.0004         29.7504
 25  7 15  1 39 30.0000000  0 10G01G02G03G09G28G31G06G04G26G16
   7870241.69147   6203429.35544  22825753.5554                   22825750.1914
        42.5004         29.0004
  13008859.11745  10204100.84043  24769424.7894                   24769424.4964
        34.0004         19.7504
  -9493639.27347  -7285291.10948  19915838.9144                   19915835.9804
        47.7504         51.5004
  17540100.48446  13933157.82445  23770013.7894                   23770013.0704
        37.5004         34.0004
  14108435.92546  11052058.31743  24397227.1254                   24397224.6954
        38.7504         22.5004
   7224817.25847   5708776.25847  21695840.5314                   21695835.8244
        45.7504         44.2504
  36627673.24246  28619134.60244  25088570.7194                   25088572.2424
        36.2504         29.5004
 -10998902.99247  -8473017.43045  21249445.2504                   21249441.8054
        47.0004         35.7504
 -10796041.78147  -8257160.03947  21408198.0394                   21408196.6564
        46.5004         44.5004
 -13182530.39147  -8152467.38345  22114226.1724                   22114221.6294
        44.0004         30.0004
 25  7 15  1 40  0.0000000  0 10G01G02G03G09G28G31G06G04G26G16
   7694039.46547   6066128.86744  22792221.9304                   22792219.5594
        43.0004         29.5004
  12832926.76245  10067010.40243  24735946.5394                   24735945.6644
        35.5004         18.5004
  -9759979.55148  -7492828.98848  19865156.1254                   19865153.0554
        48.5004         51.2504
  17201835.62546  13669574.94945  23705643.2894                   23705643.5204
        38.2504         34.0004
  13945475.86746  10925076.37143  24366217.7344                   24366214.9774
        40.0004         22.7504
   7047086.11747   5570284.42647  21662019.7504                   21662014.8834
        46.7504         44.0004
  36313672.83645  28374458.98444  25028818.9454                   25028818.9774
        35.7504         28.7504
 -11303689.68747  -8710513.52745  21191446.6954                   21191443.0704
        47.0004         35.7504
 -11064549.45347  -8466386.77747  21357102.8524                   21357101.0204
        46.7504         44.5004
 -13529905.82847  -8423149.46545  22048123.1414                   22048118.6844
        44.5004         30.7504
 25  7 15  1 40 30.0000000  0 10G01G02G03G09G28G31G06G04G26G16
   7518059.42247   5929001.47744  22758734.7664                   22758732.8134
        42.2504         29.7504
  12656909.94946   9929854.13343  24702451.4304                   24702451.5704
        37.0004         19.0004
 -10025755.21547  -7699926.91848  19814580.8674                   19814577.7504
        47.0004         51.2504
  16863596.00846  13406011.63345  23641279.9304                   23641278.5004
        39.0004         34.7504
  13782542.77346  10798115.43843  24335211.6644                   24335209.8594
        37.0004         22.5004
   6869617.60247   5431997.25047  21628248.4384                   21628243.6954
        46.2504         44.5004
  36000149.03946  28130154.73844  24969157.5164                   24969157.3204
        36.0004         28.0004
 -11608332.09847  -8947897.20746  21133475.3594                   21133471.5664
        47.0004         36.0004
 -11332432.35247  -8675126.68047  21306126.9304                   21306124.6334
        45.0004         44.5004
 -13876925.96547  -8693554.70745  21982087.5164                   21982082.8714
        44.2504         30.2504
 25  7 15  1 41  0.0000000  0 10G01G02G03G09G28G31G06G04G26G16
   8917723.31346   7019648.59444  23025082.0704                   23025079.2074
        40.7504         28.5004
  14056231.14146  11020234.00843  24968734.1644                   24968733.1914
        36.0004         19.0004
  -8715537.41447  -6678977.97748  20063906.8754                   20063904.0004
        47.7504         51.2504
  18100811.94946  14370076.14145  23876713.4534                   23876712.7154
        37.0004         33.2504
  15195059.67245  11898777.80943  24604004.0164                   24604003.1414
        35.0004         20.7504
   8267834.30947   6521516.73047  21894320.3524                   21894315.3714
        45.7504         44.0004
  37262532.84045  29113830.44544  25209381.9454                   25209381.0984
        35.0004         29.7504
 -10337400.57047  -7957560.94146  21375325.3594                   21375321.7424
        46.2504         36.2504
 -10024261.87547  -7655773.05147  21555062.9614                   21555061.6334
        46.2504         44.7504
 -12648156.66047  -7736072.06645  22215914.1954                   22215909.9494
        45.2504         31.0004
 25  7 15  1 41 30.0000000  0 10G01G02G03G09G28G31G06G04G26G16
   8742176.42646   6882858.74244  22991676.4774                   22991673.8164
        41.2504         28.5004
  13880035.94946  10882938.71943  24935203.9924                   24935205.0164
        36.0004         20.2504
  -8980182.77747  -6885195.15248  20013546.5944                   20013543.7974
        46.7504         51.5004
  17762621.33646  14106551.02345  23812358.4384                   23812356.3954
        39.0004         33.7504
  15032173.85246  11771853.69943  24573009.0704                   24573006.7504
        37.7504         21.5004
   8090882.09447   6383631.86747  21860647.3054                   21860642.9304
        45.5004         44.0004
  36949964.88745  28870271.07844  25149900.6094                   25149901.6684
        33.0004         26.0004
 -10641755.02047  -8194720.22346  21317408.1094                   21317404.9844
        47.0004         36.7504
 -10290895.30147  -7863539.34047  21504324.7814                   21504322.8094
        44.7504         44.7504
 -12994457.77347  -8005917.01645  22150015.3594                   22150010.3984
        44.2504         30.5004
 25  7 15  1 42  0.0000000  0 10G01G02G03G09G28G31G06G04G26G16
   8566840.69946   6746233.39844  22958311.4924                   22958309.0904
        41.2504         28.5004
  13703747.44946  10745570.69143  24901659.0314                   24901658.4774
        36.7504         19.0004
  -9244262.37548  -7090971.45748  19963293.6334                   19963291.1644
        48.5004         51.2504
  17424454.81646  13843044.69145  23748006.0394                   23748004.7234
        38.0004         32.2504
  14869308.44946  11644945.51243  24542016.7894                   24542014.8364
        36.5004         21.5004
   7914183.43847   6245944.55947  21827023.0864                   21827017.6524
        45.2504         43.2504
  36637876.39845  28627085.32044  25090513.0314                   25090512.9844
        34.0004         28.0004
 -10945965.68447  -8431767.48045  21259519.1564                   21259515.5004
        47.2504         35.7504
 -10556903.86347  -8070818.73047  21453704.4454                   21453703.0124
        46.0004         44.7504
 -13340394.84447  -8275478.30545  22084185.3204                   22084181.1094
        44.0004         31.7504
 25  7 15  1 42 30.0000000  0 10G01G02G03G09G28G31G06G04G26G16
   8391715.99646   6609772.55144  22924986.2504                   22924984.0234
        41.5004         28.2504
  13527366.26646  10608130.56643  24868095.4844                   24868095.2854
        39.7504         19.5004
  -9507772.28947  -7296303.85548  19913149.4454                   19913146.9654
        47.5004         51.2504
  17086315.60546  13579559.64845  23683661.7034                   23683659.7194
        39.5004         35.2504
  14706464.70746  11518054.16443  24511028.1334                   24511027.3484
        37.5004         22.0004
   7737738.81347   6108455.23047  21793446.0784                   21793441.6884
        45.7504         43.5004
  36326271.82845  28384276.58644  25031216.9064                   25031216.9064
        34.7504         27.7504
 -11250029.20747  -8668700.07446  21201657.9454                   21201654.0944
        46.7504         36.2504
 -10822284.13747  -8277608.53147  21403204.2974                   21403202.6414
        45.5004         44.7504
 -13685961.59447  -8544751.02045  22018426.2344                   22018421.5864
        44.5004         31.0004
 25  7 15  1 43  0.0000000  0 10G01G02G03G09G28G31G06G04G26G16
   8216797.93447   6473472.66044  22891701.1334                   22891698.2974
        42.0004         28.5004
  13350888.15645  10470614.91043  24834511.1644                   24834513.1914
        35.7504         18.5004
  -9770712.89148  -7501192.63348  19863113.4614                   19863110.9844
        48.7504         51.2504
  16748202.56346  13316095.05145  23619319.6334                   23619319.4964
        39.5004         35.0004
  14543639.80146  11391177.50443  24480045.0554                   24480042.2584
        38.0004         22.0004
   7561544.44947   5971160.87547  21759917.9064                   21759912.9964
        46.2504         44.0004
  36015151.31645  28141845.07043  24972012.0704                   24972012.0474
        33.0004         23.7504
 -11553946.44947  -8905518.69546  21143824.1334                   21143820.3754
        47.0004         36.0004
 -11087036.82847  -8483909.31247  21352823.2504                   21352821.6684
        46.5004         44.7504
 -14031155.83247  -8813733.48045  21952738.0704                   21952733.4384
        45.0004         31.0004
 25  7 15  1 43 30.0000000  0 10G01G02G03G09G28G31G06G04G26G16
   8042084.46946   6337332.24244  22858453.9844                   22858451.1334
        40.7504         27.0004
  13174312.31646  10333022.96943  24800912.1024                   24800911.6564
        38.7504         18.2504
 -10033082.30947  -7705636.33648  19813186.1254                   19813183.6254
        46.7504         51.2504
  16410117.18046  13052651.94945  23554984.6024                   23554984.3714
        40.7504         35.7504
  14380833.07846  11264315.00443  24449063.7114                   24449061.1954
        38.2504         19.7504
   7385598.72747   5834060.29347  21726436.3754                   21726431.2704
        45.5004         43.0004
  35704517.41045  27899792.70744  24912901.5864                   24912900.7274
        35.0004         26.5004
 -11857716.00047  -9142222.21546  21086019.0004                   21086015.2504
        47.0004         36.5004
 -11351160.42647  -8689719.88747  21302562.3834                   21302560.9024
        44.5004         44.7504
 -14375973.19947  -9082422.27045  21887121.3594                   21887116.7504
        45.2504         31.7504
 25  7 15  1 44  0.0000000  0 10G01G02G03G09G28G31G06G04G26G16
   9442996.22746   7428951.71544  23125038.1884                   23125035.8754
        40.5004         28.2504
  14573059.71946  11422955.82443  25067084.5784                   25067084.1334
        39.7504         19.0004
  -8719453.06247  -6682029.12948  20063161.9454                   20063159.1024
        47.5004         51.0004
  17647488.73546  14016837.67545  23790448.7194                   23790447.7624
        40.5004         35.0004
  15793466.25846  12365068.07443  24717878.8754                   24717876.8714
        40.0004         21.5004
   8785323.25847   6924754.68847  21992795.1644                   21992790.4304
        45.5004         43.0004
  36969799.87946  28885727.14845  25153676.3284                   25153676.4144
        36.5004         30.2504
 -10585909.37947  -8151204.05546  21328035.7974                   21328031.8674
        47.0004         37.0004
 -10039227.82447  -7667434.73047  21552215.1024                   21552213.2734
        44.7504         44.7504
 -13144980.82047  -8123207.36745  22121371.2894                   22121366.7544
        44.7504         31.5004
 25  7 15  1 44 30.0000000  0 10G01G02G03G09G28G31G06G04G26G16
   9268681.43846   7293121.94944  23091867.0004                   23091864.6564
        40.2504         28.2504
  14396279.17646  11285204.47743  25033444.0554                   25033444.2624
        39.0004         21.0004
  -8980678.75447  -6885581.60948  20013452.0084                   20013449.2704
        47.0004         51.2504
  17309457.98046  13753437.14545  23726123.4844                   23726121.9924
        40.7504         35.2504
  15630689.93846  12238229.28143  24686903.5394                   24686901.4454
        39.5004         22.5004
   8609866.60947   6788035.19147  21959406.9844                   21959401.6524
        45.7504         42.5004
  36660142.27045  28644435.54344  25094750.5864                   25094750.2774
        34.2504         26.5004
 -10889383.41447  -8387677.32046  21270286.0784                   21270282.5234
        47.5004         36.5004
 -10302093.17647  -7872264.85547  21502192.7814                   21502191.5704
        47.0004         44.5004
 -13489035.22747  -8391301.65245  22055899.4064                   22055894.8634
        45.5004         31.2504
 25  7 15  1 45  0.0000000  0 10G01G02G03G09G28G31G06G04G26G16
   9094560.84446   7157443.49244  23058734.0944                   23058731.1054
        40.7504         28.5004
  14219392.45746  11147370.30543  24999784.6804                   24999784.2974
        36.0004         19.5004
  -9241331.78947  -7088687.86748  19963851.3834                   19963848.5474
        47.0004         51.2504
  16971454.41846  13490057.83245  23661803.1024                   23661802.2854
        41.0004         35.5004
  15467925.98846  12111400.16443  24655930.2894                   24655927.7194
        40.5004         19.5004
   8434649.96147   6651502.69147  21926064.2194                   21926059.6134
        45.5004         42.7504
  36350974.36745  28403525.54343  25035916.1804                   25035916.9104
        32.5004         22.2504
 -11192709.53547  -8624035.31246  21212564.9844                   21212561.6524
        47.0004         36.2504
 -10564329.25447  -8076604.64547  21452291.1484                   21452289.7424
        46.0004         44.5004
 -13832703.84447  -8659095.30945  21990501.8134                   21990497.0474
        45.0004         32.0004
 25  7 15  1 45 30.0000000  0 10G01G02G03G09G28G31G06G04G26G16
   8920632.30146   7021914.67644  23025636.6094                   23025633.8914
        40.5004         27.5004
  14042398.10546  11009452.32443  24966104.3914                   24966103.8594
        36.5004         19.0004
  -9501410.52347  -7291346.62148  19914360.2114                   19914357.4844
        47.7504         51.0004
  16633479.33646  13226700.68845  23597488.7344                   23597487.7814
        40.0004         35.2504
  15305173.67647  11984580.11343  24624960.8524                   24624957.7544
        42.0004         22.0004
   8259671.97747   6515156.17647  21892767.1724                   21892762.0234
        45.7504         42.0004
  36042298.48855  28162998.88753  24977177.2504                   24977177.3324
        34.0004         22.5004
 -11495886.38747  -8860277.01246  21154872.7344                   21154868.9384
        47.2504         36.2504
 -10825934.74247  -8280453.07047  21402509.2814                   21402507.4384
        47.0004         44.7504
 -14175981.99647  -8926584.71545  21925178.0554                   21925174.0634
        45.2504         32.0004
 25  7 15  1 46  0.0000000  0 10G01G02G03G09G28G31G06G04G26G16
   8746894.62946   6886534.60544  22992575.1024                   22992572.4694
        41.5004         27.0004
  13865295.55146  10871450.08643  24932402.3594                   24932402.6994
        38.0004         18.2504
  -9760912.23048  -7493555.73848  19864978.9304                   19864975.7624
        49.5004         51.0004
  16295534.91447  12963367.44546  23533180.9454                   23533178.6334
        42.0004         37.2504
  15142433.41446  11857769.48843  24593991.6174                   24593988.6334
        41.2504         21.7504
   8084932.36347   6378995.39847  21859515.3204                   21859510.8284
        46.2504         42.5004
  35734118.00046  27922858.27344  24918533.6414                   24918533.7074
        37.2504         29.5004
 -11798911.57447  -9096400.51246  21097208.6564                   21097205.2154
        47.0004         36.5004
 -11086907.41847  -8483808.37947  21352848.2974                   21352846.2734
        47.0004         44.7504
 -14518864.45747  -9193765.79745  21859929.3674                   21859925.3444
        45.0004         31.7504
 25  7 15  1 46 30.0000000  0 10G01G02G03G09G28G31G06G04G26G16
   8573341.62147   6751298.39544  22959549.3834                   22959547.2894
        42.0004         27.5004
  13688079.20746  10733359.13343  24898680.2034                   24898680.1054
        40.0004         19.5004
 -10019839.21548  -7695317.02348  19815706.4224                   19815703.5314
        49.2504         51.2504
  15957618.28146  12700055.88746  23468876.8134                   23468876.4804
        41.5004         37.0004
  14979700.53546  11730964.54743  24563024.1174                   24563022.4064
        40.0004         20.5004
   7910425.14847   6243015.71146  21826307.8984                   21826302.9064
        46.5004         41.7504
  35426431.15246  27683102.32444  24859983.0944                   24859982.8444
        37.0004         29.0004
 -12101787.77047  -9332407.93046  21039573.3054                   21039569.6724
        46.5004         36.5004
 -11347250.05547  -8686672.76647  21303306.6724                   21303304.8594
        46.0004         44.7504
 -14861350.97347  -9460638.34045  21794756.5004                   21794752.1094
        45.7504         31.5004
 25  7 15  1 47  0.0000000  0 11G01G02G03G09G28G31G06G04G07G26G16
   9975398.55546   7843810.25444  23226352.0864                   23226349.2584
        41.7504         28.0004
  15086175.48446  11822784.58243  25164728.5554                   25164728.7504
        37.7504         21.0004
  -8702759.63348  -6669021.24648  20066338.5234                   20066335.7504
        48.0004         51.0004
  17195163.61747  13664377.01646  23704373.7664                   23704371.9184
        42.0004         36.7504
  16392401.52046  12831770.43843  24831852.7034                   24831850.1564
        41.0004         20.2504
   9311576.67647   7334822.06347  22092938.1254                   22092933.2344
        45.7504         42.0004
  36694671.88745  28671341.91843  25101320.5864                   25101320.3444
        34.0004         23.7504
 -10829081.80547  -8340688.98846  21281761.2734                   21281757.6334
        47.0004         36.2504
  49997688.14856  39033761.68054  25372382.6884                   25372385.2304
        37.5004         29.5004
 -10031531.12947  -7661437.22747  21553679.3134                   21553677.7384
        47.0004         44.5004
 -13628004.36347  -8499588.96945  22029454.6024                   22029450.1954
        45.2504         31.7504
 25  7 15  1 47 30.0000000  0 11G01G02G03G09G28G31G06G04G07G26G16
   9802206.53947   7708855.34844  23193394.3594                   23193391.7854
        42.5004         27.5004
  14908725.98046  11684511.91443  25130961.6334                   25130962.2074
        38.5004         19.2504
  -8960534.20747  -6869884.55148  20017285.3984                   20017282.7344
        47.2504         51.0004
  16857304.42247  13401110.18446  23640081.2504                   23640079.9774
        42.0004         36.7504
  16229679.68046  12704974.17243  24800888.1484                   24800885.4884
        41.0004         19.2504
   9137528.67647   7199200.19546  22059817.9614                   22059812.8874
        45.0004         41.7504
  36387976.96945  28432358.88344  25042958.6414                   25042957.7894
        35.2504         26.2504
 -11131657.64147  -8576462.35946  21224182.8444                   21224179.2774
        47.5004         36.5004
  49651405.39145  38763931.33644  25306487.0704                   25306489.7464
        34.5004         27.5004
 -10290611.94547  -7863318.37547  21504377.8674                   21504376.1024
        45.0004         44.7504
 -13969688.20747  -8765836.07045  21964434.4454                   21964429.5744
        45.5004         32.2504
 25  7 15  1 48  0.0000000  0 11G01G02G03G09G28G31G06G04G07G26G16
   9629182.55946   7574031.37544  23160469.1804                   23160466.3404
        40.7504         27.2504
  14731148.457 5                  25097168.492
        33.000
  -9217739.31647  -7070304.12548  19968340.9534                   19968338.0434
        47.0004         51.0004
  16519466.62147  13137860.06646  23575793.3444                   23575791.3674
        43.0004         36.2504
  16066953.32046  12578174.30943  24769921.6174                   24769919.7734
        40.5004         20.0004
   8963698.31347   7063747.93047  22026738.9064                   22026734.3164
        46.2504         42.2504
  36081772.24646  28193757.79744  24984688.9064                   24984689.4734
        36.0004         26.2504
 -11434090.39847  -8812124.23446  21166631.9384                   21166628.0704
        46.7504         36.0004
  49305269.13746  38494215.14844  25240619.6334                   25240622.1604
        37.2504         29.0004
 -10549069.28147  -8064713.69547  21455195.1484                   21455193.6724
        44.5004         45.0004
 -14310973.53547  -9031772.62945  21899489.5864                   21899485.2194
        44.7504         31.7504
 25  7 15  1 48 30.0000000  0 11G01G02G03G09G28G31G06G04G07G26G16
   9456322.49246   7439335.15644  23127575.0004                   23127572.5124
        40.5004         26.7504
  14553439.414 6                  25063352.945
        38.250
  -9474375.35548  -7270280.26248  19919504.8674                   19919502.1174
        48.2504         51.0004
  16181649.45746  12874625.97746  23511507.7814                   23511506.6454
        39.7504         36.0004
  15904219.86346  12451368.95343  24738955.0864                   24738952.3714
        41.2504         21.2504
   8790082.35247   6928462.71546  21993701.1564                   21993696.2504
        45.5004         41.7504
  35776057.95746  27955538.96144  24926513.9614                   24926514.3244
        36.5004         27.0004
 -11736380.64547  -9047675.07046  21109108.3054                   21109104.2154
        47.0004         36.5004
  48959279.03546  38224612.87944  25174779.1484                   25174781.3444
        36.2504         24.0004
 -10806903.96147  -8265623.82847  21406130.9924                   21406129.2464
        47.2504         44.7504
 -14651857.96147  -9297396.79345  21834621.6414                   21834616.7154
        44.7504         32.0004
 25  7 15  1 49  0.0000000  0 11G01G02G03G09G28G31G06G04G07G26G16
   9283626.13746   7304766.48444  23094711.7194                   23094709.6994
        41.2504         26.0004
  14375599.41046  11496187.83254  25029512.0474                   25029511.9614
        41.0004         25.0004
  -9730438.81248  -7469810.23448  19870777.3754                   19870774.6604
        49.2504         51.0004
  15843856.10547  12611410.44946  23447227.9384                   23447226.2974
        42.0004         36.0004
  15741480.57046  12324559.11743  24707987.7424                   24707984.2424
        40.7504         20.0004
   8616681.22747   6793344.91846  21960703.6804                   21960698.6214
        46.2504         41.5004
  35470838.14846  27717705.30944  24868433.1954                   24868432.6174
        36.7504         27.0004
 -12038525.05947  -9283112.27346  21051611.7274                   21051607.5314
        46.5004         36.7504
  48613438.92245  37955127.45743  25108967.9384                   25108968.5394
        35.5004         21.5004
 -11064112.97747  -8466046.43747  21357185.5474                   21357183.9104
        47.0004         44.5004
 -14992335.60247  -9562703.97745  21769831.1334                   21769826.2504
        45.7504         31.5004
 25  7 15  1 49 30.0000000  0 11G01G02G03G09G28G31G06G04G07G26G16
   9111091.91047   7170324.14544  23061880.0234                   23061877.5784
        42.2504         27.2504
  14197627.67646  11357508.24243  24995645.1564                   24995645.6024
        37.5004         19.5004
  -9985927.52748  -7668892.35548  19822159.5234                   19822156.7974
        48.5004         51.0004
  15506088.39847  12348214.90646  23382953.2974                   23382951.8164
        42.5004         36.5004
  15578735.62946  12197744.83643  24677017.0784                   24677014.9494
        39.0004         20.7504
   8443494.31647   6658394.02747  21927748.1414                   21927743.0554
        46.0004         42.2504
  35166115.61746  27480259.20344  24810445.8364                   24810445.6024
        37.2504         27.0004
 -12340521.53547  -9518434.18746  20994143.8984                   20994140.0984
        46.5004         37.0004
  48267751.18846  37685760.68844  25043185.8134                   25043187.5634
        39.0004         28.5004
 -11320694.66847  -8665980.21147  21308359.7274                   21308358.1174
        45.7504         44.5004
 -15332401.15247  -9827690.07445  21705118.5314                   21705113.9844
        45.5004         32.2504
 25  7 15  1 50  0.0000000  0 11G01G02G03G09G28G31G06G04G07G26G16
  10514143.76246   8263611.19944  23328871.9064                   23328869.5704
        40.2504         26.2504
                                  25261545.0704                   25261547.8094
        29.2504         14.7504
  -8665411.15247  -6639918.57048  20073445.7114                   20073442.5824
        47.5004         51.0004
  16743779.21547  13312649.40246  23618478.3204                   23618476.5044
        42.2504         36.5004
  16991410.19946  13298530.12143  24945841.1564                   24945838.5354
        39.7504         21.7504
   9845945.97747   7751213.46946  22194625.1484                   22194620.2704
        45.5004         41.0004
  36437322.87145  28470810.35544  25052347.8834                   25052348.8014
        34.5004         28.0004
 -11066938.30147  -8526031.66046  21236498.5474                   21236494.8834
        47.0004         37.0004
  49497649.72745  38644123.46943  25277228.2974                   25277228.8554
        34.5004         23.2504
 -10001219.05947  -7637817.40647  21559447.5554                   21559445.8714
        44.5004         44.5004
 -14096618.64147  -8864742.61345  21940280.0084                   21940275.4494
        45.7504         31.7504
 25  7 15  1 50 30.0000000  0 10G01G02G03G09G28G31G06G04G26G16
  10341928.51646   8129417.43844  23296100.4774                   23296097.8594
        41.5004         27.5004
  15416712.52356  12307443.82853  25227628.8524                   25227630.5744
        37.5004         19.0004
  -8919744.68448  -6838100.54748  20025047.5704                   20025044.3674
        48.2504         51.0004
  16406067.77747  13049497.68845  23554212.8364                   23554211.1374
        42.0004         35.5004
  16828653.29346  13171706.49243  24914869.6094                   24914867.1094
        39.5004         21.0004
   9673183.64147   7616593.41847  22161750.3284                   22161745.1174
        46.0004         42.0004
  36133602.40746  28234145.06544  24994552.4614                   24994552.0004
        38.0004         27.5004
 -11368633.54747  -8761118.85946  21179088.2114                   21179084.2894
        47.0004         36.5004
 -10256541.77347  -7836770.16447  21510861.5704                   21510859.6134
        46.0004         44.5004
 -14435846.08247  -9129075.62145  21875727.5704                   21875722.6484
        46.2504         32.7504
 25  7 15  1 51  0.0000000  0 11G01G02G03G09G28G31G06G04G07G26G16
  10169869.70346   7995345.52744  23263358.8204                   23263356.9574
        41.0004         26.2504
  15238340.13745  12168452.20342  25193686.0554                   25193687.2814
        35.5004         15.5004
  -9173498.27348  -7035830.62148  19976759.8204                   19976756.5084
        49.2504         51.0004
  16068386.51247  12786369.50045  23489954.5944                   23489954.1564
        42.2504         35.5004
  16665889.77346  13044877.67643  24883896.2814                   24883893.7624
        37.5004         21.5004
   9500631.74647   7482137.35946  22128914.3834                   22128908.9184
        46.2504         41.7504
  35830386.23446  27997872.75444  24936852.8524                   24936852.2304
        38.0004         28.7504
 -11670175.87547  -8996086.90246  21121706.6024                   21121702.8444
        46.7504         36.7504
  51698851.77056  38391204.21954  25145810.4924                   25145813.3094
        36.5004         29.7504
 -10511233.30547  -8035231.09447  21462395.2734                   21462393.7234
        47.5004         44.7504
 -14774648.41847  -9393077.39145  21811255.1564                   21811250.2894
        45.7504         32.5004
 25  7 15  1 51 30.0000000  0 11G01G02G03G09G28G31G06G04G07G26G16
   9997966.14846   7861394.62944  23230647.0084                   23230644.5234
        41.2504         27.2504
  15059832.47746  12029355.25842  25159718.2664                   25159719.5164
        37.5004         16.2504
  -9426669.32448  -7233106.77348  19928582.9144                   19928579.9344
        49.0004         51.0004
  15730737.81346  12523266.66845  23425701.8054                   23425700.3324
        41.2504         35.0004
  16503120.20746  12918044.16043  24852922.5864                   24852920.1724
        37.7504         19.7504
   9328290.00847   7347845.05147  22096118.7974                   22096114.1684
        45.7504         42.2504
  35527677.66046  27761995.93844  24879248.8054                   24879248.5314
        39.0004         27.2504
 -11971562.71147  -9230933.78546  21064354.4534                   21064350.9224
        46.7504         36.5004
  51353795.91046  38122329.90245  25080149.3134                   25080151.0864
        38.2504         31.5004
 -10765291.69147  -8233198.65647  21414049.1884                   21414047.4104
        47.2504         44.7504
 -15113020.16047  -9656743.62945  21746865.3914                   21746860.8364
        46.0004         32.0004
 25  7 15  1 52  0.0000000  0 10G01G03G09G28G31G06G04G07G26G16
   9826214.16446   7727561.83644  23197963.5634                   23197961.7274
        40.5004         28.0004
  -9679258.10948  -7429929.21548  19880516.8594                   19880514.0084
        49.0004         51.0004
  15393121.22347  12260188.87945  23361455.9924                   23361455.0984
        42.5004         35.7504
  16340342.34046  12791204.20343  24821945.9844                   24821944.6524
        37.5004         22.2504
   9156154.75047   7213713.64146  22063362.4534                   22063357.4304
        44.7504         41.2504
  35225476.96546  27526514.90244  24821741.3834                   24821741.8914
        37.2504         27.7504
 -12272794.28547  -9465659.67246  21007031.9384                   21007027.9844
        47.0004         37.0004
  51008901.57446  37853581.39144  25014517.7034                   25014518.8204
        38.2504         26.7504
 -11018717.62147  -8430673.40247  21365823.9454                   21365822.0274
        47.7504         44.5004
 -15450958.77747  -9920072.37945  21682557.3834                   21682553.1994
        45.5004         32.5004
 25  7 15  1 52 30.0000000  0 10G01G03G09G28G31G06G04G07G26G16
   9654608.46546   7593843.01644  23165308.7814                   23165305.5514
        41.0004         27.7504
  -9931266.22348  -7626299.17648  19832561.2034                   19832558.5634
        49.0004         51.0004
  15055535.09046  11997134.77345  23297215.0164                   23297213.3324
        41.5004         35.0004
  16177552.73446  12664355.14143  24790969.6094                   24790966.7624
        41.2504         22.5004
   8984222.00447   7079740.04347  22030645.1484                   22030640.2504
        46.5004         42.0004
  34923783.18046  27291428.86744  24764331.9224                   24764331.6374
        39.0004         29.5004
 -12573872.14547  -9700265.78946  20949738.5394                   20949735.1334
        46.7504         37.0004
  50664167.71145  37584957.87543  24948915.9614                   24948916.9494
        32.0004         22.5004
 -11271513.21547  -8627656.98047  21317718.6254                   21317717.0904
        46.5004         44.7504
 -15788463.13347 -10183062.72745  21618332.6954                   21618327.6334
        46.2504         32.7504
 25  7 15  1 53  0.0000000  0 10G01G03G09G28G31G06G04G07G26G16
  11058576.93446   8687844.32444  23432474.4224                   23432472.2624
        41.2504         27.0004
  -8607259.69948  -6594605.78948  20084511.2664                   20084508.5594
        48.7504         51.0004
  16293416.15647  12961717.49645  23532777.0394                   23532774.8244
        42.0004         35.5004
  17590180.49246  13765103.99643  25059783.2734                   25059780.6564
        37.7504         20.2504
  10387920.05147   8173530.67246  22297759.9144                   22297755.1564
        45.2504         41.5004
  36198032.55146  28284350.48044  25006813.1254                   25006812.5394
        38.7504         29.2504
 -11299360.57447  -8707139.87946  21192270.1414                   21192266.5234
        47.2504         36.7504
  51895031.93045  38544073.32843  25183141.0864                   25183142.8244
        30.2504         20.5004
  -9948244.98447  -7596538.86747  21569528.1884                   21569526.3754
        47.0004         44.5004
 -14550093.41047  -9218099.25045  21853986.5704                   21853981.5704
        46.2504         32.5004
 25  7 15  1 53 30.0000000  0 10G01G03G09G28G31G06G04G07G26G16
  10887272.24247   8554360.09444  23399876.2584                   23399874.2544
        42.2504         29.0004
  -8858087.58648  -6790056.09448  20036780.2114                   20036777.8674
        49.0004         51.0004
  15955909.45346  12698725.29745  23468551.0634                   23468549.1564
        40.0004         35.2504
  17427380.54745  13638246.82043  25028802.7344                   25028801.4104
        35.0004         18.5004
  10216402.30547   8039880.44946  22265121.6334                   22265116.1564
        47.0004         41.7504
  35897373.36746  28050070.58244  24949599.2664                   24949598.7624
        39.0004         26.2504
 -11600111.90647  -8941491.55546  21135038.8594                   21135035.0474
        47.0004         37.0004
  51550638.98446  38275715.58645  25117606.6954                   25117606.9454
        40.0004         30.0004
 -10199762.59847  -7792526.62147  21521666.0004                   21521664.1174
        47.2504         44.5004
 -14886701.82047  -9480391.48045  21789932.5164                   21789927.4344
        46.0004         32.2504
 25  7 15  1 54  0.0000000  0 10G01G03G09G28G31G06G04G07G26G16
  10716116.85246   8420992.13744  23367306.5704                   23367304.6414
        41.7504         28.5004
  -9108321.28148  -6985043.40248  19989162.6024                   19989160.0044
        48.2504         51.0004
  15618446.52046  12435767.20745  23404333.3984                   23404331.5044
        40.0004         34.0004
  17264576.76245  13511386.66443  24997821.3444                   24997821.0744
        31.5004         18.5004
  10045092.15247   7906391.97347  22232521.6884                   22232517.2074
        45.2504         42.0004
  35597236.55946  27816197.74644  24892486.2114                   24892485.7664
        39.5004         29.7504
 -11900695.65247  -9175712.64146  21077839.3444                   21077836.3014
        46.5004         36.5004
  51206421.53546  38007494.50845  25052103.8134                   25052103.8954
        41.0004         32.0004
 -10450637.87547  -7988013.84847  21473926.1564                   21473924.6214
        46.7504         44.5004
 -15222853.98847  -9742328.17245  21725964.5634                   21725959.6294
        46.0004         32.0004
 25  7 15  1 54 30.0000000  0 10G01G03G09G28G31G06G04G07G26G16
  10545105.78947   8287736.67644  23334764.2734                   23334762.1804
        42.2504         27.7504
  -9357962.35548  -7179568.91848  19941657.3674                   19941654.9494
        48.0004         51.0004
  15281025.75446  12172842.00845  23340125.1884                   23340123.4844
        40.5004         34.5004
  17101765.99245  13384520.94143  24966840.2034                   24966839.5554
        31.2504         18.5004
   9873985.25047   7773061.88346  22199961.3134                   22199956.3874
        45.2504         41.2504
  35297621.11346  27582731.19945  24835470.8204                   24835470.2704
        39.0004         30.0004
 -12201113.20347  -9409804.23446  21020672.2734                   21020668.6054
        46.7504         36.5004
  50862378.25045  37739409.19944  24986633.0554                   24986634.6484
        34.2504         24.5004
 -10700872.97347  -8183002.23047  21426307.6024                   21426306.1954
        45.2504         44.5004
 -15558548.65247 -10003908.37945  21662083.5314                   21662078.8094
        45.5004         33.2504
 25  7 15  1 55  0.0000000  0 10G01G03G09G28G31G06G04G07G26G16
  10374236.16446   8154591.39144  23302248.9064                   23302247.1644
        41.5004         28.0004
  -9607010.23848  -7373632.21548  19894265.2504                   19894262.3054
        48.0004         51.0004
  14943647.77346  11909950.11345  23275924.1884                   23275921.4384
        39.5004         34.2504
  16938946.92645  13257648.83243  24935856.9384                   24935855.6954
        32.5004         19.0004
   9703079.34447   7639888.41046  22167438.8754                   22167434.8554
        45.7504         41.7504
  34998528.24346  27349671.83844  24778554.7664                   24778554.6564
        39.5004         29.5004
 -12501363.78947  -9643765.72346  20963536.3754                   20963532.6454
        46.0004         37.5004
  50518510.09045  37471460.38743  24921196.8524                   24921197.4924
        35.5004         22.7504
 -10950467.79747  -8377491.70347  21378811.5314                   21378810.0514
        45.0004         44.5004
 -15893782.40647 -10265129.43745  21598290.7504                   21598285.9414
        45.5004         33.0004
 25  7 15  1 55 30.0000000  0 10G01G03G09G28G31G06G04G07G26G16
  10203502.48847   8021552.09444  23269759.6564                   23269757.3984
        42.5004         27.5004
  -9855467.01648  -7567234.91448  19846985.5864                   19846982.7234
        49.0004         51.0004
  14606310.51246  11647089.94545  23211731.1644                   23211728.9064
        41.0004         34.5004
  16776115.60945  13130767.23843  24904870.8594                   24904870.3134
        32.7504         20.0004
   9532369.82047   7506867.96147  22134954.0634                   22134949.2074
        46.2504         42.2504
  34699956.64546  27117018.64545  24721737.8984                   24721737.8714
        39.7504         30.2504
 -12801449.32047  -9877598.58646  20906431.5864                   20906428.4924
        46.5004         37.0004
  50174815.54346  37203646.78544  24855793.7814                   24855794.3284
        38.5004         24.2504
 -11199424.99647  -8571484.32447  21331436.8284                   21331435.3284
        46.5004         44.5004
 -16228554.41447 -10525990.69145  21534586.0394                   21534581.1684
        45.7504         33.0004
 25  7 15  1 56  0.0000000  0 10G01G03G09G28G31G06G04G07G26G16
  11608327.91446   9116221.17644  23537088.5474                   23537087.1884
        41.5004         26.0004
  -8527903.56648  -6532769.89848  20099612.3674                   20099609.5514
        49.2504         51.0004
  15844446.22746  12611871.06345  23447340.1644                   23447337.7464
        40.5004         34.2504
  18188696.67246  14231479.58643  25173678.0474                   25173675.5124
        37.0004         20.0004
  10937280.43847   8601603.46546  22402300.1804                   22402295.3244
        45.7504         41.2504
  35977337.59446  28112380.44545  24964816.1174                   24964816.3874
        39.0004         30.0004
 -11525938.66847  -8883694.18446  21149153.9144                   21149150.5744
        46.2504         37.0004
  51406727.45346  38163578.44144  25090218.8984                   25090219.3714
        41.2504         29.7504
  -9872315.97747  -7537373.40247  21583977.1174                   21583975.1844
        47.0004         44.2504
 -14987430.04747  -9558880.74245  21770763.6414                   21770758.9024
        45.2504         32.5004
 25  7 15  1 56 30.0000000  0 10G01G03G09G28G31G06G04G07G26G16
  11437854.31347   8983384.48044  23504649.6724                   23504647.6174
        42.5004         28.0004
  -8775179.81248  -6725452.69548  20052557.0394                   20052554.3204
        49.0004         51.0004
  15507189.11346  12349073.34845  23383161.8754                   23383160.0594
        39.5004         34.0004
  18025834.18046  14104573.73443  25142685.8594                   25142684.1254
        37.0004         19.5004
  10766954.12147   8468881.61746  22369887.7584                   22369883.4574
        45.2504         41.5004
  35679808.55946  27880539.65645  24908198.3284                   24908198.0314
        39.7504         30.5004
 -11825694.90647  -9117270.46546  21092112.2194                   21092108.2664
        46.0004         36.7504
  51063380.08646  37896035.41044  25024881.0474                   25024882.5824
        38.7504         29.0004
 -10120001.27047  -7730374.92647  21536843.7584                   21536842.6484
        47.2504         44.5004
 -15321271.80547  -9819017.12145  21707235.7114                   21707230.6214
        44.5004         33.5004
 25  7 15  1 57  0.0000000  0 10G01G03G09G28G31G06G04G07G26G16
  11267504.43847   8850644.23844  23472232.2894                   23472230.6844
        42.0004         26.0004
  -9021867.08648  -6917676.55948  20005614.2504                   20005611.5864
        48.7504         51.0004
  15169970.93446  12086305.99645  23318992.0784                   23318989.7074
        40.2504         34.0004
  17862952.61745  13977652.93042  25111689.5634                   25111688.8014
        33.7504         16.7504
  10596813.86747   8336304.75046  22337511.4304                   22337506.5784
        45.2504         41.2504
  35382800.50046  27649104.81345  24851679.6094                   24851679.8164
        40.0004         32.0004
 -12125287.32847  -9350719.10246  21035101.3754                   21035097.9064
        46.5004         36.7504
  50720205.84046  37628627.32843  24959576.6724                   24959578.2154
        37.5004         23.2504
 -10367052.65647  -7922882.50047  21489832.1094                   21489830.2624
        46.2504         44.2504
 -15654645.29347 -10078788.62145  21643796.7894                   21643792.1764
        44.7504         33.0004
 25  7 15  1 57 30.0000000  0 10G01G03G09G28G31G06G04G07G26G16
  11097274.24647   8717997.21544  23439839.8284                   23439837.6844
        42.2504         27.7504
  -9267966.17648  -7109442.09848  19958783.3134                   19958780.3954
        48.2504         51.0004
  14832791.10246  11823568.50045  23254828.3754                   23254826.7664
        39.5004         34.5004
  17700049.55945  13850715.38342  25080690.7584                   25080690.6054
        32.5004         16.2504
  10426856.62947   8203870.50446  22305169.3754                   22305165.0744
        45.0004         41.7504
  35086313.34446  27418075.87145  24795259.9064                   24795260.0044
        39.2504         30.0004
 -12424716.34847  -9584040.41446  20978122.1334                   20978118.4844
        46.0004         37.0004
  50377204.07046  37361353.46944  24894306.8754                   24894306.5004
        40.5004         27.0004
 -10613471.55547  -8114897.23047  21442939.5704                   21442938.3554
        45.7504         44.5004
 -15987548.64147 -10338193.76645  21580447.3364                   21580443.0824
        44.7504         32.7504
 25  7 15  1 58  0.0000000  0 10G01G03G09G28G31G06G04G07G26G16
  10927163.18047   8585443.04344  23407468.3524                   23407466.0784
        42.0004         26.0004
  -9513474.25848  -7300747.10948  19912064.5234                   19912061.6294
        48.5004         51.0004
  14495652.60946  11560863.24645  23190672.8524                   23190670.8404
        39.0004         34.0004
  17537126.08246  13723761.95343  25049687.8134                   25049686.0204
        37.7504         19.7504
  10257082.69547   8071579.07446  22272862.7814                   22272857.8014
        44.2504         41.0004
  34790350.38746  27187455.41045  24738939.9614                   24738939.5084
        39.7504         32.0004
 -12723978.79747  -9817231.93446  20921174.2584                   20921170.2384
        47.0004         37.7504
  50034378.56346  37094217.04344  24829068.2584                   24829069.2774
        40.0004         27.0004
 -10859255.64547  -8306417.29747  21396168.7344                   21396167.0944
        45.2504         44.7504
 -16319975.93047 -10597227.96545  21517188.1804                   21517183.7304
        44.0004         33.5004
 25  7 15  1 58 30.0000000  0 10G01G03G09G28G31G06G04G07G26G16
  10757165.47346   8452977.20344  23375118.4774                   23375116.6684
        40.0004         26.0004
  -9758393.97747  -7491593.66048  19865457.9614                   19865455.2114
        47.5004         51.0004
  14158553.09446  11298188.34045  23126524.5634                   23126523.4844
        39.2504         35.0004
  17374178.07046  13596789.48443  25018679.5864                   25018678.3714
        39.5004         22.7504
  10087486.95747   7939426.51646  22240590.0944                   22240585.3874
        45.7504         41.0004
  34494909.81646  26957241.96545  24682719.7344                   24682719.1644
        40.0004         31.5004
 -13023076.92247 -10050295.41046  20864257.6024                   20864254.0434
        46.5004         37.5004
  49691727.12546  36827216.23444  24763864.3284                   24763863.9774
        40.2504         26.5004
 -11104408.17647  -8497445.24647  21349517.4304                   21349516.0434
        45.0004         44.2504
 -16651927.16447 -10855891.21145  21454020.7814                   21454015.6294
        44.2504         34.0004
 25  7 15  1 59  0.0000000  0 10G01G03G09G28G31G06G04G07G26G16
  12162704.81647   9548202.55944  23642584.9534                   23642582.5864
        42.0004         27.2504
  -8427295.84447  -6454374.35248  20118757.4454                   20118754.7584
        47.0004         51.0004
  15396925.34046  12263153.77745  23362179.2504                   23362177.3834
        39.0004         34.5004
  18786630.86746  14697401.98043  25287460.7114                   25287459.0274
        39.5004         22.5004
  11493494.28547   9035016.58646  22508144.3984                   22508139.3484
        45.2504         41.5004
  35775423.37146  27955044.75445  24926393.1564                   24926393.9264
        40.0004         33.2504
 -11746578.89147  -9055621.60946  21107167.2424                   21107163.6174
        46.5004         37.0004
  50924683.19946  37787961.57044  24998487.4224                   24998487.3134
        41.2504         26.7504
  -9773500.21947  -7460374.10947  21602780.9144                   21602779.0234
        44.5004         44.2504
 -15407966.97747  -9886571.53145  21690738.3134                   21690733.1604
        44.5004         33.2504
 25  7 15  1 59 30.0000000  0 10G01G03G09G28G31G06G04G07G26G16
  11992925.18046   9415906.62943  23610276.1414                   23610274.1334
        41.2504         23.2504
  -8671037.69947  -6644303.08248  20072374.7424                   20072372.2034
        47.5004         51.0004
  15059905.67246  12000541.10245  23298046.4534                   23298044.5904
        39.7504         35.5004
  18623630.57046  14570388.64543  25256443.1954                   25256440.9264
        40.0004         22.2504
  11324248.95347   8903137.07846  22475937.9384                   22475932.8284
        44.7504         40.5004
  35481030.52346  27725647.75045  24870371.8834                   24870372.6134
        39.5004         32.5004
 -12045345.78547  -9288426.98046  21050313.7974                   21050310.2424
        45.5004         37.2504
  50582382.90246  37521234.28544  24933349.2114                   24933349.0004
        38.2504         24.0004
 -10017390.21947  -7650418.26647  21556370.4304                   21556369.0944
        44.5004         44.5004
 -15738955.97347 -10144484.99645  21627752.7734                   21627747.6804
        44.2504         33.5004
 25  7 15  2  0  0.0000000  0 10G01G03G09G28G31G06G04G07G26G16
  11823250.02746   9283692.12543  23577988.5234                   23577985.8094
        41.0004         23.5004
  -8914190.41848  -6833772.74648  20026104.5004                   20026101.8014
        48.5004         50.7504
  14722926.64846  11737960.09046  23233921.5234                   23233920.1724
        40.0004         36.0004
  18460602.21546  14443353.46943  25225419.8444                   25225418.2234
        39.7504         22.5004
  11155175.11347   8771391.17246  22443764.2814                   22443759.7194
        44.7504         41.0004
  35187162.82046  27496659.93445  24814451.0554                   24814450.5004
        39.7504         32.0004
 -12343946.12547  -9521102.55946  20993491.7894                   20993488.1484
        46.0004         37.2504
  50240259.39546  37254644.87144  24868245.1724                   24868245.6374
        39.2504         27.5004
 -10260649.48447  -7839970.93747  21510079.7814                   21510078.3094
        45.7504         44.2504
 -16069459.04747 -10402019.82045  21564860.1414                   21564854.9654
        43.7504         33.0004
 25  7 15  2  0 30.0000000  0 10G01G03G09G28G31G06G04G07G26G16
  11653677.46946   9151557.59044  23545719.3754                   23545717.9924
        41.7504         25.2504
  -9156752.80548  -7022782.40648  19979946.0634                   19979943.2464
        48.0004         51.0004
  14385989.78146  11475411.93846  23169804.4454                   23169803.0634
        41.7504         36.2504
  18297545.62946  14316296.27343  25194391.7274                   25194389.1134
        40.5004         21.5004
  10986271.67247   8639778.05946  22411623.0704                   22411618.2664
        44.7504         40.2504
  34893822.03546  27268082.67645  24758630.5474                   24758629.6994
        39.2504         32.2504
 -12642378.18447  -9753647.02346  20936702.4534                   20936698.5984
        46.2504         36.5004
  49898314.54746  36988194.63744  24803173.9844                   24803175.2934
        39.5004         28.5004
 -10503277.56647  -8029031.78147  21463909.0234                   21463907.4104
        44.7504         44.5004
 -16399472.22747 -10659172.89845  21502060.6254                   21502055.8284
        45.0004         34.0004
 25  7 15  2  1  0.0000000  0 10G01G03G09G28G31G06G04G07G26G16
  11484205.00446   9019500.98043  23513469.7114                   23513468.1884
        40.2504         23.2504
  -9398724.09447  -7211331.47748  19933901.0784                   19933898.0744
        47.5004         51.0004
  14049096.20346  11212897.50846  23105695.9064                   23105693.9384
        41.2504         36.5004
  18134460.19946  14189216.65243  25163357.6414                   25163355.6294
        40.5004         22.0004
  10817537.21947   8508296.62946  22379513.7114                   22379508.8134
        44.5004         41.0004
  34601009.57446  27039917.13745  24702909.3364                   24702909.9774
        39.5004         33.5004
 -12940640.69547  -9986059.36346  20879944.7894                   20879941.1524
        46.5004         37.0004
  49556549.75046  36721884.70344  24738139.6254                   24738139.3954
        40.5004         28.7504
 -10745274.24247  -8217600.62147  21417858.4924                   21417856.5984
        44.5004         45.2504
 -16728991.50047 -10915941.10945  21439355.1334                   21439350.5004
        44.5004         32.7504
 25  7 15  2  1 30.0000000  0 10G01G03G09G28G31G06G04G07G26G16
  11314827.52046   8887518.46943  23481238.5314                   23481236.4064
        40.0004         22.7504
  -9640106.39847  -7399421.59048  19887967.4844                   19887964.3674
        47.5004         51.0004
  13712244.25046  10950415.52746  23041594.5864                   23041593.1334
        41.7504         37.0004
  17971342.48846  14062111.82443  25132316.3204                   25132315.3714
        37.7504         19.0004
  10648967.27347   8376943.37146  22347436.3054                   22347431.8244
        44.0004         40.5004
  34308724.06346  26812162.19945  24647290.0004                   24647289.3594
        39.7504         33.5004
 -13238735.12947 -10218340.73846  20823219.4614                   20823215.6884
        46.2504         36.7504
  49214963.35246  36455713.70743  24673136.3594                   24673136.5124
        38.0004         22.7504
 -10986642.14847  -8405679.51247  21371926.8674                   21371926.0234
        44.5004         44.5004
 -17058016.27347 -11172324.01245  21376743.6484                   21376738.7074
        45.2504         34.0004
 25  7 15  2  2  0.0000000  0 10G01G03G09G28G31G06G04G07G26G16
  12720968.15246   9983212.32043  23748818.3524                   23748817.0434
        40.0004         23.7504
  -8305471.17647  -6359446.10548  20141939.9384                   20141937.3324
        47.0004         50.7504
  14950866.12546  11915575.48846  23277296.7344                   23277295.1024
        41.7504         38.0004
  19383617.29746  15162585.65243  25401063.9844                   25401062.8714
        37.7504         19.0004
  12055986.24647   9473321.73446  22615183.1174                   22615177.8714
        45.2504         41.0004
  35592396.37546  27812426.33645  24891564.4384                   24891564.3324
        39.5004         33.5004
 -11961230.40247  -9222882.50046  21066319.9614                   21066316.6724
        44.5004         37.2504
  50448988.21946  37417291.78545  24907964.6094                   24907964.6644
        41.2504         30.5004
  -9651953.44547  -7365662.34047  21625910.5704                   21625908.6914
        44.5004         44.0004
 -15811112.43747 -10200710.57845  21614021.8914                   21614016.6844
        44.5004         34.5004
 25  7 15  2  2 30.0000000  0 10G01G03G09G28G31G06G04G07G26G16
  12551773.27746   9851372.07443  23716621.5004                   23716619.5784
        39.5004         23.0004
  -8545673.77747  -6546616.96948  20096230.6884                   20096228.5744
        47.5004         51.0004
  14614100.48846  11653160.76246  23213212.2734                   23213210.9064
        41.5004         38.0004
  19220433.06646  15035428.98842  25370011.7424                   25370010.0784
        39.7504         16.7504
  11887740.74247   9342221.30946  22583166.4844                   22583162.3324
        44.7504         41.0004
  35301168.40246  27585495.46545  24836145.3914                   24836145.1604
        38.2504         33.0004
 -12258985.04347  -9454899.09046  21009659.6804                   21009655.8094
        45.0004         37.5004
  50107762.85246  37151402.13744  24843030.6174                   24843030.5084
        38.7504         27.0004
  -9892063.95347  -7552761.43447  21580219.4454                   21580217.0044
        44.5004         44.5004
 -16139137.78947 -10456314.69945  21551600.7584                   21551595.6564
        44.7504         33.5004
 25  7 15  2  3  0.0000000  0 10G01G03G09G28G31G06G04G07G26G16
  12382668.98446   9719602.39843  23684442.1174                   23684440.8134
        39.2504         22.0004
  -8785282.73847  -6733325.26248  20050634.8674                   20050632.3134
        46.7504         50.7504
  14277382.66447  11390783.28946  23149136.6174                   23149135.1094
        42.5004         38.5004
  19057217.41046  14908247.93843  25338952.4844                   25338950.5634
        40.7504         19.0004
  11719657.85247   9211247.55946  22551181.9774                   22551177.5354
        45.5004         40.5004
  35010474.07446  27358980.41445  24780828.1724                   24780827.5984
        39.5004         33.2504
 -12556564.98447  -9686779.56646  20953031.5634                   20953028.1564
        45.2504         36.5004
  49766722.77046  36885656.89844  24778132.9144                   24778133.2424
        39.2504         27.7504
 -10131542.80547  -7739368.33647  21534647.7664                   21534645.9144
        45.0004         44.7504
 -16466654.89847 -10711522.79745  21489276.0234                   21489271.1914
        44.5004         34.5004
 25  7 15  2  3 30.0000000  0 10G01G03G09G28G31G06G04G07G26G16
  12213647.73846   9587897.44144  23652278.9304                   23652276.7814
        41.0004         25.5004
  -9024302.56247  -6919574.48448  20005150.9144                   20005148.3954
        47.0004         50.7504
  13940708.62147  11128439.94146  23085070.8284                   23085068.2034
        42.7504         38.2504
  18893964.70746  14781037.98843  25307886.1724                   25307884.7774
        41.0004         20.5004
  11551730.80947   9080395.29346  22519225.9614                   22519221.3164
        45.0004         39.7504
  34720309.53146  27132878.17645  24725611.7894                   24725611.0084
        38.2504         33.2504
 -12853974.01247  -9918526.85546  20896437.2664                   20896433.1024
        45.2504         37.5004
  49425864.30146  36620053.11344  24713270.0234                   24713269.1994
        41.0004         29.0004
 -10370395.13347  -7925487.03947  21489195.8204                   21489193.9844
        44.5004         44.2504
 -16793665.29347 -10966336.04745  21427048.1484                   21427042.8554
        44.7504         34.5004
 25  7 15  2  4  0.0000000  0 10G01G03G09G28G31G06G04G07G26G16
  12044707.56646   9456255.59044  23620129.8984                   23620129.0434
        40.0004         24.5004
  -9262732.25047  -7105363.87148  19959779.0394                   19959776.4144
        47.0004         50.7504
  13604079.82047  10866131.85246  23021011.3284                   23021010.3054
        42.0004         39.0004
  18730674.91447  14653799.15243  25276813.9144                   25276811.5394
        42.0004         22.5004
  11383958.25447   8949663.36746  22487300.5314                   22487296.2194
        45.0004         40.5004
  34430676.44146  26907190.04745  24670496.0864                   24670495.6134
        39.7504         33.0004
 -13151210.40647 -10150139.62146  20839874.7424                   20839871.1094
        45.2504         37.0004
  49085189.26246  36354592.28544  24648441.2344                   24648440.6914
        37.5004         26.2504
 -10608620.59047  -8111117.27347  21443862.8674                   21443861.1414
        44.5004         44.0004
 -17120165.02047 -11220751.38345  21364917.4924                   21364912.5354
        44.7504         35.0004
 25  7 15  2  4 30.0000000  0 10G01G03G09G28G31G06G04G07G26G16
  11875845.29346   9324674.49643  23587997.1094                   23587995.4884
        39.5004         22.7504
  -9500572.21548  -7290693.73848  19914519.6414                   19914517.0904
        48.0004         50.7504
  13267496.60247  10603859.26646  22956962.3524                   22956960.1294
        43.5004         39.2504
  18567346.38346  14526530.02743  25245733.0554                   25245731.5904
        40.7504         22.5004
  11216338.41847   8819050.46146  22455403.1334                   22455398.8284
        44.0004         40.0004
  34141575.07046  26681916.25845  24615482.4774                   24615481.9924
        39.0004         33.5004
 -13448273.76247 -10381617.55546  20783345.5234                   20783341.8714
        46.5004         37.0004
  48744697.98846  36089274.59044  24583647.7034                   24583646.5004
        40.0004         27.5004
 -10846220.11347  -8296259.76647  21398649.5864                   21398647.7504
        45.7504         44.0004
 -17446151.39847 -11474766.70345  21302883.8524                   21302879.3094
        45.0004         34.0004
 25  7 15  2  5  0.0000000  0 10G01G03G09G28G31G06G04G07G26G16
  13282485.43446  10420757.62544  23855672.4534                   23855670.3914
        40.0004         24.2504
  -8162392.59048  -6247956.39548  20169166.8984                   20169164.2624
        48.0004         50.7504
  14506392.69147  11569232.89546  23192716.3134                   23192714.4694
        43.5004         39.0004
  19979405.60246  15626835.86443  25514439.3364                   25514437.7344
        38.5004         21.7504
  12624295.93447   9916160.15646  22723328.9614                   22723324.3834
        44.5004         39.7504
  35428437.64846  27684666.33645  24860363.8204                   24860364.3404
        39.0004         34.5004
 -12169731.44947  -9385350.79746  21026643.9774                   21026640.5634
        46.7504         37.5004
  49979824.37546  37051710.97744  24818684.5234                   24818683.5234
        40.0004         29.2504
  -9507764.48847  -7253307.32447  21653348.7194                   21653347.3954
        46.0004         44.0004
 -16196188.75447 -10500769.80145  21540744.1094                   21540739.2664
        44.5004         34.5004
 25  7 15  2  5 30.0000000  0 10G01G03G09G28G31G06G04G07G26G16
  13113773.01646  10289293.25444  23823567.1954                   23823566.1684
        40.0004         24.5004
  -8399050.21947  -6432364.96148  20124132.6644                   20124130.0164
        47.0004         50.5004
  14169905.35247  11307035.02046  23128684.5944                   23128682.6214
        42.7504         39.5004
  19815999.44145  15499506.28943  25483342.0314                   25483342.4144
        34.7504         19.0004
  12456976.96147   9785781.69146  22691489.0084                   22691484.6484
        45.5004         40.0004
  35140404.62146  27460225.03945  24805553.3524                   24805552.5824
        39.5004         34.0004
 -12466443.41447  -9616554.92646  20970181.6884                   20970177.7664
        45.2504         37.2504
  49639705.62946  36786683.59444  24753960.9774                   24753961.3054
        38.2504         29.0004
  -9744111.16447  -7437473.57447  21608373.3914                   21608371.6414
        45.5004         44.0004
 -16521136.72747 -10753975.95745  21478908.4534                   21478903.1684
        44.0004         34.0004
 25  7 15  2  6  0.0000000  0 10G01G03G09G28G31G06G04G07G26G16
  12945129.94946  10157882.95744  23791476.6724                   23791474.1334
        41.5004         26.0004
  -8635117.86348  -6616313.80948  20079210.2734                   20079207.5944
        48.5004         50.5004
  13833465.75847  11044874.35246  23064662.3834                   23064660.4144
        44.5004         40.0004
  19652551.83645  15372144.35942  25452240.0004                   25452239.6524
        33.7504         16.7504
  12289804.79347   9655517.59446  22659677.5004                   22659672.8284
        44.5004         39.2504
  34852905.62946  27236199.87545  24750843.7114                   24750843.6134
        38.0004         33.5004
 -12762979.59847  -9847622.06646  20913752.4454                   20913748.7814
        46.0004         37.2504
  49299773.25046  36521801.46544  24689274.8204                   24689273.6804
        39.0004         28.5004
  -9979833.48447  -7621153.31647  21563517.0164                   21563515.5004
        46.5004         44.0004
 -16845562.09847 -11006774.91445  21417172.7424                   21417167.4804
        44.7504         34.5004
 25  7 15  2  6 30.0000000  0 10G01G03G09G28G31G06G04G07G26G16
  12776553.13346  10026524.29344  23759397.1644                   23759394.7384
        40.0004         24.0004
  -8870595.96547  -6799803.26248  20034400.5164                   20034397.2734
        47.7504         50.7504
  13497074.21947  10782751.11746  23000648.6414                   23000647.6994
        43.5004         40.0004
  19489061.191 6                  25421130.141
        38.500
  12122776.41847   9525365.57446  22627893.8364                   22627888.5434
        45.0004         40.5004
  34565940.82046  27012590.95345  24696236.2734                   24696236.0234
        38.2504         33.7504
 -13059339.55947 -10078551.89846  20857356.8444                   20857353.4614
        45.7504         37.0004
  48960027.87546  36257064.93044  24624623.8754                   24624621.8364
        38.7504         27.5004
 -10214932.56247  -7804347.40247  21518779.0084                   21518777.8484
        46.2504         44.0004
 -17169462.18447 -11259164.55545  21355535.9304                   21355531.2384
        45.0004         34.5004
 25  7 15  2  7  0.0000000  0  9G01G03G09G31G06G04G07G26G16
  12608036.89146   9895212.83244  23727328.8524                   23727328.0124
        39.0004         26.2504
  -9105487.38348  -6982835.54748  19989702.0474                   19989699.5204
        48.0004         50.5004
  13160728.60547  10520663.66046  22936644.6564                   22936642.9414
        44.5004         40.0004
  11955887.16047   9395321.93046  22596135.3284                   22596130.7234
        43.7504         39.2504
  34279508.07446  26789396.62945  24641729.3834                   24641729.1804
        39.5004         34.0004
 -13355525.28147 -10309345.94946  20800994.9534                   20800991.3054
        45.5004         38.7504
  48620467.08646  35992472.39845  24560006.4064                   24560006.2774
        39.2504         30.0004
 -10449411.88747  -7987058.57847  21474159.1094                   21474157.7504
        45.0004         43.7504
 -17492836.82447 -11511144.75045  21294000.0164                   21293994.9494
        44.7504         34.2504
 25  7 15  2  7 30.0000000  0  9G01G03G09G31G06G04G07G26G16
  12439581.79346   9763948.97744  23695274.3284                   23695272.0124
        40.7504         26.2504
  -9339788.82847  -7165408.11348  19945115.9534                   19945113.1914
        47.0004         50.5004
  12824433.02047  10258615.22746  22872649.6884                   22872647.5234
        43.7504         40.0004
  11789138.59447   9265387.93446  22564404.4454                   22564399.0864
        43.0004         39.0004
  33993611.34046  26566619.93445  24587325.7194                   24587324.4614
        39.5004         33.5004
 -13651532.44147 -10540000.87146  20744666.5634                   20744662.7774
        45.7504         37.2504
  48281095.36346  35728027.14145  24495426.5704                   24495426.1094
        39.2504         31.0004
 -10683268.73447  -8169284.70347  21429658.0634                   21429656.4224
        44.5004         44.0004
 -17815679.87547 -11762710.72345  21232564.6414                   21232559.8324
        44.2504         34.2504
 25  7 15  2  8  0.0000000  0  9G01G03G09G31G06G04G07G26G16
  13846612.55146  10860336.46544  23963022.1024                   23963021.0474
        40.0004         24.5004
  -7998070.61347  -6119913.40248  20200436.5864                   20200433.8714
        46.5004         50.5004
  14063621.42647  11224216.62146  23108459.1334                   23108457.0354
        43.5004         40.2504
  13197956.25847  10363167.87946  22832492.7584                   22832488.7544
        44.0004         38.7504
  35283682.75046  27571870.37145  24832817.2894                   24832817.4384
        39.0004         33.0004
 -12371928.32047  -9542906.74646  20988166.7274                   20988163.3554
        45.5004         37.7504
  49517346.43846  36691339.82044  24730676.3364                   24730674.8834
        37.2504         26.5004
  -9341074.05147  -7123418.72747  21685069.5234                   21685066.9774
        44.5004         43.7504
 -16562555.41047 -10786250.06245  21471026.8674                   21471021.4224
        44.7504         34.5004
 25  7 15  2  8 30.0000000  0  9G01G03G09G31G06G04G07G26G16
  13678278.62546  10729167.03944  23930990.8444                   23930987.8794
        39.7504         27.0004
  -8231185.09847  -6301561.06248  20156076.3524                   20156073.8524
        47.5004         50.7504
  13727435.45347  10962253.56646  23044485.1484                   23044483.3554
        43.7504         40.0004
  13031490.45347  10233454.19946  22800816.3524                   22800811.3954
        44.2504         38.7504
  34998867.19946  27349936.17645  24778619.5784                   24778619.6054
        38.0004         34.0004
 -12667568.37947  -9773275.60946  20931908.6094                   20931905.0354
        45.7504         37.5004
  49178362.09046  36427196.43045  24666169.7664                   24666169.6454
        39.5004         30.0004
  -9573680.81647  -7304670.75847  21640805.5164                   21640804.2424
        44.5004         43.7504
 -16884318.57847 -11036974.56245  21409797.1254                   21409792.0394
        45.0004         34.5004
 25  7 15  2  9  0.0000000  0  9G01G03G09G31G06G04G07G26G16
  13510003.98446  10598043.84844  23898968.1954                   23898966.7664
        40.0004         26.7504
  -8463703.31648  -6482744.10548  20111829.1334                   20111826.9614
        48.0004         50.7504
  13391308.34847  10700336.38746  22980522.4774                   22980520.8834
        43.5004         39.5004
  12865166.08647  10103850.75446  22769165.0234                   22769160.3714
        43.5004         37.7504
  34714596.06346  27128426.20745  24724524.9064                   24724524.4774
        39.5004         35.2504
 -12963020.57047 -10003498.08646  20875686.1414                   20875682.4774
        45.7504         37.5004
  48839575.70746  36163207.26645  24601701.4384                   24601700.4064
        39.5004         31.2504
  -9805660.69947  -7485434.31247  21596661.1564                   21596659.6644
        45.5004         43.5004
 -17205534.32447 -11287272.51645  21348671.6334                   21348666.6564
        45.2504         34.7504
 25  7 15  2  9 30.0000000  0  9G01G03G09G31G06G04G07G26G16
  13341786.41846  10466965.02744  23866957.6484                   23866956.2114
        38.0004         24.5004
  -8695624.92647  -6663462.26648  20067696.2584                   20067693.9654
        47.7504         50.5004
  13055241.42247  10438466.09846  22916570.8834                   22916568.8594
        43.2504         39.7504
  12698981.87147   9974356.49246  22737542.3754                   22737537.4734
        44.5004         38.7504
  34430870.35246  26907341.23445  24670533.1174                   24670532.3984
        38.5004         32.5004
 -13258283.42647 -10233573.03946  20819499.5004                   20819495.5004
        46.5004         37.5004
  48500988.55546  35899373.40245  24537269.6414                   24537268.8794
        38.2504         30.7504
 -10037013.95747  -7665709.59447  21552635.8444                   21552634.3244
        45.5004         43.5004
 -17526199.60547 -11537141.53545  21287650.9844                   21287645.9924
        45.0004         35.0004
 25  7 15  2 10  0.0000000  0  9G01G03G09G31G06G04G07G26G16
  13173620.05546  10335926.17244  23834956.8284                   23834955.2624
        38.7504         24.5004
  -8926953.27348  -6843718.15248  20023676.2584                   20023673.4574
        48.7504         50.7504
  12719232.25047  10176640.80546  22852629.9454                   22852628.6454
        42.0004         39.0004
  12532932.78947   9844967.54746  22705943.5314                   22705938.8014
        43.7504         39.0004
  34147687.48846  26686679.24645  24616645.3524                   24616644.6564
        39.5004         33.2504
 -13553359.14547 -10463502.16046  20763348.5784                   20763344.7194
        46.0004         37.7504
  48162598.32846  35635692.89144  24472875.8524                   24472874.8284
        37.5004         27.7504
 -10267744.53547  -7845499.66847  21508729.5554                   21508728.0434
        46.0004         43.5004
 -17846314.28547 -11786581.50845  21226735.6884                   21226730.1214
        45.7504         35.0004
 25  7 15  2 10 30.0000000  0  9G01G03G09G31G06G04G07G26G16
  13005501.41446  10204924.52744  23802965.5314                   23802963.6804
        40.5004         25.2504
  -9157689.06648  -7023512.30948  19979768.6174                   19979766.3364
        48.2504         50.5004
  12383281.14147   9914860.74646  22788701.3984                   22788699.0824
        43.2504         39.0004
  12367016.01247   9715681.69946  22674370.7734                   22674365.7114
        43.2504         38.2504
  33865047.28946  26466440.11745  24562859.8054                   24562860.2234
        38.2504         33.0004
 -13848247.40247 -10693285.21946  20707232.3674                   20707229.3204
        47.0004         38.0004
  47824404.86946  35372165.78545  24408520.4384                   24408519.3984
        39.0004         31.0004
 -10497853.85947  -8024805.64547  21464941.1174                   21464939.4024
        46.0004         43.5004
 -18165876.28547 -12035590.82045  21165924.4384                   21165919.4184
        44.5004         34.2504
 25  7 15  2 11  0.0000000  0  9G01G03G09G31G06G04G07G26G16
  14412849.96146  11301559.60944  24070774.0864                   24070773.6724
        38.0004         24.7504
  -7812408.43448  -5975241.69548  20235767.1414                   20235764.5944
        48.2504         50.5004
  13622816.38747  10880732.42246  23024576.6484                   23024574.6804
        43.0004         39.5004
  13776651.63747  10814099.01246  22942616.1644                   22942611.0944
        43.2504         38.7504
  35158376.14546  27474228.87145  24808972.5704                   24808973.0044
        38.2504         33.5004
 -12567521.01647  -9695316.59046  20950946.9454                   20950943.4964
        46.2504         37.7504
  49061836.71546  36336398.61345  24643995.3834                   24643994.0394
        39.5004         32.5004
  -9151918.70747  -6976025.02047  21721064.1414                   21721062.1724
        46.5004         43.2504
 -16909455.55947 -11056561.65645  21405013.4064                   21405008.2664
        45.2504         34.5004
 25  7 15  2 11 30.0000000  0  9G01G03G09G31G06G04G07G26G16
  14244812.35546  11170621.01644  24038798.0164                   24038797.0084
        39.0004         25.0004
  -8041966.23047  -6154117.93048  20192083.5234                   20192080.8914
        47.5004         50.5004
  13286977.25447  10619039.62546  22960669.2194                   22960666.5664
        43.5004         39.2504
  13610987.59847  10685010.08246  22911091.0394                   22911086.6484
        42.5004         38.2504
  34876816.54346  27254831.75045  24755394.4144                   24755393.6684
        40.0004         34.5004
 -12862037.86747  -9924810.23446  20894902.2974                   20894898.7464
        47.0004         37.5004
  48724033.16846  36073175.27744  24579712.3204                   24579712.2894
        38.5004         29.5004
  -9380794.44547  -7154369.76247  21677510.4844                   21677508.9654
        45.2504         43.5004
 -17227909.54347 -11304707.57845  21344413.9304                   21344408.8164
        45.2504         34.5004
 25  7 15  2 12  0.0000000  0  9G01G03G09G31G06G04G07G26G16
  14076811.28546  11039710.97343  24006829.3834                   24006827.2234
        40.5004         23.7504
  -8270935.16047  -6332535.28948  20148512.4924                   20148509.4924
        47.5004         50.5004
  12951195.54747  10357391.58646  22896771.5864                   22896769.5004
        42.7504         39.5004
  13445447.71947  10556017.93846  22879589.5864                   22879584.6644
        42.5004         38.0004
  34595798.05546  27035856.30545  24701917.2664                   24701917.8244
        37.7504         32.2504
 -13156367.30947 -10154157.85246  20838893.4224                   20838889.4264
        46.7504         37.7504
  48386425.90246  35810104.92645  24515468.6564                   24515466.8954
        41.5004         31.7504
  -9609054.52047  -7332234.77347  21634074.0554                   21634072.1294
        45.7504         43.2504
 -17545805.02347 -11552418.29745  21283920.3754                   21283915.5044
        45.2504         35.5004
 25  7 15  2 12 30.0000000  0  9G01G03G09G31G06G04G07G26G16
  13908843.89546  10908827.16043  23974865.7274                   23974864.3914
        38.7504         22.5004
  -8499315.77048  -6510494.22348  20105052.7814                   20105050.3444
        48.0004         50.5004
  12615471.89147  10095788.76246  22832885.4614                   22832883.2194
        43.0004         38.7504
  13280029.76247  10427120.75846  22848111.2504                   22848107.4534
        42.7504         39.0004
  34315320.86746  26817302.68845  24648544.4774                   24648544.1454
        38.0004         32.2504
 -13450508.59847 -10383358.84446  20782920.1484                   20782916.5084
        47.2504         37.7504
  48049015.77746  35547188.09045  24451261.7504                   24451259.4494
        41.0004         31.5004
  -9836700.02347  -7509620.90247  21590754.8054                   21590753.1214
        46.0004         43.7504
 -17863139.43747 -11799691.82845  21223533.6174                   21223528.1174
        45.5004         35.5004
 25  7 15  2 13  0.0000000  0  9G01G03G09G31G06G04G07G26G16
  13740904.66446  10777965.25443  23942907.6414                   23942906.7814
        38.0004         22.5004
  -8727111.12147  -6687997.12148  20061704.6094                   20061702.2544
        47.5004         50.5004
  12279804.31347   9834229.65246  22769009.8834                   22769007.2894
        43.2504         38.0004
  13114729.02347  10298314.93446  22816655.9454                   22816651.4184
        43.0004         38.7504
  34035382.68846  26599169.01645  24595274.1094                   24595273.2114
        38.5004         32.0004
 -13744463.53947 -10612414.63746  20726982.7664                   20726978.8714
        46.5004         38.0004
  47711800.32446  35284423.05145  24387091.2974                   24387090.5044
        40.5004         33.0004
 -10063734.69547  -7686531.04347  21547551.2034                   21547549.6254
        45.5004         43.5004
 -18179912.81647 -12046528.21145  21163253.3204                   21163248.4264
        45.5004         34.5004
 25  7 15  2 13 30.0000000  0  9G01G03G09G31G06G04G07G26G16
  13572992.39846  10647124.37944  23910955.6954                   23910954.7974
        38.2504         25.2504
  -8954319.89847  -6865042.94148  20018468.7664                   20018465.9574
        47.7504         50.5004
  11944195.27046   9572716.14146  22705145.3204                   22705143.5084
        41.5004         38.0004
  12949545.47747  10169600.42246  22785222.3674                   22785217.7814
        42.2504         38.2504
  33755985.38346  26381456.82845  24542106.0314                   24542106.5784
        38.0004         32.5004
 -14038229.51247 -10841323.18446  20671080.6334                   20671077.1884
        46.2504         38.0004
  47374782.04746  35021811.62545  24322958.6254                   24322957.5594
        41.2504         33.2504
 -10290157.89847  -7862964.73047  21504464.5234                   21504463.0084
        44.0004         43.2504
 -18496120.73447 -12292923.95345  21103081.1804                   21103075.7114
        45.5004         35.0004
 25  7 15  2 14  0.0000000  0  9G01G03G09G31G06G04G07G26G16
  14980529.34846  11743906.22743  24178801.2424                   24178800.1414
        38.2504         22.0004
  -7605515.68047  -5814026.69148  20275137.3984                   20275134.8834
        47.5004         50.5004
  13184076.11347  10538857.08646  22941086.7664                   22941084.9494
        42.0004         37.5004
  14359901.82047  11268579.34046  23053604.3914                   23053600.4224
        43.0004         38.5004
  35052557.91446  27391773.12545  24788835.8444                   24788836.6024
        38.2504         33.0004
 -12756376.46147  -9842476.65246  20915009.0394                   20915005.2974
        46.0004         37.7504
  48613392.14546  35986962.50045  24558657.7894                   24558656.1094
        40.5004         31.0004
  -8940543.77347  -6811317.37147  21761287.2734                   21761286.0394
        44.2504         43.5004
 -17236330.63747 -11311269.31245  21342810.8134                   21342805.9384
        45.7504         35.2504
 25  7 15  2 14 30.0000000  0  9G01G03G09G31G06G04G07G26G16
  14812659.45346  11613098.38743  24146856.4304                   24146855.4694
        38.0004         23.7504
  -7831555.98848  -5990162.01648  20232123.2194                   20232120.9734
        48.7504         50.5004
  12848583.19546  10277434.04746  22877244.7344                   22877242.6174
        41.7504         37.5004
  14194943.24247  11140040.12946  23022213.9064                   23022209.7384
        43.2504         37.7504
  34774239.94946  27174902.00845  24735873.8914                   24735873.8984
        38.7504         33.0004
 -13049765.06647 -10071091.14146  20859178.8204                   20859175.1764
        47.0004         38.2504
  48276766.66446  35724657.12945  24494599.3754                   24494598.8754
        39.7504         32.0004
  -9165750.51247  -6986803.15647  21718431.8204                   21718430.2934
        46.0004         43.2504
 -17551402.87947 -11556780.11745  21282854.9694                   21282849.7854
        45.5004         35.0004
 25  7 15  2 15  0.0000000  0  9G01G03G09G31G06G04G07G26G16
  14644806.10546  11482303.37143  24114915.8054                   24114914.6954
        37.2504         22.5004
  -8057013.32048  -6165843.07448  20189220.4384                   20189217.7894
        48.2504         50.5004
  12513148.94946  10016056.73846  22813413.7274                   22813411.4804
        41.2504         37.7504
  14030093.95747  11011586.08246  22990844.0784                   22990840.0164
        43.2504         38.7504
  34496461.43846  26958451.21145  24683014.6564                   24683013.8954
        37.7504         33.5004
 -13342964.14847 -10299557.96946  20803384.9774                   20803381.0634
        46.2504         37.5004
  47940337.86747  35462505.00845  24430580.4064                   24430578.2814
        42.2504         34.0004
  -9390351.25047  -7161816.73847  21675692.2344                   21675690.9144
        46.0004         43.2504
 -17865903.74647 -11801845.69945  21223007.0554                   21223001.8324
        46.2504         34.7504
 25  7 15  2 15 30.0000000  0  9G01G03G09G31G06G04G07G26G16
  14476966.12946  11351518.84044  24082976.4224                   24082975.4884
        38.0004         24.2504
  -8281888.37548  -6341070.40648  20146427.9144                   20146425.3754
        49.2504         50.5004
  12177774.00446   9754725.63746  22749593.5784                   22749591.9144
        41.0004         37.5004
  13865351.84847  10883215.53946  22959495.1644                   22959490.6604
        43.0004         38.5004
  34219222.37946  26742420.79745  24630257.4924                   24630258.0234
        38.2504         32.2504
 -13635972.93747 -10527876.51246  20747627.4224                   20747623.8014
        46.5004         38.0004
  47604106.41446  35200506.63345  24366596.0164                   24366594.8984
        40.7504         30.2504
  -9614347.32847  -7336359.14147  21633066.9694                   21633065.3984
        46.2504         43.0004
 -18179830.83647 -12046464.18445  21163268.9694                   21163263.8054
        46.2504         35.5004
 25  7 15  2 16  0.0000000  0  9G01G03G09G31G06G04G07G26G16
  14309136.12946  11220742.12543  24051039.6954                   24051039.1294
        37.2504         22.5004
  -8506182.39148  -6515844.97348  20103746.3674                   20103743.6724
        48.7504         50.2504
  11842458.33247   9493440.74646  22685785.3204                   22685783.1684
        42.5004         38.2504
  13700714.16047  10754926.34846  22928165.5084                   22928160.8054
        42.5004         38.7504
  33942522.22346  26526810.29345  24577603.9534                   24577603.4694
        37.2504         32.0004
 -13928791.26647 -10756046.63346  20691905.8204                   20691902.2664
        45.5004         38.0004
  47268071.93447  34938661.75845  24302652.2504                   24302649.8094
        43.2504         33.5004
  -9837740.66047  -7510431.88747  21590556.8984                   21590554.8874
        46.0004         43.0004
 -18493182.55947 -12290634.32845  21103640.0704                   21103634.9304
        46.0004         35.0004
 25  7 15  2 16 30.0000000  0  9G01G03G09G31G06G04G07G26G16
  14141312.18846  11089970.02043  24019104.2664                   24019103.3444
        39.5004         23.5004
  -8729897.12947  -6690168.14548  20061174.6804                   20061172.4694
        47.2504         50.2504
  11507201.64147   9232201.78546  22621988.3204                   22621986.2504
        43.0004         38.0004
  13536177.95747  10626716.27346  22896855.4534                   22896850.5704
        42.5004         38.2504
  33666359.88745  26311618.87144  24525050.6174                   24525051.1334
        35.5004         29.7504
 -14221419.37547 -10984068.53546  20636220.4384                   20636216.9344
        46.0004         38.5004
  46932234.18447  34676970.17245  24238743.7034                   24238742.5744
        42.0004         33.5004
 -10060533.60547  -7684036.79347  21548160.2194                   21548158.8164
        44.5004         43.2504
 -18805957.09447 -12534354.72345  21044121.4454                   21044116.1914
        46.2504         35.2504
 25  7 15  2 17  0.0000000  0  9G01G03G09G31G06G04G07G26G16
  15548921.77346  12186808.44943  24286963.0234                   24286962.1684
        36.7504         20.2504
  -7377601.08647  -5636430.97348  20318508.4614                   20318505.5784
        47.5004         50.2504
  12747440.50447  10198621.70746  22857997.8754                   22857995.7814
        42.7504         37.5004
  14947171.71947  11726191.85946  23165358.1334                   23165354.2154
        42.7504         37.5004
  34966169.24646  27324457.37545  24772396.7584                   24772396.6724
        36.2504         30.0004
 -12938421.91447  -9984330.26646  20880366.6564                   20880362.8134
        46.0004         38.0004
  48172029.27747  35643044.47345  24474668.6414                   24474667.1524
        43.0004         32.5004
  -8707295.34447  -6629565.44547  21805673.1414                   21805671.0944
        46.0004         43.0004
 -17542717.11747 -11550011.84845  21284507.6254                   21284502.5594
        46.0004         35.7504
 25  7 15  2 17 30.0000000  0  9G01G03G09G31G06G04G07G26G16
  15381107.40246  12056043.91443  24255029.5554                   24255027.7274
        39.2504         20.2504
  -7600153.12548  -5809848.14848  20276157.7344                   20276155.5474
        48.5004         50.2504
  12412310.03147   9937481.10246  22794224.1564                   22794222.3014
        43.2504         38.0004
  14782839.02347  11598140.34046  23134086.9844                   23134082.6174
        43.0004         38.0004
  34691088.75846  27110108.93445  24720051.0314                   24720050.4304
        36.7504         30.0004
 -13230660.82047 -10212048.89146  20824755.8984                   20824751.8954
        46.5004         38.2504
  47836592.16047  35381665.01645  24410837.8524                   24410834.5634
        42.2504         32.0004
  -8928885.33247  -6802232.98447  21763506.6094                   21763504.9184
        46.0004         43.5004
 -17854324.04747 -11792822.41845  21225210.7974                   21225205.7344
        46.2504         35.0004
 25  7 15  2 18  0.0000000  0  9G01G03G09G31G06G04G07G26G16
  15213293.24646  11925279.50843  24223096.4614                   24223094.4924
        40.2504         23.7504
  -7822125.26648  -5982813.46148  20233918.2734                   20233915.4654
        48.0004         50.2504
  12077243.42647   9676390.27346  22730463.8134                   22730461.5514
        43.5004         38.2504
  14618604.67647  11470165.46946  23102834.2424                   23102829.8014
        42.5004         38.2504
  34416548.89546  26896181.78145  24667807.8674                   24667807.8954
        36.5004         30.2504
 -13522704.13747 -10439615.10546  20769182.0004                   20769177.9884
        46.5004         37.5004
  47501355.73447  35120442.02745  24347043.5314                   24347042.5944
        42.0004         33.5004
  -9149876.16847  -6974433.64547  21721453.1254                   21721451.5234
        47.0004         43.2504
 -18165344.14547 -12035175.71145  21166025.5944                   21166020.3204
        46.5004         35.0004
 25  7 15  2 18 30.0000000  0  9G01G03G09G31G06G04G07G26G16
  15045474.73046  11794511.60943  24191160.2814                   24191160.5594
        36.5004         21.2504
  -8043519.95748  -6155328.82848  20191787.9144                   20191785.5664
        49.2504         50.2504
  11742239.68047   9415348.41846  22666714.3914                   22666711.9734
        44.0004         39.2504
  14454465.37547  11342264.64846  23071599.9224                   23071595.5864
        42.7504         38.5004
  34142547.87545  26682674.50845  24615667.1484                   24615667.4534
        35.5004         30.5004
 -13814552.77747 -10667029.63346  20713644.8834                   20713641.2304
        46.2504         38.5004
  47166318.76646  34859374.48044  24283287.6174                   24283285.7934
        41.2504         29.5004
  -9370270.98847  -7146169.89147  21679513.5634                   21679511.4924
        46.2504         43.0004
 -18475776.35547 -12277070.91846  21106952.1094                   21106947.2154
        46.7504         36.0004
 25  7 15  2 19  0.0000000  0  9G01G03G09G31G06G04G07G26G16
  14877650.54346  11663739.28543  24159224.6174                   24159224.8204
        37.0004         20.0004
  -8264336.47748  -6327393.68048  20149767.8674                   20149765.5354
        48.7504         50.2504
  11407301.02347   9154357.27046  22602977.6954                   22602975.6724
        44.2504         39.5004
  14290420.52047  11214437.43446  23040383.2114                   23040379.0514
        43.7504         38.0004
  33869087.09045  26469588.20344  24563628.9304                   24563628.9304
        34.5004         28.7504
 -14106204.34847 -10894290.60946  20658145.3054                   20658141.5634
        46.7504         38.7504
  46831483.18446  34598463.68845  24219571.2664                   24219568.0824
        41.7504         31.0004
  -9590069.74247  -7317441.65247  21637686.9924                   21637685.3794
        47.0004         43.0004
 -18785616.80147 -12518505.00845  21047991.8594                   21047986.2424
        46.7504         35.0004
 25  7 15  2 19 30.0000000  0  9G01G03G09G31G06G04G07G26G16
  14709816.28946  11532959.18043  24127287.3594                   24127286.8404
        39.0004         21.5004
  -8484577.03548  -6499009.73848  20107857.9454                   20107855.5474
        48.7504         50.2504
  11072426.80947   8893416.34846  22539252.3284                   22539251.1214
        43.0004         39.0004
  14126466.82447  11086681.27346  23009183.3364                   23009179.5474
        44.0004         37.7504
  33596164.95345  26256921.60545  24511694.1094                   24511693.7734
        35.2504         30.7504
 -14397659.40647 -11121398.44546  20602683.3674                   20602679.7544
        46.7504         39.2504
  46496847.90246  34337709.12945  24155891.3444                   24155889.7704
        39.2504         30.2504
  -9809275.25047  -7488251.15647  21595973.9774                   21595971.9654
        46.2504         43.0004
 -19094864.97347 -12759477.59045  20989143.3834                   20989138.3134
        47.2504         34.7504
 25  7 15  2 20  0.0000000  0  9G01G03G09G31G06G04G07G26G16
  16117396.90246  12629775.16443  24395141.5864                   24395140.6174
        38.5004         20.2504
  -7128813.07448  -5442570.31648  20365851.0784                   20365848.4144
        49.0004         50.2504
  12313051.00047   9860136.52346  22775335.6334                   22775334.3054
        42.7504         40.0004
  15538030.23447  12186600.77046  23277795.4454                   23277791.2934
        44.5004         37.2504
  34899212.48845  27272283.35545  24759655.1174                   24759655.3324
        34.0004         30.2504
 -13113485.30547 -10120743.29346  20847053.3134                   20847049.8554
        46.7504         38.0004
  47737846.77746  35304721.39845  24392046.5004                   24392043.3364
        41.5004         30.5004
  -8452459.66847  -6430992.27747  21854166.8054                   21854165.5274
        46.7504         43.0004
 -17828085.83647 -11772376.94145  21230203.9694                   21230197.9264
        46.2504         34.7504
 25  7 15  2 20 30.0000000  0  9G01G03G09G31G06G04G07G26G16
  15949534.73446  12498973.34043  24363197.9534                   24363197.8794
        37.7504         20.0004
  -7347903.62148  -5613290.23048  20324159.2034                   20324156.9414
        49.0004         50.2504
  11978308.43847   9599298.20746  22711637.0084                   22711634.9734
        42.7504         39.2504
  15374253.76647  12058982.70346  23246629.8524                   23246625.3484
        45.2504         37.2504
  34627367.89846  27060456.40245  24707925.3134                   24707924.7664
        36.0004         30.2504
 -13404544.12547 -10347542.38746  20791666.7894                   20791662.9264
        45.7504         37.7504
  47403614.23446  35044280.58245  24328443.3134                   24328441.0394
        39.5004         30.7504
  -8670482.55547  -6600880.25847  21812678.6644                   21812676.9534
        47.0004         43.0004
 -18136141.38347 -12012420.19946  21171582.8674                   21171577.1054
        46.2504         36.0004
 25  7 15  2 21  0.0000000  0  9G01G03G09G31G06G04G07G26G16
  15781658.95746  12368160.80143  24331252.2734                   24331252.3324
        37.5004         21.5004
  -7566416.08248  -5783559.69148  20282578.0944                   20282575.6884
        49.5004         50.5004
  11643637.24247   9338515.48446  22647950.9064                   22647948.8244
        42.2504         40.2504
  15210567.43847  11931434.85946  23215481.4304                   23215477.4574
        44.0004         37.5004
  34356066.25446  26849052.52345  24656297.7344                   24656298.2344
        37.0004         31.0004
 -13695399.12547 -10574182.65246  20736318.6724                   20736315.1174
        46.0004         38.0004
  47069588.13646  34784000.69145  24264879.7894                   24264878.5864
        39.2504         30.0004
  -8887912.05147  -6770305.85547  21771303.3364                   21771301.7704
        46.5004         42.7504
 -18443592.89547 -12251992.79345  21113076.4224                   21113071.2584
        46.0004         35.5004
