     2.11           OBSERVATION DATA    G (GPS)             RINEX VERSION / TYPE
teqc  2019Feb25     K Rivera            20250728 22:30:51UTCPGM / RUN BY / DATE
Linux 2.6.32-573.12.1.x86_64|x86_64|gcc -static|Linux 64|=+ COMMENT
teqc  2019Feb25                         20250728 22:30:25UTCCOMMENT
BIT 2 OF LLI FLAGS DATA COLLECTED UNDER A/S CONDITION       COMMENT
HAW0                                                        MARKER NAME
                                                            MARKER NUMBER
K Baraggiotta       University of California, Riverside     OBSERVER / AGENCY
0220413516          TRIMBLE R7          2.32                REC # / TYPE / VERS
12118428            TRM41249.00                             ANT # / TYPE
 -2410322.4991 -4646317.4869  3633562.3373                  APPROX POSITION XYZ
        1.0573        0.0000        0.0000                  ANTENNA: DELTA H/E/N
     1     1                                                WAVELENGTH FACT L1/2
     7    L1    L2    C1    P1    P2    S1    S2            # / TYPES OF OBSERV
    18                                                      LEAP SECONDS
 SNR is mapped to RINEX snr flag value [0-9]                COMMENT
  L1 & L2: min(max(int(snr_dBHz/6), 0), 9)                  COMMENT
  2025     7    15     0     0   30.0000000     GPS         TIME OF FIRST OBS
                                                            END OF HEADER
 25  7 15  0  0 30.0000000  0 10G01G02G03G10G28G31G32G25G04G26
 -17833373.01257 -13867627.81655  21189910.7034                   21189908.6884
        45.7504         35.2504
  -9756909.90657  -7584438.02355  21959376.3594                   21959372.2774
        47.5004         34.5004
 -23295309.60957 -18100942.27056  21854355.1564                   21854354.8204
        46.0004         41.5004
  -3624268.75856  -2819071.35955  24210988.9694                   24210991.5664
        40.5004         33.2504
 -10267534.41057  -7981387.39856  21405145.1094                   21405142.3874
        46.5004         36.0004
 -18940225.48058 -14727290.60558  20230667.8754                   20230664.5124
        49.5004         49.0004
  -4063260.98057  -3157929.15656  23573668.7504                   23573669.7074
        43.0004         37.0004
 -13469685.91855 -10460395.00054  24541997.7194                   24541999.8094
        33.0004         26.2504
 -20965915.29756 -16293684.17253  23446168.7664                   23446169.7034
        38.7504         21.5004
 -17901947.95356 -13905541.82055  23673649.0944                   23673652.2814
        39.0004         31.5004
 25  7 15  0  1  0.0000000  0 10G01G02G03G10G28G31G32G25G04G26
 -17934145.68047 -13946151.98045  21170734.4694                   21170731.9844
        46.5004         35.2504
  -9799680.35947  -7617765.69545  21951237.2504                   21951232.9964
        46.5004         34.5004
 -23468602.69547 -18235975.80147  21821378.7114                   21821378.4494
        45.5004         42.0004
  -3634242.32846  -2826843.10545  24209091.1334                   24209093.8364
        40.0004         33.0004
 -10310214.31647  -8014644.46946  21397022.9614                   21397020.1254
        47.0004         36.0004
 -19047056.48048 -14810535.52748  20210338.5164                   20210335.3364
        49.7504         49.0004
  -4089232.14147  -3178166.47345  23568726.6254                   23568727.5514
        43.0004         35.7504
 -13538219.00445 -10513797.39544  24528955.6484                   24528958.0634
        33.5004         26.0004
 -21129571.17646 -16421208.10543  23415026.3524                   23415027.0784
        39.5004         22.5004
 -18084922.95346 -14048119.60945  23638830.4844                   23638833.1254
        38.2504         31.0004
 25  7 15  0  1 30.0000000  0 10G01G02G03G10G28G31G32G25G04G26
 -18034265.11747 -14024167.14145  21151682.5634                   21151680.0234
        45.2504         35.0004
  -9841975.48047  -7650722.97345  21943188.7344                   21943184.8674
        45.5004         35.0004
 -23641673.37147 -18370836.03946  21788444.1884                   21788444.0824
        45.5004         41.7504
  -3643931.45346  -2834393.21545  24207247.4774                   24207250.3364
        39.5004         32.5004
 -10352366.02347  -8047489.97745  21389001.9534                   21388999.6564
        46.0004         35.0004
 -19153199.80948 -14893244.60948  20190140.0704                   20190136.4694
        49.0004         49.0004
  -4115119.94147  -3198338.83646  23563800.7424                   23563801.1564
        42.7504         36.2504
 -13606149.14545 -10566729.99644  24516029.5314                   24516031.1254
        34.0004         27.2504
 -21293027.72746 -16548576.73443  23383921.3054                   23383922.3914
        39.5004         22.7504
 -18267719.74646 -14190558.53545  23604044.9614                   23604048.1294
        39.0004         30.5004
 25  7 15  0  2  0.0000000  0 10G01G02G03G10G28G31G32G25G04G26
 -18133735.05947 -14101676.19945  21132754.0944                   21132751.8984
        47.0004         35.2504
  -9883801.56647  -7683314.77745  21935229.7584                   21935225.5634
        47.0004         35.5004
 -23814523.53947 -18505524.45347  21755551.9924                   21755551.9534
        45.7504         42.0004
  -3653340.73046  -2841725.26245  24205457.4774                   24205459.9024
        40.2504         32.5004
 -10393995.60547  -8079928.62145  21381079.9384                   21381077.8594
        46.2504         35.5004
 -19258659.62548 -14975421.07848  20170071.5944                   20170068.2624
        50.0004         48.7504
  -4140928.56247  -3218449.50046  23558889.7664                   23558889.9654
        43.5004         36.2504
 -13673480.57845 -10619196.07444  24503217.0394                   24503218.9184
        33.2504         26.7504
 -21456288.91046 -16675793.10944  23352853.8834                   23352854.2664
        40.0004         25.7504
 -18450339.09046 -14332859.19945  23569294.2424                   23569296.2854
        39.7504         31.0004
 25  7 15  0  2 30.0000000  0 10G01G02G03G10G28G31G32G25G04G26
 -18232547.87547 -14178673.20745  21113950.5394                   21113948.0204
        45.5004         35.5004
  -9925152.66847  -7715536.45745  21927360.6414                   21927356.8984
        46.7504         35.0004
 -23987143.78147 -18640033.70347  21722703.6334                   21722703.3674
        46.0004         42.5004
  -3662463.62946  -2848834.17645  24203720.7814                   24203724.0084
        40.0004         33.5004
 -10435097.78147  -8111956.30145  21373258.6804                   21373256.0744
        45.7504         35.5004
 -19363428.14548 -15057058.87548  20150134.7114                   20150131.3134
        49.0004         48.7504
  -4166650.93047  -3238492.95346  23553994.7424                   23553995.5474
        42.5004         36.5004
 -13740206.40245 -10671190.26244  24490518.4844                   24490521.0474
        34.5004         29.0004
 -21619347.45746 -16802851.59844  23321824.9384                   23321825.6054
        40.2504         24.0004
 -18632770.24246 -14475013.23845  23534578.0314                   23534580.8484
        39.0004         31.5004
 25  7 15  0  3  0.0000000  0 10G01G02G03G10G28G31G32G25G04G26
 -18330702.87147 -14255157.62545  21095272.1644                   21095269.8444
        46.0004         35.5004
  -9966030.53947  -7747389.38745  21919581.9534                   21919577.9344
        46.7504         35.0004
 -24159531.55147 -18774361.80547  21689899.6644                   21689899.1214
        45.5004         42.0004
  -3671300.16046  -2855719.94545  24202039.3984                   24202042.3164
        39.2504         33.0004
 -10475674.16847  -8143574.27746  21365537.0474                   21365534.6914
        46.0004         36.2504
 -19467505.26648 -15138157.92248  20130329.9614                   20130326.4344
        48.7504         48.7504
  -4192286.82047  -3258469.02046  23549116.5314                   23549116.5864
        43.0004         36.0004
 -13806326.40245 -10722712.37544  24477936.6564                   24477939.0434
        34.7504         27.2504
 -21782202.85946 -16929751.78944  23290834.3284                   23290834.9614
        40.0004         24.0004
 -18815009.41446 -14617017.68445  23499898.7504                   23499901.4264
        39.2504         31.0004
 25  7 15  0  3 30.0000000  0 10G01G02G03G10G28G31G32G25G04G26
 -18428196.28947 -14331126.53145  21076719.8444                   21076717.7934
        46.5004         35.5004
 -10006433.27047  -7778872.08245  21911893.6254                   21911889.2424
        46.0004         34.0004
 -24331681.21547 -18908504.37547  21657140.2504                   21657140.1374
        46.0004         42.5004
  -3679847.53146  -2862380.39845  24200413.4844                   24200416.1374
        39.5004         33.7504
 -10515723.27747  -8174781.39145  21357915.7814                   21357913.5704
        45.7504         35.7504
 -19570887.29748 -15218715.34448  20110656.8524                   20110653.6214
        48.5004         48.7504
  -4217832.89147  -3278375.10245  23544255.5394                   23544255.5354
        42.7504         35.2504
 -13871837.51245 -10773760.02044  24465470.5394                   24465473.0044
        34.2504         28.5004
 -21944851.51246 -17056490.87543  23259882.9534                   23259883.7774
        40.0004         23.7504
 -18997049.79346 -14758867.21945  23465258.2974                   23465260.6724
        39.2504         30.2504
 25  7 15  0  4  0.0000000  0 10G01G02G03G10G28G31G32G25G04G26
 -18525026.39547 -14406578.57845  21058293.8754                   21058291.6604
        45.5004         35.2504
 -10046361.00447  -7809984.64845  21904295.6564                   21904291.5434
        45.7504         34.7504
 -24503589.06247 -19042458.51247  21624426.6954                   21624427.1054
        46.2504         42.2504
  -3688104.83646  -2868814.83245  24198842.2424                   24198845.1564
        38.7504         34.0004
 -10555245.63347  -8205578.04345  21350395.1644                   21350392.7384
        46.0004         35.7504
 -19673572.74248 -15298729.97348  20091116.4774                   20091112.8404
        49.0004         48.7504
  -4243287.75047  -3298210.11346  23539411.6804                   23539411.7274
        42.5004         36.2504
 -13936738.41445 -10824332.19944  24453119.7974                   24453122.5824
        34.5004         27.0004
 -22107291.82046 -17183067.61343  23228971.2274                   23228972.3524
        41.0004         23.2504
 -19178886.45946 -14900558.02445  23430655.2974                   23430658.4184
        39.7504         31.0004
 25  7 15  0  4 30.0000000  0 10G01G02G03G10G28G31G32G25G04G26
 -18621192.56647 -14481513.26645  21039994.1334                   21039991.3674
        45.7504         35.0004
 -10085815.56647  -7840728.50445  21896787.7114                   21896783.3404
        45.2504         34.2504
 -24675252.45747 -19176222.17247  21591760.5394                   21591760.6564
        47.0004         42.5004
  -3696072.21946  -2875023.34045  24197326.9304                   24197328.9964
        38.7504         33.5004
 -10594242.85947  -8235965.50445  21342974.2974                   21342972.0124
        45.7504         35.5004
 -19775561.05948 -15378201.38748  20071708.7894                   20071705.0784
        48.5004         49.0004
  -4268651.16447  -3317973.87545  23534585.0554                   23534585.5274
        43.0004         35.5004
 -14001029.08645 -10874428.86344  24440886.7814                   24440887.8244
        35.5004         29.0004
 -22269523.30146 -17309481.62944  23198099.4774                   23198100.6724
        40.2504         24.5004
 -19360515.48846 -15042087.03145  23396092.8524                   23396095.0514
        39.7504         31.5004
 25  7 15  0  5  0.0000000  0 10G01G02G03G10G28G31G32G25G04G26
 -18716691.49647 -14555928.03145  21021820.8204                   21021818.6914
        45.5004         35.5004
 -10124795.77347  -7871102.73845  21889370.2974                   21889365.9534
        45.0004         34.5004
 -24846666.23047 -19309791.32047  21559141.5164                   21559141.5514
        46.5004         43.0004
  -3703747.30946  -2881004.11745  24195865.1564                   24195868.3874
        37.7504         33.0004
 -10632713.94147  -8265942.98845  21335653.3594                   21335651.0514
        46.0004         35.5004
 -19876849.39547 -15457127.35548  20052434.3914                   20052430.7154
        47.5004         48.7504
  -4293920.13347  -3337664.03145  23529776.8364                   23529777.0984
        42.7504         35.0004
 -14064706.84845 -10924047.93444  24428768.5704                   24428770.9654
        35.5004         28.5004
 -22431542.78546 -17435730.45744  23167268.3984                   23167269.1524
        40.2504         24.7504
 -19541930.47346 -15183449.25045  23361569.9844                   23361572.7504
        39.7504         31.5004
 25  7 15  0  5 30.0000000  0 10G01G02G03G10G28G31G32G25G04G26
 -18811523.77747 -14629823.32045  21003775.1884                   21003773.0004
        45.7504         35.5004
 -10163304.20747  -7901109.35245  21882042.5634                   21882038.2154
        45.7504         34.5004
 -25017828.88347 -19443164.78147  21526570.2424                   21526570.2424
        46.5004         42.7504
  -3711131.42246  -2886758.14845  24194460.0944                   24194463.5904
        37.0004         32.2504
 -10670661.65247  -8295512.64545  21328432.5164                   21328429.5434
        46.0004         35.0004
 -19977438.50448 -15535508.48048  20033292.7584                   20033289.0514
        48.7504         49.0004
  -4319095.52047  -3357281.27745  23524985.7114                   23524986.4654
        43.0004         35.5004
 -14127772.80946 -10973190.25444  24416767.9454                   24416769.9144
        36.0004         28.5004
 -22593350.93746 -17561814.62144  23136477.0944                   23136477.6914
        40.0004         25.7504
 -19723128.74246 -15324642.60245  23327089.3134                   23327092.1254
        39.2504         31.2504
 25  7 15  0  6  0.0000000  0 10G01G02G03G10G28G31G32G25G04G26
 -18905690.43447 -14703199.94945  20985855.8284                   20985853.1884
        45.7504         35.5004
 -10201343.52047  -7930750.42645  21874803.3754                   21874799.3594
        46.0004         34.0004
 -25188739.29747 -19576341.70347  21494047.4924                   21494046.9264
        47.0004         43.5004
  -3718226.38346  -2892286.87945  24193110.0704                   24193113.3524
        37.7504         32.0004
 -10708089.23447  -8324677.00845  21321310.1804                   21321307.8054
        46.5004         34.7504
 -20077329.55948 -15613345.66448  20014284.1564                   20014280.7624
        48.7504         49.0004
  -4344178.61747  -3376826.61345  23520212.7344                   23520213.1524
        42.5004         35.5004
 -14190228.66045 -11021857.18744  24404882.6724                   24404885.4454
        35.5004         27.7504
 -22754948.82446 -17687734.94144  23105725.7114                   23105726.5984
        40.0004         25.5004
 -19904108.04746 -15465665.32045  23292650.1884                   23292652.6294
        38.7504         31.7504
 25  7 15  0  6 30.0000000  0 10G01G02G03G10G28G31G32G25G04G26
 -18999191.42647 -14776057.87545  20968062.8364                   20968061.0664
        45.5004         35.2504
 -10238916.03147  -7960027.76645  21867653.7274                   21867649.8364
        46.5004         34.0004
 -25359395.44547 -19709320.48847  21461572.2424                   21461572.3244
        45.7504         43.0004
  -3725032.87546  -2897590.83245  24191815.3284                   24191819.1094
        36.7504         31.0004
 -10744998.90647  -8353437.80545  21314286.3754                   21314283.6414
        45.7504         35.5004
 -20176522.87148 -15690639.14548  19995408.1174                   19995404.5164
        49.0004         49.0004
  -4369169.62147  -3396300.17245  23515456.8134                   23515457.6454
        43.7504         35.2504
 -14252074.75446 -11070048.99244  24393113.5554                   24393116.3404
        36.2504         28.5004
 -22916336.53146 -17813491.47344  23075015.4924                   23075015.2974
        41.0004         26.0004
 -20084865.09046 -15606514.85245  23258253.4384                   23258255.9654
        39.0004         32.0004
 25  7 15  0  7  0.0000000  0 10G01G02G03G10G28G31G32G25G04G26
 -19092025.72747 -14848396.30145  20950397.1094                   20950395.0274
        46.0004         35.0004
 -10276022.93447  -7988942.28145  21860592.9694                   21860588.7854
        46.2504         34.5004
 -25529794.12947 -19842098.65247  21429147.0554                   21429146.7544
        46.5004         43.2504
  -3731550.71946  -2902669.86345  24190575.8204                   24190578.7234
        36.5004         31.0004
 -10781391.72347  -8381795.85945  21307361.2664                   21307358.5594
        45.5004         35.5004
 -20275017.71948 -15767388.38348  19976665.3524                   19976661.5234
        48.0004         49.0004
  -4394067.72347  -3415701.34845  23510718.6414                   23510719.6804
        42.2504         35.2504
 -14313310.78546 -11117765.42645  24381461.4224                   24381463.3594
        36.2504         30.0004
 -23077512.96546 -17939083.38344  23044344.1024                   23044344.6994
        40.7504         26.0004
 -20265395.43446 -15747187.74245  23223899.1644                   23223901.3794
        39.5004         32.2504
 25  7 15  0  7 30.0000000  0 10G01G02G03G10G28G31G32G25G04G26
 -17608773.65647 -13692615.46945  21232650.7194                   21232648.4734
        45.7504         34.7504
  -8737247.96947  -6789896.90245  22153411.9454                   22153407.7504
        45.5004         34.7504
 -24124510.91047 -18747072.74247  21696563.2034                   21696563.2074
        46.0004         43.2504
  -2162363.77046  -1679926.98445  24489181.9224                   24489184.6254
        36.0004         30.5004
  -9241852.07447  -7182154.59445  21600325.6804                   21600323.0784
        46.0004         35.2504
 -18797394.21148 -14615993.43048  20257847.7584                   20257844.1724
        48.7504         49.0004
  -2843455.60247  -2207432.23045  23805790.8834                   23805791.4694
        43.2504         35.7504
 -12798518.55546  -9937407.88344  24669716.9534                   24669718.3524
        37.7504         28.5004
 -21663056.17246 -16836909.15644  23313505.8674                   23313506.6454
        41.5004         26.7504
 -18870273.16446 -14660079.37945  23489382.1954                   23489384.2424
        39.5004         32.5004
 25  7 15  0  8  0.0000000  0 10G01G02G03G10G28G31G32G25G04G26
 -17700277.22748 -13763916.96145  21215237.8524                   21215235.9534
        48.2504         35.5004
  -8773431.72747  -6818092.08245  22146526.2114                   22146522.3284
        46.2504         34.7504
 -24294390.82847 -18879446.67247  21664235.8984                   21664236.0084
        47.0004         43.2504
  -2168309.01245  -1684559.83245  24488050.0704                   24488053.9734
        35.5004         30.0004
  -9277220.39847  -7209714.34445  21593595.3284                   21593593.2464
        46.0004         35.2504
 -18894495.13348 -14691656.48448  20239370.2664                   20239366.4534
        48.5004         49.0004
  -2868170.92247  -2226690.97345  23801087.9844                   23801088.7074
        42.7504         34.5004
 -12858538.60946  -9984176.77744  24658295.0084                   24658297.1644
        37.5004         28.5004
 -21823812.71546 -16962173.88344  23282915.1334                   23282915.6844
        41.2504         26.0004
 -19050342.74246 -14800393.21145  23455116.0084                   23455118.4454
        40.2504         33.0004
 25  7 15  0  8 30.0000000  0 10G01G02G03G10G28G31G32G25G04G26
 -17791116.21548 -13834700.59845  21197952.2664                   21197950.1134
        48.0004         35.2504
  -8809157.72347  -6845930.57045  22139727.8834                   22139724.0124
        45.5004         34.5004
 -24464008.70747 -19011616.41847  21631958.6334                   21631958.4694
        46.7504         43.2504
  -2173969.78145  -1688971.03544  24486972.6334                   24486976.9844
        34.5004         29.0004
  -9312080.36347  -7236877.96545  21586962.2034                   21586959.4774
        45.2504         34.7504
 -18990900.20347 -14766777.30948  20221024.8444                   20221021.3094
        47.5004         49.0004
  -2892795.77347  -2245879.24245  23796401.2274                   23796402.4614
        42.7504         35.0004
 -12917952.27046 -10030473.18044  24646988.5474                   24646991.2154
        37.2504         28.0004
 -21984360.00446 -17087275.54744  23252364.2114                   23252364.6094
        41.2504         26.7504
 -19230177.60546 -14940524.17645  23420894.5474                   23420896.8984
        40.7504         32.2504
 25  7 15  0  9  0.0000000  0 10G01G02G03G10G28G31G32G25G04G26
 -17881285.37147 -13904962.28545  21180793.3914                   21180790.9184
        46.0004         35.5004
  -8844422.75047  -6873409.86745  22133017.2504                   22133013.0864
        45.7504         34.2504
 -24633357.23847 -19143576.28147  21599732.5394                   21599732.2544
        47.0004         43.5004
  -2179341.56245  -1693157.03544  24485951.4844                   24485954.7704
        35.7504         29.7504
  -9346428.96947  -7263643.12945  21580425.3364                   21580422.9844
        45.2504         35.5004
 -19086604.52348 -14841352.10248  20202812.7194                   20202808.9964
        49.5004         49.0004
  -2917325.00847  -2264992.98846  23791733.8984                   23791734.9224
        42.5004         36.0004
 -12976754.92246 -10076293.46544  24635799.4224                   24635801.9964
        37.5004         29.2504
 -22144692.73446 -17212210.03944  23221853.5944                   23221854.1684
        41.2504         26.5004
 -19409769.12546 -15080465.50445  23386719.9304                   23386721.7194
        40.5004         32.5004
 25  7 15  0  9 30.0000000  0 10G01G02G03G10G28G31G32G25G04G26
 -17970793.38347 -13974708.80145  21163760.6174                   21163758.6174
        47.5004         35.0004
  -8879237.32447  -6900538.14545  22126392.6094                   22126388.8094
        45.2504         34.5004
 -24802442.68447 -19275331.14547  21567556.8524                   21567556.7854
        46.7504         43.5004
  -2184433.76645  -1697125.21144  24484982.4454                   24484986.3404
        34.2504         27.5004
  -9380276.92647  -7290018.17645  21573984.6174                   21573981.9694
        45.5004         35.5004
 -19181617.02748 -14915387.80948  20184732.2504                   20184728.8674
        48.0004         49.2504
  -2941767.27747  -2284038.97345  23787083.0474                   23787083.5784
        43.0004         35.7504
 -13034955.73046 -10121644.78144  24624723.5554                   24624726.5434
        37.7504         29.0004
 -22304819.45746 -17336984.00444  23191382.3674                   23191382.8444
        41.7504         25.7504
 -19589122.43046 -15220221.21945  23352588.9844                   23352591.8404
        40.5004         34.0004
 25  7 15  0 10  0.0000000  0 10G01G02G03G10G28G31G32G25G04G26
 -18059634.65647 -14043935.77045  21146854.8054                   21146852.3954
        47.7504         35.5004
  -8913597.66047  -6927312.48445  22119853.6804                   22119849.8364
        46.0004         34.2504
 -24971257.16447 -19406874.87147  21535433.0864                   21535432.4104
        46.7504         43.5004
  -2189241.29345  -1700871.55544  24484068.6644                   24484071.4844
        35.5004         29.0004
  -9413620.68747  -7316000.34445  21567639.3364                   21567636.7544
        46.2504         34.7504
 -19275932.41448 -14988880.31248  20166784.6644                   20166781.1994
        48.0004         49.0004
  -2966117.03547  -2303012.86345  23782449.2504                   23782450.4884
        43.0004         35.7504
 -13092549.64546 -10166523.19944  24613764.3834                   24613766.8244
        37.5004         28.5004
 -22464734.50846 -17461593.01644  23160951.4534                   23160951.4064
        41.2504         25.5004
 -19768228.50446 -15359784.28545  23318506.5004                   23318508.5594
        40.5004         33.2504
 25  7 15  0 10 30.0000000  0 10G01G02G03G10G28G31G32G25G04G26
 -18147812.14847 -14112645.52045  21130075.0004                   21130072.8364
        46.7504         35.5004
  -8947508.81647  -6953736.80145  22113400.9924                   22113396.7814
        45.7504         35.0004
 -25139801.26647 -19538207.91447  21503359.6954                   21503359.6174
        47.0004         43.5004
  -2193767.78145  -1704398.88344  24483205.9774                   24483210.3014
        35.7504         28.0004
  -9446465.36347  -7341593.61745  21561389.3834                   21561386.5634
        45.2504         35.5004
 -19369553.83647 -15061832.06648  20148969.1254                   20148965.8984
        47.5004         49.0004
  -2990377.16447  -2321916.91445  23777832.9064                   23777833.8364
        42.0004         35.5004
 -13149540.17646 -10210931.43744  24602919.0864                   24602921.8874
        37.7504         27.7504
 -22624440.63346 -17586039.24244  23130560.5234                   23130560.9734
        41.2504         24.7504
 -19947086.71546 -15499154.20745  23284470.6414                   23284473.1994
        41.0004         34.5004
 25  7 15  0 11  0.0000000  0 10G01G02G03G10G28G31G32G25G04G26
 -18235324.16047 -14180836.70745  21113422.1644                   21113419.6954
        47.5004         35.0004
  -8980971.09047  -6979811.35545  22107033.3914                   22107029.3054
        46.7504         34.7504
 -25308070.90247 -19669327.07847  21471339.1564                   21471338.9384
        47.0004         43.5004
  -2198012.25046  -1707706.48444  24482398.7034                   24482402.7734
        36.5004         27.7504
  -9478811.21547  -7366798.18745  21555234.0634                   21555231.4224
        45.7504         35.5004
 -19462479.79347 -15134241.89548  20131285.8364                   20131282.1644
        47.5004         49.0004
  -3014545.90247  -2340749.75045  23773233.3754                   23773234.2624
        42.0004         35.2504
 -13205926.17246 -10254868.59444  24592189.5634                   24592191.8524
        38.5004         28.0004
 -22783936.05546 -17710321.28144  23100209.1414                   23100209.7894
        40.5004         25.2504
 -20125691.89546 -15638326.96945  23250483.2504                   23250485.8874
        39.7504         34.5004
 25  7 15  0 11 30.0000000  0 10G01G02G03G10G28G31G32G25G04G26
 -18322171.50047 -14248509.97745  21096895.3444                   21096893.7974
        47.7504         35.0004
  -9013987.19947  -7005538.24245  22100750.7664                   22100746.6644
        46.0004         34.5004
 -25476064.47747 -19800231.13747  21439370.5314                   21439370.7544
        47.5004         43.5004
  -2201976.00446  -1710795.34044  24481645.0634                   24481648.9654
        37.0004         28.0004
  -9510661.08647  -7391616.29345  21549173.2194                   21549170.6414
        45.5004         34.7504
 -19554711.33648 -15206110.62148  20113734.7504                   20113731.6254
        48.5004         48.7504
  -3038623.96947  -2359511.93745  23768652.0234                   23768652.7584
        42.5004         35.5004
 -13261708.96546 -10298335.71944  24581574.7504                   24581576.9224
        39.0004         26.2504
 -22943221.26246 -17834439.52044  23069898.1484                   23069898.5904
        40.0004         25.7504
 -20304041.17646 -15777300.33645  23216544.3284                   23216546.5234
        39.7504         34.0004
 25  7 15  0 12  0.0000000  0 10G01G02G03G10G28G31G32G25G04G26
 -18408345.28147 -14315658.38745  21080497.2894                   21080495.2234
        47.5004         35.0004
  -9046550.06247  -7030911.95345  22094553.8524                   22094550.1644
        45.5004         34.7504
 -25643770.58247 -19930911.19547  21407457.5394                   21407457.4774
        47.2504         43.7504
  -2205650.68746  -1713658.93744  24480945.8204                   24480949.7624
        37.5004         28.7504
  -9542008.06247  -7416042.51645  21543208.1254                   21543205.7894
        45.2504         35.0004
 -19646239.88747 -15277431.55948  20096317.6094                   20096314.1294
        47.5004         48.7504
  -3062602.32047  -2378196.42646  23764089.3754                   23764089.4884
        42.2504         36.5004
 -13316880.21546 -10341326.33244  24571076.0784                   24571078.1604
        38.2504         27.5004
 -23102287.12546 -17958386.83244  23039628.8284                   23039629.4184
        40.7504         24.5004
 -20482122.12946 -15916064.60545  23182656.9064                   23182659.1294
        39.5004         34.0004
 25  7 15  0 12 30.0000000  0 10G01G02G03G10G28G31G32G25G04G26
 -18493845.50048 -14382281.94945  21064227.5234                   21064224.8634
        48.0004         35.2504
  -9078661.50447  -7055933.90645  22088443.6094                   22088439.8094
        45.0004         34.0004
 -25811186.73047 -20061365.30947  21375598.8754                   21375599.0744
        47.2504         44.0004
  -2209036.90246  -1716297.75844  24480301.3204                   24480305.2274
        38.2504         27.7504
  -9572854.18447  -7440078.47745  21537338.2114                   21537335.4964
        45.0004         34.5004
 -19737065.56247 -15348204.80548  20079034.1024                   20079030.3204
        47.5004         49.0004
  -3086480.77347  -2396803.06246  23759545.5784                   23759546.0124
        42.5004         36.0004
 -13371440.36746 -10383840.77744  24560692.9694                   24560695.9414
        38.7504         26.2504
 -23261133.49246 -18082163.12544  23009401.2814                   23009401.8444
        41.0004         27.0004
 -20659931.04746 -16054616.90645  23148821.0554                   23148822.8914
        39.5004         34.2504
 25  7 15  0 13  0.0000000  0 10G01G02G03G10G28G31G32G25G04G26
 -18578684.20748 -14448390.04745  21048082.7194                   21048080.6024
        48.5004         35.2504
  -9110335.16847  -7080614.73045  22082415.8984                   22082412.4614
        46.5004         34.2504
 -25978322.52747 -20191600.97347  21343794.7194                   21343794.1484
        47.2504         44.0004
  -2212147.33646  -1718721.68044  24479710.1174                   24479713.3834
        38.7504         27.0004
  -9603213.41847  -7463735.04345  21531561.4144                   21531558.8484
        46.0004         34.5004
 -19827200.73448 -15418440.00048  20061882.0554                   20061878.4144
        48.0004         48.7504
  -3110271.21947  -2415341.13746  23755018.1804                   23755019.1954
        43.0004         36.0004
 -13425402.16446 -10425888.96544  24550424.6414                   24550427.0234
        38.0004         25.7504
 -23419772.09446 -18205777.51644  22979213.5084                   22979214.1054
        40.2504         24.5004
 -20837476.37946 -16192963.81245  23115035.0394                   23115036.7664
        39.7504         34.5004
 25  7 15  0 13 30.0000000  0 10G01G02G03G10G28G31G32G25G04G26
 -18662862.41848 -14513983.47345  21032064.3754                   21032062.5234
        48.2504         35.0004
  -9141574.30147  -7104956.96545  22076471.3524                   22076467.8444
        45.5004         34.2504
 -26145176.37948 -20321616.93747  21312043.0234                   21312042.9024
        48.0004         44.0004
  -2214983.41046  -1720931.80544  24479170.2114                   24479174.2624
        39.2504         27.5004
  -9633088.74247  -7487014.53145  21525876.3364                   21525873.5474
        45.7504         34.7504
 -19916646.79747 -15488138.22748  20044860.8984                   20044857.2974
        47.2504         48.7504
  -3133974.37547  -2433811.19146  23750508.2814                   23750508.5274
        43.0004         36.0004
 -13478767.01246 -10467472.00844  24540269.9064                   24540272.1994
        38.2504         25.5004
 -23578203.62146 -18329230.55944  22949064.5084                   22949064.8134
        41.0004         25.7504
 -21014755.43746 -16331103.22345  23081299.6174                   23081301.9264
        39.2504         34.7504
 25  7 15  0 14  0.0000000  0 10G01G02G03G10G28G31G32G25G04G26
 -18746383.07848 -14579064.52345  21016170.8204                   21016168.6604
        48.0004         35.0004
  -9172383.66447  -7128964.31245  22070608.5234                   22070605.4144
        45.0004         34.7504
 -26311748.63747 -20451413.47347  21280345.6724                   21280345.0904
        47.5004         44.2504
  -2217548.65246  -1722930.90644  24478682.5084                   24478685.7234
        40.0004         27.0004
  -9662485.07047  -7509920.78545  21520282.0944                   21520279.7734
        44.7504         35.0004
 -20005406.76247 -15557301.83248  20027970.3284                   20027967.0984
        47.7504         48.7504
  -3157592.98447  -2452215.36345  23746013.4224                   23746014.1604
        42.0004         35.5004
 -13531538.33246 -10508592.53544  24530228.1484                   24530230.3984
        38.5004         25.0004
 -23736430.75046 -18452524.32444  22918955.0394                   22918955.3404
        40.7504         26.0004
 -21191767.46946 -16469034.58245  23047615.4614                   23047617.8204
        39.5004         35.0004
 25  7 15  0 14 30.0000000  0 10G01G02G03G10G28G31G32G25G04G26
 -18829252.57447 -14643638.17245  21000401.5474                   21000399.6804
        47.7504         35.2504
  -9202771.23847  -7152642.98845  22064826.0864                   22064822.2464
        45.0004         34.0004
 -26478043.09447 -20580993.53547  21248700.5944                   21248700.2344
        47.5004         44.5004
  -2219849.88346  -1724724.27744  24478244.9774                   24478248.3364
        40.0004         28.0004
  -9691410.66047  -7532460.22745  21514777.8134                   21514775.4064
        45.2504         35.0004
 -20093487.17248 -15625935.90648  20011209.2034                   20011205.8874
        48.2504         49.0004
  -3181133.21547  -2470558.45746  23741533.7504                   23741534.5164
        42.2504         36.0004
 -13583723.19146 -10549256.08644  24520296.4534                   24520299.4264
        38.0004         25.0004
 -23894459.43446 -18575663.46144  22888883.3754                   22888883.5314
        40.0004         25.5004
 -21368515.08246 -16606759.89545  23013981.0314                   23013983.6604
        40.0004         34.0004
 25  7 15  0 15  0.0000000  0 10G01G02G03G10G28G31G32G25G04G26
 -18911464.98447 -14707699.80945  20984757.0394                   20984755.0514
        47.5004         35.2504
  -9232733.45747  -7175990.23045  22059124.6254                   22059121.1804
        45.5004         33.7504
 -26644051.19947 -20710350.46947  21217110.0634                   21217110.6684
        47.7504         44.5004
  -2221881.74246  -1726307.76244  24477858.6414                   24477862.4574
        40.7504         27.7504
  -9719861.49247  -7554629.73045  21509363.8204                   21509361.2504
        45.7504         34.7504
 -20180882.55148 -15694036.19148  19994578.3914                   19994575.2154
        48.0004         48.7504
  -3204588.62946  -2488835.46146  23737070.4304                   23737071.4494
        41.5004         36.0004
 -13635315.99646 -10589458.29744  24510479.6094                   24510481.5314
        39.0004         24.5004
 -24052283.52046 -18698643.16844  22858850.1334                   22858850.0354
        40.7504         26.5004
 -21544988.64146 -16744271.66045  22980399.5394                   22980401.8524
        40.5004         34.5004
 25  7 15  0 15 30.0000000  0 10G01G02G03G10G28G31G32G25G04G26
 -17417601.44547 -13543650.30545  21269029.7894                   21269027.5634
        47.7504         35.0004
  -7686854.07847  -5971408.94945  22353295.9304                   22353292.1524
        45.2504         32.7504
 -25234348.55947 -19611880.84447  21485367.8754                   21485367.5514
        47.7504         44.5004
   -648228.30546   -500084.53144  24777315.2504                   24777318.7974
        40.0004         28.2504
  -8172422.34847  -6348833.02045  21803831.7734                   21803829.6334
        45.7504         34.0004
 -18692173.96148 -14534003.52748  20277870.1174                   20277866.6684
        48.0004         48.7504
  -1652542.00846  -1279448.55146  24032414.8444                   24032415.6054
        41.5004         36.0004
 -12110899.53946  -9401601.33244  24800566.2194                   24800568.6564
        39.0004         24.5004
 -22634481.06246 -17593861.93044  23128649.0084                   23128648.9574
        41.2504         25.5004
 -20145762.25846 -15653965.29345  23246663.2114                   23246665.2704
        40.0004         34.2504
 25  7 15  0 16  0.0000000  0 10G01G02G03G10G28G31G32G25G04G26
 -17498508.31247 -13606694.62945  21253633.8204                   21253631.4224
        47.5004         35.0004
  -7715977.91447  -5994102.89845  22347753.4844                   22347750.1134
        44.5004         34.0004
 -25399784.45347 -19740791.89847  21453886.1564                   21453885.9774
        47.5004         44.7504
   -649731.26246   -501255.89544  24777028.7274                   24777033.1914
        40.5004         29.0004
  -8199937.84047  -6370273.68745  21798595.4614                   21798593.4264
        45.0004         34.2504
 -18778208.63348 -14601043.52348  20261498.2734                   20261495.0164
        48.5004         48.7504
  -1675835.43046  -1297599.33245  24027982.2584                   24027983.4774
        41.2504         35.2504
 -12161318.61746  -9440888.94544  24790971.2734                   24790974.6134
        39.0004         25.2504
 -22791903.15246 -17716528.38344  23098692.6414                   23098692.6454
        41.5004         27.0004
 -20321684.83246 -15791047.73445  23213185.9454                   23213188.2814
        41.2504         34.7504
 25  7 15  0 16 30.0000000  0 10G01G02G03G10G28G31G32G25G04G26
 -17578763.29748 -13669230.99245  21238361.7664                   21238359.5634
        48.7504         35.5004
  -7744686.59447  -6016473.34845  22342290.5704                   22342287.1054
        45.5004         33.2504
 -25564931.00847 -19869477.48847  21422460.0164                   21422459.8404
        47.7504         45.0004
   -650971.28946   -502222.39844  24776793.1024                   24776797.2194
        38.7504         29.5004
  -8226989.34847  -6391352.80545  21793447.8204                   21793445.6054
        45.7504         34.7504
 -18863564.13748 -14667554.30148  20245256.1094                   20245252.4264
        48.2504         48.7504
  -1699048.15246  -1315687.23046  24023564.2894                   24023566.1454
        41.0004         36.0004
 -12211152.40246  -9479720.50044  24781489.7584                   24781491.2894
        39.2504         25.2504
 -22949124.45346 -17839038.41444  23068774.5314                   23068774.1054
        41.7504         25.2504
 -20497327.05146 -15927911.71145  23179762.5474                   23179764.8714
        39.7504         34.5004
 25  7 15  0 17  0.0000000  0 10G01G02G03G10G28G31G32G25G04G26
 -17658364.44547 -13731257.87945  21223213.7274                   21223211.8014
        47.7504         35.2504
  -7772979.94947  -6038520.17645  22336906.3364                   22336902.8164
        44.5004         33.2504
 -25729783.50847 -19997933.94947  21391089.7424                   21391089.3634
        47.5004         45.0004
   -651946.78946   -502982.77344  24776607.8984                   24776611.8594
        38.2504         29.2504
  -8253576.69147  -6412070.23845  21788388.3984                   21788386.2704
        44.7504         34.5004
 -18948238.77748 -14733534.53148  20229142.7504                   20229139.4264
        48.5004         48.5004
  -1722177.70746  -1333710.32445  24019163.7274                   24019164.6254
        41.0004         35.5004
 -12260399.54746  -9518094.92643  24772117.1644                   24772120.0944
        38.2504         23.0004
 -23106142.57847 -17961390.10244  23038894.9774                   23038894.7234
        42.2504         25.0004
 -20672683.10946 -16064552.70745  23146393.3204                   23146395.4924
        40.2504         34.7504
 25  7 15  0 17 30.0000000  0 10G01G02G03G10G28G31G32G25G04G26
 -17737317.32847 -13792779.62145  21208189.6564                   21208187.6294
        47.5004         34.7504
  -7800864.89147  -6060248.75845  22331600.2194                   22331596.5984
        45.5004         33.0004
 -25894344.75447 -20126163.45347  21359774.3284                   21359774.2624
        47.0004         45.0004
   -652663.80546   -503541.75844  24776471.3914                   24776475.5944
        38.0004         28.7504
  -8279707.22247  -6432431.72045  21783416.0394                   21783414.0044
        46.0004         34.0004
 -19032238.39148 -14798988.77048  20213158.0864                   20213154.7504
        48.2504         48.7504
  -1745229.22347  -1351672.60245  24014777.3134                   24014778.1954
        42.5004         35.5004
 -12309065.96146  -9556016.84143  24762857.4614                   24762858.7504
        38.5004         22.7504
 -23262962.60947 -18083587.42644  23009053.5864                   23009052.7384
        42.7504         26.0004
 -20847754.68046 -16200972.01245  23113078.0474                   23113080.5474
        40.5004         35.2504
 25  7 15  0 18  0.0000000  0 10G01G02G03G10G28G31G32G25G04G26
 -17815623.60247 -13853797.50445  21193288.7114                   21193286.2424
        47.7504         35.0004
  -7828344.85247  -6081661.76645  22326371.0944                   22326367.3164
        44.7504         32.5004
 -26058613.54747 -20254165.07447  21328515.0864                   21328515.0394
        47.5004         45.0004
   -653124.38346   -503900.90644  24776383.4304                   24776388.7034
        37.5004         29.5004
  -8305384.50847  -6452440.02345  21778530.1644                   21778527.8444
        45.0004         34.2504
 -19115564.71148 -14863918.36348  20197301.7584                   20197298.1724
        48.7504         48.7504
  -1768203.83247  -1369574.96945  24010405.9614                   24010406.4884
        42.0004         35.7504
 -12357153.93046  -9593487.98843  24753705.1414                   24753707.8014
        37.5004         22.5004
 -23419585.73447 -18205631.33644  22979248.3364                   22979247.7854
        43.2504         26.2504
 -21022539.52046 -16337167.91045  23079817.1334                   23079820.0634
        40.2504         35.5004
 25  7 15  0 18 30.0000000  0 10G01G02G03G10G28G31G32G25G04G26
 -17893283.28147 -13914311.55945  21178510.5314                   21178508.3364
        47.2504         35.0004
  -7855421.35247  -6102760.39845  22321218.4454                   22321214.5864
        45.5004         33.0004
 -26222586.98047 -20381936.55147  21297312.0004                   21297311.6724
        47.5004         45.2504
   -653328.77346   -504060.45344  24776345.3134                   24776349.8364
        37.0004         28.0004
  -8330610.10947  -6472096.36345  21773729.9844                   21773727.5594
        44.5004         34.2504
 -19198218.00448 -14928323.52048  20181573.3914                   20181569.9144
        48.7504         48.7504
  -1791100.94946  -1387416.93446  24006048.7894                   24006049.6644
        41.0004         36.0004
 -12404663.80946  -9630508.69143  24744665.0784                   24744667.7304
        38.0004         22.5004
 -23576011.28147 -18327521.28944  22949481.5314                   22949481.1174
        42.7504         26.5004
 -21197033.62546 -16473137.25845  23046612.4144                   23046614.6174
        40.5004         35.5004
 25  7 15  0 19  0.0000000  0 10G01G02G03G10G28G31G32G25G04G26
 -17970298.85948 -13974323.70745  21163855.2194                   21163852.5084
        48.5004         35.0004
  -7882099.04747  -6123548.26245  22316142.1094                   22316138.4344
        44.2504         33.0004
 -26386264.71147 -20509477.60947  21266165.4064                   21266165.0004
        47.7504         45.5004
   -653279.87945   -504022.62944  24776354.9924                   24776359.2664
        34.5004         27.0004
  -8355388.33647  -6491404.09445  21769014.3754                   21769012.5744
        44.7504         34.7504
 -19280201.32848 -14992206.62548  20165972.5164                   20165969.1334
        48.7504         48.7504
  -1813922.61346  -1405200.10545  24001705.5944                   24001706.5204
        40.7504         35.2504
 -12451598.71146  -9667081.37543  24735733.1954                   24735736.6644
        37.5004         22.2504
 -23732241.26247 -18449258.84044  22919751.9454                   22919751.2974
        43.0004         26.0004
 -21371235.55946 -16608878.94545  23013462.9534                   23013464.9614
        39.5004         34.7504
 25  7 15  0 19 30.0000000  0 11G01G02G03G16G10G28G31G32G25G04G26
 -18046672.51647 -14033835.64845  21149321.4924                   21149318.9304
        47.2504         35.5004
  -7908381.57047  -6144028.20345  22311140.6254                   22311137.0314
        44.2504         32.7504
 -26549645.96547 -20636787.64547  21235075.0474                   21235074.4144
        47.0004         45.2504
   2891294.52056   2298291.48452  25178554.0004                   25178559.2114
        38.5004         16.7504
   -652980.09445   -503789.31244  24776412.0084                   24776416.9614
        33.5004         25.5004
  -8379723.07047  -6510366.24645  21764383.6804                   21764381.3714
        44.5004         34.5004
 -19361516.79748 -15055569.32848  20150498.5474                   20150495.2624
        48.0004         48.7504
  -1836670.13746  -1422925.50845  23997377.2034                   23997377.6174
        40.7504         35.2504
 -12497961.23446  -9703208.04743  24726910.7274                   24726914.0824
        36.2504         20.7504
 -23888277.25847 -18570845.23444  22890058.7504                   22890058.4384
        43.5004         25.7504
 -21545143.50046 -16744391.55145  22980369.5784                   22980371.1564
        40.0004         35.2504
 25  7 15  0 20  0.0000000  0 11G01G02G03G16G10G28G31G32G25G04G26
 -18122409.41847 -14092851.43445  21134909.2344                   21134907.3554
        47.7504         34.7504
  -7934275.72347  -6164205.52345  22306213.0164                   22306209.4844
        44.7504         32.7504
 -26712732.94947 -20763868.38347  21204040.0554                   21204039.9924
        47.0004         45.5004
   2701368.23446   2150297.31642  25142410.5394                   25142417.4304
        36.7504         16.2504
   -652434.95745   -503364.85943  24776515.6724                   24776520.9654
        32.7504         23.7504
  -8403621.16047  -6528988.16045  21759836.3594                   21759833.6804
        45.0004         34.7504
 -19442170.01248 -15118415.97748  20135150.7344                   20135146.8984
        49.2504         48.7504
  -1859348.19546  -1440596.78545  23993061.2894                   23993062.6454
        41.5004         35.0004
 -12543756.99245  -9738893.10243  24718196.9144                   24718200.0004
        35.5004         19.5004
 -24044123.79347 -18692283.99244  22860402.6024                   22860402.0234
        43.2504         26.0004
 -21718758.57046 -16879675.94545  22947331.4844                   22947333.5234
        40.7504         35.5004
 25  7 15  0 20 30.0000000  0 11G01G02G03G16G10G28G31G32G25G04G26
 -18197511.03947 -14151372.19145  21120617.9924                   21120616.0864
        47.0004         34.7504
  -7959784.46147  -6184082.51645  22301359.1024                   22301355.6214
        44.0004         32.7504
 -26875524.10547 -20890718.61347  21173062.2894                   21173061.8554
        47.0004         45.5004
   2511325.43046   2002212.30942  25106247.5004                   25106253.3404
        37.2504         17.2504
   -651646.31245   -502750.62144  24776666.3284                   24776670.8634
        32.5004         26.0004
  -8427085.74247  -6547272.27345  21755371.0784                   21755368.5744
        45.0004         35.0004
 -19522162.52748 -15180747.80148  20119929.0084                   20119925.2424
        48.5004         48.5004
  -1881957.58646  -1458214.55545  23988759.3594                   23988759.9694
        41.5004         35.0004
 -12588987.92645  -9774137.97342  24709589.7734                   24709591.6994
        35.0004         17.2504
 -24199781.71147 -18813575.78144  22830781.7424                   22830781.2464
        43.0004         26.5004
 -21892078.16447 -17014730.08645  22914349.5634                   22914351.8404
        42.0004         35.2504
 25  7 15  0 21  0.0000000  0 11G01G02G03G16G10G28G31G32G25G04G26
 -18271982.25447 -14209401.71945  21106446.8674                   21106444.4884
        47.5004         35.5004
  -7984914.40647  -6203664.34845  22296577.1484                   22296573.5554
        45.5004         32.5004
 -27038021.32447 -21017339.79747  21142140.0704                   21142139.3134
        47.0004         45.5004
   2321164.26646   1854035.23842  25070060.3364                   25070066.8874
        36.0004         17.2504
   -650619.03545   -501950.46144  24776861.6254                   24776867.1764
        32.2504         26.5004
  -8450123.35247  -6565223.68445  21750987.1644                   21750984.9494
        46.5004         34.5004
 -19601499.55548 -15242568.85948  20104831.3524                   20104827.7854
        49.0004         48.5004
  -1904502.45346  -1475782.04345  23984468.7734                   23984470.1884
        40.7504         33.7504
 -12633659.39845  -9808946.94943  24701088.6334                   24701091.0354
        35.0004         19.0004
 -24355255.17247 -18934723.84844  22801196.0234                   22801195.4104
        43.5004         27.0004
 -22065103.14846 -17149554.66046  22881424.0944                   22881426.1684
        41.5004         36.0004
 25  7 15  0 21 30.0000000  0 11G01G02G03G16G10G28G31G32G25G04G26
 -18345816.02047 -14266934.54345  21092396.8524                   21092394.3164
        47.0004         35.5004
  -8009660.04347  -6222946.71945  22291868.4144                   22291864.3484
        45.5004         32.0004
 -27200214.55947 -21143724.11347  21111275.4774                   21111275.3204
        46.7504         45.5004
   2130895.14146   1705773.91442  25033853.8914                   25033859.4454
        36.2504         17.7504
   -649346.78945   -500959.39144  24777105.1804                   24777109.9534
        33.0004         27.2504
  -8472728.60547  -6582838.19545  21746685.3674                   21746683.4884
        46.2504         34.0004
 -19680174.34848 -15303873.89548  20089859.7814                   20089856.3404
        50.0004         48.5004
  -1926975.01246  -1493293.19945  23980192.7194                   23980193.5354
        41.5004         34.2504
 -12677764.73045  -9843314.76642  24692695.6724                   24692698.0234
        35.2504         17.7504
 -24510536.48847 -19055722.18744  22771646.8284                   22771646.7034
        42.2504         26.7504
 -22237822.37946 -17284140.98445  22848556.8754                   22848558.6374
        41.7504         35.7504
 25  7 15  0 22  0.0000000  0 11G01G02G03G16G10G28G31G32G25G04G26
 -18419009.21148 -14323968.21545  21078468.2974                   21078466.3594
        48.5004         35.0004
  -8034019.91447  -6241928.49245  22287232.9774                   22287228.9694
        44.0004         32.0004
 -27362097.50047 -21269866.64147  21080470.2814                   21080469.9184
        47.5004         45.5004
   1940524.80945   1557433.80542  24997626.7034                   24997632.5474
        35.2504         17.7504
   -647826.19545   -499774.82044  24777394.5784                   24777399.4144
        32.7504         27.2504
  -8494899.89847  -6600114.54745  21742466.4454                   21742464.2114
        44.7504         34.0004
 -19758183.89548 -15364660.55148  20075014.9224                   20075011.5784
        49.2504         48.5004
  -1949371.32046  -1510744.92645  23975931.0084                   23975931.9574
        40.7504         33.5004
 -12721301.35945  -9877239.42643  24684411.6414                   24684413.3674
        35.0004         19.5004
 -24665621.77047 -19176567.76244  22742134.8134                   22742134.5744
        42.5004         25.2504
 -22410228.61746 -17418483.43045  22815748.5474                   22815751.0944
        41.2504         35.2504
 25  7 15  0 22 30.0000000  0 11G01G02G03G16G10G28G31G32G25G04G26
 -18491566.61348 -14380506.46145  21064660.8754                   21064658.6604
        48.2504         35.0004
  -8058000.28147  -6260614.53945  22282669.5634                   22282665.9304
        45.5004         32.5004
 -27523671.86347 -21395768.70747  21049723.3364                   21049722.8914
        47.5004         45.2504
   1750052.16445   1409013.95742  24961379.9774                   24961385.6914
        34.7504         17.2504
   -646062.44145   -498400.78544  24777730.2734                   24777734.7344
        34.0004         26.7504
  -8516643.64547  -6617057.75445  21738329.2734                   21738326.6174
        47.2504         34.0004
 -19835533.14848 -15424932.69548  20060296.1644                   20060292.7624
        50.0004         48.5004
  -1971695.39146  -1528140.35545  23971682.7504                   23971683.8204
        40.5004         33.0004
 -12764274.43445  -9910724.93043  24676234.3594                   24676236.6604
        33.2504         20.2504
 -24820515.13747 -19297263.80944  22712659.5314                   22712659.3554
        43.5004         26.5004
 -22582322.46546 -17552582.44145  22783000.1334                   22783002.3594
        41.2504         34.2504
 25  7 15  0 23  0.0000000  0 10G01G02G03G16G10G28G31G32G04G26
 -18563484.25848 -14436546.20345  21050975.6094                   21050973.4024
        48.2504         35.2504
  -8081598.84847  -6279003.09445  22278179.0554                   22278174.9884
        45.5004         33.2504
 -27684930.57048 -21521424.82447  21019036.8984                   21019036.9264
        48.0004         45.7504
   1559484.41445   1260519.94542  24925116.7814                   24925122.4654
        34.7504         17.2504
   -644051.85245   -496834.38345  24778112.8284                   24778118.0204
        35.0004         30.5004
  -8537957.48047  -6633665.96545  21734273.1094                   21734270.6644
        47.2504         34.0004
 -19912218.66848 -15484687.64848  20045703.4844                   20045700.0514
        49.5004         48.5004
  -1993942.45346  -1545475.80545  23967449.7584                   23967449.9844
        40.2504         32.5004
 -24975211.80147 -19417806.58644  22683222.6724                   22683221.2934
        42.7504         26.5004
 -22754095.87146 -17686431.76245  22750313.1564                   22750314.8094
        41.2504         35.7504
 25  7 15  0 23 30.0000000  0 10G01G02G03G16G10G28G31G32G04G26
 -18634766.02348 -14492090.45745  21037411.4304                   21037409.3554
        48.2504         34.7504
  -8104820.82047  -6297098.19145  22273759.9304                   22273756.2934
        44.5004         32.5004
 -27845874.35248 -21646835.53547  20988410.6724                   20988410.2774
        48.0004         45.5004
   1368821.13345   1111951.50442  24888834.2424                   24888840.3714
        35.5004         16.2504
   -641798.39146   -495078.74645  24778541.9224                   24778547.1294
        36.0004         30.7504
  -8558846.77747  -6649943.35945  21730297.7344                   21730295.6214
        46.2504         33.7504
 -19988244.31648 -15543928.40648  20031236.0554                   20031232.6644
        49.5004         48.5004
  -2016115.48446  -1562753.55545  23963229.3444                   23963230.9774
        38.7504         32.2504
 -25129714.89547 -19538198.52044  22653820.6724                   22653820.2114
        42.5004         26.5004
 -22925548.44146 -17820031.07845  22717686.3054                   22717688.4694
        40.7504         35.7504
 25  7 15  0 24  0.0000000  0 10G01G02G03G16G10G28G31G32G04G26
 -17129984.91847 -13319533.77045  21323761.5084                   21323759.3524
        47.7504         35.0004
  -6552242.43747  -5087296.90245  22569205.7344                   22569202.0164
        45.2504         32.2504
 -26431069.89847 -20544390.48447  21257638.7504                   21257638.3674
        47.7504         45.5004
   2753497.19145   2190920.25442  25152328.3984                   25152335.1844
        34.5004         15.5004
    936122.41446    734469.64145  25078810.8834                   25078815.8164
        37.2504         31.2504
  -7003887.71147  -5438286.96545  22026196.6564                   22026194.5514
        45.7504         34.0004
 -18488183.28148 -14375049.67648  20316688.2424                   20316684.6604
        49.7504         48.2504
   -462788.23046   -352368.73845  24258818.0234                   24258819.5634
        39.0004         31.7504
 -23708593.73047 -18430831.29344  22924250.9224                   22924250.7584
        42.0004         26.5004
 -21521245.69946 -16725769.13745  22984916.5784                   22984917.9614
        41.7504         35.5004
 25  7 15  0 24 30.0000000  0 10G01G02G03G16G10G28G31G32G04G26
 -17199982.37147 -13374077.26245  21310441.4224                   21310439.4414
        47.7504         35.0004
  -6574703.28947  -5104798.91845  22564931.8914                   22564928.3094
        46.0004         32.5004
 -26591361.53947 -20669293.03947  21227136.3444                   21227135.9184
        47.5004         45.7504
   2562666.84445   2042221.64542  25116015.2664                   25116020.7774
        33.5004         16.7504
    938873.71946    736613.20345  25079334.6724                   25079339.4964
        38.5004         31.2504
  -7023919.95347  -5453896.53145  22022384.7194                   22022382.2854
        46.0004         33.0004
 -18562877.35948 -14433252.85948  20302474.2734                   20302470.8984
        48.5004         48.5004
   -484797.90246   -369519.20745  24254630.1724                   24254630.8714
        38.5004         32.5004
 -23862694.53547 -18550909.75444  22894926.5944                   22894925.7734
        43.2504         27.2504
 -21692031.48447 -16858848.88746  22952416.5554                   22952418.4064
        42.0004         36.0004
 25  7 15  0 25  0.0000000  0 10G01G02G03G16G10G28G31G32G04G26
 -17269338.03148 -13428120.65245  21297243.6024                   21297241.7624
        48.5004         35.2504
  -6596786.16447  -5122006.41045  22560729.3364                   22560725.9534
        45.5004         31.5004
 -26751322.62147 -20793938.01247  21196696.6804                   21196696.4344
        46.5004         45.5004
   2371758.03145   1893461.90242  25079685.8834                   25079692.0664
        31.0004         16.7504
    941873.39146    738950.30145  25079905.6414                   25079910.0554
        39.0004         31.5004
  -7043526.27347  -5469174.20745  22018653.4694                   22018651.4414
        46.2504         33.7504
 -18636906.20348 -14490937.67248  20288387.3984                   20288383.7464
        49.0004         48.5004
   -506724.91846   -386605.27345  24250457.3754                   24250458.4414
        40.2504         32.5004
 -24016593.26647 -18670830.76244  22865640.5474                   22865640.2504
        42.5004         27.0004
 -21862477.87146 -16991664.18046  22919981.7584                   22919983.7624
        41.5004         36.0004
 25  7 15  0 25 30.0000000  0 10G01G02G03G16G10G28G31G32G04G26
 -17338059.32847 -13481669.73445  21284166.2114                   21284163.9414
        47.2504         35.0004
  -6618499.85247  -5138926.23445  22556597.3984                   22556594.0984
        44.2504         33.0004
 -26910957.23047 -20918328.59847  21166319.2664                   21166318.9694
        47.0004         46.0004
                                  25043340.1724                   25043348.8834
        25.7504         14.7504
    945113.97346    741475.15245  25080522.3364                   25080527.6174
        39.7504         31.2504
  -7062715.49247  -5484126.86745  22015002.2344                   22015000.0314
        44.2504         33.5004
 -18710277.78148 -14548110.32448  20274425.0944                   20274421.7114
        48.5004         48.2504
   -528575.54746   -403631.82045  24246299.1094                   24246300.5984
        40.0004         31.0004
 -24170296.46947 -18790599.41444  22836391.6174                   22836391.3324
        42.2504         27.0004
 -22032588.01646 -17124217.46146  22887610.8754                   22887612.7584
        41.0004         36.0004
 25  7 15  0 26  0.0000000  0 10G01G02G03G16G10G28G31G32G04G26
 -17406146.29347 -13534724.52345  21271209.7114                   21271207.2584
        47.0004         35.5004
  -6639846.14847  -5155559.77745  22552535.7274                   22552532.2074
        45.5004         32.0004
 -27070262.18747 -21042462.30147  21136004.4224                   21136004.1524
        47.0004         45.5004
                                  25006980.563
        28.500
    948595.15246    744187.46544  25081185.0784                   25081190.1454
        40.5004         29.5004
  -7081489.13347  -5498755.70745  22011429.4924                   22011427.1024
        45.0004         32.7504
 -18782992.12548 -14604770.85548  20260587.9844                   20260584.7464
        49.0004         48.5004
   -550349.02046   -420598.22345  24242156.1884                   24242157.6254
        38.7504         31.2504
 -24323803.27747 -18910215.01644  22807179.9454                   22807180.0164
        42.0004         27.5004
 -22202357.67646 -17256505.43446  22855305.0474                   22855307.2114
        41.2504         36.2504
 25  7 15  0 26 30.0000000  0  9G01G02G03G10G28G31G32G04G26
 -17473607.02047 -13587291.35245  21258372.5864                   21258370.4144
        47.2504         35.2504
  -6660834.39847  -5171914.32845  22548541.7734                   22548538.2384
        45.7504         32.0004
 -27229242.18047 -21166342.79747  21105751.6174                   21105751.5944
        46.5004         46.0004
    952308.91846    747081.02044  25081891.4774                   25081897.2504
        41.2504         29.2504
  -7099856.69947  -5513068.11745  22007934.5944                   22007932.0864
        46.0004         33.7504
 -18855057.82848 -14660925.94948  20246874.5474                   20246870.7934
        48.7504         48.2504
   -572052.22746   -437509.88745  24238026.3364                   24238027.0824
        39.0004         31.2504
 -24477120.85947 -19029683.18044  22778005.3444                   22778004.4774
        42.0004         26.7504
 -22371790.54746 -17388530.96145  22823062.6094                   22823064.3444
        41.5004         35.7504
 25  7 15  0 27  0.0000000  0 10G01G02G03G16G10G28G31G32G04G26
 -17540443.76647 -13639371.95345  21245653.9384                   21245651.9574
        46.2504         34.5004
  -6681468.23047  -5187992.70745  22544615.4534                   22544611.5944
        45.0004         32.2504
 -27387896.10247 -21289969.20747  21075560.8524                   21075560.1884
        46.7504         46.0004
                                  24934215.023
        29.500
    956252.94946    750154.02344  25082642.2734                   25082647.8594
        41.0004         28.2504
  -7117821.74247  -5527066.87945  22004515.7034                   22004513.5984
        45.5004         33.5004
 -18926477.09848 -14716577.32848  20233283.8524                   20233280.4184
        48.7504         48.2504
   -593686.32446   -454367.70345  24233909.8134                   24233911.0664
        40.0004         30.5004
 -24630250.42246 -19149004.84044  22748865.0944                   22748865.0554
        41.7504         26.0004
 -22540884.59046 -17520292.48446  22790884.8284                   22790886.8444
        41.5004         37.0004
 25  7 15  0 27 30.0000000  0 10G01G02G03G16G10G28G31G32G04G26
 -17606658.74247 -13690968.05145  21233053.7034                   21233051.7504
        46.5004         35.0004
  -6701751.27047  -5203797.74245  22540755.8204                   22540751.8524
        45.0004         32.2504
 -27546222.79747 -21413340.62547  21045431.8674                   21045431.6644
        46.7504         46.0004
   1415993.15655   1670137.94552  24897808.6954                   24897814.0984
        31.0004         15.5004
    960424.94946    753404.66444  25083436.5864                   25083442.2854
        39.5004         26.2504
  -7135387.96947  -5540754.87145  22001173.1724                   22001170.8404
        45.5004         33.0004
 -18997252.40248 -14771726.91848  20219815.7894                   20219812.1134
        48.0004         48.0004
   -615252.53546   -471172.61344  24229805.2504                   24229806.5944
        40.0004         29.5004
 -24783193.27346 -19268181.01644  22719760.7344                   22719760.2464
        41.5004         25.7504
 -22709637.68747 -17651788.32046  22758772.5864                   22758774.0984
        43.0004         37.0004
 25  7 15  0 28  0.0000000  0 10G01G02G03G16G10G28G31G32G04G26
 -17672255.50447 -13742082.43445  21220570.9304                   21220569.2384
        46.0004         35.0004
  -6721688.51647  -5219333.33245  22536962.0004                   22536958.0824
        46.0004         33.0004
 -27704222.32447 -21536457.12147  21015365.8204                   21015365.2034
        46.7504         46.0004
   1224600.699 5                  24861387.211
        31.500
    964821.48046    756830.24244  25084273.2664                   25084278.9304
        40.2504         26.5004
  -7152560.19147  -5554135.85245  21997905.2114                   21997903.3954
        45.5004         33.0004
 -19067387.64548 -14826377.75048  20206469.6024                   20206466.0274
        48.2504         48.2504
   -636753.19946   -487926.46145  24225714.4774                   24225715.5354
        39.2504         31.5004
 -24935951.93046 -19387213.64544  22690692.0164                   22690691.6484
        41.0004         27.0004
 -22878048.96147 -17783017.80546  22726724.7344                   22726726.4964
        42.2504         37.0004
 25  7 15  0 28 30.0000000  0 10G01G02G03G16G10G28G31G32G04G26
 -17737235.02747 -13792715.85245  21208206.0314                   21208203.8914
        47.0004         35.2504
  -6741282.19947  -5234601.21945  22533233.2504                   22533229.6524
        45.5004         32.2504
 -27861892.28547 -21659316.80947  20985362.2734                   20985361.5204
        47.0004         46.2504
   1033132.15245   1415562.55952  24824952.9384                   24824958.1374
        35.5004         17.2504
    969441.32046    760429.84444  25085153.2424                   25085158.6644
        40.2504         25.7504
  -7169340.73047  -5567211.62945  21994712.2194                   21994709.8594
        45.0004         33.0004
 -19136883.75848 -14880530.56648  20193244.9224                   20193240.9064
        48.5004         48.0004
   -658188.11746   -504629.06245  24221635.0634                   24221636.3754
        41.0004         30.7504
 -25088526.26247 -19506102.66444  22661657.7194                   22661657.4184
        42.5004         27.0004
 -23046115.05546 -17913978.32846  22694743.0004                   22694744.3244
        41.7504         36.5004
 25  7 15  0 29  0.0000000  0 10G01G02G03G16G10G28G31G32G04G26
 -17801596.27047 -13842867.49245  21195957.6094                   21195956.3554
        45.7504         34.5004
  -6760532.67247  -5249601.64845  22529569.6954                   22529566.5514
        45.0004         32.0004
 -28019228.14547 -21781916.14847  20955421.8834                   20955421.7194
        47.7504         46.2504
    841592.17246   1266310.99242  24788502.9844                   24788508.8714
        36.7504         17.2504
    974285.72746    764204.45343  25086074.3674                   25086080.1954
        39.5004         23.5004
  -7185729.86347  -5579982.40645  21991593.4304                   21991591.4064
        46.0004         32.0004
 -19205740.08248 -14934184.84448  20180141.8284                   20180138.1094
        48.2504         48.0004
   -679555.14146   -521278.76645  24217569.2734                   24217570.6134
        40.2504         30.5004
 -25240914.23446 -19624846.46544  22632659.2974                   22632659.2734
        41.2504         27.5004
 -23213830.41847 -18044665.55546  22662827.5944                   22662829.3484
        42.0004         36.5004
 25  7 15  0 29 30.0000000  0  9G01G02G03G16G28G31G32G04G26
 -17865343.52747 -13892540.69545  21183827.5864                   21183825.1804
        46.2504         35.0004
  -6779445.62547  -5264339.09445  22525971.2114                   22525967.7974
        45.0004         31.7504
 -28176230.64147 -21904255.73447  20925545.7114                   20925545.4574
        47.5004         46.5004
    649980.59846   1117003.65642  24752040.5164                   24752045.0824
        38.2504         17.2504
  -7201733.19547  -5592452.57045  21988548.4694                   21988546.1454
        45.2504         33.0004
 -19273961.37148 -14987344.29348  20167159.8754                   20167156.3524
        48.5004         48.0004
   -700857.27047   -537877.90245  24213516.0084                   24213517.4104
        42.0004         32.2504
 -25393119.08646 -19743447.57444  22603695.4224                   22603695.2304
        41.0004         26.0004
 -23381195.05947 -18175079.49246  22630978.9454                   22630980.7814
        42.5004         37.2504
 25  7 15  0 30  0.0000000  0  9G01G02G03G16G28G31G32G04G26
 -17928478.34847 -13941736.68045  21171813.4224                   21171811.2734
        47.0004         34.7504
  -6798023.59847  -5278815.51245  22522435.9304                   22522432.3484
        45.5004         32.0004
 -28332897.88347 -22026334.07447  20895732.6334                   20895732.0234
        47.5004         46.5004
    458300.08246    967642.66042  24715564.5864                   24715569.8914
        37.5004         17.2504
  -7217353.41047  -5604624.19145  21985575.8204                   21985573.7664
        45.2504         32.7504
 -19341548.98048 -15040009.96947  20154298.1254                   20154294.7974
        48.5004         47.7504
   -722094.82447   -554426.72745  24209475.3444                   24209475.6914
        42.5004         32.5004
 -25545141.21946 -19861906.30144  22574766.7504                   22574766.5314
        41.2504         27.2504
 -23548205.88747 -18305217.73846  22599197.7504                   22599199.4414
        42.5004         36.5004
 25  7 15  0 30 30.0000000  0  9G01G02G03G16G28G31G32G04G26
 -17990998.88747 -13990454.00445  21159916.2814                   21159914.6484
        46.5004         35.0004
  -6816266.45747  -5293030.79345  22518964.6564                   22518961.0864
        45.0004         32.5004
 -28489224.39548 -22148146.91047  20865984.7114                   20865984.3284
        48.0004         46.7504
    266556.37946    818232.37142  24679076.3754                   24679081.7424
        37.7504         16.2504
  -7232590.00047  -5616496.88745  21982676.2274                   21982673.9694
        45.2504         32.5004
 -19408501.40248 -15092180.69147  20141557.5004                   20141554.0044
        49.0004         47.7504
   -743264.59847   -570922.71945  24205446.5634                   24205447.8554
        42.0004         32.5004
 -25696977.60547 -19980220.29744  22545873.3134                   22545872.9064
        42.0004         26.7504
 -23714856.67647 -18435075.43046  22567485.2344                   22567487.2034
        42.0004         36.5004
 25  7 15  0 31  0.0000000  0  9G01G02G03G16G28G31G32G04G26
 -18052901.05947 -14038689.48445  21148136.5944                   21148134.8014
        46.0004         35.0004
  -6834171.18047  -5306982.59045  22515557.2584                   22515553.8134
        45.2504         31.5004
 -28645202.48048 -22269688.25047  20836303.1954                   20836303.0354
        48.5004         46.7504
     74757.45346    668779.10542  24642578.3984                   24642583.7464
        38.2504         16.2504
  -7247440.00847  -5628068.35545  21979850.6954                   21979848.2274
        45.2504         32.2504
 -19474814.78148 -15143853.45347  20128939.0314                   20128934.9694
        48.7504         47.7504
   -764361.25047   -587361.75445  24201431.9304                   24201432.9924
        42.5004         33.5004
 -25848623.05146 -20098385.50444  22517016.0314                   22517016.0164
        41.0004         27.0004
 -23881138.81247 -18564645.86346  22535842.6094                   22535844.2704
        42.2504         36.7504
 25  7 15  0 31 30.0000000  0  9G01G02G03G16G28G31G32G04G26
 -18114185.37147 -14086443.51245  21136474.5554                   21136472.6214
        46.5004         35.2504
  -6851739.58647  -5320672.32845  22512214.2814                   22512211.1214
        45.0004         31.2504
 -28800829.14848 -22390955.76247  20806688.1804                   20806687.7934
        48.5004         46.5004
   -117092.60246    519285.95342  24606071.1414                   24606074.6884
        38.0004         15.5004
  -7261905.19147  -5639339.95745  21977097.8594                   21977095.6764
        45.5004         33.2504
 -19540489.78948 -15195028.79347  20116440.8984                   20116437.1094
        48.2504         47.5004
   -785383.93747   -603743.12945  24197431.5084                   24197432.4184
        43.0004         33.2504
 -26000076.84446 -20216401.37944  22488195.5864                   22488194.8284
        41.7504         28.0004
 -24047048.31247 -18693925.92246  22504271.1564                   22504272.7464
        42.0004         36.7504
 25  7 15  0 32  0.0000000  0  9G01G02G03G16G28G31G32G04G26
 -18174857.87947 -14133720.82045  21124928.8834                   21124926.7894
        46.5004         35.0004
  -6868978.81647  -5334105.57045  22508934.3134                   22508930.8594
        45.0004         31.0004
 -28956106.69548 -22511951.22747  20777139.7584                   20777139.0864
        48.0004         47.0004
   -308995.84046    369751.37142  24569551.6644                   24569556.5084
        38.0004         16.7504
  -7275992.73447  -5650317.29745  21974417.5314                   21974415.0704
        45.7504         32.7504
 -19605532.71948 -15245711.59047  20104063.6724                   20104060.0474
        48.2504         47.7504
   -806337.37147   -620070.54345  24193444.2274                   24193445.3054
        42.2504         33.2504
 -26151343.83647 -20334271.69944  22459410.3674                   22459409.7974
        42.2504         28.0004
 -24212586.64146 -18822916.76246  22472770.6724                   22472771.8014
        41.7504         37.5004
 25  7 15  0 32 30.0000000  0  9G01G02G03G16G28G31G32G04G26
 -18234922.99648 -14180524.82445  21113499.0634                   21113496.7034
        48.0004         35.0004
  -6885894.66847  -5347286.82445  22505714.7504                   22505711.5704
        44.5004         31.5004
 -29111035.98848 -22632675.33247  20747658.0314                   20747657.8134
        49.0004         47.0004
   -500952.621 6                  24533023.500
        37.000
  -7289708.22347  -5661004.71145  21971807.5234                   21971804.6524
        45.5004         32.5004
 -19669948.06648 -15295905.37547  20091806.1484                   20091802.5784
        48.2504         47.5004
   -827224.57847   -636346.35545  24189470.2274                   24189470.4964
        43.0004         34.0004
 -26302427.25847 -20451998.97744  22430659.7114                   22430659.5394
        42.5004         27.0004
 -24377753.77046 -18951618.34846  22441340.0704                   22441341.4264
        41.5004         37.5004
 25  7 15  0 33  0.0000000  0  9G01G02G03G16G28G31G32G04G26
 -16718967.08647 -12999260.50445  21401976.2344                   21401973.7894
        46.5004         34.7504
  -5327076.04347  -4132623.03945  22802348.6024                   22802345.2734
        45.5004         31.5004
 -27690196.41448 -21525527.58647  21018034.4454                   21018034.2154
        48.2504         46.7504
    882459.570 6                  24796278.336
        38.500
  -5727640.66447  -4443809.24645  22269059.1334                   22269057.0864
        45.5004         33.0004
 -18158322.35548 -14118015.21147  20379458.5394                   20379455.0234
        48.0004         47.5004
    727368.28147    575024.62145  24485298.7814                   24485299.9024
        42.2504         34.0004
 -24877909.08647 -19341984.74644  22701736.7584                   22701736.3404
        42.0004         28.0004
 -22967127.82447 -17852429.23046  22709772.6644                   22709774.5664
        42.0004         37.0004
 25  7 15  0 33 30.0000000  0  9G01G02G03G16G28G31G32G04G26
 -16777836.73447 -13045132.97745  21390773.2664                   21390771.4224
        46.0004         35.0004
  -5343368.03147  -4145318.15645  22799247.8834                   22799245.1374
        45.0004         31.5004
 -27844437.29747 -21645715.25847  20988683.5474                   20988682.9264
        47.0004         47.0004
    690389.172 6                  24759727.969
        38.000
  -5740634.66047  -4453934.46945  22266586.3054                   22266584.1644
        45.5004         32.2504
 -18221502.47747 -14167246.48847  20367436.0004                   20367432.5664
        47.2504         47.5004
    706598.60947    558840.39145  24481346.7664                   24481347.8484
        42.7504         34.2504
 -25028640.83246 -19459437.99644  22673053.5944                   22673052.9224
        41.7504         27.7504
 -23131557.96147 -17980556.53546  22678482.8754                   22678484.4494
        42.0004         37.0004
 25  7 15  0 34  0.0000000  0  9G01G02G03G16G28G31G32G04G26
 -16836111.80147 -13090542.13745  21379684.1024                   21379681.8984
        46.5004         34.7504
  -5359352.85247  -4157773.94145  22796206.3204                   22796202.8954
        45.0004         31.0004
 -27998331.53947 -21765632.82447  20959398.3204                   20959398.0204
        47.2504         47.0004
    498265.516 6                  24723167.320
        37.500
  -5753272.69147  -4463782.32045  22264181.6174                   22264178.9774
        46.0004         32.5004
 -18284068.50847 -14215999.23047  20355530.0314                   20355526.3634
        47.5004         47.5004
    685886.74647    542701.19945  24477405.2734                   24477406.3634
        43.0004         34.5004
 -25179197.86347 -19576755.09444  22644403.3594                   22644402.8204
        42.7504         28.7504
 -23295615.84847 -18108393.78146  22647263.7584                   22647265.3874
        42.0004         37.2504
 25  7 15  0 34 30.0000000  0  9G01G02G03G16G28G31G32G04G26
 -16893794.41047 -13135489.64545  21368707.6884                   21368705.7584
        46.7504         34.7504
  -5375034.17247  -4169993.21145  22793222.3204                   22793219.0394
        45.5004         31.7504
 -28151877.51247 -21885279.00847  20930179.6804                   20930178.9774
        47.2504         47.0004
    306090.40646   1429666.39852  24686596.9614                   24686600.1844
        37.2504         16.2504
  -5765557.87147  -4473355.21945  22261843.3524                   22261841.0314
        45.0004         32.7504
 -18346022.77348 -14264275.28947  20343740.8204                   20343737.2464
        48.2504         47.5004
    665232.02347    526606.54345  24473475.2194                   24473476.2464
        42.5004         34.0004
 -25329581.01647 -19693936.71144  22615785.7274                   22615785.5864
        42.0004         28.0004
 -23459299.00447 -18235939.02346  22616115.8594                   22616117.6484
        42.0004         37.0004
 25  7 15  0 35  0.0000000  0  9G01G02G03G16G28G31G32G04G26
 -16950886.75447 -13179977.20345  21357843.0784                   21357840.9064
        47.2504         34.7504
  -5390414.98047  -4181978.33245  22790295.1884                   22790292.3324
        45.0004         30.5004
 -28305073.62147 -22004652.56647  20901027.3364                   20901026.9454
        47.2504         47.0004
    113866.74646   1279882.14142  24650017.8914                   24650021.5434
        37.7504         17.2504
  -5777493.52047  -4482655.75845  22259572.3914                   22259570.1764
        45.5004         32.7504
 -18407367.64548 -14312076.48847  20332067.0554                   20332063.5354
        48.0004         47.7504
    644633.88347    510555.97345  24469555.6804                   24469556.5554
        43.0004         34.5004
 -25479791.20747 -19810983.55944  22587202.5004                   22587201.9104
        42.5004         28.5004
 -23622605.04346 -18363190.42246  22585039.8984                   22585041.6994
        41.7504         37.5004
 25  7 15  0 35 30.0000000  0  9G01G02G03G16G28G31G32G04G26
 -17007390.83647 -13224006.37945  21347090.9774                   21347088.6374
        46.2504         34.7504
  -5405498.26647  -4193731.62145  22787425.5004                   22787421.9844
        43.5004         30.0004
 -28457918.05947 -22123752.10247  20871942.3364                   20871941.6764
        46.5004         47.0004
    -78403.87146   1130061.30543  24613430.1094                   24613432.9804
        37.7504         19.0004
  -5789082.56647  -4491686.21945  22257366.8284                   22257364.6724
        44.0004         32.5004
 -18468105.09047 -14359404.36747  20320509.0394                   20320505.4384
        47.7504         47.5004
    624091.81647    494549.09045  24465646.4144                   24465647.6724
        42.0004         35.0004
 -25629828.95346 -19927896.02344  22558650.9924                   22558650.0044
        41.7504         29.2504
 -23785531.23046 -18490145.82846  22554036.2114                   22554037.2934
        41.7504         37.5004
 25  7 15  0 36  0.0000000  0  9G01G02G03G16G28G31G32G04G26
 -17063308.97747 -13267578.97345  21336450.0164                   21336447.6484
        46.5004         34.2504
  -5420287.85947  -4205256.04745  22784610.9144                   22784607.4184
        45.0004         30.5004
 -28610409.30947 -22242576.42647  20842923.8984                   20842923.8984
        47.5004         47.2504
   -270719.12946    980205.62542  24576833.4144                   24576835.7814
        36.5004         16.7504
  -5800328.32047  -4500449.17645  22255226.9304                   22255224.7854
        45.5004         32.2504
 -18528237.75047 -14406260.99247  20309066.2274                   20309062.8014
        47.2504         47.5004
    603605.15247    478585.38345  24461748.0474                   24461749.4964
        42.0004         34.7504
 -25779695.27047 -20044674.90644  22530132.0634                   22530131.5354
        43.5004         28.5004
 -23948075.25447 -18616803.45346  22523104.9144                   22523106.1134
        42.5004         37.7504
 25  7 15  0 36 30.0000000  0  9G01G02G03G16G28G31G32G04G26
 -17118639.47747 -13310693.66045  21325920.8834                   21325919.1334
        47.0004         35.0004
  -5434783.03947  -4216551.06645  22781852.6954                   22781849.4654
        44.0004         30.5004
 -28762541.86347 -22361121.24647  20813973.8594                   20813972.9774
        47.5004         47.2504
   -463072.81245    830320.03142  24540228.6724                   24540231.9024
        35.5004         16.7504
  -5811230.07447  -4508944.08245  22253152.2814                   22253150.3134
        44.5004         32.5004
 -18587764.07047 -14452645.14147  20297738.6884                   20297735.0744
        47.0004         47.5004
    583177.13746    462667.37945  24457860.3444                   24457861.9574
        41.5004         34.7504
 -25929387.07847 -20161317.81244  22501646.8054                   22501646.0944
        43.2504         27.5004
 -24110230.75847 -18743158.32846  22492247.4224                   22492249.2074
        42.7504         37.5004
 25  7 15  0 37  0.0000000  0  9G01G02G03G16G28G31G32G04G26
 -17173388.64147 -13353355.36745  21315502.2974                   21315500.7934
        47.2504         34.5004
  -5448990.90247  -4227622.20345  22779149.3054                   22779145.9064
        45.0004         30.0004
 -28914318.06647 -22479388.39147  20785091.6254                   20785091.4614
        47.5004         47.5004
   -655466.58245    680403.19542  24503617.7034                   24503621.2584
        34.5004         17.7504
  -5821795.07447  -4517176.58245  22251142.0314                   22251139.8794
        45.0004         32.5004
 -18646690.63747 -14498561.94547  20286525.5474                   20286521.8554
        47.0004         47.2504
    562803.16046    446791.48445  24453983.8284                   24453985.1684
        40.7504         34.2504
 -26078909.10947 -20277828.44144  22473193.3914                   22473192.5634
        42.7504         28.0004
 -24271999.29347 -18869211.66846  22461463.8054                   22461465.6954
        42.5004         37.5004
 25  7 15  0 37 30.0000000  0  9G01G02G03G16G28G31G32G04G26
 -17227558.98047 -13395566.02745  21305194.1024                   21305192.1254
        46.7504         34.0004
  -5462915.06247  -4238472.27345  22776499.5474                   22776495.9344
        45.2504         30.0004
 -29065736.62947 -22597376.85947  20756277.6414                   20756277.4454
        47.2504         47.5004
   -847898.52745    530456.61342  24466999.7194                   24467002.3594
        33.0004         16.7504
  -5832026.74647  -4525149.34445  22249195.2664                   22249192.9694
        44.7504         33.0004
 -18705019.96548 -14544013.37147  20275425.8204                   20275422.4454
        48.0004         47.2504
    542482.35246    430957.02045  24450116.4534                   24450117.6174
        40.0004         32.5004
 -26228262.48847 -20394207.63744  22444772.3914                   22444771.9694
        42.7504         28.0004
 -24433378.68047 -18994961.77746  22430754.3914                   22430756.3054
        42.5004         37.5004
 25  7 15  0 38  0.0000000  0  9G01G02G03G16G28G31G32G04G26
 -17281152.00847 -13437326.84845  21294995.6884                   21294993.5354
        46.7504         34.0004
  -5476558.18447  -4249103.34845  22773903.7034                   22773900.2814
        45.7504         30.7504
 -29216795.02347 -22715084.67647  20727532.4924                   20727532.0234
        47.0004         47.5004
  -1040365.60245    380482.68042  24430372.6954                   24430376.9694
        32.2504         14.7504
  -5841927.37547  -4532864.14845  22247311.1724                   22247308.7664
        46.0004         32.2504
 -18762753.79347 -14589000.77047  20264439.2424                   20264435.8594
        47.5004         47.2504
    522214.91446    415164.12545  24446259.9064                   24446261.0864
        39.5004         32.5004
 -26377447.17246 -20510455.39144  22416383.8524                   22416382.9304
        41.5004         28.5004
 -24594365.71947 -19120406.16046  22400119.2584                   22400120.8914
        43.0004         38.2504
 25  7 15  0 38 30.0000000  0  9G01G02G03G16G28G31G32G04G26
 -17334170.28947 -13478639.80945  21284906.9064                   21284905.2274
        47.5004         34.7504
  -5489924.01247  -4259518.36745  22771360.1724                   22771356.6094
        45.0004         30.0004
 -29367492.04347 -22832510.89847  20698855.4384                   20698854.9964
        47.5004         47.5004
  -1232865.71545    230482.96942  24393740.9774                   24393744.6604
        35.0004         15.5004
  -5851500.54347  -4540323.80545  22245489.6094                   22245487.4184
        44.7504         32.0004
 -18819894.83248 -14633526.25847  20253565.8594                   20253562.1134
        48.2504         47.0004
    501999.90246    399412.08245  24442413.2344                   24442414.9064
        38.5004         31.5004
 -26526464.30947 -20626572.58244  22388026.3754                   22388025.8444
        42.0004         28.5004
 -24754958.22747 -19245543.11746  22369559.7974                   22369561.4264
        42.7504         37.5004
 25  7 15  0 39  0.0000000  0  9G01G02G03G16G28G31G32G04G26
 -17386617.80547 -13519508.02745  21274926.3834                   21274924.2734
        47.5004         34.2504
  -5503017.43447  -4269721.11345  22768868.8204                   22768865.4534
        43.7504         30.7504
 -29517827.53547 -22949655.41847  20670248.0704                   20670247.4884
        47.2504         47.5004
  -1425398.19545     80457.97342  24357103.2344                   24357106.7424
        35.0004         17.2504
  -5860751.00847  -4547531.99245  22243728.7894                   22243726.9654
        44.7504         32.2504
 -18876447.34047 -14677593.14847  20242804.3674                   20242800.6524
        47.7504         47.2504
    481835.22746    383699.25445  24438575.7114                   24438577.6294
        38.0004         31.0004
 -26675316.26247 -20742561.07044  22359701.3134                   22359699.9304
        42.5004         29.7504
 -24915155.43047 -19370372.04346  22339074.8594                   22339076.8204
        43.2504         38.2504
 25  7 15  0 39 30.0000000  0  9G01G02G03G16G28G31G32G04G26
 -17438492.08647 -13559929.56245  21265055.1414                   21265053.4064
        47.7504         34.5004
  -5515836.94547  -4279710.41045  22766429.0004                   22766425.7304
        44.5004         30.5004
 -29667795.09448 -23066513.24247  20641709.7894                   20641709.2934
        48.0004         47.5004
  -1617955.92246    -69586.62942  24320461.3054                   24320463.0824
        36.0004         17.2504
  -5869677.11747  -4554487.43445  22242030.8444                   22242028.4654
        45.5004         33.0004
 -18932408.83248 -14721199.51247  20232155.1254                   20232151.5784
        48.5004         47.0004
    461725.08246    368028.93045  24434749.3364                   24434750.8524
        38.0004         31.2504
 -26823999.00847 -20858417.69544  22331407.3914                   22331406.5704
        42.5004         27.7504
 -25074950.05947 -19494887.28946  22308667.2194                   22308668.7734
        43.5004         37.7504
 25  7 15  0 40  0.0000000  0  9G01G02G03G16G28G31G32G04G26
 -17489794.88347 -13599905.79345  21255292.6024                   21255290.5314
        46.2504         34.2504
  -5528385.11347  -4289488.28944  22764041.3054                   22764037.9304
        45.5004         29.7504
 -29817392.42248 -23183082.57447  20613242.2274                   20613242.1684
        48.2504         47.5004
  -1810535.99245   -219648.65643  24283813.4064                   24283815.3914
        35.0004         18.5004
  -5878281.36747  -4561192.08645  22240392.9924                   22240391.2664
        45.7504         31.7504
 -18987781.13348 -14764346.76247  20221618.1564                   20221614.4344
        48.0004         47.2504
    441669.57046    352401.18045  24430932.7424                   24430934.4414
        36.5004         30.5004
 -26972512.66847 -20974142.57444  22303146.1174                   22303145.6524
        42.0004         28.0004
 -25234339.08247 -19619086.48446  22278336.3914                   22278337.8054
        43.5004         38.0004
 25  7 15  0 40 30.0000000  0  9G01G02G03G16G28G31G32G04G26
 -17540532.04747 -13639441.27045  21245637.1644                   21245635.5434
        47.0004         34.5004
  -5540668.95747  -4299060.18445  22761703.6804                   22761700.7504
        44.7504         30.5004
 -29966621.43447 -23299364.89147  20584845.1414                   20584844.9454
        47.5004         47.7504
  -2003139.65646   -369729.03943  24247162.2734                   24247164.2114
        36.0004         18.2504
  -5886570.46947  -4567651.16445  22238816.5084                   22238814.1844
        45.0004         32.5004
 -19042570.34848 -14807039.66047  20211191.9774                   20211188.2664
        48.2504         47.0004
    421664.62546    336812.81345  24427126.5164                   24427128.1844
        37.5004         30.0004
 -27120861.57847 -21089739.06244  22274916.8364                   22274915.2194
        42.5004         28.5004
 -25393323.55547 -19742970.43446  22248082.7344                   22248084.1644
        43.5004         38.7504
 25  7 15  0 41  0.0000000  0  9G01G02G03G16G28G31G32G04G26
 -17590713.00447 -13678543.33245  21236088.5394                   21236086.8014
        47.2504         33.7504
  -5552698.77347  -4308434.16045  22759414.8834                   22759411.6724
        44.5004         31.2504
 -30115487.39147 -23415364.33248  20556516.8674                   20556516.2934
        47.5004         48.0004
  -2195771.29346   -519831.28543  24210504.7344                   24210507.4924
        36.2504         19.2504
  -5894554.54747  -4573872.55945  22237296.4774                   22237294.3404
        44.5004         32.2504
 -19096785.83248 -14849285.50447  20200875.0864                   20200871.6334
        48.5004         47.0004
    401702.63746    321257.91445  24423328.1884                   24423329.0354
        37.7504         31.5004
 -27269053.46547 -21205213.21544  22246716.3834                   22246715.3874
        42.7504         27.7504
 -25551908.11347 -19866542.77046  22217904.8594                   22217906.4454
        43.7504         39.0004
 25  7 15  0 41 30.0000000  0  9G01G02G03G16G28G31G32G04G26
 -16064918.79747 -12489612.81245  21526437.4454                   21526435.5274
        47.5004         34.2504
  -3989057.58647  -3090012.53945  23056965.7894                   23056962.7194
        44.5004         30.2504
 -28688564.10247 -22303476.03947  20828051.6484                   20828050.6094
        47.7504         47.7504
   -813002.35546    557651.32443  24473637.5234                   24473639.1484
        37.7504         20.0004
  -4326816.82047  -3352258.77745  22535627.5164                   22535625.5664
        45.5004         31.5004
 -17575008.95748 -13663485.34447  20490459.5944                   20490456.1524
        48.7504         47.0004
   1957203.44146   1533336.35545  24719329.7194                   24719330.9574
        37.5004         31.0004
 -25841664.47347 -20092962.00844  22518339.3444                   22518338.3244
        42.0004         28.0004
 -24134665.37947 -18762197.73046  22487597.3754                   22487598.4454
        44.0004         38.5004
 25  7 15  0 42  0.0000000  0  9G01G02G03G16G28G31G32G04G26
 -16113987.25447 -12527848.00445  21517100.1644                   21517098.2034
        46.7504         34.5004
  -4000581.65247  -3098992.41845  23054772.8674                   23054769.9494
        45.0004         31.0004
 -28836691.75048 -22418900.17248  20799863.3204                   20799862.8834
        48.0004         48.0004
  -1005675.48046    407516.75443  24436972.3984                   24436974.2584
        37.5004         18.5004
  -4334192.93447  -3358006.44545  22534223.8834                   22534221.3054
        46.0004         31.5004
 -17628077.91848 -13704837.78547  20480360.9924                   20480357.1724
        48.0004         47.2504
   1937333.17246   1517852.94544  24715548.6724                   24715550.2504
        37.5004         29.2504
 -25989537.32447 -20208187.53944  22490199.6724                   22490199.1174
        43.0004         27.5004
 -24292435.48847 -18885135.41846  22457574.8284                   22457576.2664
        44.5004         39.0004
 25  7 15  0 42 30.0000000  0  9G01G02G03G16G28G31G32G04G26
 -16162500.84047 -12565650.82845  21507868.0474                   21507866.0904
        45.7504         34.0004
  -4011855.64547  -3107777.43744  23052627.8674                   23052624.7584
        43.7504         29.7504
 -28984445.48047 -22534032.93748  20771746.6644                   20771746.3794
        47.5004         48.0004
  -1198363.76246    257370.32843  24400304.6724                   24400306.3634
        38.2504         19.0004
  -4341267.50447  -3363519.12945  22532877.6564                   22532875.6414
        44.5004         31.5004
 -17680575.09448 -13745744.68047  20470371.3754                   20470367.7974
        48.7504         47.5004
   1917510.25046   1502406.41444  24711776.6884                   24711777.9774
        36.5004         29.5004
 -26137249.44947 -20323287.83244  22462091.3984                   22462090.3794
        42.0004         29.0004
 -24449792.52347 -19007751.23446  22427630.7424                   22427631.9654
        44.0004         38.7504
 25  7 15  0 43  0.0000000  0  9G01G02G03G16G28G31G32G04G26
 -16210459.73447 -12603021.43045  21498741.8524                   21498740.0434
        47.2504         34.2504
  -4022880.73447  -3116368.48444  23050529.5084                   23050526.3914
        44.7504         29.5004
 -29131821.29348 -22648871.21948  20743702.3914                   20743701.6764
        48.0004         48.2504
  -1391062.37546    107215.84443  24363634.9774                   24363636.6094
        38.5004         19.0004
  -4348041.32047  -3368797.46545  22531588.6564                   22531586.3014
        46.0004         31.5004
 -17732500.46548 -13786206.00847  20460490.1804                   20460486.2814
        49.0004         47.0004
   1897736.41046   1486998.13744  24708012.8984                   24708015.3444
        37.0004         28.5004
 -26284799.32447 -20438261.72344  22434013.4454                   22434012.8954
        42.0004         29.0004
 -24606731.79747 -19130041.53946  22397765.6484                   22397767.4804
        44.5004         38.2504
 25  7 15  0 43 30.0000000  0  9G01G02G03G16G28G31G32G04G26
 -16257871.75447 -12639965.89545  21489719.8674                   21489717.7584
        47.0004         33.5004
  -4033665.39547  -3124772.20745  23048477.8524                   23048474.2504
        44.5004         30.0004
 -29278822.86748 -22763417.89848  20715728.9844                   20715728.3874
        48.2504         48.2504
  -1583774.28946    -42949.02343  24326963.0394                   24326964.3554
        38.7504         19.7504
  -4354522.91047  -3373848.09045  22530355.5554                   22530353.1644
        45.0004         30.7504
 -17783862.33248 -13826228.25047  20450716.4224                   20450712.7074
        49.0004         47.2504
   1878005.89146   1471623.61344  24704258.0784                   24704260.5204
        37.2504         29.0004
 -26432193.07847 -20553113.94944  22405965.2814                   22405964.7464
        43.2504         28.0004
 -24763256.23847 -19252008.59846  22367980.1024                   22367981.4884
        44.5004         38.5004
 25  7 15  0 44  0.0000000  0  9G01G02G03G16G28G31G32G04G26
 -16304736.81647 -12676484.16445  21480801.7734                   21480800.0394
        47.5004         34.2504
  -4044210.51247  -3132989.25844  23046470.3594                   23046467.7304
        43.5004         29.2504
 -29425445.98848 -22877669.67248  20687827.3754                   20687826.6884
        48.2504         48.2504
  -1776494.39546   -193120.23843  24290290.0084                   24290291.3874
        39.0004         18.5004
  -4360712.78147  -3378671.40245  22529176.8914                   22529175.1134
        45.5004         31.0004
 -17834660.78948 -13865811.46947  20441050.1094                   20441046.1484
        49.2504         47.0004
   1858320.67646   1456284.39545  24700512.8754                   24700514.8484
        38.5004         30.0004
 -26579428.82447 -20667843.05944  22377947.0704                   22377945.8204
        43.2504         29.0004
 -24919360.94147 -19373648.57046  22338274.6954                   22338275.3984
        45.0004         38.7504
 25  7 15  0 44 30.0000000  0  9G01G02G03G16G28G31G32G04G26
 -16351056.22747 -12712577.25045  21471987.4614                   21471985.6994
        47.5004         34.0004
  -4054517.92647  -3141021.10944  23044508.9454                   23044506.7894
        43.7504         28.5004
 -29571687.73848 -22991624.27348  20659998.3674                   20659997.7584
        48.7504         48.2504
  -1969219.16446   -343295.15243  24253615.6094                   24253616.5474
        39.5004         20.2504
  -4366612.76647  -3383268.83645  22528054.5164                   22528052.4414
        45.0004         31.2504
 -17884897.08648 -13904956.64147  20431489.5784                   20431486.4104
        48.7504         47.0004
   1838681.65546   1440981.16444  24696776.1724                   24696777.5944
        39.0004         29.5004
 -26726506.10247 -20782448.67244  22349959.4844                   22349958.2544
        43.5004         28.5004
 -25075042.23847 -19494958.62946  22308649.6174                   22308650.4144
        44.5004         38.7504
 25  7 15  0 45  0.0000000  0  9G01G02G03G16G28G31G32G04G26
 -16396834.46947 -12748248.64545  21463275.9144                   21463273.8524
        45.7504         34.0004
  -4064592.96947  -3148871.87544  23042592.1094                   23042589.5274
        43.5004         28.0004
 -29717548.41848 -23105281.93448  20632242.0554                   20632241.4264
        48.7504         48.2504
  -2161947.63746   -493472.90243  24216939.8594                   24216941.2584
        39.5004         18.5004
  -4372227.99247  -3387644.37945  22526986.1024                   22526984.2704
        45.2504         31.7504
 -17934576.01648 -13943667.50047  20422036.6484                   20422032.9264
        48.5004         47.0004
   1819086.10546   1425711.82044  24693046.8984                   24693048.8754
        40.0004         29.0004
 -26873427.57047 -20896932.87944  22322000.9614                   22321999.9224
        43.5004         28.7504
 -25230299.78947 -19615938.49246  22279104.6334                   22279105.8554
        44.2504         38.7504
 25  7 15  0 45 30.0000000  0  9G01G02G03G16G28G31G32G04G26
 -16442076.09047 -12783501.90245  21454666.7504                   21454665.0554
        46.5004         34.0004
  -4074441.18047  -3156545.89844  23040718.5864                   23040715.6644
        44.0004         29.5004
 -29863028.28148 -23218642.85948  20604558.1954                   20604557.6684
        49.0004         48.5004
  -2354679.66446   -643653.46943  24180264.0944                   24180265.4344
        38.5004         21.2504
  -4377563.50847  -3391801.96545  22525970.6884                   22525969.3594
        45.2504         31.7504
 -17983701.86748 -13981947.38747  20412688.0314                   20412684.3984
        48.7504         47.0004
   1799531.82846   1410474.62544  24689326.2504                   24689328.0824
        40.0004         29.0004
 -27020195.89547 -21011297.76644  22294071.8674                   22294071.1094
        43.7504         28.5004
 -25385133.21147 -19736587.85246  22249640.9924                   22249642.2234
        44.5004         38.5004
 25  7 15  0 46  0.0000000  0  9G01G02G03G16G28G31G32G04G26
 -16486781.38747 -12818337.23845  21446159.4384                   21446157.6804
        47.0004         33.2504
  -4084063.71547  -3164044.05944  23038886.7814                   23038884.3754
        43.7504         29.5004
 -30008123.46948 -23331704.03548  20576947.4534                   20576947.2464
        49.2504         48.5004
  -2547410.48046   -793833.06643  24143587.7114                   24143589.3984
        38.7504         20.7504
  -4382620.17647  -3395742.26645  22525008.6094                   22525006.3674
        45.0004         30.5004
 -18032275.00448 -14019796.58247  20403444.7424                   20403441.1764
        49.2504         47.2504
   1780020.44946   1395270.85944  24685613.0084                   24685615.0864
        40.5004         29.7504
 -27166809.57447 -21125542.14544  22266172.6254                   22266171.4024
        44.0004         29.2504
 -25539537.89547 -19856903.14146  22220258.5704                   22220259.3914
        44.0004         38.5004
 25  7 15  0 46 30.0000000  0  9G01G02G03G16G28G31G32G04G26
 -16530953.09447 -12852756.78145  21437754.2584                   21437752.2974
        46.5004         34.0004
  -4093463.99247  -3171369.04744  23037098.3594                   23037095.3714
        43.5004         29.5004
 -30152832.39148 -23444464.21948  20549410.2114                   20549409.6994
        48.2504         48.5004
  -2740137.82046   -944009.99243  24106913.3594                   24106914.4064
        39.5004         19.5004
  -4387401.14147  -3399467.73045  22524098.7344                   22524097.0234
        44.5004         31.0004
 -18080298.40648 -14057217.42247  20394306.4144                   20394302.5944
        48.7504         47.0004
   1760551.39546   1380100.07444  24681908.5944                   24681910.6294
        40.5004         28.5004
 -27313269.43047 -21239666.66044  22238302.1564                   22238300.9454
        42.2504         29.5004
 -25693511.63747 -19976882.62946  22190958.7664                   22190959.2814
        44.5004         39.0004
 25  7 15  0 47  0.0000000  0  9G01G02G03G16G28G31G32G04G26
 -16574593.27347 -12886762.15245  21429449.7114                   21429447.8634
        47.0004         33.7504
  -4102644.47347  -3178522.73844  23035351.6174                   23035348.7114
        43.5004         29.5004
 -30297152.91048 -23556921.75048  20521947.0234                   20521946.6054
        49.2504         48.5004
  -2932858.36346  -1094181.62543  24070239.8054                   24070240.6524
        39.0004         20.5004
  -4391909.09447  -3402980.46545  22523240.6414                   22523239.0164
        44.7504         30.5004
 -18127774.35948 -14094211.68047  20385271.8914                   20385268.2584
        49.2504         47.0004
   1741124.72746   1364962.33244  24678211.4844                   24678213.1254
        40.7504         27.2504
 -27459575.75847 -21353671.54344  22210460.7424                   22210459.8954
        44.0004         29.2504
 -25847051.61347 -20096524.12546  22161740.8594                   22161741.7344
        44.5004         39.0004
 25  7 15  0 47 30.0000000  0  9G01G02G03G16G28G31G32G04G26
 -16617705.15647 -12920355.86745  21421245.9774                   21421243.8984
        46.7504         33.5004
  -4111609.25047  -3185508.37544  23033645.6724                   23033642.5124
        44.0004         29.5004
 -30441083.84048 -23669075.69948  20494557.7894                   20494557.3444
        48.2504         48.7504
  -3125570.49646  -1244346.68742  24033567.5394                   24033568.7464
        38.5004         17.2504
  -4396147.54347  -3406283.19545  22522434.7274                   22522432.3444
        44.5004         30.0004
 -18174705.87948 -14130781.69147  20376341.1414                   20376337.3674
        48.2504         47.0004
   1721739.46946   1349856.87544  24674522.9534                   24674525.0314
        41.0004         27.2504
 -27605729.71547 -21467557.67644  22182648.1724                   22182647.3594
        42.2504         29.0004
 -26000156.05147 -20215826.23846  22132605.7114                   22132606.6604
        43.0004         38.5004
 25  7 15  0 48  0.0000000  0  9G01G02G03G16G28G31G32G04G26
 -16660293.54747 -12953541.66845  21413141.3284                   21413139.8014
        46.2504         33.5004
  -4120364.00047  -3192330.34844  23031980.1954                   23031977.2464
        43.5004         29.0004
 -30584625.77048 -23780926.54348  20467242.7194                   20467242.1254
        49.2504         48.5004
  -3318273.55946  -1394504.71142  23996897.1254                   23996897.8594
        38.0004         17.7504
  -4400121.82047  -3409380.08245  22521678.0944                   22521676.0824
        44.7504         30.5004
 -18221098.12948 -14166931.50847  20367512.9774                   20367509.5944
        49.5004         47.0004
   1702392.91046   1334781.57444  24670841.2034                   24670843.3794
        40.5004         26.5004
 -27751734.25447 -21581327.40244  22154864.3754                   22154863.6174
        43.5004         29.0004
 -26152824.78547 -20334788.83246  22103553.8364                   22103555.1484
        43.7504         39.2504
 25  7 15  0 48 30.0000000  0  9G01G02G03G16G28G31G32G04G26
 -16702358.75847 -12986319.77745  21405136.8754                   21405135.3444
        47.5004         33.5004
  -4128909.63347  -3198989.38744  23030353.6804                   23030351.0274
        43.7504         28.7504
 -30727774.67648 -23892471.12148  20440002.5314                   20440001.8634
        49.5004         48.5004
  -3510962.93446  -1544652.07042  23960229.2584                   23960230.5634
        37.0004         17.2504
  -4403832.63747  -3412271.67245  22520972.0164                   22520970.0704
        44.0004         31.0004
 -18266951.19148 -14202661.16847  20358787.6484                   20358783.9064
        48.7504         47.0004
   1683086.93846   1319737.87944  24667167.5474                   24667169.2584
        41.5004         28.2504
 -27897587.71947 -21694979.40644  22127109.9774                   22127108.4574
        43.7504         29.0004
 -26305053.28547 -20453408.38346  22074586.1564                   22074586.9924
        43.7504         39.2504
 25  7 15  0 49  0.0000000  0  9G01G02G03G16G28G31G32G04G26
 -16743904.65247 -13018693.23845  21397230.9224                   21397228.8444
        47.2504         34.0004
  -4137250.65647  -3205488.97344  23028767.0234                   23028763.8754
        44.5004         28.7504
 -30870530.03948 -24003709.04748  20412836.7424                   20412836.0824
        49.0004         48.5004
  -3703636.94946  -1694787.43742  23923565.1254                   23923565.5274
        37.0004         16.7504
  -4407284.21947  -3414961.27045  22520315.3674                   22520313.3164
        44.2504         31.5004
 -18312269.54748 -14237974.18047  20350163.6334                   20350160.2154
        49.0004         46.7504
   1663820.00846   1304724.60244  24663501.6024                   24663503.3444
        41.5004         29.7504
 -28043291.94547 -21808515.10944  22099383.1564                   22099381.7584
        43.5004         29.2504
 -26456840.36347 -20571683.97346  22045701.4844                   22045702.6374
        43.5004         39.0004
 25  7 15  0 49 30.0000000  0  9G01G02G03G16G28G31G32G04G26
 -16784932.71947 -13050663.18745  21389423.7034                   21389421.8324
        47.0004         33.7504
  -4145389.09047  -3211830.68044  23027217.6954                   23027214.7974
        43.7504         29.5004
 -31012889.06247 -24114638.13348  20385746.6644                   20385746.1024
        47.7504         48.5004
  -3896292.08246  -1844908.13742  23886903.7814                   23886904.3204
        37.0004         16.2504
  -4410478.42647  -3417450.30945  22519707.0784                   22519705.2424
        43.7504         30.7504
 -18357054.23448 -14272871.34047  20341641.2504                   20341637.9454
        49.0004         46.7504
   1644592.79747   1289742.30545  24659843.0004                   24659844.8244
        42.0004         30.0004
 -28188846.50847 -21921934.19544  22071684.4384                   22071683.6054
        42.5004         28.7504
 -26608182.58247 -20689612.91446  22016902.0864                   22016903.0864
        43.0004         38.7504
 25  7 15  0 50  0.0000000  0  9G01G02G03G16G28G31G32G04G26
 -16825448.53147 -13082233.98445  21381713.9534                   21381712.0984
        47.0004         34.0004
  -4153331.11347  -3218019.35244  23025706.3444                   23025704.2074
        43.0004         27.5004
 -31154852.83248 -24225259.23048  20358732.0554                   20358731.1454
        48.7504         48.7504
  -4088928.61746  -1995014.30542  23850245.8984                   23850246.3634
        37.0004         16.7504
  -4413421.18747  -3419743.41845  22519147.5554                   22519145.6764
        44.0004         30.5004
 -18401310.95748 -14307357.10547  20333219.9064                   20333216.3674
        49.7504         46.5004
   1625402.04346   1274788.41044  24656190.9224                   24656192.8484
        40.2504         28.5004
 -28334254.88347 -22035239.37144  22044015.2344                   22044013.5354
        42.5004         28.5004
 -26759080.50847 -20807195.66046  21988187.2584                   21988188.3754
        43.7504         39.0004
 25  7 15  0 50 30.0000000  0  9G01G02G03G16G28G31G32G04G26
 -15290031.98847 -11885805.53945  21673893.6884                   21673892.1414
        46.5004         33.2504
  -2585658.31647  -1996456.22344  23324024.8984                   23324022.0904
        43.5004         28.5004
 -29720993.57048 -23107966.27348  20631586.5234                   20631585.9414
        48.5004         48.7504
  -2706116.04746   -917497.78542  24113386.2814                   24113387.0204
        36.2504         16.7504
  -2840693.92647  -2194241.69145  22818427.9384                   22818425.4774
        43.7504         30.2504
 -16869619.68748 -13113831.45347  20624691.0554                   20624687.4264
        49.0004         47.0004
   3181669.44146   2487464.25045  24952338.7894                   24952340.2424
        40.7504         30.5004
 -26904091.42247 -20920826.24244  22316165.2584                   22316164.5274
        43.7504         28.5004
 -25334105.39547 -19696825.37946  22259350.8204                   22259351.6884
        44.2504         38.7504
 25  7 15  0 51  0.0000000  0  9G01G02G03G16G28G31G32G04G26
 -15329524.18047 -11916578.70345  21666379.1024                   21666377.4694
        46.2504         33.5004
  -2593210.38747  -2002341.02344  23322587.7274                   23322584.8714
        44.0004         28.0004
 -29862154.75448 -23217961.98048  20604724.2274                   20604723.7074
        49.0004         49.0004
  -2898700.23846  -1067563.20342  24076738.1884                   24076739.0274
        36.5004         16.2504
  -2843135.60547  -2196144.35245  22817963.0634                   22817960.8984
        43.5004         30.7504
 -16912821.86348 -13147495.48847  20616470.0474                   20616466.5234
        48.5004         46.7504
   3162557.61746   2472571.87945  24948701.6804                   24948704.0234
        41.0004         30.5004
 -27049202.21547 -21033899.53945  22288551.6174                   22288550.8054
        44.2504         30.0004
 -25484100.72347 -19813704.79346  22230807.1024                   22230808.5394
        44.0004         39.5004
 25  7 15  0 51 30.0000000  0  9G01G02G03G16G28G31G32G04G26
 -15368512.81647 -11946959.48845  21658959.4304                   21658957.5514
        46.7504         33.5004
  -2600576.62547  -2008081.03944  23321186.4534                   23321183.3834
        44.7504         28.0004
 -30002916.19548 -23327646.19548  20577937.9384                   20577937.9494
        48.7504         48.7504
  -3091258.33246  -1217608.24242  24040095.5234                   24040096.0124
        37.0004         16.7504
  -2845335.37547  -2197858.50845  22817544.5004                   22817542.5824
        44.0004         30.7504
 -16955504.96148 -13180755.05547  20608347.2034                   20608344.0944
        49.0004         46.5004
   3143480.47746   2457706.51245  24945072.3524                   24945074.0394
        41.5004         31.5004
 -27194169.31247 -21146860.86344  22260965.3834                   22260964.4614
        44.7504         29.0004
 -25633645.50447 -19930233.11746  22202350.1334                   22202350.8674
        44.5004         39.5004
 25  7 15  0 52  0.0000000  0  9G01G02G03G16G28G31G32G04G26
 -15406996.89847 -11976947.10945  21651636.2734                   21651634.3554
        47.2504         33.7504
  -2607756.53147  -2013675.84444  23319820.2664                   23319817.3714
        43.7504         28.2504
 -30143272.47348 -23437014.71148  20551229.1724                   20551228.6644
        49.0004         49.0004
  -3283784.23846  -1367628.20742  24003458.8834                   24003459.6334
        36.5004         16.2504
  -2847292.53547  -2199383.60945  22817172.1724                   22817170.0744
        43.0004         30.2504
 -16997668.17248 -13213609.52047  20600324.1254                   20600320.8094
        48.7504         46.5004
   3124441.40646   2442870.80545  24941448.7894                   24941451.2734
        40.0004         31.2504
 -27338989.62147 -21259707.82844  22233406.9384                   22233405.9024
        43.5004         29.0004
 -25782733.71547 -20046405.68046  22173979.2504                   22173980.7384
        43.7504         39.2504
 25  7 15  0 52 30.0000000  0  9G01G02G03G16G28G31G32G04G26
 -15444980.20747 -12006544.52345  21644408.2194                   21644406.3284
        46.5004         33.5004
  -2614754.57847  -2019128.98444  23318488.2664                   23318485.5594
        43.5004         28.0004
 -30283223.00448 -23546067.05948  20524597.4064                   20524596.9774
        49.5004         49.0004
  -3476276.25846  -1517621.73043  23966829.2664                   23966829.9844
        37.2504         19.0004
  -2849011.08247  -2200722.78944  22816844.7974                   22816843.1564
        43.5004         29.5004
 -17039314.85948 -13246061.48847  20592398.8054                   20592395.7154
        48.7504         46.5004
   3105438.93046   2428063.61745  24937832.5314                   24937835.4454
        40.0004         30.2504
 -27483664.85547 -21372441.72344  22205876.3984                   22205874.8054
        45.0004         29.5004
 -25931364.23047 -20162221.59446  22145695.7274                   22145696.8554
        43.7504         39.5004
 25  7 15  0 53  0.0000000  0  9G01G02G03G16G28G31G32G04G26
 -15482466.37547 -12035754.55945  21637275.1024                   21637273.3714
        46.5004         33.5004
  -2621574.98847  -2024443.67644  23317190.6094                   23317188.1724
        43.0004         28.2504
 -30422766.91848 -23654802.56248  20498043.5314                   20498042.5864
        49.2504         49.2504
  -3668732.35246  -1667587.31643  23930205.5704                   23930206.0664
        37.5004         19.0004
  -2850494.86347  -2201879.02045  22816562.9384                   22816560.9494
        43.0004         30.5004
 -17080449.17648 -13278114.21147  20584571.1484                   20584567.6844
        49.0004         46.5004
   3086471.82446   2413283.97745  24934223.7274                   24934226.5204
        39.0004         30.5004
 -27628196.44147 -21485063.70344  22178372.7034                   22178371.6604
        44.5004         28.7504
 -26079535.60547 -20277679.74646  22117499.8134                   22117501.0664
        43.7504         39.5004
 25  7 15  0 53 30.0000000  0  9G01G02G03G16G28G31G32G04G26
 -15519456.12547 -12064577.78145  21630235.8674                   21630233.8134
        46.5004         33.2504
  -2628218.53547  -2029620.57044  23315925.6644                   23315923.3524
        43.2504         26.0004
 -30561900.46148 -23763218.29348  20471566.7584                   20471566.3914
        49.0004         49.2504
  -3861147.88346  -1817521.29743  23893590.0164                   23893590.4694
        38.0004         19.2504
  -2851744.73847  -2202852.99245  22816324.6804                   22816323.1294
        43.0004         30.2504
 -17121071.88348 -13309768.27347  20576841.2664                   20576837.7734
        49.0004         46.5004
   3067541.84046   2398533.25444  24930621.4844                   24930623.8204
        38.5004         29.7504
 -27772582.92247 -21597572.59844  22150896.8204                   22150895.5164
        44.5004         29.5004
 -26227243.61747 -20392776.84846  22089392.2894                   22089393.0704
        44.5004         39.7504
 25  7 15  0 54  0.0000000  0  9G01G02G03G16G28G31G32G04G26
 -15555954.35947 -12093017.98845  21623290.8284                   21623289.2424
        46.7504         33.5004
  -2634690.71947  -2034663.91844  23314695.0944                   23314692.1484
        43.2504         27.2504
 -30700624.07848 -23871314.60948  20445168.5164                   20445168.4844
        49.7504         49.0004
  -4053522.38346  -1967423.29343  23856982.3834                   23856982.8014
        38.2504         20.0004
  -2852765.83247  -2203648.69544  22816130.6414                   22816129.2464
        43.5004         29.5004
 -17161187.68748 -13341027.35247  20569207.4384                   20569204.2274
        49.0004         46.5004
   3048646.46146   2383809.49644  24927025.3054                   24927027.9304
        36.7504         29.0004
 -27916827.07047 -21709970.59844  22123448.1414                   22123447.1454
        43.0004         29.5004
 -26374488.12547 -20507512.77046  22061372.2734                   22061373.3594
        43.0004         40.0004
 25  7 15  0 54 30.0000000  0  9G01G02G03G16G28G31G32G04G26
 -15591966.07447 -12121079.09845  21616438.1804                   21616436.3984
        46.2504         33.2504
  -2640997.32047  -2039578.24244  23313494.7424                   23313492.0124
        42.7504         27.0004
 -30838938.29348 -23979091.90248  20418848.2664                   20418847.8834
        49.7504         49.0004
  -4245855.12946  -2117292.75843  23820382.3914                   23820381.9534
        38.5004         21.0004
  -2853563.25847  -2204270.11745  22815978.7734                   22815977.4844
        43.0004         30.0004
 -17200801.44548 -13371895.21947  20561669.1094                   20561665.9494
        49.0004         46.5004
   3029783.20746   2369110.77744  24923435.5554                   24923438.4694
        36.7504         28.7504
 -28060931.65247 -21822259.84044  22096026.0004                   22096024.8444
        44.5004         29.7504
 -26521269.08647 -20621887.48846  22033440.7274                   22033441.4924
        43.2504         39.5004
 25  7 15  0 55  0.0000000  0  9G01G02G03G16G28G31G32G04G26
 -15627492.16447 -12148761.80145  21609677.4614                   21609675.6884
        46.5004         33.5004
  -2647139.64546  -2044364.57044  23312326.2424                   23312323.3554
        41.5004         26.2504
 -30976839.41448 -24086547.31248  20392606.4064                   20392606.0744
        49.0004         49.2504
  -4438141.62546  -2267126.18743  23783790.7894                   23783791.1844
        39.0004         21.0004
  -2854138.02347  -2204718.03944  22815869.4534                   22815868.2034
        43.0004         29.5004
 -17239914.11747 -13402372.64147  20554225.8134                   20554223.2894
        47.7504         46.2504
   3010953.57045   2354438.23044  24919853.8444                   24919855.2774
        35.0004         28.5004
 -28204895.36347 -21934439.31645  22068630.5234                   22068629.0474
        45.0004         30.0004
 -26667582.41847 -20735897.82046  22005598.0784                   22005598.8984
        44.5004         40.2504
 25  7 15  0 55 30.0000000  0  9G01G02G03G16G28G31G32G04G26
 -15662534.33247 -12176067.41845  21603009.3594                   21603007.7504
        45.5004         33.5004
  -2653119.86346  -2049024.55944  23311188.3524                   23311185.2274
        41.7504         26.5004
 -31114324.68448 -24193678.67648  20366444.1174                   20366443.4844
        49.7504         49.2504
  -4630378.00846  -2416920.56243  23747209.3054                   23747209.9414
        38.7504         21.7504
  -2854491.93447  -2204993.86744  22815802.6024                   22815800.7624
        44.0004         29.0004
 -17278527.57448 -13432461.05947  20546878.4304                   20546875.1604
        48.5004         46.2504
   2992158.46145   2339792.59444  24916276.5314                   24916279.2584
        33.0004         27.7504
 -28348717.60247 -22046508.54345  22041262.1804                   22041260.9804
        45.5004         30.0004
 -26813424.80947 -20849541.19146  21977845.3754                   21977846.2344
        45.0004         39.5004
 25  7 15  0 56  0.0000000  0  9G01G02G03G16G28G31G32G04G26
 -15697092.95347 -12202996.24645  21596433.2974                   21596431.6524
        46.2504         33.7504
  -2658938.41846  -2053558.60544  23310081.1094                   23310078.1134
        41.7504         26.5004
 -31251389.91448 -24300482.74648  20340361.3054                   20340360.3674
        50.0004         49.2504
  -4822559.08646  -2566671.87543  23710639.0554                   23710638.6454
        40.0004         22.7504
  -2854625.47647  -2205097.97545  22815776.9384                   22815775.1954
        43.7504         30.2504
 -17316642.28548 -13462160.84847  20539625.4304                   20539622.0864
        48.5004         46.2504
   2973399.97345   2325175.44544  24912707.2034                   24912709.8834
        32.0004         26.5004
 -28492396.53147 -22158466.11745  22013920.8444                   22013919.6334
        45.0004         30.5004
 -26958791.58247 -20962813.94946  21950182.7114                   21950183.8914
        44.7504         40.0004
 25  7 15  0 56 30.0000000  0  9G01G02G03G16G28G31G32G04G26
 -15731171.38347 -12229550.90645  21589948.2344                   21589946.0514
        47.0004         33.5004
  -2664599.49246  -2057969.94144  23309003.7114                   23309001.1414
        41.5004         27.5004
 -31388034.04748 -24406958.68448  20314359.1884                   20314358.2734
        50.0004         49.2504
  -5014682.55946  -2716378.27943  23674079.2504                   23674078.5984
        40.5004         22.2504
  -2854542.08647  -2205033.04744  22815793.0634                   22815791.5234
        43.7504         29.5004
 -17354261.40248 -13491474.45747  20532466.7034                   20532463.1914
        49.0004         46.2504
   2954677.14845   2310586.11344  24909143.4694                   24909147.1764
        33.0004         26.5004
 -28635933.25447 -22270312.87145  21986606.5864                   21986605.2934
        44.7504         30.2504
 -27103681.16447 -21075714.87146  21922611.3284                   21922612.3134
        44.2504         39.7504
 25  7 15  0 57  0.0000000  0  9G01G02G03G16G28G31G32G04G26
 -15764776.41447 -12255736.68045  21583553.4774                   21583551.5434
        46.0004         33.2504
  -2670110.19546  -2062264.10244  23307955.0164                   23307952.6484
        41.5004         26.0004
 -31524259.16448 -24513108.11748  20288436.1094                   20288435.6024
        49.5004         49.2504
  -5206749.56246  -2866040.68443  23637529.3754                   23637529.6414
        40.5004         22.7504
  -2854248.45747  -2204804.30944  22815848.5784                   22815847.0234
        43.2504         29.0004
 -17391391.85548 -13520407.29347  20525401.0394                   20525397.7974
        48.7504         46.2504
   2935985.85945   2296021.34844  24905587.3134                   24905590.1604
        32.0004         25.0004
 -28779332.15247 -22382052.23845  21959318.6414                   21959317.4964
        45.5004         30.0004
 -27248095.20747 -21188245.23846  21895129.7274                   21895131.0394
        45.7504         39.7504
 25  7 15  0 57 30.0000000  0 10G01G02G03G16G09G28G31G32G04G26
 -15797910.37947 -12281555.39145  21577248.1024                   21577246.5664
        45.2504         33.2504
  -2675473.15646  -2066443.12944  23306935.0004                   23306932.3134
        40.5004         28.5004
 -31660063.08648 -24618929.34048  20262593.7274                   20262592.8874
        49.0004         49.5004
  -5398756.90646  -3015656.60243  23600992.1484                   23600991.9534
        40.0004         22.7504
   9224890.05956   7223886.54754  24902007.5474                   24902009.7274
        39.7504         25.5004
  -2853747.05147  -2204413.64544  22815944.2194                   22815942.4304
        43.5004         29.0004
 -17428035.82848 -13548961.05547  20518427.8674                   20518424.7074
        49.2504         46.2504
   2917326.40245   2281481.40244  24902037.0944                   24902039.2544
        33.0004         27.0004
 -28922593.32847 -22493684.28145  21932057.0084                   21932055.5784
        45.5004         30.7504
 -27392031.09447 -21300403.02346  21867739.8204                   21867740.6884
        44.5004         40.0004
 25  7 15  0 58  0.0000000  0 10G01G02G03G16G09G28G31G32G04G26
 -15830579.02347 -12307011.52045  21571031.7814                   21571029.9694
        46.0004         33.0004
  -2680694.16847  -2070511.56244  23305940.8364                   23305938.4844
        43.0004         27.5004
 -31795447.01648 -24724423.30148  20236830.9224                   20236830.1644
        49.5004         49.5004
  -5590704.53946  -3165226.02743  23564465.4614                   23564464.7504
        39.5004         22.5004
   9057517.62546   7093466.63343  24870156.6724                   24870159.2074
        39.5004         23.2504
  -2853043.51247  -2203865.49244  22816078.1414                   22816076.5044
        43.5004         29.2504
 -17464199.00848 -13577140.17247  20511546.7194                   20511542.7114
        49.2504         46.2504
   2898695.62945   2266963.82044  24898491.9694                   24898494.1414
        35.5004         28.7504
 -29065720.12547 -22605211.62545  21904820.4384                   21904819.0274
        45.5004         30.5004
 -27535489.49247 -21412188.73446  21840440.4144                   21840441.8984
        45.0004         40.7504
 25  7 15  0 58 30.0000000  0 10G01G02G03G16G09G28G31G32G04G26
 -15862793.90247 -12332114.06645  21564901.6954                   21564899.7894
        45.7504         33.0004
  -2685785.74247  -2074479.12544  23304972.5634                   23304970.5234
        43.0004         26.0004
 -31930417.88348 -24829595.39148  20211146.7894                   20211146.0554
        50.0004         49.5004
  -5782598.34046  -3314753.51643  23527948.9384                   23527948.3134
        40.5004         22.7504
   8890159.16846   6963057.60544  24838309.6644                   24838312.3204
        38.5004         27.5004
  -2852149.40647  -2203168.84044  22816248.1644                   22816246.5514
        43.0004         29.2504
 -17499892.77348 -13604953.50847  20504754.1174                   20504750.7934
        49.2504         46.0004
   2880084.42245   2252461.47744  24894950.2344                   24894952.8674
        35.5004         29.2504
 -29208721.75847 -22716641.43445  21877608.5864                   21877607.4694
        46.0004         30.0004
 -27678476.97747 -21523607.50046  21813230.9534                   21813231.7464
        46.0004         40.7504
 25  7 15  0 59  0.0000000  0 10G01G02G03G16G09G28G31G32G04G26
 -14319131.78147 -11129260.51245  21858650.4454                   21858649.0274
        45.7504         33.0004
  -1115325.63747   -850744.07444  23603820.7814                   23603818.8054
        42.0004         27.0004
 -30489544.52348 -23706836.91448  20485335.4384                   20485335.1994
        49.5004         49.5004
  -4399003.82846  -2236627.72743  23791238.0704                   23791237.7034
        38.5004         21.7504
  10298244.75446   8060267.32444  25106259.0634                   25106261.3874
        38.7504         28.0004
  -1275642.54347   -974721.98444  23116247.7114                   23116245.6764
        43.2504         29.0004
 -15959693.97348 -12404798.61747  20797844.4924                   20797840.6914
        49.5004         46.0004
   4436918.31646   3465578.68445  25191205.7814                   25191208.3984
        36.5004         30.0004
 -27776168.92247 -21600366.46545  22150214.2504                   22150213.2504
        44.7504         30.7504
 -26245561.64547 -20407050.04746  22085905.3754                   22085906.5274
        45.5004         40.5004
 25  7 15  0 59 30.0000000  0 10G01G02G03G16G09G28G31G32G04G26
 -14350433.62147 -11153651.59045  21852693.8204                   21852692.5784
        45.5004         33.2504
  -1120153.11746   -854505.84844  23602903.0704                   23602900.5824
        40.7504         25.2504
 -30623670.14848 -23811350.38348  20459812.4614                   20459811.7464
        50.0004         49.5004
  -4590767.19146  -2386053.57043  23754746.3134                   23754746.0784
        38.5004         22.0004
  10130926.75446   7929889.84044  25074418.9924                   25074421.8594
        37.7504         29.0004
  -1274361.66047   -973723.95744  23116491.8524                   23116489.5904
        43.0004         29.2504
 -15994443.82448 -12431876.43747  20791231.1884                   20791227.8284
        48.5004         46.0004
   4418359.77046   3451117.37945  25187674.1644                   25187676.9494
        37.2504         30.0004
 -27918907.63347 -21711591.40645  22123052.0784                   22123050.7344
        45.2504         31.0004
 -26387586.79747 -20517718.93446  22058878.6414                   22058879.8984
        45.7504         40.5004
 25  7 15  1  0  0.0000000  0 10G01G02G03G16G09G28G31G32G04G26
 -14381281.41847 -11177688.87945  21846823.9384                   21846822.2074
        46.0004         33.5004
  -1124851.69146   -858167.19944  23602008.4774                   23602006.4024
        41.5004         26.7504
 -30757368.67648 -23915531.04348  20434370.6024                   20434369.9964
        50.0004         49.7504
  -4782459.11746  -2535423.72743  23718268.6024                   23718268.5354
        39.2504         22.0004
   9963630.14846   7799529.01644  25042582.9144                   25042586.5984
        38.0004         29.0004
  -1272889.67647   -972577.01244  23116771.4304                   23116769.5824
        43.2504         29.0004
 -16028723.89848 -12458588.20347  20784708.5234                   20784704.8094
        48.0004         46.0004
   4399829.08246   3436677.78945  25184147.5554                   25184150.4884
        38.2504         30.5004
 -28061513.69147 -21822712.98045  22095914.6644                   22095913.7814
        44.7504         30.7504
 -26529125.68047 -20628008.91446  22031945.6174                   22031946.5514
        45.0004         40.7504
 25  7 15  1  0 30.0000000  0 10G01G02G03G16G09G28G31G32G04G26
 -14411671.16447 -11201369.25045  21841040.7734                   21841039.4494
        45.5004         33.5004
  -1129417.53946   -861725.10544  23601139.8914                   23601137.2664
        41.2504         27.7504
 -30890631.44948 -24019372.14548  20409011.3524                   20409011.0664
        50.0004         49.7504
  -4974069.84846  -2684730.61743  23681806.5944                   23681805.8834
        38.5004         21.2504
   9796361.32846   7669189.85245  25010752.4224                   25010756.1724
        38.0004         30.7504
  -1271222.47347   -971277.93744  23117088.8984                   23117087.0044
        42.2504         28.5004
 -16062530.12548 -12484930.73447  20778275.1804                   20778271.4614
        48.2504         46.0004
   4381332.96946   3422265.13345  25180628.0704                   25180631.0394
        38.5004         31.7504
 -28203980.65247 -21933726.16845  22068804.0474                   22068802.7424
        44.0004         31.2504
 -26670169.27347 -20737912.95746  22005105.6954                   22005106.4654
        45.0004         40.5004
 25  7 15  1  1  0.0000000  0 10G01G02G03G16G09G28G31G32G04G26
 -14441607.75847 -11224696.50045  21835344.2424                   21835342.7504
        45.0004         33.2504
  -1133855.73447   -865183.55944  23600294.6644                   23600292.8914
        42.2504         27.2504
 -31023458.87548 -24122874.02748  20383735.0944                   20383734.6254
        50.5004         49.5004
  -5165598.54746  -2833973.59843  23645359.3594                   23645358.9344
        39.0004         21.2504
   9629117.75446   7538870.34444  24978928.3914                   24978930.9964
        38.0004         29.5004
  -1269364.91047   -969830.55544  23117442.3914                   23117440.6484
        42.5004         27.7504
 -16095867.57448 -12510907.98447  20771931.4614                   20771927.6484
        48.0004         46.0004
   4362869.10246   3407877.58645  25177115.3284                   25177117.8054
        39.0004         31.7504
 -28346311.03147 -22044632.93045  22041719.4144                   22041718.0944
        44.7504         30.5004
 -26810717.55547 -20847431.04346  21978360.2114                   21978360.8134
        45.5004         41.0004
 25  7 15  1  1 30.0000000  0 10G01G02G03G16G09G28G31G32G04G26
 -14471092.80947 -11247671.90645  21829733.5944                   21829731.9184
        46.2504         33.2504
  -1138168.22747   -868544.07844  23599474.6724                   23599472.4964
        43.0004         27.5004
 -31155847.83248 -24226034.23848  20358542.4144                   20358541.8164
        50.5004         49.5004
  -5357040.71946  -2983149.14843  23608928.5864                   23608928.0944
        39.0004         20.2504
   9461900.35946   7408571.24245  24947107.4304                   24947109.8364
        36.5004         30.5004
  -1267318.37147   -968235.89844  23117831.9224                   23117830.1484
        42.2504         28.0004
 -16128737.68048 -12536521.07047  20765676.2504                   20765672.9304
        48.2504         45.7504
   4344438.72346   3393516.16445  25173607.9064                   25173610.4384
        40.0004         31.5004
 -28488503.90247 -22155432.53545  22014661.2034                   22014659.9924
        45.2504         31.5004
 -26950767.04747 -20956560.46546  21951709.4304                   21951710.7774
        46.0004         41.5004
 25  7 15  1  2  0.0000000  0 10G01G02G03G16G09G28G31G32G04G26
 -14500123.33647 -11270293.13745  21824209.2814                   21824207.5354
        45.7504         32.7504
  -1142352.14147   -871804.37944  23598678.8444                   23598676.6414
        42.5004         26.7504
 -31287790.73048 -24328846.87548  20333434.7344                   20333433.8634
        50.5004         49.5004
  -5548387.94146  -3132250.70743  23572516.6254                   23572516.2544
        39.5004         19.5004
   9294714.58645   7278296.79744  24915292.8984                   24915295.4924
        35.0004         29.2504
  -1265079.71547   -966491.53944  23118257.9454                   23118255.8284
        42.0004         27.5004
 -16161137.31648 -12561767.55947  20759511.1334                   20759507.4804
        48.2504         45.5004
   4326047.49246   3379185.25045  25170107.6724                   25170111.4264
        40.0004         31.5004
 -28630553.81247 -22266120.74644  21987629.4454                   21987628.8324
        45.5004         29.7504
 -27090309.77047 -21065295.00446  21925155.2974                   21925156.1294
        46.0004         41.0004
 25  7 15  1  2 30.0000000  0 10G01G02G03G16G09G28G31G32G04G26
 -14528706.49247 -11292565.77345  21818770.6484                   21818768.5514
        46.0004         33.2504
  -1146415.06646   -874970.40644  23597905.7034                   23597903.8594
        41.2504         27.2504
 -31419290.05948 -24431313.86748  20308411.3444                   20308410.3134
        50.2504         49.7504
  -5739641.09446  -3281278.99243  23536121.9384                   23536121.8484
        39.7504         18.5004
   9127555.77745   7148043.34444  24883482.6884                   24883486.0554
        34.2504         28.2504
  -1262655.81646   -964602.85244  23118719.5784                   23118717.4264
        41.7504         27.5004
 -16193073.72347 -12586653.08247  20753433.6954                   20753429.9454
        47.7504         45.7504
   4307690.98446   3364881.39145  25166614.9454                   25166617.6994
        40.5004         31.5004
 -28772465.42247 -22376701.18045  21960625.3524                   21960623.7734
        43.0004         30.5004
 -27229347.87547 -21173636.34446  21898697.0864                   21898698.1054
        44.2504         41.0004
 25  7 15  1  3  0.0000000  0 10G01G02G03G16G09G28G31G32G04G26
 -14556845.14547 -11314492.03545  21813415.5474                   21813413.9534
        45.0004         33.0004
  -1150359.89546   -878044.40644  23597155.1804                   23597152.9414
        41.0004         25.7504
 -31550344.13348 -24533433.91848  20283472.2194                   20283471.7704
        50.7504         49.7504
  -5930797.44946  -3430231.84443  23499746.2034                   23499745.5704
        39.7504         19.7504
   8960423.40645   7017810.49644  24851679.5554                   24851681.7734
        34.2504         27.0004
  -1260049.44946   -962571.96144  23119215.7344                   23119213.7544
        41.2504         28.0004
 -16224549.66047 -12611179.80947  20747443.9694                   20747440.2814
        47.0004         45.5004
   4289369.07846   3350604.50445  25163128.0314                   25163131.4734
        40.7504         32.2504
 -28914239.12947 -22487174.17245  21933646.5944                   21933644.9384
        45.2504         31.5004
 -27367879.27047 -21281582.84046  21872334.9924                   21872336.3794
        45.7504         41.0004
 25  7 15  1  3 30.0000000  0 10G01G02G03G16G09G28G31G32G04G26
 -14584542.35947 -11336074.32045  21808145.1094                   21808143.6214
        45.7504         33.0004
  -1154189.98847   -881029.00844  23596425.9144                   23596424.0084
        42.0004         25.7504
 -31680951.30548 -24635205.71948  20258618.5704                   20258617.7114
        50.2504         49.5004
  -6121854.10946  -3579106.99243  23463388.8524                   23463388.4804
        39.2504         20.2504
   8793317.09845   6887597.99244  24819879.1094                   24819882.3134
        34.7504         28.5004
  -1257263.37546   -960401.05144  23119745.5944                   23119743.9884
        41.5004         27.0004
 -16255567.97347 -12635349.94147  20741541.3524                   20741538.1374
        47.7504         45.7504
   4271081.43846   3336354.29345  25159648.7274                   25159651.5554
        40.2504         30.7504
 -29055875.38747 -22597540.05545  21906694.1724                   21906692.6684
        45.0004         31.0004
 -27505901.98847 -21389132.97746  21846070.3984                   21846071.5164
        46.0004         41.0004
 25  7 15  1  4  0.0000000  0 10G01G02G03G16G09G28G31G32G04G26
 -14611799.92247 -11357314.02045  21802957.8674                   21802956.4264
        44.7504         33.0004
  -1157907.34046   -883925.75844  23595718.7814                   23595716.4804
        40.7504         26.0004
 -31811108.66448 -24736627.02748  20233850.2034                   20233849.5514
        50.0004         49.5004
  -6312806.88746  -3727901.23043  23427051.8674                   23427050.9924
        40.0004         19.2504
   8626237.48445   6757406.26244  24788084.8524                   24788088.0514
        34.5004         28.5004
  -1254299.10546   -958091.29344  23120309.3754                   23120307.7974
        41.5004         28.0004
 -16286130.39547 -12659164.83247  20735725.3204                   20735722.0824
        47.5004         45.5004
   4252829.18446   3322131.67245  25156175.4924                   25156178.3834
        41.0004         31.5004
 -29197373.41847 -22707798.23045  21879767.6484                   21879766.3554
        44.5004         30.0004
 -27643412.80547 -21496284.21946  21819903.1564                   21819903.6524
        46.0004         41.0004
 25  7 15  1  4 30.0000000  0 10G01G02G03G16G09G28G31G32G04G26
 -14638623.11747 -11378215.24645  21797853.8754                   21797852.1724
        44.7504         33.2504
  -1161517.53546   -886739.01244  23595032.1884                   23595029.8484
        41.7504         26.2504
 -31940816.93448 -24837698.39148  20209167.8674                   20209166.9924
        50.5004         49.7504
  -6503655.03546  -3876613.93043  23390734.7194                   23390734.1414
        39.0004         20.2504
   8459181.87946   6627233.23445  24756295.2734                   24756298.3134
        36.5004         30.2504
  -1251161.74246   -955646.66044  23120906.3984                   23120905.1134
        41.0004         28.0004
 -16316242.15647 -12682628.55947  20729995.5864                   20729992.1294
        47.5004         45.5004
   4234609.69546   3307934.58645  25152708.0394                   25152711.4654
        40.2504         30.2504
 -29338735.96547 -22817950.83245  21852867.0554                   21852865.6134
        44.5004         30.5004
 -27780412.05947 -21603036.84046  21793833.0164                   21793833.9344
        46.0004         41.0004
 25  7 15  1  5  0.0000000  0 10G01G02G03G16G09G28G31G32G04G26
 -14665016.94947 -11398781.91045  21792831.2734                   21792829.2504
        45.2504         31.7504
  -1165025.50046   -889472.60944  23594363.9844                   23594362.7154
        41.5004         26.0004
 -32070076.36348 -24938420.00448  20184570.3444                   20184569.4574
        50.2504         49.7504
  -6694397.64846  -4025244.39843  23354437.8134                   23354436.3594
        38.5004         21.5004
   8292147.80546   6497076.98444  24724509.4144                   24724512.6804
        36.0004         29.2504
  -1247855.87546   -953070.73444  23121535.6804                   23121534.1174
        41.7504         27.0004
 -16345908.09848 -12705744.90247  20724349.9304                   20724346.8984
        48.2504         45.7504
   4216420.90246   3293761.43045  25149248.2584                   25149250.4184
        40.0004         30.2504
 -29479965.41847 -22927999.73445  21825992.2664                   21825991.2114
        45.2504         31.5004
 -27916899.70347 -21709390.80546  21767860.6094                   21767861.2154
        46.0004         41.5004
 25  7 15  1  5 30.0000000  0 10G01G02G03G16G09G28G31G32G04G26
 -14690981.13747 -11419013.79345  21787890.1954                   21787888.7584
        46.2504         32.5004
  -1168430.96946   -892126.33244  23593716.1174                   23593714.4804
        41.0004         24.7504
 -32198882.04348 -25038788.05948  20160059.4924                   20160059.1524
        50.0004         49.7504
  -6885028.41046  -4173787.72343  23318160.8674                   23318160.4924
        39.2504         20.2504
   8125138.14145   6366939.74244  24692729.2504                   24692731.7154
        34.2504         29.5004
  -1244380.92246   -950363.03544  23122197.2974                   23122195.6254
        40.7504         27.0004
 -16375127.84448 -12728513.55147  20718790.0704                   20718786.6884
        48.2504         45.5004
   4198265.86746   3279614.57445  25145792.5634                   25145795.7194
        40.2504         30.5004
 -29621058.89147 -23037942.66845  21799143.0004                   21799141.4304
        45.7504         31.5004
 -28052870.55947 -21815342.07846  21741985.6954                   21741986.6484
        46.7504         41.2504
 25  7 15  1  6  0.0000000  0 10G01G02G03G16G09G28G31G32G04G26
 -14716518.49647 -11438913.07045  21783030.9304                   21783029.2704
        46.0004         32.5004
  -1171737.23446   -894702.77744  23593087.3674                   23593085.4304
        40.7504         25.0004
 -32327232.15248 -25138801.11748  20135634.9064                   20135634.3634
        50.2504         49.7504
  -7075544.08246  -4322241.36743  23281907.3984                   23281907.0864
        39.5004         21.5004
   7958152.57445   6236821.27044  24660951.7894                   24660954.5944
        34.7504         29.2504
  -1240739.42646   -947525.56244  23122889.9384                   23122888.2734
        40.2504         27.2504
 -16403903.97748 -12750936.52747  20713314.0944                   20713310.4494
        48.2504         45.5004
   4180144.57846   3265494.00844  25142344.5084                   25142346.9184
        39.7504         27.5004
 -29762016.55147 -23147779.78145  21772319.8834                   21772318.4494
        45.7504         31.7504
 -28188322.45347 -21920888.96946  21716210.0084                   21716211.0314
        46.7504         41.5004
 25  7 15  1  6 30.0000000  0 10G01G02G03G16G09G28G31G32G04G26
 -14741632.68747 -11458482.61745  21778251.6174                   21778250.1604
        44.2504         32.5004
  -1174947.85246   -897204.67644  23592476.9304                   23592474.9774
        41.2504         25.7504
 -32455125.62148 -25238458.35548  20111297.8834                   20111297.3164
        50.0004         50.0004
  -7265942.30546  -4470603.48843  23245675.7194                   23245675.1684
        38.2504         21.5004
   7791190.18045   6106720.87144  24629180.2194                   24629182.9064
        35.0004         29.2504
  -1236934.60246   -944560.83644  23123614.1174                   23123612.7194
        40.5004         27.7504
 -16432240.32447 -12773016.81647  20707921.7894                   20707918.5594
        46.7504         45.7504
   4162056.37546   3251399.23444  25138902.5554                   25138904.8874
        40.0004         27.0004
 -29902839.45347 -23257511.88745  21745521.9304                   21745520.2424
        44.7504         31.5004
 -28323254.07047 -22026030.45346  21690533.0864                   21690534.2854
        46.2504         41.5004
 25  7 15  1  7  0.0000000  0 10G01G02G03G16G09G28G31G32G04G26
 -14766326.96547 -11477724.95745  21773552.8524                   21773551.2974
        44.0004         32.5004
  -1178066.34446   -899634.80144  23591883.2974                   23591881.5784
        41.0004         25.7504
 -32582561.05148 -25337758.68048  20087047.7114                   20087047.0784
        49.7504         49.7504
  -7456220.29346  -4618871.90243  23209467.0864                   23209466.1134
        38.5004         21.5004
   7624250.15646   5976637.89544  24597412.7974                   24597415.4654
        36.5004         27.5004
  -1232969.38746   -941471.13344  23124368.9384                   23124367.6024
        40.7504         27.0004
 -16460139.67647 -12794756.59047  20702613.1024                   20702609.3754
        46.7504         45.5004
   4144000.64846   3237329.78144  25135465.8674                   25135469.1294
        40.2504         25.0004
 -30043528.18047 -23367139.42645  21718749.8754                   21718748.0664
        45.0004         31.7504
 -28457663.72747 -22130765.21546  21664956.2194                   21664956.6724
        45.7504         41.5004
 25  7 15  1  7 30.0000000  0 10G01G02G03G16G09G28G31G32G04G26
 -14790605.28147 -11496643.16045  21768932.4774                   21768931.0904
        45.2504         31.5004
  -1181096.80846   -901996.33943  23591306.8054                   23591304.9224
        39.5004         22.5004
 -32709537.73448 -25436701.54348  20062884.9064                   20062884.1724
        50.0004         50.0004
  -7646376.22346  -4767045.23043  23173281.1954                   23173280.6884
        38.7504         21.5004
   7457331.29345   5846571.37544  24565648.6334                   24565651.5944
        34.2504         27.0004
  -1228847.32046   -938259.20744  23125153.2274                   23125151.4304
        41.0004         27.0004
 -16487605.93747 -12816158.89147  20697386.3284                   20697383.1764
        47.5004         45.5004
   4125976.46146   3223284.90244  25132036.3524                   25132039.8204
        40.5004         24.0004
 -30184084.02747 -23476663.43745  21692003.3754                   21692001.4884
        45.2504         31.7504
 -28591550.42247 -22235092.46146  21639478.3054                   21639479.0824
        46.5004         41.5004
 25  7 15  1  8  0.0000000  0 10G01G02G03G16G09G28G31G32G04G26
 -13239051.99647 -10287640.65245  22064183.5084                   22064182.2464
        45.7504         31.5004
    391376.02746    323307.04343  23890537.9064                   23890536.3914
        39.2504         21.7504
 -31260631.87148 -24307683.97748  20338602.2504                   20338601.6414
        50.0004         50.0004
  -6260982.54346  -3687517.54743  23436912.7974                   23436911.9104
        40.0004         22.7504
   8865856.60945   6944123.71144  24833682.5164                   24833685.5004
        34.5004         27.0004
    350846.71146    292671.14844  23425759.3754                   23425757.8364
        41.5004         27.5004
 -14939223.17247 -11609626.89547  20992033.4694                   20992030.0474
        47.5004         45.5004
   5683402.16946   4436863.30143  25428405.0004                   25428407.7074
        40.0004         22.2504
 -28749084.74247 -22358482.15245  21965074.0234                   21965072.5434
        45.5004         30.7504
 -27149489.87547 -21111408.87546  21913892.9614                   21913893.9774
        46.5004         41.5004
 25  7 15  1  8 30.0000000  0 10G01G02G03G16G09G28G31G32G04G26
 -13262511.18447 -10305920.57845  22059719.6954                   22059718.1334
        45.0004         31.0004
    388509.10546    321072.91843  23889993.6484                   23889991.4064
        39.2504         22.7504
 -31386689.73448 -24405910.86748  20314614.4534                   20314614.0394
        49.5004         50.0004
  -6450888.03946  -3835495.70743  23400774.5164                   23400773.9224
        40.5004         21.7504
   8698975.14845   6814086.34044  24801925.5314                   24801928.3404
        34.0004         25.7504
    355270.96947    296118.54744  23426600.5554                   23426599.9494
        43.0004         28.7504
 -14965835.78147 -11630364.01647  20986969.6954                   20986965.8524
        47.7504         45.5004
   5665437.01246   4422864.43843  25424986.6724                   25424989.2344
        39.5004         22.2504
 -28889379.47747 -22467802.68745  21938376.8204                   21938375.4304
        45.2504         31.7504
 -27282328.62147 -21214919.54746  21888615.0554                   21888615.6804
        46.5004         41.5004
 25  7 15  1  9  0.0000000  0 10G01G02G03G16G09G28G31G32G04G26
 -13285564.87947 -10323884.54345  22055332.0394                   22055330.5904
        44.7504         31.7504
    385719.85946    318899.38343  23889462.3284                   23889460.5474
        39.5004         22.5004
 -31512285.20348 -24503777.45748  20290714.7344                   20290713.7234
        49.2504         50.0004
  -6640663.42646  -3983372.52743  23364662.0634                   23364661.0394
        40.2504         21.7504
   8532112.37145   6684063.55544  24770172.3364                   24770174.9774
        35.5004         26.7504
    359842.95347    299681.07444  23427471.3524                   23427469.9184
        42.5004         28.0004
 -14992025.08647 -11650771.28547  20981985.5704                   20981982.2974
        47.2504         45.5004
   5647501.63346   4408888.76643  25421573.5394                   25421576.4774
        38.2504         21.0004
 -29029543.63747 -22577021.48845  21911704.5164                   21911702.8164
        45.0004         32.0004
 -27414640.05147 -21318019.31646  21863436.7504                   21863437.4024
        46.5004         41.7504
 25  7 15  1  9 30.0000000  0  9G01G02G03G16G09G28G31G04G26
 -13308215.36347 -10341534.31645  22051021.7584                   22051020.4454
        44.5004         31.5004
    383005.91846    316784.46144  23888946.1564                   23888944.3134
        39.0004         24.2504
 -31637415.91848 -24601281.90648  20266902.5944                   20266901.8484
        50.2504         50.0004
  -6830304.76646  -4131144.86343  23328574.4844                   23328573.5824
        40.7504         22.7504
   8365268.69946   6554055.64844  24738423.6564                   24738425.5164
        37.0004         28.0004
    364560.82447    303357.27344  23428368.6094                   23428367.9534
        42.5004         28.5004
 -15017793.66847 -11670850.71547  20977082.2274                   20977078.7854
        47.2504         45.5004
 -29169576.79747 -22686138.21545  21885056.9384                   21885055.8554
        45.5004         32.0004
 -27546421.53147 -21420706.14547  21838359.7664                   21838360.0944
        46.5004         42.0004
 25  7 15  1 10  0.0000000  0  9G01G02G03G16G09G28G31G04G26
 -13330465.73447 -10358872.31245  22046788.2034                   22046786.7344
        45.7504         31.2504
    380363.87946    314725.57843  23888443.8364                   23888441.6994
        39.0004         23.0004
 -31762080.28548 -24698422.96948  20243180.1564                   20243179.3364
        49.7504         50.0004
  -7019809.24646  -4278810.57443  23292512.6804                   23292511.4454
        41.5004         22.5004
   8198443.55146   6424062.16444  24706677.3524                   24706679.9224
        37.5004         28.5004
    369421.92247    307145.08244  23429294.0554                   23429293.0554
        42.7504         28.5004
 -15043144.37148 -11690604.53547  20972257.7194                   20972254.6294
        48.5004         45.5004
 -29309479.28547 -22795153.11345  21858434.4534                   21858432.9414
        45.0004         32.2504
 -27677671.31247 -21522978.65646  21813383.4924                   21813384.2734
        46.5004         41.7504
 25  7 15  1 10 30.0000000  0  9G01G02G03G16G09G28G31G04G26
 -13352313.69147 -10375896.74245  22042630.5474                   22042628.9964
        44.7504         31.2504
    377796.29346    312724.69943  23887955.2504                   23887953.0234
        39.7504         23.2504
 -31886271.30148 -24795195.18048  20219547.5004                   20219546.4454
        49.5004         50.0004
  -7209168.02746  -4426362.75444  23256478.3914                   23256478.0354
        40.5004         24.2504
   8031642.11746   6294087.14844  24674936.4454                   24674938.3484
        38.7504         29.5004
    374429.11347    311046.73044  23430246.8284                   23430245.4534
        43.2504         28.5004
 -15068074.53547 -11710030.66047  20967514.2114                   20967510.8014
        47.5004         45.5004
 -29449246.05947 -22904062.25845  21831837.6484                   21831836.7154
        45.0004         32.2504
 -27808382.08647 -21624831.16046  21788510.2894                   21788510.8164
        46.7504         41.7504
 25  7 15  1 11  0.0000000  0  9G01G02G03G16G09G28G31G04G26
 -13373760.27347 -10392608.41045  22038549.4694                   22038547.8324
        44.5004         31.2504
    375302.39146    310781.25843  23887481.2274                   23887478.5514
        39.2504         22.7504
 -32009985.34448 -24891595.73448  20196005.3524                   20196004.8914
        49.5004         50.0004
  -7398376.09446  -4573797.49243  23220473.7194                   23220472.7074
        41.5004         22.5004
   7864866.02046   6164131.86745  24643200.1094                   24643201.7074
        39.0004         30.5004
    379581.90247    315061.84044  23431227.4614                   23431226.0634
        42.7504         28.5004
 -15092584.86747 -11729129.63747  20962849.9924                   20962846.3364
        47.5004         45.5004
 -29588875.33247 -23012864.26645  21805267.4924                   21805265.9534
        44.5004         32.7504
 -27938550.11347 -21726260.75046  21763739.9534                   21763740.7114
        46.5004         41.7504
 25  7 15  1 11 30.0000000  0  9G01G02G03G16G09G28G31G04G26
 -13394811.85947 -10409012.28545  22034543.6334                   22034542.0204
        46.0004         31.5004
    372875.43446    308889.96543  23887019.1174                   23887017.6094
        40.0004         22.5004
 -32133224.05548 -24987625.89848  20172553.7114                   20172552.9774
        49.5004         50.0004
  -7587433.52746  -4721114.82844  23184497.3054                   23184495.7854
        40.7504         24.0004
   7698111.59846   6034193.49645  24611466.7894                   24611469.4574
        38.0004         30.0004
    384874.48047    319185.85944  23432234.3524                   23432233.8524
        42.2504         28.7504
 -15116681.94148 -11747906.59847  20958264.4614                   20958261.1724
        48.5004         45.2504
 -29728370.71147 -23121561.94145  21778722.2894                   21778720.5904
        45.5004         33.0004
 -28068176.84847 -21827268.55947  21739072.3834                   21739072.9184
        46.0004         42.0004
 25  7 15  1 12  0.0000000  0  9G01G02G03G16G09G28G31G04G26
 -13415472.34047 -10425111.41845  22030612.1484                   22030610.7704
        46.0004         32.0004
    370511.74246    307047.98844  23886569.6094                   23886567.5824
        41.2504         24.0004
 -32255986.64848 -25083285.05948  20149192.7974                   20149192.0514
        49.0004         50.2504
  -7776338.07846  -4868313.05943  23148550.1724                   23148548.3794
        41.2504         22.7504
   7531377.80546   5904271.18045  24579738.4144                   24579740.8754
        38.2504         30.2504
    390303.45747    323416.16844  23433268.2734                   23433266.7074
        42.7504         28.0004
 -15140369.25848 -11766364.26647  20953756.4454                   20953753.4844
        48.0004         45.2504
 -29867733.21147 -23230156.06645  21752202.1024                   21752200.7194
        45.7504         33.5004
 -28197261.34447 -21927853.84446  21714508.6644                   21714509.1804
        46.2504         41.7504
 25  7 15  1 12 30.0000000  0  9G01G02G03G16G09G28G31G04G26
 -13435749.89547 -10440912.15645  22026753.0864                   22026751.7584
        46.0004         30.5004
    368203.03146    305248.85243  23886129.7274                   23886128.3834
        40.5004         23.0004
 -32378276.65248 -25178575.95748  20125921.8754                   20125920.9574
        49.2504         50.2504
  -7965092.00046  -5015393.91843  23112630.2734                   23112629.7544
        41.0004         22.0004
   7364659.15646   5774360.68444  24548013.4924                   24548014.9884
        37.7504         27.5004
    395861.26647    327746.88344  23434325.8134                   23434323.8554
        42.7504         26.7504
 -15163654.84048 -11784508.89847  20949325.5864                   20949322.4414
        48.2504         45.5004
 -30006968.23047 -23338650.85945  21725706.6334                   21725705.1994
        45.7504         33.0004
 -28325806.87547 -22028019.15647  21690047.2814                   21690047.6374
        46.5004         42.0004
 25  7 15  1 13  0.0000000  0  9G01G02G03G16G09G28G31G04G26
 -13455653.49247 -10456421.50045  22022966.0704                   22022964.4574
        45.0004         31.5004
    365940.51246    303485.66043  23885699.4694                   23885697.3134
        39.7504         22.5004
 -32500098.25848 -25273501.87948  20102739.9454                   20102739.1804
        48.7504         50.2504
  -8153697.59846  -5162359.21144  23076740.6484                   23076738.8244
        41.5004         24.5004
   7197949.53546   5644457.20344  24516288.8594                   24516290.9804
        37.5004         28.2504
    401539.56647    332171.46544  23435405.6334                   23435404.4964
        42.0004         26.0004
 -15186547.50847 -11802347.35547  20944969.4304                   20944966.1174
        47.7504         45.2504
 -30146081.80947 -23447051.02045  21699234.3834                   21699233.0204
        45.5004         32.5004
 -28453817.56647 -22127767.70347  21665687.6094                   21665688.2664
        46.2504         42.0004
 25  7 15  1 13 30.0000000  0  9G01G02G03G16G09G28G31G04G26
 -13475186.37947 -10471641.98845  22019248.8834                   22019247.3794
        45.5004         31.5004
    363720.97346    301755.99644  23885277.7504                   23885275.4224
        39.7504         24.2504
 -32621450.10548 -25368061.75848  20079647.3054                   20079646.9144
        48.7504         50.2504
  -8342152.02346  -5309206.69543  23040878.6804                   23040877.2854
        41.2504         23.7504
   7031248.37545   5514560.31344  24484566.8834                   24484568.7304
        35.2504         25.2504
    407335.75046    336687.93044  23436508.9534                   23436507.7074
        40.7504         26.7504
 -15209050.12947 -11819881.88347  20940687.4694                   20940684.2114
        47.2504         45.2504
 -30285074.42247 -23555356.93045  21672784.7814                   21672783.3014
        45.5004         32.5004
 -28581291.85247 -22227098.28547  21641430.0314                   21641430.3524
        46.2504         42.0004
 25  7 15  1 14  0.0000000  0  9G01G02G03G16G09G28G31G04G26
 -13494356.62147 -10486579.88345  22015601.1884                   22015599.9064
        45.5004         31.2504
    361536.57846    300053.69544  23884862.1414                   23884859.9964
        41.2504         25.5004
 -32742335.59448 -25462258.24648  20056643.8444                   20056642.9104
        48.7504         50.2504
  -8530456.90646  -5455937.66444  23005045.1414                   23005043.6684
        41.5004         24.0004
   6864550.49246   5384665.98044  24452844.8524                   24452847.0004
        36.0004         26.5004
    413242.28547    341290.36744  23437632.9844                   23437632.1094
        42.5004         26.5004
 -15231170.60248 -11837118.63747  20936478.3674                   20936474.6844
        48.0004         45.0004
 -30423951.27747 -23663572.62945  21646357.1094                   21646356.3444
        46.2504         32.7504
 -28708232.99647 -22326013.42646  21617273.7504                   21617274.2114
        46.2504         41.7504
 25  7 15  1 14 30.0000000  0  9G01G02G03G16G09G28G31G04G26
 -13513164.72747 -10501235.60245  22012021.7504                   22012020.9144
        44.5004         31.5004
    359386.83246    298378.43444  23884452.6414                   23884451.1524
        39.7504         24.5004
 -32862750.49648 -25556088.03148  20033729.6334                   20033728.7424
        49.2504         50.2504
  -8718606.89847  -5602547.91044  22969241.6724                   22969240.3244
        42.0004         26.0004
   6697858.13745   5254775.96144  24421124.1484                   24421126.0234
        33.5004         25.2504
    419259.43846    345978.97344  23438778.5554                   23438776.9494
        41.5004         25.5004
 -15252909.18047 -11854057.80947  20932341.4144                   20932337.9884
        47.0004         45.0004
 -30562709.90647 -23771696.21145  21619952.7194                   21619951.1564
        46.7504         32.0004
 -28834636.68447 -22424509.77347  21593220.1334                   21593220.8054
        46.7504         42.0004
 25  7 15  1 15  0.0000000  0  9G01G02G03G16G09G28G31G04G26
 -13531615.64847 -10515612.99245  22008510.6564                   22008509.7344
        43.5004         31.5004
    357266.98846    296726.43844  23884049.7274                   23884047.8014
        39.7504         25.2504
 -32982695.09848 -25649551.34848  20010904.9064                   20010903.7704
        49.2504         50.2504
  -8906600.39846  -5749036.23844  22933467.2974                   22933466.0864
        41.0004         24.5004
   6531169.27045   5124888.66844  24389404.7274                   24389406.3634
        35.0004         25.5004
    425382.85546    350750.40644  23439943.5084                   23439942.1604
        41.2504         24.0004
 -15274270.79747 -11870703.24247  20928276.5864                   20928273.0164
        46.5004         44.7504
 -30701352.39547 -23879729.28945  21593569.7274                   21593568.3714
        45.5004         32.5004
 -28960503.02347 -22522587.41046  21569268.4454                   21569269.1214
        45.7504         41.7504
 25  7 15  1 15 30.0000000  0  9G01G02G03G16G09G28G31G04G26
 -13549706.96547 -10529710.18045  22005068.4144                   22005067.0514
        43.7504         32.0004
    355179.52046    295099.67644  23883653.2344                   23883651.1564
        40.0004         25.5004
 -33102162.35548 -25742642.71148  19988170.8204                   19988170.0984
        49.2504         50.5004
  -9094428.57446  -5895395.74244  22897724.3674                   22897723.5164
        41.5004         24.5004
   6364489.10245   4995008.16444  24357686.1414                   24357687.8164
        35.5004         25.5004
    431615.66046    355607.07044  23441129.5474                   23441128.5634
        40.7504         24.5004
 -15295252.44147 -11887052.59447  20924283.9384                   20924280.1414
        46.5004         44.7504
 -30839873.43747 -23987667.73845  21567210.2814                   21567208.2974
        45.5004         33.0004
 -29085824.89847 -22620240.79747  21545420.8054                   21545421.2894
        46.0004         42.0004
 25  7 15  1 16  0.0000000  0  9G01G02G03G16G09G28G31G04G26
 -13567444.77347 -10543531.90245  22001692.4844                   22001691.7274
        45.7504         31.2504
    353118.28546    293493.34444  23883261.0164                   23883259.0124
        40.2504         25.0004
 -33221153.60548 -25835363.15248  19965527.4534                   19965526.6374
        48.7504         50.5004
  -9282091.42646  -6041626.41444  22862013.4614                   22862011.8134
        41.5004         25.0004
   6197814.37145   4865131.89144  24325968.9924                   24325970.9264
        33.5004         27.0004
    437952.53946    360544.81644  23442335.8204                   23442334.1054
        40.5004         24.2504
 -15315860.14848 -11903110.57047  20920362.2584                   20920359.0004
        48.0004         44.7504
 -30978276.09047 -24095513.93045  21540872.7584                   21540871.4384
        46.0004         32.7504
 -29210603.51247 -22717470.85247  21521675.5704                   21521676.3634
        45.7504         42.0004
 25  7 15  1 16 30.0000000  0  9G01G02G03G16G09G28G31G04G26
 -12009409.97747  -9329478.87545  22298177.2894                   22298175.8484
        44.0004         32.0004
   1926502.17646   1519506.60244  24182664.9534                   24182664.2304
        40.0004         25.5004
 -31764241.77348 -24700107.17648  20242768.7814                   20242768.0314
        50.0004         50.5004
  -7894157.42646  -4960119.27343  23126128.3984                   23126127.0394
        41.5004         23.7504
   7606572.04745   5962865.31644  24594046.7344                   24594047.9184
        34.0004         27.5004
   2019812.42646   1593162.84843  23743353.4144                   23743351.9224
        40.7504         23.5004
 -13760674.58647 -10691277.68447  21216304.3594                   21216300.8674
        47.5004         44.7504
 -29541134.41447 -22975663.23845  21814351.6564                   21814350.1994
        45.0004         32.7504
 -27759411.56647 -21586671.90247  21797828.5634                   21797829.1214
        46.0004         42.0004
 25  7 15  1 17  0.0000000  0  9G01G02G03G16G09G28G31G04G26
 -12026452.38347  -9342758.73045  22294934.2894                   22294932.7774
        44.7504         31.7504
   1924482.71946   1517932.80944  24182280.7814                   24182279.8244
        39.5004         24.7504
 -31882278.75048 -24792084.03548  20220306.9304                   20220306.1414
        49.5004         50.5004
  -8081481.62146  -5106086.07044  23090481.8524                   23090480.8244
        41.7504         24.7504
   7439905.31345   5832995.30144  24562330.4224                   24562332.8484
        35.0004         28.2504
   2026347.94546   1598255.40244  23744597.1954                   23744595.9884
        39.2504         24.0004
 -13780545.29347 -10706761.37147  21212523.2504                   21212519.5274
        46.5004         44.5004
 -29679303.21947 -23083327.21945  21788058.8754                   21788057.5474
        45.7504         33.5004
 -27883101.16847 -21683053.38347  21774291.2344                   21774291.4924
        46.0004         42.0004
 25  7 15  1 17 30.0000000  0  9G01G02G03G16G09G28G31G04G26
 -12043151.63747  -9355771.18445  22291756.5234                   22291755.2194
        45.7504         32.0004
   1922479.87546   1516371.98443  24181899.9144                   24181899.1174
        39.7504         23.2504
 -31999836.10948 -24883687.16048  20197936.2814                   20197935.8754
        48.5004         50.5004
  -8268631.62147  -5251917.12943  23054868.3594                   23054866.7504
        42.5004         22.5004
   7273242.33245   5703128.20744  24530616.4304                   24530617.6414
        35.5004         28.5004
   2032979.37546   1603422.67243  23745858.7274                   23745857.8444
        40.2504         22.7504
 -13800051.85948 -10721961.30947  21208811.2814                   21208807.5314
        48.0004         44.7504
 -29817355.19947 -23190900.15645  21761788.7664                   21761787.3594
        46.0004         34.2504
 -28006243.70747 -21779008.58247  21750857.7974                   21750858.3014
        46.0004         42.2504
 25  7 15  1 18  0.0000000  0  9G01G02G03G16G09G28G31G04G26
 -12059512.82847  -9368520.22345  22288643.0004                   22288641.9884
        43.5004         31.7504
   1920488.53146   1514820.09444  24181521.0394                   24181520.3284
        40.0004         25.2504
 -32116914.28548 -24974916.89848  20175657.1564                   20175656.4614
        49.0004         50.5004
  -8455606.45747  -5397611.68443  23019288.1094                   23019286.6684
        42.0004         23.7504
   7106580.86746   5573262.25045  24498901.0084                   24498903.2734
        36.2504         30.5004
   2039702.39146   1608661.32044  23747138.5944                   23747137.3834
        39.2504         24.5004
 -13819198.58647 -10736880.85947  21205167.5704                   21205164.1994
        46.5004         44.5004
 -29955292.41847 -23298383.67245  21735539.8054                   21735538.3954
        45.7504         33.5004
 -28128839.53947 -21874537.77747  21727528.7734                   21727529.2704
        45.7504         42.0004
 25  7 15  1 18 30.0000000  0  9G01G02G03G16G09G28G31G04G26
 -12075537.52747  -9381007.05945  22285593.5234                   22285592.2194
        45.0004         31.5004
   1918507.55146   1513276.28543  24181144.7894                   24181143.3594
        39.7504         22.7504
 -32233510.28148 -25065770.90648  20153469.8674                   20153468.9304
        49.2504         50.5004
  -8642401.27047  -5543165.98044  22983742.1414                   22983741.2114
        42.5004         24.7504
   6939922.30946   5443398.59445  24467187.2194                   24467188.9964
        38.0004         30.2504
   2046516.20746   1613970.72744  23748435.7584                   23748433.8244
        39.5004         25.5004
 -13837987.17647 -10751521.34047  21201592.0234                   21201588.7704
        47.2504         44.5004
 -30093113.51247 -23405776.70345  21709313.6564                   21709311.9144
        45.0004         33.0004
 -28250885.59047 -21969638.57047  21704303.7814                   21704304.6524
        46.2504         42.2504
 25  7 15  1 19  0.0000000  0  9G01G02G03G16G09G28G31G04G26
 -12091228.99647  -9393234.22345  22282607.5864                   22282606.6214
        45.5004         31.2504
   1916533.75446   1511738.03943  24180769.1414                   24180767.9414
        39.2504         23.5004
 -32349622.68448 -25156248.08648  20131374.3834                   20131373.6524
        49.5004         50.5004
  -8829012.50846  -5688577.20344  22948231.0944                   22948229.9774
        41.7504         24.5004
   6773266.28546   5313536.89845  24435472.4454                   24435474.9614
        36.5004         30.0004
   2053418.36346   1619348.94544  23749748.7034                   23749747.9184
        39.5004         25.2504
 -13856420.63748 -10765885.09047  21198084.4614                   21198081.2774
        48.7504         44.2504
 -30230818.70347 -23513079.42245  21683109.1884                   21683107.3984
        45.7504         34.0004
 -28372380.41447 -22064309.83247  21681184.4774                   21681184.8134
        45.7504         42.0004
 25  7 15  1 19 30.0000000  0  9G01G02G03G16G09G28G31G04G26
 -12106588.55947  -9405202.76644  22279685.2814                   22279683.6684
        43.7504         29.7504
   1914566.10246   1510204.62143  24180394.9144                   24180393.6454
        39.5004         23.0004
 -32465248.09848 -25246345.79748  20109371.4384                   20109371.0354
        49.7504         50.7504
  -9015435.46547  -5833841.74244  22912755.9534                   22912754.3094
        42.2504         24.5004
   6606614.47346   5183678.46145  24403760.7504                   24403762.1374
        38.0004         31.7504
   2060408.41846   1624795.67244  23751079.4384                   23751077.1764
        39.2504         24.5004
 -13874499.69147 -10779972.69547  21194644.0314                   21194640.7814
        47.5004         44.2504
 -30368406.20747 -23620290.44945  21656927.0394                   21656925.4654
        45.5004         33.5004
 -28493320.57447 -22158548.89147  21658169.9304                   21658170.5084
        45.7504         42.2504
 25  7 15  1 20  0.0000000  0  9G01G02G03G16G09G28G31G04G26
 -12121623.93047  -9416918.69545  22276824.1954                   22276823.1024
        44.5004         30.0004
   1912597.15646   1508670.18843  24180020.2344                   24180019.3094
        39.2504         22.5004
 -32580389.66848 -25336066.49248  20087460.9924                   20087460.3054
        49.5004         50.7504
  -9201670.73447  -5978960.01244  22877316.8134                   22877314.6644
        42.0004         24.5004
   6439962.07846   5053819.58245  24372047.4614                   24372048.9024
        38.2504         31.5004
   2067479.48446   1630305.50844  23752424.7894                   23752423.9414
        40.5004         25.0004
 -13892232.03548 -10793790.13347  21191269.6024                   21191266.2704
        48.0004         44.0004
 -30505880.77747 -23727413.46145  21630766.6414                   21630765.0204
        45.7504         33.5004
 -28613709.23047 -22252358.21147  21635260.8754                   21635261.0984
        45.7504         42.2504
 25  7 15  1 20 30.0000000  0  9G01G02G03G16G09G28G31G04G26
 -12136334.10247  -9428381.22345  22274024.8284                   22274023.8014
        43.0004         31.5004
   1910628.21546   1507135.73443  24179646.0084                   24179645.0434
        38.2504         22.0004
 -32695041.84448 -25425405.84048  20065643.2734                   20065642.3244
        49.2504         50.7504
  -9387711.60247  -6123926.82444  22841913.8204                   22841912.6454
        42.2504         25.7504
   6273312.99246   4923963.26645  24340334.8134                   24340337.1994
        39.2504         32.5004
   2074633.37146   1635879.88744  23753785.9144                   23753785.2704
        41.0004         25.2504
 -13909616.13747 -10807336.21147  21187961.7274                   21187958.3134
        47.0004         44.2504
 -30643238.36347 -23834445.32445  21604628.4774                   21604626.6374
        46.0004         34.0004
 -28733540.73447 -22345733.37547  21612458.0634                   21612458.5204
        46.5004         42.2504
 25  7 15  1 21  0.0000000  0  9G01G02G03G16G09G28G31G04G26
 -12150721.82847  -9439592.50444  22271286.4384                   22271285.5234
        44.0004         29.7504
   1908656.66446   1505599.26243  24179270.9614                   24179270.1884
        37.5004         20.2504
 -32809202.59448 -25514362.25848  20043919.1724                   20043918.6804
        50.5004         50.7504
  -9573554.07047  -6268739.03544  22806549.0864                   22806547.7304
        42.5004         25.7504
   6106667.59846   4794109.81345  24308623.3054                   24308625.5164
        39.5004         32.5004
   2081868.30946   1641517.43444  23755162.5554                   23755161.7344
        41.2504         26.0004
 -13926654.50448 -10820612.88747  21184719.4614                   21184716.2974
        48.5004         44.0004
 -30780478.56247 -23941385.71545  21578511.8674                   21578510.5944
        46.0004         33.2504
 -28852813.12947 -22438672.88747  21589760.7274                   21589761.5004
        46.2504         42.2504
 25  7 15  1 21 30.0000000  0  9G01G02G03G16G09G28G31G04G26
 -12164794.98847  -9450558.65245  22268608.8284                   22268607.6414
        44.7504         30.7504
   1906674.96146   1504054.88343  24178894.1094                   24178893.0514
        38.0004         20.5004
 -32922875.32448 -25602938.40648  20022288.1024                   20022287.3404
        49.7504         50.7504
  -9759200.11747  -6413398.18044  22771221.8524                   22771220.1764
        42.5004         24.2504
   5940020.80146   4664255.25845  24276911.4774                   24276912.9144
        39.5004         31.5004
   2089177.23446   1647212.64144  23756553.6334                   23756552.9614
        41.5004         26.2504
 -13943354.55548 -10833625.94147  21181541.2974                   21181538.3324
        48.5004         44.0004
 -30917606.28547 -24048238.46945  21552417.8204                   21552416.0274
        46.5004         32.5004
 -28971529.81247 -22531179.35947  21567169.6564                   21567170.1564
        45.2504         42.2504
 25  7 15  1 22  0.0000000  0  9G01G02G03G16G09G28G31G04G26
 -12178556.10247  -9461281.64845  22265989.9454                   22265989.0824
        44.7504         30.5004
   1904680.78946   1502500.75443  24178514.1334                   24178513.0984
        37.5004         20.0004
 -33036057.95348 -25691132.65648  20000749.9454                   20000749.4844
        50.0004         50.7504
  -9944645.10947  -6557900.67644  22735932.3594                   22735931.0394
        42.5004         24.0004
   5773373.14146   4534400.02045  24245199.3594                   24245200.8284
        39.5004         30.0004
   2096558.56646   1652964.24244  23757958.5164                   23757957.6294
        41.2504         26.5004
 -13959718.93447 -10846377.43747  21178427.6254                   21178424.0004
        47.5004         44.0004
 -31054620.90247 -24155003.09045  21526344.7114                   21526342.9184
        46.0004         33.5004
 -29089688.70347 -22623251.19547  21544685.0234                   21544685.7894
        45.2504         42.2504
 25  7 15  1 22 30.0000000  0  9G01G02G03G16G09G28G31G04G26
 -12192010.11747  -9471765.34844  22263430.3524                   22263428.8014
        43.0004         29.7504
   1902669.65646   1500933.43443  24178131.7584                   24178130.7304
        38.0004         19.2504
 -33148750.70348 -25778945.18748  19979305.4454                   19979304.7234
        51.0004         50.5004
 -10129887.65647  -6702245.40644  22700682.0004                   22700680.5554
        43.0004         25.0004
   5606722.73846   4404542.64545  24213487.5554                   24213488.3524
        37.7504         30.5004
   2104008.27746   1658769.14544  23759375.9844                   23759375.2734
        41.5004         26.2504
 -13975751.93047 -10858870.70747  21175376.7814                   21175373.2544
        46.2504         44.0004
 -31191524.25447 -24261681.01245  21500292.7734                   21500291.1994
        45.2504         33.2504
 -29207290.05547 -22714888.59047  21522306.2664                   21522306.5164
        46.0004         42.5004
 25  7 15  1 23  0.0000000  0  9G01G02G03G16G09G28G31G04G26
 -12205155.38747  -9482008.46545  22260928.7114                   22260927.3284
        44.7504         30.2504
   1900643.61346   1499354.48043  24177746.3674                   24177745.5234
        38.5004         19.7504
 -33260947.46948 -25866371.23048  19957954.8754                   19957954.1844
        49.5004         50.5004
 -10314919.89847  -6846426.26644  22665471.4694                   22665470.1844
        42.2504         26.2504
   5440074.19146   4274686.71144  24181774.5474                   24181776.3714
        37.0004         27.7504
   2111528.93846   1664629.31644  23760807.4534                   23760806.3284
        41.0004         26.7504
 -13991451.63347 -10871104.27347  21172388.8364                   21172385.4104
        47.5004         43.7504
 -31328311.57447 -24368268.50445  21474263.0864                   21474261.5394
        45.7504         32.7504
 -29324327.77347 -22806086.78947  21500034.6024                   21500035.3134
        45.7504         42.5004
 25  7 15  1 23 30.0000000  0  9G01G02G03G16G09G28G31G04G26
 -12217994.28147  -9492012.85945  22258485.6724                   22258484.7074
        42.5004         30.2504
   1898600.24246   1497762.03143  24177357.7734                   24177357.1724
        38.5004         20.2504
 -33372646.00048 -25953409.04348  19936699.5704                   19936698.6724
        50.2504         50.7504
 -10499737.77347  -6990440.10244  22630302.1644                   22630300.0204
        42.5004         25.5004
   5273428.19546   4144832.77744  24150062.9064                   24150064.4734
        37.0004         28.2504
   2119119.15646   1670543.69544  23762251.8594                   23762250.7894
        41.0004         26.0004
 -14006819.84047 -10883079.53147  21169464.6334                   21169461.5274
        46.2504         43.7504
 -31464982.16047 -24474765.04745  21448255.3524                   21448254.0784
        46.0004         33.0004
 -29440799.69147 -22896844.10947  21477870.6334                   21477870.9774
        45.0004         42.5004
 25  7 15  1 24  0.0000000  0  9G01G02G03G16G09G28G31G04G26
 -12230528.43447  -9501779.78144  22256100.5704                   22256099.1134
        43.7504         29.7504
   1896538.49646   1496155.22343  24176965.8204                   24176965.3404
        38.2504         21.2504
 -33483843.33248 -26040056.31248  19915539.3364                   19915538.6564
        50.0004         50.7504
 -10684336.28147  -7134282.99644  22595173.9924                   22595172.2344
        42.7504         25.0004
   5106786.11746   4014981.89144  24118351.6174                   24118353.4384
        36.0004         28.2504
   2126778.29746   1676511.79744  23763709.3364                   23763708.6724
        40.5004         26.0004
 -14021858.19947 -10894797.77347  21166602.7584                   21166599.3554
        46.5004         43.5004
 -31601534.41047 -24581169.38345  21422270.1094                   21422268.7774
        45.5004         34.0004
 -29556702.88747 -22987158.26647  21455814.6884                   21455815.6294
        46.5004         42.5004
 25  7 15  1 24 30.0000000  0  9G01G02G03G16G09G28G31G04G26
 -12242764.27347  -9511314.26644  22253771.8674                   22253771.1914
        44.0004         29.2504
   1894452.18046   1494529.30143  24176569.1644                   24176568.1054
        39.0004         21.5004
 -33594541.39148 -26126314.53148  19894474.1024                   19894473.5394
        50.0004         50.7504
 -10868715.32847  -7277954.89144  22560088.0474                   22560085.5204
        42.5004         25.2504
   4940144.66846   3885131.49644  24086641.2034                   24086642.1914
        36.0004         28.5004
   2134500.90646   1682529.34444  23765178.6644                   23765178.1724
        39.7504         26.0004
 -14036572.58648 -10906263.56247  21163802.8754                   21163799.4774
        48.0004         43.7504
 -31737971.68047 -24687484.12545  21396307.0784                   21396305.5704
        44.0004         33.0004
 -29672039.31247 -23077030.78547  21433867.3524                   21433867.8634
        46.0004         42.5004
 25  7 15  1 25  0.0000000  0 10G01G02G03G16G09G28G31G06G04G26
 -12254710.21147  -9520622.84444  22251498.6884                   22251497.4414
        45.0004         29.7504
   1892333.36746   1492878.05943  24176165.9694                   24176165.0744
        40.5004         21.7504
 -33704743.98448 -26212186.68048  19873503.0784                   19873502.2854
        49.5004         50.7504
 -11052876.91847  -7421457.33244  22525042.8984                   22525041.2734
        42.2504         24.5004
   4773498.33245   3755277.29744  24054929.5234                   24054930.1994
        35.5004         27.2504
   2142279.56346   1688590.55944  23766659.4534                   23766658.4104
        40.0004         25.5004
 -14050971.11347 -10917483.22747  21161062.7034                   21161059.4884
        47.0004         43.7504
  13966875.57056  10915684.54353  25285487.6334                   25285489.2854
        38.0004         19.0004
 -31874299.16047 -24793713.30945  21370364.7034                   21370363.2464
        45.7504         32.7504
 -29786812.89547 -23166464.73047  21412026.5394                   21412027.3164
        46.2504         42.5004
 25  7 15  1 25 30.0000000  0 10G01G02G03G16G09G28G31G06G04G26
 -10690950.89147  -8302109.14145  22549072.3364                   22549071.1844
        43.2504         30.0004
   3465597.35546   2718797.81343  24475548.8284                   24475547.9964
        40.5004         22.5004
 -32239028.00448 -25070070.33248  20152419.9144                   20152418.5474
        49.7504         50.7504
  -9661393.31247  -6337184.29344  22789833.2664                   22789831.8914
        42.5004         25.0004
   6182270.78946   4853022.15244  24323009.7034                   24323010.7074
        36.0004         28.5004
   3725530.00846   2922292.14544  24067941.8054                   24067941.1054
        39.5004         24.0004
 -12489637.77347  -9700859.87547  21458174.9384                   21458171.5274
        46.5004         43.7504
  15387037.93446  12022304.60943  25555735.7344                   25555737.5084
        38.0004         20.2504
 -30435094.22747 -23672254.90645  21644236.2114                   21644234.9844
        45.0004         33.2504
 -28325600.45347 -22027857.61747  21690085.5784                   21690086.2464
        46.5004         42.7504
 25  7 15  1 26  0.0000000  0 10G01G02G03G16G09G28G31G06G04G26
 -10702334.93047  -8310979.88344  22546906.1024                   22546905.1684
        45.0004         29.0004
   3463396.63346   2717082.74643  24475129.6564                   24475129.1954
        40.0004         22.0004
 -32348244.03948 -25155173.73848  20131636.5704                   20131635.8444
        50.0004         50.7504
  -9845117.96147  -6480346.27044  22754871.6804                   22754869.6214
        42.7504         26.0004
   6015606.20345   4723153.73844  24291294.6724                   24291295.7544
        35.7504         29.7504
   3733405.91846   2928429.14144  24069440.7894                   24069439.6414
        39.2504         24.2504
 -12503421.32047  -9711600.33247  21455552.0314                   21455549.1334
        47.2504         44.0004
  15232164.69546  11901624.17643  25526264.0634                   25526266.6844
        39.0004         22.0004
 -30571210.55147 -23778319.56245  21618334.3054                   21618333.2584
        44.5004         33.5004
 -28439252.92247 -22116417.96147  21668458.4694                   21668459.5514
        46.7504         42.7504
 25  7 15  1 26 30.0000000  0 10G01G02G03G16G09G28G31G06G04G26
 -10713443.34447  -8319635.85544  22544792.1254                   22544791.2624
        43.5004         29.5004
   3461150.08246   2715331.95743  24474702.4534                   24474702.0164
        40.0004         21.5004
 -32456965.36348 -25239891.65248  20110947.5704                   20110946.9414
        50.0004         50.7504
 -10028620.27047  -6623334.98444  22719952.9454                   22719950.6294
        42.5004         25.0004
   5848931.71946   4593277.60545  24259577.1174                   24259578.4844
        37.2504         30.2504
   3741326.69546   2934601.10943  24070948.1564                   24070947.0434
        40.5004         23.0004
 -12516902.41848  -9722105.12547  21452986.7894                   21452983.7934
        48.0004         43.5004
  15077684.69146  11781250.18844  25496867.5394                   25496869.9804
        39.5004         26.0004
 -30707221.87947 -23884302.39545  21592452.1804                   21592450.6134
        45.0004         33.2504
 -28552343.53147 -22204540.49247  21646938.1804                   21646938.8364
        46.5004         42.7504
 25  7 15  1 27  0.0000000  0 10G01G02G03G16G09G28G31G06G04G26
 -10724280.75447  -8328080.64145  22542730.1804                   22542729.0234
        45.5004         30.0004
   3458853.66446   2713542.30543  24474265.8674                   24474265.3954
        39.2504         21.2504
 -32565192.04348 -25324224.13748  20090352.7894                   20090352.1054
        49.5004         50.7504
 -10211897.85247  -6766148.59044  22685075.5084                   22685073.8634
        42.5004         25.5004
   5682245.88746   4463392.63745  24227857.3674                   24227859.3484
        36.7504         31.0004
   3749288.81646   2940805.28144  24072463.3444                   24072462.0864
        40.2504         24.7504
 -12530084.70747  -9732377.07047  21450478.0474                   21450475.0664
        47.0004         43.7504
  14923598.21946  11661182.84444  25467546.2584                   25467548.0984
        39.7504         26.2504
 -30843129.56247 -23990204.48045  21566589.9534                   21566588.6804
        45.0004         34.0004
 -28664872.43447 -22292225.32847  21625524.7894                   21625525.2344
        46.2504         42.7504
 25  7 15  1 27 30.0000000  0 10G01G02G03G16G09G28G31G06G04G26
 -10734843.30547  -8336311.26644  22540720.1954                   22540718.8524
        45.2504         29.2504
   3456511.49646   2711716.97743  24473820.3524                   24473819.9024
        40.0004         20.5004
 -32672915.73848 -25408164.68048  20069853.6884                   20069853.2704
        50.2504         50.7504
 -10394940.25847  -6908778.96944  22650243.8674                   22650241.6644
        43.2504         26.5004
   5515555.52746   4333504.13345  24196137.5554                   24196139.3984
        37.7504         32.5004
   3757297.11746   2947045.44544  24073987.0474                   24073986.3134
        41.5004         24.7504
 -12542964.33648  -9742413.18447  21448027.2114                   21448024.1484
        48.0004         43.7504
  14769914.07446  11541429.00044  25438300.6884                   25438303.1294
        39.2504         27.0004
 -30978926.55547 -24096020.31645  21540748.6644                   21540747.1914
        45.5004         34.0004
 -28776831.52047 -22379466.14847  21604219.5634                   21604220.4694
        47.0004         43.0004
 25  7 15  1 28  0.0000000  0 10G01G02G03G16G09G28G31G06G04G26
 -10745127.34447  -8344324.87144  22538763.2584                   22538762.0744
        45.0004         29.5004
   3454127.57046   2709859.09043  24473365.9844                   24473366.3244
        39.7504         22.0004
 -32780128.32848 -25491706.96148  20049451.7584                   20049451.4264
        49.7504         50.7504
 -10577737.60247  -7051218.34844  22615458.7114                   22615456.4304
        43.2504         27.0004
   5348867.53946   4203617.47745  24164417.6644                   24164419.5744
        38.7504         33.0004
   3765356.38746   2953325.31343  24075520.1804                   24075519.4694
        40.5004         22.7504
 -12555537.22747  -9752210.27747  21445634.6564                   21445631.3204
        47.0004         44.0004
  14616640.93446  11421995.39544  25409133.8914                   25409135.9774
        40.0004         27.0004
 -31114605.99247 -24201744.53945  21514929.6724                   21514927.8364
        44.7504         33.2504
 -28888212.71547 -22466256.66847  21583024.1564                   21583024.9064
        47.0004         43.0004
 25  7 15  1 28 30.0000000  0 10G01G02G03G16G09G28G31G06G04G26
 -10755137.75047  -8352125.25044  22536858.0314                   22536857.0784
        44.7504         29.2504
   3451697.62146   2707965.37543  24472904.0004                   24472903.8794
        38.7504         22.2504
 -32886830.21948 -25574851.28948  20029146.9064                   20029146.2424
        50.2504         50.7504
 -10760288.01647  -7193465.33644  22580719.9924                   22580718.2854
        42.5004         25.5004
   5182180.12946   4073731.27045  24132698.0704                   24132699.6294
        38.2504         33.2504
   3773462.88346   2959641.98443  24077063.6254                   24077062.7464
        40.2504         22.2504
 -12567807.72347  -9761771.74247  21443299.3834                   21443296.5124
        47.5004         43.7504
  14463778.99246  11302882.23044  25380044.6724                   25380047.0594
        38.7504         29.0004
 -31250169.46947 -24307378.41445  21489132.5784                   21489131.4064
        44.5004         33.0004
 -28999016.49647 -22552597.25847  21561939.0234                   21561939.9924
        46.0004         43.2504
 25  7 15  1 29  0.0000000  0 10G01G02G03G16G09G28G31G06G04G26
 -10764877.18747  -8359714.50044  22535005.1564                   22535004.0784
        43.0004         29.0004
   3449219.60246   2706034.18043  24472432.6954                   24472433.1094
        39.5004         22.0004
 -32993019.62548 -25657596.28148  20008939.8054                   20008939.0124
        50.0004         50.7504
 -10942587.78947  -7335517.02044  22546029.7814                   22546027.4184
        43.0004         26.7504
   5015493.76646   3943845.89545  24100979.4844                   24100980.2814
        38.7504         33.0004
   3781615.05546   2965994.25443  24078614.5314                   24078613.5044
        39.2504         21.5004
 -12579778.01247  -9771099.27347  21441021.9224                   21441018.7274
        46.2504         43.5004
  14311330.43846  11184091.15644  25351034.3834                   25351036.9614
        37.7504         28.5004
 -31385616.45347 -24412921.50445  21463358.3674                   21463356.5394
        44.5004         33.2504
 -29109241.34447 -22638486.73847  21540964.1094                   21540964.8834
        46.2504         43.2504
 25  7 15  1 29 30.0000000  0 10G01G02G03G16G09G28G31G06G04G26
 -10774350.93447  -8367096.70344  22533202.6094                   22533201.1884
        45.0004         29.5004
   3446688.20346   2704061.39843  24471951.6334                   24471951.6994
        41.0004         22.5004
 -33098697.32848 -25739942.54348  19988830.3674                   19988829.5514
        50.0004         51.0004
 -11124635.56647  -7477372.35544  22511387.1024                   22511385.1054
        43.0004         26.2504
   4848806.24246   3813959.59445  24069258.6724                   24069260.7304
        37.5004         33.0004
   3789808.78146   2972378.90243  24080174.0634                   24080173.3594
        39.0004         22.0004
 -12591453.00047  -9780196.70747  21438800.3834                   21438797.2624
        47.2504         43.5004
  14159294.98046  11065621.99644  25322102.9774                   25322105.9844
        38.5004         28.5004
 -31520948.86747 -24518375.32045  21437605.3754                   21437603.5784
        45.5004         34.0004
 -29218888.14547 -22723925.78547  21520098.9224                   21520099.9414
        47.5004         43.2504
 25  7 15  1 30  0.0000000  0 10G01G02G03G16G09G28G31G06G04G26
 -10783559.69947  -8374272.43744  22531450.0944                   22531448.8324
        43.0004         29.2504
   3444103.61746   2702047.17243  24471459.4924                   24471460.2274
        40.0004         22.2504
 -33203859.64848 -25821887.20748  19968818.6414                   19968817.7344
        49.0004         50.7504
 -11306425.20347  -7619026.54344  22476793.9694                   22476791.4774
        42.5004         26.7504
   4682120.06646   3684074.35545  24037539.3754                   24037540.9184
        37.7504         31.5004
   3798044.37946   2978796.14843  24081741.1024                   24081740.5824
        39.0004         21.7504
 -12602833.05147  -9789064.30947  21436634.8754                   21436631.3324
        46.0004         43.7504
  14007676.78946  10947477.94944  25293251.7504                   25293253.4774
        37.7504         29.5004
 -31656164.25047 -24623737.95345  21411874.7424                   21411873.5124
        45.5004         33.0004
 -29327953.38347 -22808911.65647  21499344.4844                   21499344.9064
        44.7504         43.2504
 25  7 15  1 30 30.0000000  0 10G01G02G03G16G09G28G31G06G04G26
 -10792505.94547  -8381243.61344  22529747.4614                   22529746.5944
        45.0004         28.5004
   3441463.48046   2699989.61343  24470957.7194                   24470958.1484
        39.0004         22.5004
 -33308504.65248 -25903428.76648  19948905.1484                   19948904.4024
        50.0004         50.7504
 -11487953.23047  -7760476.85544  22442249.5164                   22442247.6294
        42.5004         27.2504
   4515435.87146   3554190.64145  24005820.5234                   24005822.0704
        36.0004         31.0004
   3806320.64146   2985245.13743  24083316.1644                   24083315.5274
        39.2504         21.5004
 -12613920.18047  -9797703.66447  21434524.8674                   21434521.6024
        47.0004         43.2504
  13856478.41046  10829661.05145  25264479.2344                   25264481.9104
        38.5004         30.0004
 -31791261.74247 -24729008.70745  21386166.4614                   21386164.8164
        45.0004         33.5004
 -29436435.25447 -22893442.96947  21478701.0634                   21478701.3634
        47.0004         43.5004
 25  7 15  1 31  0.0000000  0 10G01G02G03G16G09G28G31G06G04G26
 -10801191.84447  -8388011.91444  22528094.7974                   22528093.9264
        44.5004         29.2504
   3438766.21546   2697887.57443  24470444.5944                   24470444.9304
        38.0004         22.5004
 -33412630.08648 -25984565.47348  19929090.6094                   19929090.2344
        48.7504         50.7504
 -11669214.88347  -7901719.62144  22407756.6334                   22407754.4104
        42.7504         28.0004
   4348754.66446   3424309.28545  23974102.2504                   23974104.0274
        37.2504         30.5004
   3814636.55946   2991725.00043  24084898.4844                   24084897.9104
        39.2504         22.2504
 -12624716.19547  -9806116.18047  21432470.5164                   21432467.4344
        46.2504         43.0004
  13705702.57646  10712173.41445  25235787.9384                   25235790.3524
        38.0004         30.5004
 -31926240.23447 -24834186.73845  21360480.7734                   21360479.3244
        44.5004         33.7504
 -29544331.74647 -22977518.13747  21458168.8524                   21458169.4924
        46.2504         43.5004
 25  7 15  1 31 30.0000000  0 10G01G02G03G16G09G28G31G06G04G26
 -10809620.86747  -8394580.03544  22526491.2274                   22526489.9924
        44.5004         29.7504
   3436008.85946   2695738.71943  24469920.2664                   24469920.6024
        38.5004         21.5004
 -33516235.03948 -26065296.60548  19909375.3284                   19909374.6414
        49.5004         50.7504
 -11850207.28547  -8042752.57844  22373315.1414                   22373313.0204
        43.2504         26.5004
   4182076.14146   3294430.00845  23942384.0634                   23942386.0784
        36.7504         31.0004
   3822989.80146   2998233.94543  24086489.1334                   24086487.3794
        39.7504         22.7504
 -12635224.07847  -9814304.17647  21430470.9774                   21430467.8794
        46.5004         43.2504
  13555350.71146  10595016.12145  25207176.1254                   25207178.9104
        37.5004         30.5004
 -32061099.90247 -24939272.18745  21334817.8674                   21334816.1094
        44.5004         33.0004
 -29651642.07847 -23061136.56247  21437748.3594                   21437749.1844
        46.0004         43.5004
 25  7 15  1 32  0.0000000  0 10G01G02G03G16G09G28G31G06G04G26
 -10817799.16047  -8400952.79344  22524934.6724                   22524933.8524
        43.5004         29.0004
   3433185.96146   2693538.77043  24469383.2974                   24469383.5944
        37.5004         21.0004
 -33619321.22348 -26145623.50048  19889758.9384                   19889758.1804
        48.5004         51.0004
 -12030929.76647  -8183575.21944  22338924.6804                   22338922.6724
        43.5004         27.5004
   4015397.43846   3164550.59845  23910666.3204                   23910667.5554
        37.5004         30.0004
   3831375.52746   3004768.19543  24088084.0634                   24088083.5354
        39.2504         21.0004
 -12645449.41447  -9822272.00447  21428525.3444                   21428521.9804
        47.0004         43.2504
  13405421.57046  10478188.21145  25178646.0784                   25178648.2664
        37.0004         30.0004
 -32195843.52747 -25044267.20345  21309177.0084                   21309175.3364
        45.2504         34.2504
 -29758368.20747 -23144299.75847  21417439.0554                   21417440.1994
        45.0004         43.5004
 25  7 15  1 32 30.0000000  0 10G01G02G03G16G09G28G31G06G04G26
 -10825728.03947  -8407131.21545  22523425.8054                   22523424.9384
        44.0004         30.0004
   3430296.31646   2691286.79343  24468833.5864                   24468834.3284
        36.5004         21.0004
 -33721885.64548 -26225543.83248  19870241.1884                   19870240.3444
        50.2504         51.0004
 -12211377.10547  -8324183.44944  22304586.7344                   22304584.5234
        43.5004         27.5004
   3848720.27746   3034672.38745  23878948.3134                   23878949.5824
        38.2504         30.7504
   3839793.51646   3011327.56643  24089686.1254                   24089685.4024
        40.0004         20.5004
 -12655393.11747  -9830020.37147  21426633.0474                   21426630.0274
        47.0004         43.0004
  13255918.82046  10361692.64144  25150195.8594                   25150199.0784
        36.7504         29.2504
 -32330469.23447 -25149170.34445  21283558.6414                   21283556.9224
        45.5004         33.7504
 -29864507.34847 -23227005.56247  21397241.1094                   21397241.9844
        46.7504         43.5004
 25  7 15  1 33  0.0000000  0 10G01G02G03G16G09G28G31G06G04G26
 -10833414.55947  -8413120.77044  22521962.9304                   22521962.1914
        42.2504         29.7504
   3427333.71545   2688977.96543  24468269.2894                   24468270.6134
        35.0004         20.0004
 -33823931.02348 -26305059.72348  19850822.8284                   19850822.1134
        48.5004         50.7504
 -12391550.00847  -8464577.82844  22270301.1564                   22270299.0314
        42.5004         28.2504
   3682040.91846   2904792.44545  23847230.1414                   23847231.8834
        37.5004         30.0004
   3848238.04346   3017907.65643  24091293.2114                   24091292.3984
        40.0004         21.0004
 -12665061.86347  -9837554.49647  21424793.3054                   21424790.2934
        45.5004         43.0004
  13106840.19145  10245527.51244  25121829.0314                   25121830.4224
        35.7504         29.2504
 -32464980.60247 -25253984.38745  21257961.7274                   21257960.3404
        44.5004         34.2504
 -29970062.36347 -23309256.20747  21377154.9534                   21377155.7194
        46.0004         43.2504
 25  7 15  1 33 30.0000000  0 10G01G02G03G16G09G28G31G06G04G26
 -10840858.14547  -8418921.03144  22520546.7274                   22520546.1804
        43.5004         28.5004
   3424299.02345   2686612.91043  24467693.1804                   24467693.8094
        35.0004         18.5004
 -33925452.43048 -26384167.30948  19831503.8524                   19831502.8284
        48.7504         50.7504
 -12571441.17647  -8604752.70344  22236069.0164                   22236066.3754
        43.0004         27.2504
   3515363.00046   2774913.66444  23815512.5704                   23815514.1604
        38.0004         29.0004
   3856710.85546   3024509.76643  24092905.6334                   24092904.9184
        40.0004         20.7504
 -12674454.09847  -9844873.15247  21423005.8204                   21423002.8594
        45.7504         43.0004
  12958191.08245  10129697.07844  25093540.9064                   25093543.5704
        35.5004         29.7504
 -32599373.81247 -25358706.36345  21232388.1414                   21232385.9694
        46.0004         34.0004
 -30075028.64147 -23391048.09847  21357181.0704                   21357181.1524
        45.5004         43.5004
 25  7 15  1 34  0.0000000  0 10G01G02G03G16G09G28G31G06G04G26
 -10848061.24647  -8424533.90244  22519175.9304                   22519175.2194
        42.7504         29.0004
   3421190.69145   2684190.53542  24467101.7894                   24467102.1484
        35.0004         17.7504
 -34026447.93048 -26462865.10948  19812285.3594                   19812284.5084
        49.0004         50.7504
 -12751046.67647  -8744704.96944  22201890.7974                   22201888.7894
        43.5004         28.5004
   3348687.48446   2645036.73845  23783795.3054                   23783796.5354
        37.7504         30.0004
   3865210.81346   3031133.02743  24094523.1254                   24094522.3484
        40.7504         20.7504
 -12683572.58247  -9851978.50047  21421270.4064                   21421267.2894
        46.0004         42.7504
  12809973.91846  10014203.23045  25065336.8834                   25065338.3914
        36.2504         30.0004
 -32733647.87147 -25463335.48445  21206836.3444                   21206834.9884
        45.7504         34.0004
 -30179404.43047 -23472379.85947  21337318.8364                   21337319.1374
        47.0004         43.5004
 25  7 15  1 34 30.0000000  0 10G01G02G03G16G09G28G31G06G04G26
  -9279609.19147  -7202363.52744  22817642.7894                   22817642.0274
        42.5004         29.5004
   4993423.43045   3909306.62543  24766287.7504                   24766288.9454
        35.5004         18.2504
 -32551495.53548 -25313551.55148  20092959.2424                   20092958.4454
        49.2504         50.7504
 -11354939.56647  -7656829.21944  22467561.3054                   22467559.1764
        43.2504         29.2504
   4757437.43046   3742764.05945  24051871.5164                   24051872.3364
        37.2504         30.5004
   5449153.27046   4265373.84443  24395937.2274                   24395936.7384
        40.0004         22.2504
 -11117001.95747  -8631274.14547  21719378.9534                   21719376.0004
        45.7504         42.5004
  14237613.00445  11126649.31345  25337006.6414                   25337009.1524
        35.0004         30.0004
 -31292380.61347 -24340270.06645  21481100.1414                   21481098.3054
        46.2504         35.0004
 -28707767.87947 -22325650.07047  21617361.8204                   21617362.1804
        46.7504         43.5004
 25  7 15  1 35  0.0000000  0 10G01G02G03G16G09G28G31G06G04G26
  -9286348.72346  -7207615.19544  22816360.4384                   22816359.5314
        41.7504         29.0004
   4990151.45745   3906756.72742  24765665.0004                   24765666.5594
        35.2504         17.7504
 -32651443.89548 -25391433.38748  20073939.6174                   20073938.7664
        49.0004         50.5004
 -11533971.10547  -7796334.22744  22433492.3834                   22433489.9414
        44.2504         27.7504
   4590758.72746   3612884.63345  24020153.5944                   24020154.6954
        39.0004         32.0004
   5457693.85546   4272028.77743  24397563.3284                   24397561.6954
        41.2504         21.7504
 -11125588.35947  -8637964.87147  21717745.6024                   21717742.4104
        45.7504         42.5004
  14090256.93445  11011826.44544  25308965.2114                   25308968.0044
        35.0004         29.2504
 -31426423.82447 -24444719.31645  21455592.4144                   21455590.8054
        46.5004         34.0004
 -28810968.10947 -22406065.82047  21597723.3364                   21597724.0164
        45.2504         43.5004
 25  7 15  1 35 30.0000000  0 10G01G02G03G16G09G28G31G06G04G26
  -9292864.72347  -7212692.66444  22815120.0004                   22815119.2664
        42.5004         28.5004
   4986790.01646   3904137.10942  24765026.4534                   24765026.7664
        37.5004         17.7504
 -32750870.53148 -25468908.68448  20055019.1174                   20055018.4844
        49.5004         50.5004
 -11712714.27747  -7935614.55544  22399478.4144                   22399476.4184
        43.2504         28.5004
   4424074.97346   3483001.28545  23988435.3444                   23988435.7934
        39.0004         31.7504
   5466248.36346   4278694.59443  24399190.7974                   24399190.0084
        40.5004         22.2504
 -11133916.17247  -8644454.10547  21716160.4774                   21716157.1454
        46.5004         42.2504
  13943330.28545  10897338.18444  25281006.8364                   25281009.1564
        34.2504         29.0004
 -31560354.84047 -24549081.11745  21430106.1484                   21430105.0164
        47.0004         34.0004
 -28913582.78147 -22486025.28947  21578196.7584                   21578196.9384
        45.7504         43.5004
 25  7 15  1 36  0.0000000  0 10G01G02G03G16G09G28G31G06G04G26
  -9299159.81646  -7217597.99244  22813922.3364                   22813922.1174
        41.2504         29.0004
   4983337.42246   3901446.50042  24764368.5864                   24764370.8134
        36.7504         16.7504
 -32849773.76648 -25545976.12548  20036198.7034                   20036198.1414
        49.5004         50.5004
 -11891164.80547  -8074666.83644  22365520.8674                   22365518.2114
        43.2504         29.7504
   4257386.88346   3353114.55945  23956714.6804                   23956715.8014
        37.2504         31.2504
   5474815.52346   4285370.21943  24400821.1414                   24400820.5984
        40.7504         22.5004
 -11141987.43047  -8650743.42247  21714624.7194                   21714621.6024
        45.5004         42.0004
  13796835.10245  10783186.10544  25253129.7194                   25253131.4454
        35.5004         27.5004
 -31694172.85247 -24653354.86745  21404641.6254                   21404640.1954
        46.2504         34.5004
 -29015610.50047 -22565527.39547  21558781.1334                   21558781.5274
        46.5004         43.5004
 25  7 15  1 36 30.0000000  0 10G01G02G03G16G09G28G31G06G04G26
  -9305235.54746  -7222332.41044  22812765.9454                   22812765.6334
        41.5004         29.0004
   4979792.41446   3898683.82442  24763694.4774                   24763696.2344
        37.0004         17.7504
 -32948150.92648 -25622633.65248  20017478.3594                   20017477.3054
        50.5004         50.7504
 -12069317.89547  -8213487.35544  22331618.9224                   22331616.9614
        43.7504         28.5004
   4090696.10246   3223225.74245  23924994.6334                   23924995.7344
        38.5004         31.5004
   5483395.14546   4292055.56643  24402453.6414                   24402452.9024
        40.5004         22.7504
 -11149803.16047  -8656833.63347  21713137.7114                   21713134.4494
        46.2504         42.0004
  13650775.01245  10669373.03944  25225334.6174                   25225337.5704
        33.0004         28.2504
 -31827876.01247 -24757539.12945  21379198.5864                   21379197.0984
        46.2504         34.2504
 -29117048.82047 -22644570.22347  21539477.8754                   21539478.2814
        45.7504         43.5004
 25  7 15  1 37  0.0000000  0 10G01G02G03G16G09G28G31G06G04G26
  -9311091.03146  -7226895.18744  22811652.0704                   22811651.7344
        41.7504         28.7504
   4976156.75046   3895850.58242  24763002.4454                   24763004.0824
        38.0004         17.2504
 -33045996.93448 -25698877.28948  19998858.6644                   19998858.1094
        50.0004         50.7504
 -12247166.30547  -8352070.46144  22297775.4064                   22297773.4534
        43.0004         29.2504
   3924006.82846   3093338.09045  23893274.5634                   23893275.5744
        38.5004         31.5004
   5491989.39546   4298752.29343  24404089.0314                   24404088.5784
        40.7504         22.5004
 -11157361.98047  -8662723.65247  21711698.9844                   21711695.9964
        46.0004         42.0004
  13505155.61745  10555903.48044  25197625.4224                   25197626.8554
        33.7504         28.2504
 -31961460.03547 -24861630.55945  21353778.5864                   21353777.0084
        46.2504         34.2504
 -29217892.98447 -22723150.07847  21520287.9844                   21520288.4964
        46.0004         43.5004
 25  7 15  1 37 30.0000000  0 10G01G02G03G16G09G28G31G06G04G26
  -9316734.07446  -7231292.44144  22810578.3054                   22810577.4884
        41.5004         27.7504
   4972423.16046   3892941.01242  24762293.5164                   24762293.4144
        39.0004         17.7504
 -33143315.36348 -25774709.83248  19980339.3134                   19980338.6684
        49.2504         50.5004
 -12424710.98847  -8490416.91044  22263989.2814                   22263987.7504
        43.5004         28.7504
   3757314.50046   2963448.06345  23861553.7114                   23861555.2034
        38.5004         31.5004
   5500591.85946   4305455.43443  24405726.7584                   24405725.8404
        40.5004         22.0004
 -11164671.20347  -8668419.17246  21710308.3284                   21710305.0984
        45.5004         41.7504
  13359973.74645  10442774.84844  25169997.9064                   25169999.6764
        34.2504         27.2504
 -32094929.33647 -24965632.59445  21328380.1484                   21328378.7464
        46.7504         34.2504
 -29318146.80947 -22801269.93047  21501210.1884                   21501210.9494
        45.5004         43.5004
 25  7 15  1 38  0.0000000  0 10G01G02G03G16G09G28G31G06G04G26
  -9322167.91447  -7235526.66844  22809544.2114                   22809543.7464
        42.7504         29.2504
   4968589.14146   3889953.20743  24761563.3834                   24761564.3134
        40.0004         18.5004
 -33240105.28148 -25850130.55548  19961921.0394                   19961920.4494
        49.0004         50.5004
 -12601948.57847  -8628524.04344  22230262.4614                   22230260.5004
        43.7504         29.0004
   3590619.10246   2833555.62545  23829832.6414                   23829833.8204
        38.5004         31.7504
   5509200.58246   4312163.45343  24407364.3674                   24407364.2774
        40.7504         22.7504
 -11171733.76647  -8673922.49246  21708964.0634                   21708961.2194
        45.7504         41.7504
  13215230.80945  10329988.18844  25142453.8674                   25142455.9534
        33.2504         27.5004
 -32228283.71147 -25069545.05945  21303003.7894                   21303002.2384
        47.2504         34.2504
 -29417809.71147 -22878929.31647  21482245.1414                   21482245.7034
        46.5004         43.5004
 25  7 15  1 38 30.0000000  0 10G01G02G03G16G09G28G31G06G04G26
  -9327394.27047  -7239599.22744  22808550.2274                   22808549.5274
        42.5004         27.5004
   4964653.27046   3886886.00843  24760815.1094                   24760816.3054
        39.5004         19.2504
 -33336364.25048 -25925137.54748  19943603.9774                   19943602.9414
        49.0004         50.7504
 -12778874.19147  -8766388.09044  22196594.8524                   22196592.7544
        43.7504         29.0004
   3423922.23046   2703662.04345  23798111.0944                   23798112.4104
        39.5004         31.2504
   5517815.24646   4318876.09444  24409003.9064                   24409003.5274
        40.0004         24.0004
 -11178550.55547  -8679234.29347  21707667.2974                   21707664.3094
        45.5004         42.0004
  13070929.95345  10217546.02344  25114994.0004                   25114996.3324
        33.2504         27.0004
 -32361521.47747 -25173366.66445  21277649.3134                   21277647.8094
        47.0004         34.2504
 -29516879.48847 -22956126.52747  21463392.7664                   21463393.4104
        45.5004         43.5004
 25  7 15  1 39  0.0000000  0 10G01G02G03G16G09G28G31G06G04G26
  -9332416.94947  -7243513.08244  22807594.0474                   22807593.8244
        42.5004         28.0004
   4960612.38746   3883736.96543  24760046.5634                   24760047.1294
        39.7504         18.2504
 -33432091.94948 -25999730.56648  19925387.2194                   19925386.4574
        49.7504         50.7504
 -12955485.34847  -8904007.10944  22162986.9774                   22162984.2464
        44.5004         29.2504
   3257223.34846   2573766.89145  23766389.5004                   23766390.3594
        39.2504         32.2504
   5526433.37546   4325591.43043  24410643.4304                   24410643.3324
        39.7504         22.7504
 -11185124.90247  -8684357.19147  21706415.8834                   21706413.5594
        45.2504         42.0004
  12927071.85545  10105448.87544  25087618.2114                   25087621.0474
        34.0004         27.2504
 -32494643.06647 -25277097.75045  21252316.9454                   21252315.1174
        47.5004         34.5004
 -29615356.18747 -23032861.60947  21444653.0944                   21444653.7544
        46.5004         43.5004
 25  7 15  1 39 30.0000000  0 10G01G02G03G16G09G28G31G06G04G26
  -9337237.64847  -7247269.54744  22806676.6724                   22806676.1294
        42.5004         28.0004
   4956465.63346   3880505.44143  24759256.5944                   24759258.8834
        39.5004         18.2504
 -33527285.90248 -26073907.67648  19907272.4614                   19907271.5824
        49.5004         50.7504
 -13131777.26647  -9041377.37544  22129439.5634                   22129436.8634
        44.2504         29.0004
   3090524.07046   2443871.42645  23734667.8204                   23734668.3094
        38.7504         31.7504
   5535054.69546   4332309.24244  24412284.7344                   24412283.9964
        39.7504         24.5004
 -11191457.97347  -8689292.07047  21705210.9774                   21705208.0944
        45.5004         42.0004
  12783659.68445   9993699.18444  25060328.2584                   25060330.2664
        33.0004         26.0004
 -32627646.65648 -25380736.88745  21227007.2114                   21227005.5904
        48.0004         35.0004
 -29713237.62147 -23109132.84847  21426027.1024                   21426027.7624
        45.5004         43.5004
 25  7 15  1 40  0.0000000  0 10G01G02G03G16G09G28G31G06G04G26
  -9341863.35247  -7250874.06644  22805796.7344                   22805796.0204
        42.7504         28.2504
   4952206.51246   3877186.34843  24758447.4694                   24758447.6604
        39.5004         19.5004
 -33621948.95348 -26147671.09848  19889258.6254                   19889257.6844
        48.2504         50.5004
 -13307750.03547  -9178498.94544  22095952.7974                   22095950.7424
        44.0004         29.2504
   2923820.71146   2313972.77745  23702945.3364                   23702945.6804
        38.5004         32.0004
   5543673.64146   4339025.20743  24413924.1484                   24413924.5204
        38.5004         22.5004
 -11197556.09047  -8694043.87147  21704050.4144                   21704047.4224
        45.2504         42.0004
  12640691.29745   9882295.28144  25033121.9534                   25033124.3134
        33.0004         26.0004
 -32760535.77047 -25484286.82845  21201719.6414                   21201717.7544
        47.2504         35.0004
 -29810527.01247 -23184942.74247  21407513.5864                   21407513.8984
        45.0004         43.7504
 25  7 15  1 40 30.0000000  0 10G01G02G03G16G09G28G31G06G04G26
  -9346294.28146  -7254326.82444  22804953.7034                   22804953.0944
        41.7504         27.5004
   4947835.44146   3873780.03942  24757615.4224                   24757616.5514
        38.7504         17.7504
 -33716077.35548 -26221017.91448  19871346.6094                   19871345.7934
        48.5004         50.7504
 -13483397.65647  -9315367.15644  22062528.7504                   22062526.0594
        44.2504         29.2504
   2757116.27346   2184073.29345  23671221.7034                   23671223.1024
        39.5004         31.5004
   5552291.34046   4345740.21143  24415564.7424                   24415565.1414
        39.7504         23.0004
 -11203419.32047  -8698612.65247  21702934.9224                   21702931.2584
        46.0004         42.2504
  12498170.91045   9771240.47744  25006001.8674                   25006004.2624
        32.0004         25.2504
 -32893307.27047 -25587745.11745  21176453.6484                   21176451.9734
        47.5004         34.5004
 -29907220.89547 -23260288.61347  21389113.5394                   21389113.8404
        45.5004         43.5004
 25  7 15  1 41  0.0000000  0 10G01G02G03G16G09G28G31G06G04G26
  -9350532.94547  -7257629.75044  22804146.9144                   22804146.0984
        42.7504         27.7504
   4943350.63346   3870285.10943  24756762.1254                   24756763.9924
        39.0004         19.0004
 -33809669.39848 -26293946.78148  19853536.6254                   19853535.9414
        48.5004         50.7504
 -13658715.91047  -9451978.72344  22029166.4924                   22029163.7704
        44.7504         28.7504
   2590411.67646   2054173.68445  23639498.8204                   23639500.4454
        40.0004         31.7504
   5560906.77346   4352453.45343  24417204.3984                   24417204.1134
        38.2504         21.7504
 -11209049.27347  -8702999.65647  21701863.4304                   21701860.4264
        46.2504         42.0004
  12356100.71945   9660536.48444  24978966.1334                   24978969.4064
        34.0004         26.7504
 -33025960.05947 -25691110.91045  21151211.0784                   21151209.2504
        47.0004         34.2504
 -30003317.93047 -23335169.40247  21370826.7734                   21370827.0744
        46.0004         43.5004
 25  7 15  1 41 30.0000000  0 10G01G02G03G16G09G28G31G06G04G26
  -9354584.59846  -7260786.96944  22803376.0474                   22803375.2974
        41.7504         26.7504
   4938747.27746   3866697.79743  24755886.1174                   24755888.1094
        37.2504         19.7504
 -33902726.32848 -26366458.68448  19835828.4844                   19835827.7154
        48.7504         50.5004
 -13833703.72747  -9588332.79744  21995867.1804                   21995864.0704
        44.5004         29.5004
   2423704.98446   1924272.43045  23607776.6724                   23607776.7854
        39.7504         32.2504
   5569516.06646   4359161.89843  24418841.6884                   24418842.0514
        37.7504         21.7504
 -11214450.57847  -8707208.48046  21700835.2114                   21700832.3594
        45.5004         41.5004
  12214480.19545   9550182.88744  24952017.5554                   24952019.1414
        33.5004         26.2504
 -33158495.99247 -25794385.64845  21125989.8754                   21125988.1024
        47.2504         34.2504
 -30098819.69547 -23409586.34847  21352653.0634                   21352653.4844
        46.0004         43.5004
 25  7 15  1 42  0.0000000  0 10G01G02G03G16G09G28G31G06G04G26
  -9358451.77746  -7263800.43444  22802640.3674                   22802639.5354
        41.5004         26.2504
   4934023.85946   3863016.91443  24754987.1564                   24754989.8484
        36.0004         20.0004
 -33995246.72348 -26438552.50448  19818222.6414                   19818222.0204
        48.5004         50.5004
 -14008356.95747  -9724426.15244  21962631.7424                   21962629.6134
        44.2504         28.5004
   2256996.90246   1794370.09845  23576052.8284                   23576053.1954
        39.7504         32.2504
   5578118.10246   4365864.69143  24420479.4614                   24420479.5704
        38.2504         22.0004
 -11219625.37547  -8711240.82047  21699850.8134                   21699848.2464
        46.2504         42.0004
  12073311.29345   9440181.18044  24925152.4224                   24925155.5164
        33.7504         27.7504
 -33290914.19147 -25897568.63745  21100791.2974                   21100789.8324
        47.0004         34.7504
 -30193725.12547 -23483538.60947  21334593.2894                   21334593.8484
        45.7504         43.5004
 25  7 15  1 42 30.0000000  0 10G01G02G03G16G09G28G31G06G04G26
  -9362139.48047  -7266674.04744  22801939.0314                   22801937.8634
        42.0004         27.0004
   4929175.93046   3859238.96943  24754065.0084                   24754068.4264
        36.2504         20.5004
 -34087231.55548 -26510229.00048  19800718.1484                   19800717.4804
        49.5004         50.5004
 -14182674.14147  -9860257.67244  21929460.2034                   21929457.8954
        44.7504         29.0004
   2090285.76246   1664465.37945  23544328.3284                   23544328.9534
        40.2504         33.0004
   5586709.35946   4372559.08643  24422113.9774                   24422114.6334
        37.5004         21.2504
 -11224577.98047  -8715100.01647  21698908.6954                   21698905.3984
        45.2504         42.0004
  11932593.63345   9330531.10944  24898375.2504                   24898377.9344
        34.5004         29.0004
 -33423216.12147 -26000661.03145  21075615.4384                   21075613.7664
        47.2504         35.0004
 -30288035.57847 -23557027.26247  21316646.6724                   21316646.9224
        45.7504         43.7504
 25  7 15  1 43  0.0000000  0 10G01G02G03G16G09G28G31G06G04G26
  -7790230.69547  -6041810.12944  23101063.3284                   23101062.3094
        42.0004         28.0004
   6499621.05545   5082962.12543  25052911.2584                   25052914.0514
        35.5004         20.2504
 -32603256.84448 -25353885.07048  20083109.7814                   20083108.7664
        49.5004         50.5004
 -12781225.99647  -8768220.09044  22196146.8984                   22196144.2734
        45.0004         29.7504
   3498997.39546   2762162.82045  23812397.5864                   23812397.8554
        40.5004         33.2504
   7170707.85546   5606843.50843  24723539.4064                   24723539.3094
        37.0004         19.7504
  -9653890.77347  -7491187.93747  21997800.3914                   21997797.5434
        45.7504         42.0004
  13367753.43845  10448837.48444  25171477.5394                   25171479.6914
        35.5004         29.0004
 -31979976.98447 -24876059.08245  21350254.7894                   21350252.8054
        47.2504         35.0004
 -28806327.37947 -22402449.42647  21598606.1334                   21598606.8554
        45.2504         43.7504
 25  7 15  1 43 30.0000000  0 10G01G02G03G16G09G28G31G06G04G26
  -7793568.28947  -6044410.93744  23100427.7664                   23100426.8054
        42.0004         26.5004
   6494517.20745   5078984.80543  25051940.3594                   25051942.6644
        33.2504         19.2504
 -32694167.38748 -25424724.46148  20065809.5704                   20065809.0554
        48.5004         50.5004
 -12954860.35947  -8903519.53144  22163105.4924                   22163102.7814
        45.0004         29.7504
   3332281.36746   2632254.29345  23780671.7034                   23780672.8674
        40.7504         33.0004
   7179273.02346   5613517.57043  24725169.7664                   24725169.6294
        36.5004         20.0004
  -9658406.27047  -7494706.52746  21996941.0314                   21996938.0634
        45.2504         41.7504
  13227943.19945  10339894.46544  25144873.0234                   25144874.6604
        35.7504         29.2504
 -32112044.73847 -24978969.00845  21325122.7894                   21325121.1684
        47.7504         35.0004
 -28899445.82447 -22475009.24647  21580886.2194                   21580887.0274
        44.7504         43.5004
 25  7 15  1 44  0.0000000  0 10G01G02G03G16G09G28G31G06G04G26
  -7796733.82846  -6046877.66444  23099825.3054                   23099824.9454
        41.2504         28.0004
   6489283.52345   5074906.25443  25050944.7034                   25050947.0784
        33.2504         18.5004
 -32784537.87148 -25495143.02048  20048612.7194                   20048612.2114
        49.7504         50.5004
 -13128146.44947  -9038547.58244  22130130.1804                   22130127.8444
        44.5004         29.0004
   3165564.91046   2502345.42245  23748947.3054                   23748947.9924
        41.0004         33.0004
   7187824.41846   5620180.86743  24726795.8674                   24726796.6214
        36.7504         20.5004
  -9662705.02347  -7498056.23446  21996122.7734                   21996119.6254
        45.5004         41.7504
  13088590.47346  10231307.96544  25118354.0474                   25118356.8444
        36.0004         28.5004
 -32243993.18747 -25081785.96145  21300013.7974                   21300012.5634
        47.2504         35.0004
 -28991965.89147 -22547102.78947  21563280.5004                   21563280.7854
        46.2504         43.5004
 25  7 15  1 44 30.0000000  0 10G01G02G03G16G09G28G31G06G04G26
  -7799731.10546  -6049213.28544  23099255.7424                   23099254.6294
        41.7504         26.5004
   6483916.72744   5070724.04343  25049921.9304                   25049926.9654
        29.5004         19.0004
 -32874368.09848 -25565140.60548  20031518.6804                   20031517.7274
        50.0004         50.5004
 -13301081.55947  -9173302.14844  22097221.6414                   22097219.4654
        45.2504         29.7504
   2998847.63746   2372435.92245  23717222.1724                   23717222.5164
        40.5004         33.5004
   7196359.77046   5626831.71143  24728421.4774                   24728420.6414
        37.5004         20.0004
  -9666790.47347  -7501239.73046  21995346.1334                   21995343.2074
        45.5004         41.5004
  12949696.06346  10123078.59044  25091923.2814                   25091925.7774
        36.2504         29.5004
 -32375822.53147 -25184510.10545  21274927.8364                   21274926.0784
        47.7504         35.0004
 -29083887.78147 -22618730.22347  21545788.2974                   21545788.6334
        45.2504         43.7504
 25  7 15  1 45  0.0000000  0 10G01G02G03G16G09G28G31G06G04G26
  -7802564.61346  -6051421.28944  23098716.1564                   23098715.9774
        41.5004         26.5004
   6478413.07045   5066435.11342  25048876.6334                   25048879.2544
        31.7504         17.2504
 -32963658.69948 -25634717.69548  20014527.3914                   20014526.6374
        48.5004         50.5004
 -13473664.04747  -9307781.93744  22064380.0474                   22064377.8554
        44.7504         29.2504
   2832128.28946   2242524.80145  23685496.2424                   23685497.2464
        40.5004         32.7504
   7204875.97346   5633467.60243  24730041.9774                   24730041.6884
        37.7504         19.7504
  -9670666.76647  -7504260.25046  21994608.4384                   21994605.3594
        45.5004         41.7504
  12811259.85546  10015206.26244  25065580.2894                   25065582.2934
        37.5004         28.0004
 -32507533.80147 -25287142.24245  21249864.5784                   21249862.3874
        47.2504         35.2504
 -29175212.62147 -22689892.42247  21528409.9694                   21528409.8404
        45.0004         43.7504
 25  7 15  1 45 30.0000000  0 10G01G02G03G16G09G28G31G06G04G26
  -7805238.49246  -6053504.91444  23098207.6094                   23098206.6844
        41.7504         27.0004
   6472769.25055   5062037.01252  25047803.0784                   25047806.1954
        31.0004         16.2504
 -33052409.97348 -25703874.52748  19997638.6414                   19997637.7464
        50.0004         50.5004
 -13645891.20347  -9441984.85544  22031606.2894                   22031603.8484
        44.5004         29.5004
   2665406.17646   2112611.54345  23653769.9614                   23653770.3674
        39.2504         33.2504
   7213370.41446   5640086.57443  24731658.5084                   24731657.9884
        37.7504         18.5004
  -9674337.16447  -7507120.32846  21993909.6174                   21993906.6214
        45.7504         41.5004
  12673282.33646   9907691.32444  25039324.2664                   25039325.9574
        37.5004         29.0004
 -32639127.62547 -25389682.87545  21224822.3444                   21224820.7154
        47.0004         35.5004
 -29265940.94547 -22760589.81647  21511144.7034                   21511145.1024
        45.7504         43.5004
 25  7 15  1 46  0.0000000  0 10G01G02G03G16G09G28G31G06G04G26
  -7807755.90646  -6055466.60944  23097728.3594                   23097727.4964
        40.5004         25.2504
   6466982.94555   5057527.87152  25046701.7424                   25046706.0434
        32.2504         16.7504
 -33140621.16048 -25772610.51648  19980852.4924                   19980852.0204
        48.5004         50.5004
 -13817759.73847  -9575908.32045  21998900.8364                   21998898.4734
        45.5004         30.2504
   2498681.52046   1982696.28145  23622043.0234                   23622044.0474
        40.7504         33.2504
   7221841.45946   5646687.30943  24733269.8984                   24733270.3244
        39.0004         19.7504
  -9677803.96947  -7509821.77346  21993250.0554                   21993247.2424
        46.0004         41.5004
  12535764.71546   9800534.78144  25013155.1024                   25013157.0784
        37.2504         28.0004
 -32770603.62148 -25492131.68745  21199803.4144                   21199801.4804
        48.0004         35.5004
 -29356072.57447 -22830822.24247  21493993.0474                   21493993.8364
        45.2504         43.5004
 25  7 15  1 46 30.0000000  0 11G01G02G03G16G09G28G31G06G07G04G26
  -7810118.26246  -6057307.48444  23097279.0004                   23097278.7234
        41.5004         24.5004
   6461053.14555   5052906.94552  25045572.5554                   25045577.7304
        31.5004         16.7504
 -33228289.80948 -25840923.75448  19964169.4774                   19964168.9144
        48.2504         50.5004
 -13989264.62147  -9709548.43445  21966264.1094                   21966261.9844
        44.5004         30.0004
   2331956.20746   1852780.52745  23590315.4064                   23590317.3134
        39.5004         33.0004
   7230289.33646   5653269.99243  24734878.0864                   24734878.4344
        38.5004         19.5004
  -9681068.34047  -7512365.46546  21992628.8204                   21992625.8554
        45.5004         41.5004
  12398710.15246   9693739.04344  24987074.8364                   24987076.6604
        36.7504         28.0004
  18664381.14556  14585716.06354  25267182.8134                   25267187.8794
        38.2504         28.0004
 -32901959.66047 -25594487.02745  21174806.8754                   21174805.6294
        47.2504         35.0004
 -29445605.36347 -22900588.04747  21476955.2114                   21476956.0394
        46.5004         43.7504
 25  7 15  1 47  0.0000000  0 11G01G02G03G16G09G28G31G06G07G04G26
  -7812332.95346  -6059033.29744  23096857.2034                   23096857.1254
        41.0004         26.5004
   6454973.33245   5048169.14542  25044416.9224                   25044420.3324
        35.0004         17.7504
 -33315419.56648 -25908817.07848  19947589.3444                   19947588.5314
        48.5004         50.7504
 -14160406.97747  -9842906.05145  21933697.2034                   21933694.7034
        45.5004         30.2504
   2165226.35246   1722861.23445  23558588.8364                   23558589.6684
        40.2504         33.5004
   7238708.09846   5659829.97743  24736479.5394                   24736480.1054
        39.0004         19.5004
  -9684136.76247  -7514756.48046  21992045.1174                   21992042.0904
        45.7504         41.0004
  12262115.55146   9587301.71944  24961081.5864                   24961083.1644
        38.0004         29.0004
  18488636.19946  14448772.28944  25233740.2344                   25233744.2854
        38.7504         29.0004
 -33033199.59447 -25696751.89845  21149832.7034                   21149831.5474
        47.5004         35.5004
 -29534543.41047 -22969890.41447  21460031.2664                   21460031.6374
        46.5004         43.5004
 25  7 15  1 47 30.0000000  0 11G01G02G03G16G09G28G31G06G07G04G26
  -7814408.94946  -6060651.02344  23096462.6254                   23096461.9024
        41.5004         25.2504
   6448735.57446   5043308.24243  25043230.8204                   25043233.6644
        36.0004         19.2504
 -33402015.52048 -25976294.44148  19931110.5164                   19931109.8954
        48.2504         50.5004
 -14331189.16047  -9975983.01645  21901198.4694                   21901196.0434
        45.2504         30.2504
   1998486.26246   1592933.98045  23526859.2504                   23526859.7584
        39.2504         33.7504
   7247090.32046   5666361.48843  24738074.5944                   24738074.5824
        39.0004         18.5004
  -9687017.37947  -7517001.15246  21991496.6954                   21991493.8984
        45.7504         41.0004
  12125976.45346   9481219.34044  24935174.6724                   24935176.9654
        37.5004         27.5004
  18313003.46946  14311915.96544  25200317.6024                   25200322.2704
        38.2504         28.2504
 -33164328.80947 -25798930.49245  21124880.0704                   21124878.8244
        46.7504         35.5004
 -29622892.26247 -23038733.66847  21443219.2584                   21443219.5634
        45.0004         43.5004
 25  7 15  1 48  0.0000000  0 11G01G02G03G16G09G28G31G06G07G04G26
  -7816347.94546  -6062162.00444  23096093.5944                   23096093.2424
        41.0004         26.5004
   6442338.33246   5038323.08243  25042013.9924                   25042016.6174
        38.2504         19.7504
 -33488075.71148 -26043354.32448  19914733.9534                   19914733.1844
        49.2504         50.5004
 -14501606.57447 -10108775.74645  21868768.8204                   21868766.3204
        46.0004         31.0004
   1831737.63746   1463000.07845  23495128.0784                   23495128.8284
        40.0004         34.7504
   7255435.82846   5672864.39143  24739663.4844                   24739663.1294
        39.5004         19.2504
  -9689711.91047  -7519100.82846  21990984.0704                   21990981.3244
        45.7504         40.7504
  11990295.45746   9375493.91844  24909355.3984                   24909357.8914
        37.7504         28.7504
  18137485.55945  14175149.14544  25166917.0474                   25166921.8244
        35.7504         28.7504
 -33295345.53947 -25901021.43745  21099948.0704                   21099946.3914
        47.2504         34.7504
 -29710650.39147 -23107116.60947  21426519.0944                   21426519.6684
        47.7504         43.7504
 25  7 15  1 48 30.0000000  0 11G01G02G03G16G09G28G31G06G07G04G26
  -7818150.15246  -6063566.39144  23095750.8284                   23095750.2034
        41.5004         26.2504
   6435782.56646   5033214.43843  25040764.8754                   25040768.4654
        38.2504         21.5004
 -33573596.49248 -26109993.89148  19898459.7734                   19898459.2774
        49.7504         50.5004
 -14671652.93447 -10241279.34045  21836410.0164                   21836407.4694
        45.0004         31.0004
   1664983.73046   1333062.05145  23463396.2114                   23463396.2074
        41.2504         34.2504
   7263746.09046   5679339.89143  24741244.8834                   24741244.1764
        39.0004         19.0004
  -9692219.58247  -7521054.90646  21990506.7194                   21990503.9184
        45.7504         41.5004
  11855076.84046   9270128.77744  24883624.8674                   24883626.2734
        37.2504         29.0004
  17962086.34446  14038474.81344  25133540.8984                   25133544.2544
        37.0004         26.7504
 -33426246.34447 -26003022.05945  21075038.5394                   21075037.0594
        47.2504         35.2504
 -29797814.57047 -23175036.74647  21409932.3594                   21409933.0704
        45.7504         43.7504
 25  7 15  1 49  0.0000000  0 11G01G02G03G16G09G28G31G06G07G04G26
  -7819815.50846  -6064864.18044  23095434.1884                   23095433.9614
        40.0004         26.0004
   6429068.95746   5027982.78143  25039489.0554                   25039491.8874
        40.2504         21.2504
 -33658574.08648 -26176210.19548  19882289.1334                   19882288.6334
        50.0004         50.5004
 -14841321.91847 -10373488.88745  21804123.1094                   21804120.8984
        45.0004         30.5004
   1498227.95746   1203122.59045  23431662.6564                   23431663.5514
        39.7504         35.2504
   7272022.69546   5685789.13743  24742820.0944                   24742819.4494
        38.7504         19.2504
  -9694539.66447  -7522862.80546  21990065.2814                   21990063.0084
        44.7504         40.5004
  11720324.97346   9165127.34444  24857981.7424                   24857984.2074
        38.7504         28.7504
  17786809.84445  13901896.12544  25100185.7974                   25100189.9454
        35.2504         27.5004
 -33557027.61347 -26104929.53145  21050151.9454                   21050150.1054
        47.5004         35.2504
 -29884381.47747 -23242491.47347  21393458.8524                   21393459.7814
        46.2504         43.5004
 25  7 15  1 49 30.0000000  0 11G01G02G03G16G09G28G31G06G07G04G26
  -7821343.89546  -6066055.18744  23095142.6334                   23095142.5744
        41.5004         25.0004
   6422198.43446   5022628.87143  25038182.2344                   25038184.4024
        40.5004         21.5004
 -33743004.68748 -26242000.27348  19866222.4384                   19866221.3524
        50.0004         50.5004
 -15010606.69547 -10505399.04345  21771908.9844                   21771906.8674
        45.7504         30.5004
   1331473.87946   1073184.43045  23399930.5474                   23399931.2074
        41.2504         35.5004
   7280267.38346   5692213.53543  24744388.3674                   24744388.8554
        39.2504         20.0004
  -9696671.16847  -7524523.76246  21989659.7114                   21989656.8364
        45.5004         40.7504
  11586044.25846   9060493.06644  24832429.3524                   24832431.0944
        36.7504         27.5004
  17611660.03946  13765416.11344  25066855.9224                   25066859.4734
        36.2504         27.5004
 -33687685.68047 -26206741.00445  21025288.6024                   21025286.5824
        47.5004         35.5004
 -29970347.79347 -23309478.20347  21377100.7424                   21377101.1684
        47.2504         44.0004
 25  7 15  1 50  0.0000000  0 11G01G02G03G16G09G28G31G06G07G04G26
  -7822740.25046  -6067143.34844  23094877.1094                   23094876.8914
        41.5004         26.0004
   6415167.10946   5017149.64843  25036844.5784                   25036846.7974
        40.5004         20.0004
 -33826889.60248 -26307365.13748  19850259.7664                   19850258.9414
        48.5004         50.5004
 -15179505.66847 -10637008.56645  21739768.6334                   21739766.2074
        45.5004         30.5004
   1164719.91846    943246.35245  23368198.7114                   23368198.9184
        41.5004         35.2504
   7288476.69946   5698610.33243  24745950.9384                   24745950.8874
        38.5004         19.5004
  -9698618.63747  -7526041.30946  21989289.4534                   21989286.5084
        45.0004         40.2504
  11452234.12546   8956225.45344  24806965.9454                   24806968.2774
        38.2504         28.7504
                                  25033548.2734                   25033553.0554
        33.0004         24.2504
 -33818221.91447 -26308457.53945  21000447.9064                   21000446.1804
        47.2504         35.7504
 -30055715.25047 -23375998.29347  21360855.8284                   21360856.2814
        45.0004         43.5004
 25  7 15  1 50 30.0000000  0 11G01G02G03G16G09G28G31G06G07G04G26
  -7824006.16846  -6068129.87144  23094636.6094                   23094636.1414
        40.7504         24.7504
   6407974.02046   5011544.44543  25035473.9924                   25035477.5634
        40.5004         20.2504
 -33910226.73448 -26372303.16848  19834401.1094                   19834400.5864
        50.5004         50.5004
 -15348014.20747 -10768313.86345  21707702.3134                   21707699.7154
        45.5004         30.0004
    997967.85246    813309.74645  23336466.5394                   23336467.3914
        41.5004         35.5004
   7296650.68046   5704979.56343  24747506.5164                   24747506.7464
        38.5004         19.2504
  -9700383.02747  -7527416.19146  21988953.7814                   21988950.9534
        45.2504         40.5004
  11318897.20346   8852326.59444  24781593.1484                   24781595.0084
        38.5004         28.5004
                                  25000268.1644                   25000271.7304
        28.5004         22.5004
 -33948634.36747 -26410077.61345  20975631.6954                   20975629.9494
        47.2504         35.5004
 -30140482.21947 -23442050.46947  21344725.1094                   21344725.4414
        47.5004         43.7504
 25  7 15  1 51  0.0000000  0 11G01G02G03G16G09G28G31G06G07G04G26
  -7825146.95346  -6069018.87944  23094419.6724                   23094419.2074
        41.2504         26.5004
   6400614.68846   5005809.66843  25034075.8054                   25034078.1054
        40.5004         20.0004
 -33993017.73448 -26436815.64148  19818646.3444                   19818645.8054
        49.7504         50.2504
 -15516131.46547 -10899314.27345  21675711.2734                   21675708.4264
        45.7504         31.5004
    831215.86347    683373.19945  23304734.5004                   23304735.2194
        42.2504         35.2504
   7304785.69546   5711318.52043  24749054.7274                   24749054.5594
        39.0004         19.5004
  -9701968.70347  -7528651.83246  21988651.8054                   21988648.8134
        45.0004         40.5004
  11186032.57846   8748795.72344  24756309.6334                   24756311.5904
        38.5004         29.0004
  17086972.30155  13356569.61753  24967010.5944                   24967013.2704
        31.7504         22.7504
 -34078924.68047 -26511602.52345  20950838.1334                   20950836.2344
        47.0004         35.7504
 -30224650.83247 -23507636.39147  21328708.3914                   21328708.4104
        47.0004         43.5004
 25  7 15  1 51 30.0000000  0 11G01G02G03G16G09G28G31G06G07G04G26
  -7826161.23046  -6069809.30544  23094226.4534                   23094226.5124
        41.0004         27.5004
   6393091.13746   4999946.93043  25032642.9924                   25032646.2774
        39.0004         18.5004
 -34075257.60248 -26500898.65248  19802996.8444                   19802996.1914
        50.0004         50.5004
 -15683849.61347 -11030003.69145  21643795.0164                   21643792.4454
        46.0004         31.2504
    664468.77346    553440.46545  23273003.6644                   23273003.9494
        41.5004         35.2504
   7312884.74246   5717629.42643  24750595.7664                   24750595.9574
        39.5004         19.2504
  -9703373.52047  -7529746.53546  21988384.4924                   21988381.8444
        45.5004         40.5004
  11053645.74246   8645637.18444  24731116.9694                   24731119.2194
        39.2504         29.0004
  16912336.16855  13220489.93453  24933777.3834                   24933781.6414
        31.7504         22.7504
 -34209087.89847 -26613028.39545  20926068.5474                   20926066.9774
        47.0004         35.5004
 -30308216.60247 -23572752.57447  21312806.5784                   21312806.9024
        47.2504         43.5004
 25  7 15  1 52  0.0000000  0 10G01G03G16G09G28G31G06G07G04G26
  -6251635.52746  -4842906.26244  23393848.9844                   23393848.5744
        41.7504         26.0004
 -32581526.68048 -25336952.49248  20087244.5474                   20087244.0084
        49.7504         50.5004
 -14275743.28147  -9932777.92645  21911749.2974                   21911746.2154
        46.2504         31.5004
   2073148.92246   1651113.37545  23541066.4144                   23541067.0274
        41.7504         34.5004
   8896362.52746   6951508.18443  25051921.7344                   25051921.9454
        38.5004         19.0004
  -8129183.88347  -6303105.30546  22287942.8054                   22287940.1174
        45.2504         40.2504
  12497158.77746   9770452.54744  25005808.5004                   25005810.5784
        39.5004         29.5004
  18313255.60945  14312115.83244  25200362.1884                   25200366.8954
        33.5004         24.7504
 -32763702.70347 -25486754.20745  21201116.4924                   21201114.7544
        47.2504         35.0004
 -28815760.24247 -22409799.55947  21596810.9924                   21596811.8874
        47.7504         43.7504
 25  7 15  1 52 30.0000000  0 10G01G03G16G09G28G31G06G07G04G26
  -6252412.05147  -4843511.43044  23393700.8984                   23393701.0704
        42.7504         27.0004
 -32662668.90648 -25400180.20348  20071803.4534                   20071802.7854
        50.0004         50.5004
 -14442659.40247 -10062842.37945  21879985.7424                   21879983.0274
        46.2504         30.2504
   1906406.59846   1521184.34845  23509337.1254                   23509336.5864
        41.2504         35.5004
   8904379.19546   6957754.89543  25053447.3444                   25053447.4064
        38.0004         18.5004
  -8130240.84847  -6303928.94946  22287741.6334                   22287738.7774
        45.7504         40.5004
  12365725.00446   9668036.64544  24980796.8054                   24980799.4804
        39.2504         29.7504
  18138880.97345  14176239.85544  25167181.0004                   25167184.5744
        33.5004         26.0004
 -32893616.28147 -25587985.55545  21176394.9224                   21176393.1024
        47.0004         35.7504
 -28898126.35947 -22473980.94947  21581136.9694                   21581137.4064
        47.2504         43.7504
 25  7 15  1 53  0.0000000  0 10G01G03G16G09G28G31G06G07G04G26
  -6253069.94547  -4844024.14844  23393577.0864                   23393576.3164
        42.2504         26.5004
 -32743257.24648 -25462976.32048  20056468.2584                   20056467.8594
        50.0004         50.5004
 -14609165.11347 -10192587.03945  21848301.0084                   21848297.8204
        46.2504         31.5004
   1739671.52346   1391260.97345  23477607.4144                   23477608.1954
        41.2504         35.0004
   8912356.89146   6963971.21943  25054965.5314                   25054965.5124
        37.5004         19.0004
  -8131123.05547  -6304616.43046  22287573.9144                   22287571.4384
        46.0004         40.7504
  12234773.81646   9565996.78944  24955877.8834                   24955880.6724
        39.2504         29.2504
  17964642.82045  14040470.22344  25134022.6254                   25134027.6884
        31.7504         24.7504
 -33023399.84447 -25689115.60245  21151697.7814                   21151695.8554
        47.2504         35.0004
 -28979888.28947 -22537691.53547  21565578.7814                   21565578.6254
        47.0004         43.5004
 25  7 15  1 53 30.0000000  0 10G01G03G16G09G28G31G06G07G04G26
  -6253607.00447  -4844442.72744  23393474.0864                   23393473.5314
        42.2504         25.5004
 -32823285.94548 -25525336.35548  20041239.3834                   20041238.6454
        51.0004         50.5004
 -14775252.03947 -10322005.37145  21816695.3444                   21816692.5664
        46.2504         32.0004
   1572949.35246   1261347.65245  23445881.4144                   23445881.8554
        39.2504         34.5004
   8920299.42646   6970160.11743  25056476.6024                   25056476.6254
        36.0004         20.0004
  -8131827.57447  -6305165.44546  22287439.7814                   22287437.2114
        45.5004         40.0004
  12104311.54346   9464337.89844  24931052.3594                   24931054.1374
        40.2504         29.2504
  17790547.02045  13904811.57044  25100894.1414                   25100897.6564
        34.5004         25.2504
 -33153047.62147 -25790139.84045  21127026.7504                   21127024.7624
        46.5004         35.0004
 -29061040.84847 -22600927.28947  21550135.7664                   21550136.2774
        47.0004         43.7504
 25  7 15  1 54  0.0000000  0 10G01G03G16G09G28G31G06G07G04G26
  -6254029.88746  -4844772.33244  23393393.4844                   23393393.4454
        41.2504         26.7504
 -32902758.17248 -25587262.77748  20026116.1954                   20026115.4064
        49.5004         50.2504
 -14940920.50447 -10451097.62545  21785169.8524                   21785167.2504
        45.2504         31.7504
   1406236.95746   1131441.94945  23414157.2814                   23414157.1524
        38.7504         34.5004
   8928201.88745   6976317.83643  25057981.4064                   25057980.5044
        35.0004         19.5004
  -8132360.14147  -6305580.48046  22287338.7974                   22287335.7034
        46.0004         40.5004
  11974335.75046   9363058.07044  24906318.4924                   24906320.3244
        39.5004         29.7504
  17616591.16445  13769261.87944  25067791.1644                   25067795.0354
        35.7504         26.0004
 -33282562.60247 -25891060.59845  21102380.6884                   21102379.1214
        46.5004         35.7504
 -29141587.66447 -22663691.04747  21534808.2584                   21534809.1374
        47.0004         43.7504
 25  7 15  1 54 30.0000000  0 10G01G03G16G09G28G31G06G07G04G26
  -6254344.62547  -4845017.65644  23393334.1954                   23393333.7774
        42.5004         26.5004
 -32981676.56648 -25648757.63748  20011098.6484                   20011098.1024
        50.0004         50.2504
 -15106170.25447 -10579863.62145  21753723.3914                   21753720.9844
        45.2504         32.0004
   1239531.65646   1001541.77045  23382433.6804                   23382435.0474
        39.0004         34.5004
   8936059.83245   6982440.83643  25059476.0314                   25059476.2704
        35.0004         20.2504
  -8132726.22747  -6305865.78146  22287269.0634                   22287266.4574
        45.5004         40.0004
  11844844.40246   9262155.75045  24881677.4384                   24881679.3284
        40.7504         30.0004
  17442773.09846  13633819.58643  25034715.2584                   25034717.6724
        38.0004         23.7504
 -33411947.21547 -25991879.77045  21077759.4224                   21077757.7274
        46.5004         35.7504
 -29221531.87947 -22725985.23047  21519595.1414                   21519595.8554
        47.5004         43.7504
 25  7 15  1 55  0.0000000  0 10G01G03G16G09G28G31G06G07G04G26
  -6254560.24647  -4845185.77744  23393292.4304                   23393292.8524
        42.0004         26.0004
 -33060046.68748 -25709825.27748  19996185.1644                   19996184.7624
        50.2504         50.5004
 -15271004.03947 -10708305.48045  21722356.6804                   21722354.2504
        45.0004         31.5004
   1072827.88346    871642.79745  23350710.9774                   23350712.0594
        38.2504         35.2504
   8943865.94145   6988523.44543  25060961.9774                   25060961.9344
        33.5004         19.5004
  -8132934.20347  -6306027.89146  22287229.2894                   22287226.8954
        45.0004         39.5004
  11715832.55546   9161627.04345  24857127.8204                   24857128.7234
        40.0004         30.5004
  17269087.60546  13498480.59444  25001662.8364                   25001665.9264
        38.5004         25.2504
 -33541206.93447 -26092601.62545  21053161.9224                   21053160.4064
        46.5004         35.5004
 -29300879.64847 -22787814.66847  21504495.8054                   21504496.2854
        47.5004         43.5004
 25  7 15  1 55 30.0000000  0 10G01G03G16G09G28G31G06G07G04G26
  -6254679.34047  -4845278.67244  23393270.5944                   23393270.2034
        42.0004         26.0004
 -33137867.69148 -25770465.02748  19981376.2734                   19981375.7344
        50.5004         50.5004
 -15435418.08647 -10836420.27345  21691069.4924                   21691067.0164
        45.5004         32.0004
    906126.55146    741745.70345  23318989.8364                   23318989.6684
        39.5004         34.5004
   8951619.26245   6994564.88743  25062436.4614                   25062437.8324
        32.5004         19.0004
  -8132985.77747  -6306068.12146  22287219.5784                   22287216.7584
        45.5004         40.0004
  11587301.80146   9061473.21944  24832668.1024                   24832670.2544
        40.5004         29.2504
  17095536.03946  13363245.97344  24968638.9144                   24968640.4414
        39.2504         25.5004
 -33670340.67247 -26193225.30545  21028588.6564                   21028587.0434
        46.7504         35.5004
 -29379630.58647 -22849179.02747  21489510.1724                   21489510.6764
        47.5004         43.5004
 25  7 15  1 56  0.0000000  0 10G01G03G16G09G28G31G06G07G04G26
  -6254705.93047  -4845299.49244  23393265.2974                   23393265.3164
        42.2504         27.2504
 -33215140.25048 -25830677.41848  19966672.0944                   19966671.4344
        50.5004         50.2504
 -15599410.42647 -10964206.46145  21659863.2974                   21659859.9064
        45.2504         31.2504
    739427.08646    611850.07445  23287266.9304                   23287267.7194
        40.0004         34.2504
   8959317.58245   7000563.48042  25063902.5634                   25063902.6484
        33.0004         17.2504
  -8132884.37947  -6305989.15246  22287238.5704                   22287236.3284
        45.2504         39.7504
  11459252.05146   8961694.20344  24808301.3984                   24808303.3594
        40.7504         29.5004
  16922118.23846  13228115.52344  24935636.5394                   24935639.4694
        38.7504         27.0004
 -33799348.82847 -26293751.13345  21004039.6414                   21004037.9734
        47.0004         35.2504
 -29457785.89547 -22910079.27347  21474637.7734                   21474638.2114
        47.2504         43.5004
 25  7 15  1 56 30.0000000  0 10G01G03G16G09G28G31G06G07G04G26
  -6254645.92247  -4845252.81644  23393276.8914                   23393276.4184
        42.0004         25.7504
 -33291866.84048 -25890464.37548  19952071.1644                   19952070.4454
        50.2504         50.5004
 -15762980.28947 -11091663.44545  21628736.5004                   21628733.8014
        45.0004         31.0004
    572727.14546    481954.06645  23255545.4844                   23255545.7894
        40.2504         33.7504
   8966956.70345   7006515.93843  25065355.8834                   25065356.3954
        33.5004         18.2504
  -8132634.79747  -6305794.71946  22287286.0864                   22287283.5984
        45.2504         40.5004
  11331681.52746   8862288.59844  24784025.7664                   24784027.1094
        41.5004         28.7504
  16748832.45346  13093087.97744  24902661.0704                   24902663.6454
        40.5004         26.5004
 -33928233.62947 -26394180.84445  20979513.6414                   20979511.6764
        47.0004         34.7504
 -29535348.60947 -22970517.74647  21459877.6724                   21459878.7934
        46.5004         43.5004
 25  7 15  1 57  0.0000000  0 10G01G03G16G09G28G31G06G07G04G26
  -6254506.04747  -4845143.90644  23393302.8594                   23393303.4924
        42.0004         26.0004
 -33368050.97348 -25949828.63748  19937573.9614                   19937573.5554
        50.0004         50.5004
 -15926128.42647 -11218791.81245  21597690.7424                   21597688.3284
        44.5004         31.5004
    406023.28046    352054.98645  23223821.5314                   23223822.4574
        40.0004         33.5004
   8974531.27345   7012418.08642  25066797.5554                   25066797.6564
        33.7504         17.7504
  -8132243.73447  -6305490.03946  22287361.0634                   22287358.5004
        44.7504         39.7504
  11204587.38346   8763254.18844  24759840.0784                   24759841.7114
        40.0004         29.0004
  16575675.73046  12958160.98844  24869710.3674                   24869712.9224
        40.0004         25.5004
 -34056998.23047 -26494516.89145  20955010.3364                   20955008.8094
        46.7504         35.5004
 -29612322.69947 -23030497.55947  21445230.1094                   21445230.9534
        47.7504         43.5004
 25  7 15  1 57 30.0000000  0 10G01G03G16G09G28G31G06G07G04G26
  -6254287.03946  -4844973.35543  23393344.8984                   23393345.1374
        40.2504         23.0004
 -33443690.05948 -26008768.19148  19923180.4534                   19923179.6134
        50.2504         50.5004
 -16088849.50047 -11345587.40645  21566725.8674                   21566722.9534
        45.0004         32.0004
    239318.34846    222155.08645  23192099.6174                   23192099.5944
        39.7504         33.0004
   8982042.61346   7018271.02343  25068226.5784                   25068227.2234
        36.0004         18.2504
  -8131710.73847  -6305074.76246  22287462.3204                   22287459.6414
        44.0004         40.0004
  11077972.87146   8664593.55544  24735746.5554                   24735747.8204
        40.7504         28.2504
  16402650.69546  12823336.58244  24836783.7344                   24836787.3284
        40.5004         26.7504
 -34185639.73847 -26594757.01246  20930530.3284                   20930529.2664
        46.5004         36.0004
 -29688706.18047 -23090017.15647  21430695.0164                   21430695.3284
        47.2504         43.5004
 25  7 15  1 58  0.0000000  0 10G01G03G16G09G28G31G06G07G04G26
  -6253994.39546  -4844745.41444  23393400.8284                   23393400.3954
        40.7504         24.0004
 -33518786.25448 -26067284.71948  19908890.0394                   19908889.8134
        50.5004         50.2504
 -16251142.63747 -11472049.53545  21535842.4534                   21535839.8324
        45.0004         32.0004
     72610.29346     92252.74645  23160375.5164                   23160376.0984
        39.0004         33.2504
   8989486.82446   7024071.66843  25069643.0314                   25069643.9614
        36.5004         19.7504
  -8131040.59447  -6304552.62146  22287590.4064                   22287587.5784
        44.5004         39.7504
  10951836.43446   8566305.41844  24711743.3674                   24711744.7234
        40.5004         28.7504
  16229756.23046  12688613.94544  24803883.2194                   24803886.1334
        41.0004         27.0004
 -34314159.94947 -26694902.63345  20906074.1484                   20906072.6914
        47.0004         35.7504
 -29764501.72347 -23149078.60547  21416271.8204                   21416271.8754
        47.2504         43.5004
 25  7 15  1 58 30.0000000  0 10G01G03G16G09G28G31G06G07G04G26
  -6253630.83246  -4844462.20743  23393470.6414                   23393469.8674
        40.5004         23.5004
 -33593339.04748 -26125377.81648  19894703.0634                   19894702.2234
        49.5004         50.2504
 -16413004.65647 -11598175.74245  21505040.7894                   21505038.1804
        44.5004         30.5004
    -94100.10246    -37651.42645  23128652.1564                   23128652.1414
        39.2504         32.5004
   8996862.90646   7029819.18443  25071046.6174                   25071047.3324
        37.0004         20.0004
  -8130235.29347  -6303925.15246  22287743.4144                   22287741.0864
        44.5004         39.5004
  10826179.33646   8468390.78944  24687831.5314                   24687833.3794
        37.7504         28.0004
  16056993.33246  12553993.78544  24771006.5314                   24771009.8484
        40.5004         26.7504
 -34442558.00047 -26794953.04745  20881640.8204                   20881639.6254
        46.7504         35.7504
 -29839709.38747 -23207681.98447  21401960.0314                   21401960.2734
        47.5004         43.5004
 25  7 15  1 59  0.0000000  0 10G01G03G16G09G28G31G06G07G04G26
  -6253198.25846  -4844125.25444  23393552.8364                   23393552.7974
        40.2504         24.0004
 -33667347.15648 -26183046.48848  19880619.7194                   19880619.1764
        50.2504         50.2504
 -16574431.26247 -11723962.67245  21474322.5234                   21474319.5004
        44.0004         32.0004
   -260811.29346   -167556.19945  23096927.2424                   23096927.8094
        38.5004         33.0004
   9004170.69146   7035513.49243  25072437.5554                   25072437.9454
        38.5004         21.5004
  -8129295.59847  -6303192.97346  22287921.8834                   22287919.6294
        45.0004         39.2504
  10701003.47746   8370851.15644  24664011.6174                   24664013.1214
        39.5004         28.2504
  15884364.00446  12419477.73044  24738157.4224                   24738159.4574
        40.7504         24.7504
 -34570832.10947 -26894906.89846  20857230.8834                   20857229.1724
        45.5004         36.0004
 -29914328.43047 -23265826.68747  21387760.3594                   21387761.2154
        46.7504         43.2504
 25  7 15  1 59 30.0000000  0 10G01G03G16G09G28G31G06G07G04G26
  -6252698.38346  -4843735.84043  23393648.0084                   23393647.5944
        40.7504         22.5004
 -33740809.10248 -26240289.57448  19866640.3204                   19866639.7504
        49.5004         50.2504
 -16735417.91847 -11849406.77345  21443687.3204                   21443685.0664
        44.5004         31.5004
   -427521.48446   -297460.20345  23065203.4694                   23065204.2854
        39.0004         33.5004
   9011410.10946   7041154.51643  25073815.1254                   25073815.6994
        39.7504         22.2504
  -8128222.91047  -6302357.16446  22288126.2194                   22288123.7974
        44.5004         39.0004
  10576311.09046   8273688.25044  24640283.5004                   24640284.7664
        39.0004         27.5004
  15711870.15246  12285067.21944  24705333.3054                   24705334.3794
        41.2504         25.2504
 -34698980.36347 -26994762.68445  20832845.3524                   20832843.5274
        46.7504         35.5004
 -29988357.92647 -23323512.00847  21373673.0004                   21373673.7974
        46.0004         43.5004
 25  7 15  2  0  0.0000000  0 10G01G03G16G09G28G31G06G07G04G26
  -6252139.09446  -4843300.13743  23393754.2814                   23393754.1994
        40.7504         23.7504
 -33813729.50448 -26297110.68048  19852763.9534                   19852763.3524
        49.2504         50.2504
 -16895966.19547 -11974509.27745  21413136.1954                   21413133.5984
        44.0004         31.7504
   -594235.02346   -427366.82045  23033479.2894                   23033479.4104
        40.5004         33.7504
   9018575.19146   7046737.60543  25075178.8054                   25075179.0434
        39.2504         22.7504
  -8127024.47747  -6301423.35546  22288354.6024                   22288351.8594
        44.0004         38.5004
  10452098.18446   8176898.97744  24616645.7974                   24616647.9844
        38.5004         29.0004
  15539507.98046  12150759.33243  24672533.1254                   24672534.6024
        40.0004         23.2504
 -34827006.87947 -27094523.60546  20808482.7344                   20808481.2234
        46.5004         36.2504
 -30061803.06247 -23380741.97747  21359697.0554                   21359697.5784
        45.5004         43.5004
 25  7 15  2  0 30.0000000  0 10G01G03G16G09G28G31G06G07G04G26
  -4676098.25046  -3615216.47744  23693665.2274                   23693665.1094
        40.2504         26.5004
 -32310680.77348 -25125903.89848  20138784.7584                   20138784.3524
        48.7504         50.2504
 -15480642.86347 -10871659.88745  21682463.1174                   21682460.5354
        43.7504         31.7504
    814479.20746    670332.61745  23301548.8054                   23301548.8244
        41.5004         34.0004
  10601089.52746   8279865.60943  25376321.2584                   25376321.8554
        40.5004         22.5004
  -6550277.31247  -5072789.25446  22588399.0554                   22588397.0434
        44.2504         39.2504
  11903794.74246   9308091.09044  24892895.0394                   24892896.4384
        37.2504         28.7504
  16942708.98446  13244162.93843  24939552.0864                   24939554.3554
        37.7504         23.0004
 -33379481.71947 -25966581.91846  21083937.3284                   21083935.6994
        46.2504         36.2504
 -28559236.83247 -22209911.14547  21645625.8284                   21645626.6134
        44.7504         43.0004
 25  7 15  2  1  0.0000000  0 10G01G03G16G09G28G31G06G07G04G26
  -4675418.21546  -3614686.69143  23693794.6724                   23693794.3554
        39.7504         22.2504
 -32382506.97748 -25181872.38748  20125116.9224                   20125116.2154
        48.5004         50.2504
 -15640294.44547 -10996063.66845  21652082.7344                   21652080.0634
        44.0004         32.2504
    647771.22347    540430.33645  23269825.1334                   23269825.5984
        42.0004         34.7504
  10608112.98446   8285338.33643  25377658.0394                   25377658.5474
        40.0004         21.5004
  -6548822.74647  -5071655.87546  22588675.9224                   22588674.1454
        43.7504         38.7504
  11780553.93846   9212059.31344  24869443.5004                   24869444.8634
        38.0004         28.0004
  16770623.29746  13110070.46944  24906805.0864                   24906807.2424
        38.5004         24.0004
 -33507252.09847 -26066143.25446  21059623.9384                   21059622.3284
        45.7504         36.0004
 -28631503.87947 -22266223.12947  21631873.8364                   21631874.2664
        45.0004         43.0004
 25  7 15  2  1 30.0000000  0 10G01G03G16G09G28G31G06G07G04G26
  -4674680.28146  -3614111.80143  23693935.3984                   23693935.3714
        40.0004         22.7504
 -32453783.81648 -25237412.80148  20111553.3834                   20111552.7234
        48.5004         50.2504
 -15799491.05147 -11120112.92645  21621788.5004                   21621785.5824
        44.0004         31.7504
    481068.85947    410532.43845  23238102.6564                   23238103.0864
        42.2504         35.2504
  10615065.80146   8290756.06343  25378981.6954                   25378981.5434
        40.0004         19.7504
  -6547241.44547  -5070423.73846  22588977.2504                   22588975.1024
        43.5004         39.0004
  11657802.47346   9116408.82844  24846084.2664                   24846085.3554
        37.2504         28.7504
  16598678.91846  12976088.13944  24874084.9454                   24874087.2344
        38.2504         25.2504
 -33634891.34447 -26165602.41045  21035334.8834                   21035333.0594
        45.2504         35.5004
 -28703180.45747 -22322075.00847  21618234.4064                   21618234.4534
        45.5004         43.0004
 25  7 15  2  2  0.0000000  0 10G01G03G16G09G28G31G06G07G04G26
  -4673890.88746  -3613496.78943  23694085.5164                   23694085.4144
        40.0004         22.5004
 -32524514.79748 -25292527.87148  20098093.8984                   20098092.7894
        49.2504         50.2504
 -15958233.54347 -11243808.32445  21591580.5164                   21591578.3364
        44.5004         32.0004
    314369.06347    280636.53146  23206381.1804                   23206380.9344
        42.7504         36.0004
  10621943.23046   8296115.01643  25380289.2034                   25380290.4494
        39.2504         18.5004
  -6545538.56647  -5069096.86746  22589301.3524                   22589298.9304
        44.2504         39.0004
  11535537.55546   9021137.48444  24822817.7814                   24822819.7114
        36.7504         28.5004
  16426873.18846  12842213.79744  24841391.8834                   24841393.8054
        38.0004         26.5004
 -33762402.28547 -26264961.58246  21011070.4694                   21011068.1644
        46.5004         36.2504
 -28774270.61747 -22377469.94147  21604706.4064                   21604707.0784
        46.0004         43.0004
 25  7 15  2  2 30.0000000  0 10G01G03G16G09G28G31G06G07G04G26
  -4673050.80146  -3612842.28943  23694245.2664                   23694245.0594
        39.7504         22.7504
 -32594697.52048 -25347215.72348  20084738.6414                   20084737.3014
        48.2504         50.2504
 -16116516.19547 -11367145.40645  21561460.8444                   21561457.7974
        44.5004         32.2504
    147674.72347    150744.88746  23174660.5554                   23174660.2854
        42.2504         36.0004
  10628746.41846   8301416.14843  25381585.0474                   25381584.7774
        40.7504         20.0004
  -6543714.63347  -5067675.67246  22589648.1484                   22589645.7894
        44.0004         39.0004
  11413762.15646   8926247.57844  24799644.9614                   24799646.9734
        36.7504         29.2504
  16255209.30546  12708449.99244  24808725.2664                   24808727.4104
        37.5004         27.7504
 -33889781.93447 -26364218.44545  20986830.4844                   20986829.1094
        45.5004         35.5004
 -28844772.59847 -22432406.53947  21591290.1414                   21591290.7544
        46.2504         43.2504
 25  7 15  2  3  0.0000000  0 10G01G03G16G09G28G31G06G07G04G26
  -4672165.09446  -3612152.23843  23694414.0234                   23694414.1414
        41.0004         22.7504
 -32664334.18448 -25401478.07048  20071487.0554                   20071486.2934
        48.7504         50.2504
 -16274338.11347 -11490123.49645  21531427.9144                   21531425.2624
        44.2504         31.7504
    -19015.86347     20856.17246  23142939.9144                   23142940.2584
        42.0004         36.7504
  10635471.87546   8306656.70742  25382865.1724                   25382864.5554
        39.5004         17.2504
  -6541773.83647  -5066163.41446  22590017.3914                   22590015.4534
        44.7504         40.0004
  11292474.91046   8831738.05544  24776564.2734                   24776566.1174
        36.0004         28.0004
  16083685.59846  12574795.42244  24776084.3834                   24776086.7114
        36.5004         25.7504
 -34017031.78547 -26463374.17245  20962615.9144                   20962614.1454
        46.0004         35.5004
 -28914689.15247 -22486886.97747  21577985.3524                   21577985.9264
        46.5004         43.0004
 25  7 15  2  3 30.0000000  0 10G01G03G16G09G28G31G06G07G04G26
  -4671238.34246  -3611430.18843  23694591.2734                   23694590.7814
        40.7504         22.5004
 -32733426.28148 -25455316.07048  20058339.1024                   20058338.8094
        48.0004         50.2504
 -16431697.80547 -11612741.39145  21501483.2034                   21501480.2584
        44.0004         32.5004
   -185703.66447   -109030.37146  23111220.1564                   23111220.4454
        42.7504         36.7504
  10642117.02346   8311834.68442  25384128.8204                   25384129.5594
        40.7504         16.7504
  -6539719.87147  -5064562.97746  22590408.6804                   22590406.3164
        44.5004         38.7504
  11171674.90246   8737608.21544  24753577.2194                   24753579.1174
        36.0004         27.0004
  15912301.46146  12441249.61744  24743471.4774                   24743472.4884
        37.2504         27.0004
 -34144152.64147 -26562429.38345  20938425.4454                   20938424.2814
        45.2504         35.7504
 -28984022.34847 -22540912.84447  21564791.9774                   21564792.4304
        45.7504         43.2504
 25  7 15  2  4  0.0000000  0 10G01G03G16G09G28G31G06G07G04G26
  -4670273.69546  -3610678.63343  23694774.4304                   23694774.2584
        41.2504         22.7504
 -32801973.95748 -25508729.84848  20045295.0004                   20045294.2194
        49.7504         50.2504
 -16588592.40647 -11734996.88345  21471627.3754                   21471624.4574
        44.7504         32.5004
   -352388.30947   -238914.45746  23079501.2974                   23079501.4844
        42.2504         36.7504
  10648680.44546   8316948.94542  25385378.3524                   25385379.0044
        39.2504         16.2504
  -6537555.32847  -5062876.38346  22590821.0634                   22590818.3524
        44.7504         39.2504
  11051362.75445   8643858.50844  24730681.8754                   24730684.4024
        35.5004         28.5004
  15741057.65646  12307813.10944  24710884.8984                   24710886.5274
        36.2504         27.0004
 -34271143.96547 -26661383.65246  20914259.3834                   20914258.1844
        46.7504         36.5004
 -29052772.97347 -22594484.76647  21551709.0784                   21551709.3484
        46.2504         43.0004
 25  7 15  2  4 30.0000000  0 10G01G03G16G09G28G31G06G07G04G26
  -4669275.65646  -3609901.05543  23694964.1954                   23694964.3594
        40.5004         22.7504
 -32869978.92248 -25561720.73448  20032353.9144                   20032353.5004
        50.5004         50.2504
 -16745020.66047 -11856888.99245  21441860.1884                   21441857.5704
        45.0004         33.5004
   -519070.84847   -368796.88746  23047781.9454                   23047782.6804
        42.0004         36.7504
  10655159.44146   8321997.47742  25386610.9454                   25386612.6214
        38.5004         16.2504
  -6535283.23447  -5061105.96546  22591252.8914                   22591250.1524
        45.0004         39.0004
  10931537.30145   8550488.05544  24707880.3914                   24707881.9224
        35.7504         28.2504
  15569953.03946  12174485.10544  24678324.5634                   24678325.9224
        36.5004         26.7504
 -34398006.68747 -26760237.71946  20890118.5004                   20890116.8484
        47.2504         36.5004
 -29120943.29747 -22647604.50447  21538736.4774                   21538736.8284
        45.7504         43.0004
 25  7 15  2  5  0.0000000  0 10G01G03G16G09G28G31G06G07G04G26
  -4668246.49246  -3609099.21144  23695159.7114                   23695160.5434
        40.5004         25.2504
 -32937440.55948 -25614288.25848  20019516.4844                   20019515.7504
        50.0004         50.2504
 -16900978.90247 -11978414.85245  21412182.4304                   21412179.3404
        44.5004         32.7504
   -685750.02347   -498676.70346  23016064.6644                   23016065.0784
        42.0004         36.7504
  10661553.52346   8326979.84842  25387827.6884                   25387830.1094
        37.0004         15.5004
  -6532905.88747  -5059253.54346  22591705.5234                   22591703.1644
        44.5004         38.7504
  10812200.06645   8457498.01244  24685171.3984                   24685173.2074
        35.0004         28.0004
  15398989.06346  12041266.64844  24645790.8914                   24645792.5744
        37.0004         27.0004
 -34524739.36347 -26858990.44545  20866002.1334                   20866000.7774
        47.2504         35.7504
 -29188533.23847 -22700271.98847  21525875.1644                   21525875.4414
        46.7504         43.0004
 25  7 15  2  5 30.0000000  0 10G01G03G16G09G28G31G06G07G04G26
  -4667184.69146  -3608271.95743  23695361.9064                   23695362.7584
        40.0004         23.2504
 -33004354.42248 -25666428.93748  20006783.6644                   20006782.8324
        48.7504         50.5004
 -17056459.66847 -12099568.64845  21382595.0864                   21382592.1414
        45.0004         32.5004
   -852420.77047   -628549.95746  22984348.2274                   22984348.2814
        42.0004         36.5004
  10667866.14145   8331898.73842  25389028.5004                   25389032.1644
        35.5004         14.7504
  -6530420.52347  -5057316.93746  22592178.2734                   22592175.9184
        44.0004         38.7504
  10693356.07045   8364892.30544  24662555.5704                   24662557.4264
        35.0004         29.2504
  15228171.04746  11908161.92544  24613286.0314                   24613286.4844
        38.2504         27.5004
 -34651336.75447 -26957637.75846  20841911.4144                   20841909.8134
        47.5004         36.0004
 -29255539.01647 -22752484.28947  21513123.8594                   21513124.8284
        46.0004         43.0004
 25  7 15  2  6  0.0000000  0 10G01G03G16G09G28G31G06G07G04G26
  -4666097.41046  -3607424.85243  23695569.8054                   23695570.2894
        39.7504         23.0004
 -33070724.89848 -25718146.21948  19994153.3364                   19994152.7584
        49.5004         50.2504
 -17211464.31247 -12220351.45745  21353098.2664                   21353095.7504
        44.2504         33.2504
  -1019086.77346   -758419.50845  22952632.1954                   22952632.9454
        41.7504         35.7504
  10674091.828 6                  25390213.570
        36.500
  -6527833.11747  -5055300.82446  22592671.0084                   22592668.6414
        45.0004         38.2504
  10575001.65645   8272668.09444  24640033.9694                   24640035.5554
        35.0004         28.5004
  15057495.41446  11775168.14144  24580805.8204                   24580808.0864
        38.0004         29.7504
 -34777802.34047 -27056182.35546  20817845.7424                   20817843.8874
        46.5004         36.0004
 -29321965.55547 -22804245.23447  21500483.1484                   21500484.2034
        46.0004         42.7504
 25  7 15  2  6 30.0000000  0  9G01G03G16G09G31G06G07G04G26
  -4664990.02346  -3606562.08243  23695779.8674                   23695780.3984
        40.0004         23.5004
 -33136554.48848 -25769442.02348  19981626.5864                   19981626.1844
        50.0004         50.2504
 -17365992.21147 -12340762.75045  21323692.8674                   21323690.2424
        44.5004         33.2504
  -1185749.83647   -888286.77346  22920917.0784                   22920917.6484
        42.0004         36.0004
  -6525148.77747  -5053209.18746  22593181.8284                   22593179.1954
        44.7504         38.5004
  10457134.97345   8180823.93844  24617604.9534                   24617606.3204
        35.0004         27.2504
  14886960.77346  11642284.21945  24548354.7664                   24548356.3554
        39.7504         31.2504
 -34904137.79347 -27154625.55546  20793804.9144                   20793803.0274
        46.0004         36.5004
 -29387816.02347 -22855557.30547  21487952.1954                   21487953.4304
        46.0004         43.0004
 25  7 15  2  7  0.0000000  0  9G01G03G16G09G31G06G07G04G26
  -4663861.80946  -3605683.05544  23695994.7194                   23695994.9844
        40.5004         24.5004
 -33201839.70348 -25820313.64548  19969203.4924                   19969202.5474
        50.0004         50.2504
 -17520036.80947 -12460797.47345  21294379.2504                   21294376.1764
        44.5004         33.0004
  -1352405.68447  -1018148.43746  22889204.1024                   22889204.1604
        42.5004         36.5004
  -6522365.83247  -5051040.71146  22593711.1094                   22593709.0394
        45.0004         38.7504
  10339760.25845   8089363.10244  24595267.9384                   24595271.1994
        35.2504         27.5004
  14716571.18046  11509513.31345  24515931.0234                   24515931.8364
        40.2504         32.2504
 -35030338.77047 -27252963.97346  20769789.9534                   20769788.1484
        45.7504         36.0004
 -29453087.54347 -22906418.22747  21475531.5164                   21475532.2504
        45.7504         42.5004
 25  7 15  2  7 30.0000000  0  9G01G03G16G09G31G06G07G04G26
  -4662712.01246  -3604787.23844  23696213.7584                   23696214.1374
        40.2504         25.2504
 -33266577.14548 -25870758.43048  19956884.0554                   19956883.3094
        48.5004         50.5004
 -17673591.78947 -12580450.65645  21265158.8204                   21265155.8954
        44.5004         33.5004
  -1519050.13347  -1148001.19946  22857492.7034                   22857492.6524
        42.2504         37.2504
  -6519482.59047  -5048794.07846  22594260.6644                   22594257.8754
        44.5004         38.5004
  10222881.57045   7998288.79344  24573026.8524                   24573029.6954
        35.2504         28.5004
  14546331.03546  11376858.88745  24483534.3914                   24483535.9804
        40.5004         31.5004
 -35156400.82447 -27351194.13346  20745801.0004                   20745799.0704
        45.2504         36.2504
 -29517777.24647 -22956825.80147  21463221.7274                   21463222.2344
        44.7504         43.2504
 25  7 15  2  8  0.0000000  0  9G01G03G16G09G31G06G07G04G26
  -4661539.62546  -3603873.81644  23696437.3834                   23696437.2114
        40.0004         24.5004
 -33330762.91448 -25920773.34048  19944669.6804                   19944669.1914
        49.0004         50.2504
 -17826650.10547 -12699716.83245  21236032.6564                   21236029.6604
        44.7504         33.5004
  -1685678.51247  -1277841.44146  22825784.1484                   22825784.1334
        43.0004         37.2504
  -6516497.17647  -5046467.83246  22594828.2894                   22594825.6214
        43.5004         37.7504
  10106503.54345   7907604.62144  24550880.8984                   24550883.6564
        34.0004         28.2504
  14376244.80946  11244324.38345  24451168.4144                   24451169.0554
        41.0004         30.7504
 -35282319.20747 -27449312.33645  20721839.4694                   20721837.9104
        45.7504         35.7504
 -29581881.89147 -23006777.48447  21451022.8914                   21451023.7894
        45.2504         42.7504
 25  7 15  2  8 30.0000000  0  9G01G03G16G09G31G06G07G04G26
  -4660347.72346  -3602945.17244  23696663.8674                   23696664.2384
        40.5004         24.2504
 -33394397.46548 -25970358.73448  19932560.7974                   19932560.2854
        49.7504         50.5004
 -17979209.01647 -12818593.87145  21207001.7734                   21206998.5704
        45.0004         33.5004
  -1852290.39547  -1407668.82846  22794078.6804                   22794079.1214
        42.0004         37.5004
  -6513411.82047  -5044063.71546  22595415.5704                   22595413.2504
        44.7504         38.0004
   9990626.34045   7817310.69544  24528831.6644                   24528832.9964
        35.5004         28.2504
  14206313.29346  11111910.42245  24418831.0474                   24418831.9574
        40.5004         31.2504
 -35408093.26247 -27547318.09445  20697905.1174                   20697903.6254
        46.0004         35.7504
 -29645402.55547 -23056274.11347  21438935.4694                   21438936.1884
        44.5004         42.7504
 25  7 15  2  9  0.0000000  0  9G01G03G16G09G31G06G07G04G26
  -3083723.97746  -2374407.31244  23996685.5864                   23996685.7194
        40.5004         24.5004
 -31882063.70748 -24791916.87148  20220348.3524                   20220347.6134
        48.7504         50.2504
 -16555845.37147 -11709479.31245  21477858.5004                   21477855.7624
        45.0004         33.2504
   -443464.41846   -309882.30146  23062169.4844                   23062169.8014
        41.5004         36.5004
  -4934813.41847  -3813987.09046  22895812.6334                   22895810.2504
        44.0004         37.7504
  11450669.57445   8955006.71544  24806667.8674                   24806669.3134
        35.0004         28.2504
  15611957.98046  12207218.20745  24686316.0004                   24686317.2664
        40.2504         30.0004
 -33958302.91447 -26417611.31646  20973791.3364                   20973789.6684
        45.7504         36.5004
 -28132922.78947 -21877718.46947  21726750.5704                   21726750.9184
        44.7504         42.2504
 25  7 15  2  9 30.0000000  0  9G01G03G16G09G31G06G07G04G26
  -3082515.12146  -2373465.47744  23996915.6644                   23996916.2894
        39.0004         24.5004
 -31944609.89848 -24840654.18048  20208445.9614                   20208445.6764
        48.5004         50.2504
 -16707410.62547 -11827582.06645  21449016.9924                   21449013.6334
        45.7504         33.5004
   -610054.83646   -439692.95746  23030467.7894                   23030468.6294
        41.2504         36.5004
  -4931547.58647  -3811442.33246  22896434.0784                   22896431.7344
        44.0004         37.0004
  11335782.14145   8865484.04344  24784805.5864                   24784807.4964
        34.0004         27.2504
  15442324.46546  12075036.47345  24654035.2814                   24654037.0904
        40.5004         30.7504
 -34083799.43447 -26515400.80146  20949910.3204                   20949908.8204
        45.2504         36.5004
 -28195291.45347 -21926317.44147  21714882.1954                   21714882.4144
        45.0004         42.7504
 25  7 15  2 10  0.0000000  0  9G01G03G16G09G31G06G07G04G26
  -3081305.59046  -2372523.13343  23997146.4534                   23997146.5594
        38.7504         23.0004
 -32006615.87948 -24888970.53148  20196646.5554                   20196646.2234
        48.0004         50.2504
 -16858478.23847 -11945297.04745  21420269.6644                   21420266.7584
        45.0004         33.0004
   -776637.04747   -569497.23446  22998768.6484                   22998768.7424
        42.0004         36.7504
  -4928197.96547  -3808832.28146  22897071.3444                   22897069.3284
        43.7504         37.2504
  11221386.70745   8776344.74644  24763036.4694                   24763038.7624
        33.5004         27.5004
  15272837.45746  11942968.89145  24621783.9774                   24621784.1484
        41.5004         31.0004
 -34209159.51247 -26613083.96946  20926054.5634                   20926053.2854
        46.0004         36.2504
 -28257088.95347 -21974471.34847  21703122.6884                   21703123.2194
        45.2504         42.2504
