     2.11           OBSERVATION DATA    G (GPS)             RINEX VERSION / TYPE
teqc  2019Feb25                         20250728 22:25:47UTCPGM / RUN BY / DATE
Linux 2.6.32-573.12.1.x86_64|x86_64|gcc -static|Linux 64|=+ COMMENT
BIT 2 OF LLI FLAGS DATA COLLECTED UNDER A/S CONDITION       COMMENT
35163321                                                    MARKER NAME
3321                                                        MARKER NUMBER
-Unknown-           -Unknown-                               OBSERVER / AGENCY
0220413516          TRIMBLE R7          2.32                REC # / TYPE / VERS
-Unknown-           TRM39105.00     NONE                    ANT # / TYPE
 -2410322.3600 -4646317.4510  3633564.1202                  APPROX POSITION XYZ
        0.0000        0.0000        0.0000                  ANTENNA: DELTA H/E/N
     1     1                                                WAVELENGTH FACT L1/2
     7    L1    L2    C1    P1    P2    S1    S2            # / TYPES OF OBSERV
    18                                                      LEAP SECONDS
 SNR is mapped to RINEX snr flag value [0-9]                COMMENT
  L1 & L2: min(max(int(snr_dBHz/6), 0), 9)                  COMMENT
  2025     7    14    22    57    0.0000000     GPS         TIME OF FIRST OBS
                                                            END OF HEADER
 25  7 14 22 57  0.0000000  0  9G01G02G03G08G10G28G31G32G25
   -215378.60557   -139322.50055  22144165.4924                   22144164.2774
        45.5004         31.5004
   -136029.65258    -87645.76656  21391827.3054                   21391823.1644
        48.0004         38.2504
   -227500.07456   -126034.60555  23845680.7504                   23845683.2384
        39.0004         31.5004
    -19278.47756    -10756.54754  24893816.7274                   24893824.0044
        38.2504         27.0004
    -51055.39557    -34739.19156  22492601.2114                   22492602.0984
        46.0004         41.5004
   -146477.05957    -94849.81256  20932779.3284                   20932777.1684
        47.7504         38.0004
   -230983.84458   -148665.86357  21392582.3204                   21392580.4024
        48.5004         43.5004
    -39930.41458    -22862.29357  21940940.8984                   21940940.7384
        48.7504         46.0004
   -163577.64856    -92002.05154  24675728.3594                   24675731.4774
        37.0004         29.5004
 25  7 14 22 57 30.0000000  0  9G01G02G03G08G10G28G31G32G25
   -381914.85247   -269090.96945  22112474.4844                   22112473.4574
        45.5004         31.5004
   -240993.57847   -169435.84846  21371853.2424                   21371849.1054
        47.7504         38.2504
   -408361.12546   -266965.18444  23811263.7664                   23811266.1484
        37.0004         29.7504
    -39156.43446    -26246.10944  24890034.7114                   24890041.8594
        38.7504         26.2504
    -92179.73047    -66784.16846  22484775.5634                   22484776.5634
        46.5004         41.5004
   -259896.42247   -183228.51646  20911195.9924                   20911193.6804
        47.2504         38.0004
   -408566.72747   -287042.06647  21358789.3524                   21358787.6994
        47.2504         43.5004
    -74189.26248    -49557.51647  21934421.4844                   21934421.3204
        48.5004         46.2504
   -295657.74646   -194921.55144  24650593.9144                   24650597.5744
        36.7504         29.5004
 25  7 14 22 58  0.0000000  0  9G01G02G03G08G10G28G31G32G25
   -548498.06247   -398896.02745  22080775.0394                   22080773.3364
        45.0004         32.0004
   -345889.80147   -251173.16846  21351892.3754                   21351888.1094
        47.7504         37.5004
   -589680.32846   -408252.76244  23776759.4304                   23776762.0824
        38.2504         29.5004
    -59492.25446    -42092.46544  24886164.8364                   24886171.9964
        39.0004         26.2504
   -133503.21547    -98984.31646  22476912.3674                   22476913.0744
        46.5004         41.2504
   -373171.51648   -271494.80546  20889640.2034                   20889638.5004
        48.0004         37.7504
   -586164.76248   -425430.08647  21324993.6564                   21324991.7894
        48.2504         43.7504
   -108762.11348    -76497.42247  21927842.4224                   21927842.3754
        48.5004         46.2504
   -427781.23846   -297874.82044  24625451.7894                   24625455.2624
        37.7504         28.0004
 25  7 14 22 58 30.0000000  0  9G01G02G03G08G10G28G31G32G25
   -714992.94147   -528632.26245  22049091.8524                   22049090.4264
        44.5004         32.0004
   -450585.15647   -332753.96946  21331969.4844                   21331965.1414
        47.5004         38.0004
   -771324.09046   -549793.26644  23742194.1564                   23742196.0234
        37.5004         28.7504
    -80156.02746    -58194.37944  24882232.3914                   24882240.7584
        38.0004         25.7504
   -174892.72747   -131235.92246  22469036.0474                   22469037.3284
        46.2504         41.2504
   -486169.02048   -359544.78946  20868137.4224                   20868135.3054
        48.0004         37.5004
   -763642.19548   -563724.11747  21291221.0394                   21291218.8284
        48.5004         43.7504
   -143517.52748   -103579.58647  21921228.8834                   21921228.6524
        49.0004         46.0004
   -559812.82446   -400756.52044  24600326.2894                   24600330.0704
        36.7504         28.5004
 25  7 14 22 59  0.0000000  0  9G01G02G03G08G10G28G31G32G25
   -881360.22347   -658269.07445  22017433.2034                   22017431.8714
        45.0004         32.5004
   -555042.06247   -414148.96146  21312092.0554                   21312087.4804
        47.7504         37.5004
   -953254.82046   -691557.38344  23707573.6884                   23707575.4774
        37.5004         26.5004
   -101113.49246    -74525.12544  24878244.3914                   24878253.1604
        38.0004         27.5004
   -216311.09447   -163510.01246  22461154.4774                   22461155.1254
        45.0004         41.5004
   -598851.53548   -447349.32446  20846694.6804                   20846692.8794
        48.5004         37.5004
   -940959.25448   -701893.19147  21257478.3444                   21257476.1484
        48.2504         44.0004
   -178419.95348   -130776.30147  21914587.1724                   21914587.0434
        48.0004         46.0004
   -691713.33646   -503536.07844  24575226.3054                   24575230.2544
        37.7504         28.0004
 25  7 14 22 59 30.0000000  0  9G01G02G03G08G10G28G31G32G25
  -1047576.50047   -787788.20345  21985803.7664                   21985801.9414
        45.5004         31.5004
   -659239.50048   -495341.76646  21292263.8204                   21292259.3134
        48.0004         36.7504
  -1135450.74246   -833528.13744  23672903.0004                   23672904.6604
        37.2504         26.5004
   -122346.45746    -91070.56244  24874203.9384                   24874212.4924
        38.0004         28.5004
   -257737.05947   -195790.03146  22453271.4694                   22453272.1564
        45.2504         41.2504
   -711197.63347   -534891.71546  20825316.2274                   20825313.4734
        47.5004         38.5004
  -1118092.48448   -839919.01647  21223771.1254                   21223768.9774
        48.5004         44.0004
   -213449.80148   -158072.30947  21907921.4614                   21907920.8244
        49.0004         45.7504
   -823459.43746   -606195.27344  24550156.2114                   24550159.8204
        38.2504         28.0004
 25  7 14 23  0  0.0000000  0  9G01G02G03G08G10G28G31G32G25
  -1213619.47347   -917172.30145  21954206.3754                   21954205.0554
        45.0004         33.0004
   -763157.32047   -576316.69546  21272489.1174                   21272484.5984
        47.0004         37.5004
  -1317891.17246   -975689.40244  23638185.6884                   23638187.4654
        36.5004         28.0004
   -143837.80546   -107817.32844  24870114.9064                   24870123.0044
        39.0004         26.7504
   -299150.45347   -228060.24246  22445390.3754                   22445391.2234
        45.5004         41.2504
   -823187.01648   -622156.14546  20804005.3364                   20804002.7774
        48.0004         38.0004
  -1295019.01248   -977783.77747  21190103.0394                   21190100.5904
        48.0004         44.0004
   -248588.56248   -185453.17247  21901234.3834                   21901234.2894
        48.7504         46.0004
   -955028.90646   -708716.89544  24525119.3054                   24525122.6724
        36.2504         29.2504
 25  7 14 23  0 30.0000000  0  9G01G02G03G08G10G28G31G32G25
  -1379469.82447  -1046406.31245  21922646.4844                   21922644.7154
        45.7504         32.0004
   -866777.69547   -657059.84446  21252770.7894                   21252766.1564
        47.7504         38.0004
  -1500558.44146  -1118027.44144  23603424.8284                   23603426.8834
        37.7504         28.0004
   -165573.60246   -124754.57444  24865979.3524                   24865987.2424
        38.0004         27.0004
   -340534.12147   -260307.29746  22437515.8284                   22437516.2774
        44.5004         41.0004
   -934802.34847   -709129.10946  20782765.1174                   20782763.1954
        47.7504         37.5004
  -1471719.35248  -1115472.28547  21156478.1334                   21156475.6214
        48.7504         44.5004
   -283820.68448   -212906.80147  21894530.5234                   21894529.8404
        48.5004         45.7504
  -1086402.66046   -811085.96945  24500120.0704                   24500123.5864
        37.7504         30.0004
 25  7 14 23  1  0.0000000  0  9G01G02G03G08G10G28G31G32G25
  -1545108.54347  -1175475.40645  21891126.7344                   21891124.6604
        45.2504         31.7504
   -970083.63747   -737557.98046  21233112.4774                   21233108.1844
        47.5004         37.5004
  -1683435.06646  -1260528.60944  23568624.6414                   23568626.3054
        38.2504         27.7504
   -187539.64846   -141871.25044  24861799.2034                   24861807.6414
        37.7504         27.0004
   -381871.05947   -292517.94946  22429649.3914                   22429650.3204
        45.2504         41.2504
  -1046026.54748   -795797.30546  20761600.0234                   20761597.6994
        48.0004         38.0004
  -1648174.18048  -1252969.49647  21122899.6094                   21122897.7194
        49.0004         44.5004
   -319130.80948   -240421.20347  21887811.0474                   21887810.6804
        48.7504         45.7504
  -1217561.55146   -913287.61744  24475160.8364                   24475164.6564
        38.0004         29.7504
 25  7 14 23  1 30.0000000  0 10G01G02G03G08G10G28G31G32G25G04
  -1710519.51647  -1304367.04345  21859649.4774                   21859647.9304
        44.5004         32.2504
  -1073061.26247   -817800.28946  21213515.9144                   21213511.5274
        47.5004         37.7504
  -1866506.53946  -1403181.61344  23533787.6644                   23533789.0354
        37.7504         28.2504
   -209725.14146   -159158.92244  24857576.7424                   24857585.9804
        36.2504         26.2504
   -423147.35947   -324681.34046  22421795.0864                   22421795.4494
        45.5004         41.0004
  -1156845.63348   -882149.81246  20740512.5164                   20740510.0314
        48.2504         37.5004
  -1824367.22348  -1390262.71147  21089371.0164                   21089368.7704
        49.0004         44.2504
   -354506.62148   -267986.78547  21881078.7974                   21881078.7384
        48.0004         45.7504
  -1348489.85246  -1015309.59444  24450246.4534                   24450249.6954
        36.0004         29.5004
   -367961.87555   -243354.38753  24967507.1094                   24967515.2734
        35.5004         18.2504
 25  7 14 23  2  0.0000000  0 10G01G02G03G08G10G28G31G32G25G04
  -1875695.50847  -1433075.56245  21828217.7814                   21828216.0004
        45.2504         32.2504
  -1175705.27747   -897782.64546  21193983.4384                   21193978.9104
        47.0004         38.0004
  -2049767.23046  -1545982.06244  23498913.6564                   23498915.8524
        36.2504         29.2504
   -232127.86746   -176615.86344  24853314.1484                   24853323.0234
        36.5004         25.2504
   -464357.92647   -356793.51646  22413952.9144                   22413953.5314
        43.7504         41.0004
  -1267254.37548   -968182.58246  20719502.1804                   20719499.6994
        48.0004         38.2504
  -2000290.81248  -1527345.96547  21055894.3364                   21055891.6804
        49.0004         44.5004
   -389944.56648   -295600.79347  21874335.2814                   21874335.3364
        48.7504         45.5004
  -1479180.30546  -1117146.23444  24425376.9304                   24425380.2854
        36.2504         29.2504
   -549621.50046   -384907.12942  24932939.9384                   24932945.9184
        36.2504         17.2504
 25  7 14 23  2 30.0000000  0 10G01G02G03G08G10G28G31G32G25G04
   -465200.42647   -333988.45745  22096626.2114                   22096624.1604
        44.5004         32.2504
    297416.36748    250104.34846  21474309.5554                   21474304.8794
        48.0004         38.0004
   -657781.91446   -461318.08244  23763799.7424                   23763802.1954
        36.7504         29.5004
   1320678.25845   1033362.69144  25148803.4534                   25148812.2934
        33.7504         24.7504
   1069927.17647    838753.27346  22705917.6484                   22705918.5044
        45.5004         41.2504
    198179.43848    173713.92246  20998364.4844                   20998362.3874
        48.0004         38.0004
   -600508.21948   -436606.22747  21322263.8444                   21322261.5044
        48.7504         44.5004
   1149983.45748    904343.09847  22167374.0704                   22167373.7704
        48.0004         45.2504
    -34198.17245      8813.94144  24700347.2734                   24700351.3134
        35.5004         29.7504
    844089.53145    701101.77042  25198153.1024                   25198160.0204
        35.2504         17.2504
 25  7 14 23  3  0.0000000  0 10G01G02G03G08G10G28G31G32G25G04
   -629868.11347   -462300.89845  22065290.3914                   22065288.6484
        44.5004         32.5004
    195471.93048    170667.11746  21454910.0164                   21454905.8954
        48.0004         37.7504
   -841387.18046   -604387.01245  23728861.0704                   23728862.8204
        37.0004         30.0004
   1297863.90645   1015584.98044  25144462.7504                   25144471.6254
        33.7504         24.0004
   1028880.13347    806768.51646  22698106.6024                   22698107.4144
        44.7504         41.0004
     88623.56648     88345.72346  20977516.6954                   20977514.5944
        48.0004         37.5004
   -775853.87148   -573239.14147  21288896.5314                   21288894.3754
        49.0004         44.7504
   1114448.54347    876653.53147  22160612.0784                   22160611.9574
        47.7504         45.2504
   -164375.09045    -92622.56644  24675575.9454                   24675578.7814
        35.0004         29.0004
    662334.43845    559474.61742  25163565.0004                   25163573.0864
        33.2504         16.7504
 25  7 14 23  3 30.0000000  0 10G01G02G03G08G10G28G31G32G25G04
   -794255.20747   -590394.69545  22034008.6024                   22034006.7584
        43.7504         32.2504
     93900.50047     91520.53946  21435581.5634                   21435577.2114
        47.7504         37.5004
  -1025140.64546   -747571.43745  23693894.0864                   23693895.5664
        36.5004         30.2504
   1274862.53145    997661.55144  25140086.0474                   25140094.7344
        34.0004         24.0004
    987938.22747    774865.68446  22690315.9224                   22690316.7154
        45.0004         40.7504
    -20482.60948      3327.94946  20956754.8054                   20956752.6994
        49.0004         37.5004
   -950883.60948   -709625.89547  21255589.6334                   21255587.0354
        49.2504         44.7504
   1078886.12147    848942.53147  22153844.6094                   22153844.5514
        47.7504         45.2504
   -294268.93445   -193838.46544  24650857.5164                   24650860.7814
        34.2504         28.5004
    480555.18045    417828.67242  25128974.1954                   25128981.1334
        33.2504         17.2504
 25  7 14 23  4  0.0000000  0 10G01G02G03G08G10G28G31G32G25G04
   -958353.10247   -718263.15245  22002781.9614                   22002780.3794
        45.0004         31.7504
     -7291.32047     12669.76646  21416325.5004                   21416320.8134
        46.5004         37.5004
  -1209035.05946   -890865.67644  23658899.6884                   23658901.5394
        36.5004         29.7504
   1251677.87545    979595.33644  25135673.1644                   25135683.5744
        33.0004         25.0004
    947107.79747    743049.71546  22682546.0394                   22682546.7384
        45.5004         41.2504
   -129132.54748    -81334.32046  20936078.9924                   20936076.6374
        49.5004         37.7504
  -1125588.59448   -845759.59047  21222344.0944                   21222342.0204
        49.5004         44.7504
   1043301.14147    821213.96147  22147073.1174                   22147072.7194
        47.5004         44.7504
   -423871.40645   -294827.29344  24626194.3984                   24626198.3754
        34.2504         27.2504
    298758.39845    276169.09442  25094379.2664                   25094386.3444
        33.2504         16.7504
 25  7 14 23  4 30.0000000  0 10G01G02G03G08G10G28G31G32G25G04
  -1122144.27747   -845892.60245  21971613.7274                   21971611.6884
        45.2504         32.2504
   -108088.00847    -65873.11746  21397144.6334                   21397140.2504
        46.2504         37.5004
  -1393054.53146  -1034257.38745  23623881.7424                   23623883.9964
        37.0004         30.5004
   1228322.18045    961395.81344  25131229.7894                   25131239.0084
        33.7504         25.5004
    906404.39547    711332.73846  22674800.3594                   22674800.9804
        44.5004         41.0004
   -237310.87948   -165629.10946  20915493.5944                   20915491.2624
        48.2504         37.5004
  -1299951.18448   -981626.48447  21189164.3754                   21189161.3954
        49.2504         44.7504
   1007707.52747    793478.65247  22140299.6804                   22140299.3524
        47.5004         44.7504
   -553164.87145   -395575.35544  24601591.4694                   24601594.9184
        33.2504         28.5004
    116959.74245    134508.00843  25059783.6254                   25059791.1054
        33.0004         18.2504
 25  7 14 23  5  0.0000000  0 10G01G02G03G08G10G28G31G32G25G04
  -1285618.56647   -973275.13345  21940505.3524                   21940503.5784
        45.2504         32.5004
   -208481.66047   -144101.93746  21378040.2424                   21378035.9304
        47.2504         37.7504
  -1577190.22346  -1177739.63345  23588841.2894                   23588844.0984
        37.5004         31.2504
   1204800.56346    943067.01644  25126754.7034                   25126763.3634
        37.0004         26.0004
    865835.94947    679720.91046  22667080.7034                   22667081.3754
        44.7504         40.7504
   -345009.57848   -249550.15646  20894998.9694                   20894996.6564
        48.5004         38.0004
  -1473960.68748  -1117218.23847  21156050.9774                   21156048.4574
        49.7504         45.0004
    972111.79747    765741.70747  22133526.3524                   22133526.1414
        47.5004         44.7504
   -682139.71545   -496075.13744  24577047.6884                   24577050.9184
        33.2504         27.2504
    -64832.47345     -7148.02043  25025189.5474                   25025196.7344
        33.5004         19.0004
 25  7 14 23  5 30.0000000  0 10G01G02G03G08G10G28G31G32G25G04
  -1448764.09847  -1100401.48045  21909459.4924                   21909457.9104
        44.5004         32.5004
   -308462.35947   -222008.97746  21359014.8674                   21359010.1644
        46.2504         37.2504
  -1761431.67246  -1321304.30145  23553781.9534                   23553783.3484
        37.5004         32.0004
   1181120.14845    924614.47344  25122247.6884                   25122256.9844
        35.5004         25.5004
    825412.35547    648221.95746  22659388.1884                   22659389.1644
        44.0004         40.5004
   -452218.90248   -333089.87546  20874597.8754                   20874595.7704
        48.0004         38.2504
  -1647605.16848  -1252525.56647  21123007.4064                   21123004.8594
        49.2504         44.7504
    936522.27047    738009.58647  22126753.6254                   22126753.6054
        47.5004         44.5004
   -810783.94145   -596317.29344  24552567.3754                   24552570.4344
        33.2504         27.7504
   -246608.24655   -148791.21552  24990598.8594                   24990606.3054
        31.5004         16.7504
 25  7 14 23  6  0.0000000  0 10G01G02G03G08G10G28G31G32G25G04
  -1611569.67247  -1227262.93445  21878478.8364                   21878477.2774
        44.5004         32.2504
   -408020.88747   -299587.06246  21340069.4224                   21340064.9344
        47.0004         38.0004
  -1945769.18746  -1464943.81645  23518703.6884                   23518705.3594
        38.2504         32.2504
   1157287.00445    906042.90644  25117713.1254                   25117722.0744
        35.5004         26.0004
    785142.59447    616842.86346  22651725.3134                   22651726.1684
        43.5004         40.2504
   -558929.86748   -416241.27046  20854291.5474                   20854289.5594
        48.0004         38.2504
  -1820873.25848  -1387539.59847  21090035.7424                   21090033.1724
        48.7504         45.0004
    900946.58647    710288.26247  22119983.6954                   22119983.7424
        47.5004         44.5004
   -939086.68045   -696293.35944  24528152.1724                   24528155.6054
        33.0004         27.0004
   -428358.31645   -290414.46542  24956012.8054                   24956020.1334
        32.5004         16.7504
 25  7 14 23  6 30.0000000  0 10G01G02G03G08G10G28G31G32G25G04
  -1774027.84047  -1353853.68445  21847563.8204                   21847562.1724
        44.7504         33.2504
   -507152.01248   -376832.09446  21321205.1564                   21321200.4144
        48.2504         37.7504
  -2130196.62546  -1608653.41045  23483608.0234                   23483610.3364
        38.0004         32.7504
   1133303.54345    887354.21544  25113148.2274                   25113158.3054
        33.5004         25.2504
    745032.08247    585587.85946  22644092.5004                   22644093.1884
        43.5004         40.2504
   -665137.19148   -499000.20346  20834081.0704                   20834078.8134
        48.7504         38.5004
  -1993756.89148  -1522254.05947  21057136.8834                   21057134.2894
        49.2504         44.7504
    865388.60947    682580.73447  22113217.4304                   22113217.0164
        47.5004         44.5004
  -1067040.62145   -795997.64544  24503802.8134                   24503806.8484
        32.5004         27.0004
   -610077.14545   -432013.24242  24921432.9774                   24921439.4654
        32.7504         14.7504
 25  7 14 23  7  0.0000000  0 10G01G02G03G08G10G28G31G32G25G04
  -1936130.78147  -1480167.63745  21816717.0784                   21816715.1764
        45.0004         32.0004
   -605849.99647   -453739.62546  21302423.9224                   21302419.2664
        47.0004         38.5004
  -2314707.53946  -1752428.03145  23448496.4384                   23448498.0234
        39.5004         33.0004
   1109172.71545    868550.69544  25108557.9614                   25108566.7504
        32.2504         26.0004
    705086.54347    554461.41446  22636491.0474                   22636491.9264
        43.0004         40.0004
   -770835.27348   -581362.32446  20813967.3134                   20813965.0514
        49.0004         38.5004
  -2166248.37548  -1656662.94547  21024313.0314                   21024310.3794
        49.0004         45.0004
    829852.66447    654890.37947  22106455.2194                   22106454.7814
        46.7504         44.2504
  -1194638.10945   -895424.19144  24479522.6254                   24479525.5124
        32.2504         25.2504
   -791758.72745   -573583.08242  24886859.3054                   24886866.9414
        32.7504         16.2504
 25  7 14 23  7 30.0000000  0 10G01G02G03G08G10G28G31G32G25G04
  -2097865.43447  -1606194.60945  21785940.1094                   21785938.0704
        44.5004         33.0004
   -704104.04748   -530301.21946  21283726.1724                   21283721.9804
        48.0004         38.0004
  -2499290.29746  -1896258.64145  23413371.4844                   23413373.4024
        39.5004         33.5004
   1084902.50845    849638.56643  25103938.2194                   25103948.5984
        30.2504         23.2504
    665316.95347    523472.07846  22628923.0634                   22628923.9304
        43.0004         40.2504
   -876013.25048   -663319.16846  20793952.9304                   20793950.2234
        48.0004         37.7504
  -2338334.39548  -1790755.87947  20991565.9534                   20991563.3554
        48.7504         44.7504
    794348.27747    627224.60947  22099699.1174                   22099698.9304
        47.5004         44.7504
  -1321866.53145   -994563.16044  24455312.6414                   24455314.6334
        32.0004         26.7504
   -973391.83245   -715115.12942  24852295.3754                   24852303.1094
        31.7504         15.5004
 25  7 14 23  8  0.0000000  0 10G01G02G03G08G10G28G31G32G25G04
  -2259218.85947  -1731924.52745  21755235.3444                   21755233.1094
        43.5004         33.0004
   -801903.38747   -606508.50846  21265115.9694                   21265111.4694
        47.5004         37.7504
  -2683933.25446  -2040136.16845  23378235.0864                   23378237.1954
        40.2504         34.7504
                                  25099294.1564                   25099305.7704
        26.7504         23.5004
    625734.12947    492628.27046  22621390.7114                   22621391.7734
        42.7504         40.0004
   -980660.54348   -744862.49246  20774038.8984                   20774036.2664
        48.5004         37.7504
  -2510001.44948  -1924522.35547  20958898.6954                   20958896.2974
        49.0004         45.0004
    758884.82047    599590.73847  22092950.6564                   22092950.1524
        46.2504         44.0004
  -1448712.81255  -1093404.34454  24431173.0704                   24431176.4884
        32.5004         26.0004
  -1154965.44945   -856600.80542  24817743.6804                   24817750.7304
        33.2504         16.7504
 25  7 14 23  8 30.0000000  0 10G01G02G03G08G10G28G31G32G25G04
  -2420176.50447  -1857346.04345  21724605.7504                   21724604.1524
        44.2504         32.7504
   -899235.39547   -682351.64146  21246594.4144                   21246589.7814
        47.5004         37.5004
  -2868623.19546  -2184050.32045  23343090.1564                   23343091.4964
        39.7504         33.7504
   1035977.99255    811514.98454  25094630.7114                   25094639.2544
        33.0004         24.5004
    586350.54347    461939.70346  22613896.5784                   22613897.1804
        42.7504         40.0004
  -1084764.75448   -825982.64546  20754228.7274                   20754226.2584
        48.0004         37.5004
  -2681235.07848  -2057951.09447  20926314.3594                   20926311.3204
        48.7504         45.0004
    723473.40647    571997.41447  22086212.2274                   22086211.4414
        47.0004         44.0004
  -1575162.91445  -1191936.84844  24407111.1884                   24407114.1564
        32.2504         25.2504
  -1336466.91845   -998030.27042  24783205.8984                   24783211.7464
        31.5004         16.2504
 25  7 14 23  9  0.0000000  0 10G01G02G03G08G10G28G31G32G25G04
  -2580734.66447  -1982456.27345  21694052.3674                   21694050.5514
        44.0004         32.5004
   -996098.89847   -757829.69546  21228161.8524                   21228157.3914
        47.7504         37.5004
  -3053357.69546  -2327999.16845  23307935.8674                   23307938.0044
        39.0004         34.7504
   1011332.14145    792310.15643  25089938.3054                   25089949.2934
        30.5004         22.7504
    547167.86747    431407.69546  22606440.5704                   22606441.0354
        43.5004         40.0004
  -1188324.44947   -906678.49246  20734521.3834                   20734519.1724
        47.0004         37.5004
  -2852031.25448  -2191038.94547  20893812.2974                   20893810.1484
        48.5004         45.0004
    688114.34047    544444.88747  22079483.3594                   22079482.8054
        47.0004         44.0004
  -1701213.10945  -1290157.70344  24383124.8364                   24383127.5904
        32.2504         25.5004
                                  24748679.2344                   24748687.7074
        30.5004         14.7504
 25  7 14 23  9 30.0000000  0 10G01G02G03G08G10G28G31G32G25G04
  -2740883.60547  -2107247.63345  21663577.8444                   21663575.8244
        44.2504         32.7504
  -1092486.08247   -832936.60546  21209820.0474                   21209815.2974
        46.2504         37.5004
  -3238128.34846  -2471976.18745  23272775.3984                   23272776.8204
        39.0004         35.0004
    986568.18445    773013.30544  25085228.6414                   25085237.3204
        35.7504         27.2504
    508193.68447    401038.14546  22599023.6094                   22599024.2974
        43.7504         39.7504
  -1291332.19947   -986944.26246  20714919.9224                   20714917.4924
        47.7504         38.2504
  -3022380.09048  -2323778.23047  20861396.5164                   20861393.4454
        48.7504         45.0004
    652813.85247    516937.99247  22072765.9694                   22072765.5634
        47.2504         44.0004
  -1826854.02745  -1388059.66844  24359216.1414                   24359218.5594
        31.5004         25.0004
  -1699240.00045  -1280709.92242  24714170.1884                   24714177.7154
        32.7504         16.7504
 25  7 14 23 10  0.0000000  0 10G01G02G03G08G10G28G31G32G25G04
  -2900622.67647  -2231719.59845  21633180.1564                   21633177.9144
        44.5004         33.5004
  -1188398.73047   -907673.74246  21191568.2894                   21191563.9734
        47.5004         37.0004
  -3422935.69546  -2615981.80145  23237607.7114                   23237608.9884
        40.0004         34.5004
    961682.15245    753621.34044  25080493.0944                   25080502.0664
        35.5004         28.0004
    469426.66847    370830.03946  22591646.6724                   22591647.5004
        43.5004         40.2504
  -1393789.66847  -1066781.22746  20695422.7974                   20695420.0314
        47.5004         38.2504
  -3192280.43448  -2456168.04347  20829065.1414                   20829063.0434
        48.5004         45.2504
    617569.17647    489474.58647  22066059.1644                   22066058.7424
        46.5004         44.0004
  -1952085.25855  -1485642.37554  24335385.9224                   24335387.7344
        33.0004         26.5004
  -1880504.93445  -1421955.04342  24679676.2814                   24679684.3244
        32.5004         16.2504
 25  7 14 23 10 30.0000000  0 10G01G02G03G08G10G28G31G32G25G04
  -1484518.12547  -1128261.48045  21902655.6724                   21902653.9534
        44.5004         32.7504
    291592.61747    245566.25846  21473201.3054                   21473196.6564
        46.5004         37.2504
  -2032346.37546  -1532405.60945  23502227.5784                   23502229.4104
        39.5004         35.5004
   2512098.26245   1961737.44544  25375527.3444                   25375537.9414
        35.7504         27.2504
   2006294.37947   1568389.24646  22884103.0004                   22884104.0274
        43.7504         39.5004
     79732.66447     81418.01246  20975824.8674                   20975822.7734
        46.0004         38.0004
  -1786298.43448  -1360597.58247  21096614.6174                   21096612.1254
        49.2504         45.0004
   2157806.51647   1689659.50047  22359156.1094                   22359156.3554
        47.5004         43.7504
   -501474.40655   -355296.19954  24611426.8134                   24611429.9454
        32.7504         25.5004
   -486256.46945   -335527.38742  24944993.9614                   24944999.9144
        35.0004         17.7504
 25  7 14 23 11  0.0000000  0 10G01G02G03G08G10G28G31G32G25G04
  -1643417.42247  -1252079.09445  21872418.1724                   21872416.2424
        44.5004         33.0004
    196642.82047    171579.39846  21455132.7814                   21455128.4064
        46.5004         37.5004
  -2217210.77046  -1676455.69945  23467048.7734                   23467050.6454
        40.2504         34.7504
   2486973.41446   1942159.46144  25370747.8524                   25370755.6994
        38.0004         26.5004
   1967955.43047   1538514.69146  22876807.4454                   22876808.3134
        43.5004         40.5004
    -21611.14147      2448.84046  20956539.5004                   20956536.9924
        47.5004         38.0004
  -1955281.89848  -1492272.93747  21064458.0944                   21064455.5084
        49.5004         45.2504
   2122683.37147   1662290.79347  22352473.0634                   22352472.7344
        46.7504         43.7504
   -625866.94945   -452225.38344  24587756.5084                   24587758.7774
        32.5004         25.5004
   -667345.45345   -476635.36742  24910533.0554                   24910539.1374
        35.0004         16.7504
 25  7 14 23 11 30.0000000  0 10G01G02G03G08G10G28G31G32G25G04
  -1801887.65647  -1375562.36745  21842262.6174                   21842260.2774
        44.5004         33.5004
    102180.06347     97972.03946  21437157.4304                   21437153.0744
        47.7504         38.0004
  -2402096.25446  -1820522.21145  23431866.9774                   23431868.0594
        39.7504         34.7504
   2461731.08246   1922489.91444  25365943.3984                   25365952.4804
        36.7504         28.0004
   1929836.53947   1508811.60246  22869553.7344                   22869554.4804
        43.2504         39.5004
   -122392.51247    -76082.08246  20937361.5784                   20937359.2074
        47.0004         37.5004
  -2123797.39148  -1623583.63747  21032390.7194                   21032388.1764
        49.2504         45.2504
   2087625.06347   1634972.61747  22345801.5554                   22345801.2194
        46.7504         43.7504
   -749831.46955   -548821.07054  24564166.3134                   24564168.8484
        32.7504         26.5004
   -848340.16846   -617669.95342  24876091.0164                   24876097.2234
        36.0004         17.7504
 25  7 14 23 12  0.0000000  0 10G01G02G03G08G10G28G31G32G25G04
  -1959924.87947  -1498708.22345  21812188.8674                   21812186.7814
        44.7504         33.5004
      8206.46547     24745.85246  21419274.6414                   21419270.0394
        47.2504         37.5004
  -2587000.15646  -1964603.07845  23396680.4064                   23396681.7974
        40.0004         35.0004
   2436370.42246   1902728.08644  25361117.3364                   25361126.3444
        37.5004         28.0004
   1891939.70747   1479281.55946  22862342.3364                   22862343.0044
        43.0004         39.5004
   -222609.75847   -154173.41846  20918290.7034                   20918288.3714
        46.0004         37.7504
  -2291840.69548  -1754526.41447  21000412.7734                   21000410.2854
        48.7504         45.2504
   2052632.28547   1607705.49647  22339142.7814                   22339142.3244
        46.2504         44.0004
   -873364.05155   -645080.16054  24540658.4304                   24540661.7664
        30.5004         25.7504
  -1029238.29746   -758629.21942  24841666.6094                   24841671.9304
        36.5004         16.7504
 25  7 14 23 12 30.0000000  0 10G01G02G03G08G10G28G31G32G25G04
  -2117518.08647  -1621508.09445  21782199.8364                   21782197.8754
        44.0004         32.5004
    -85269.60247    -48092.64846  21401486.8594                   21401482.3714
        47.5004         38.5004
  -2771912.55546  -2108690.57045  23361493.0634                   23361494.1024
        40.0004         35.0004
   2410897.70746   1882878.98844  25356269.9614                   25356279.6604
        36.2504         26.0004
   1854273.78147   1449931.44546  22855174.5944                   22855175.6414
        43.7504         39.7504
   -322254.30147   -231818.50046  20899329.3914                   20899326.9964
        47.7504         37.7504
  -2459400.46548  -1885092.40647  20968527.4304                   20968524.6024
        48.7504         45.2504
   2017712.60947   1580495.34447  22332497.5944                   22332496.9024
        46.2504         43.7504
                                  24517234.5944                   24517237.8554
        31.0004         26.0004
  -1210030.83646   -899506.23843  24807262.8444                   24807268.4344
        36.2504         18.2504
 25  7 14 23 13  0.0000000  0 10G01G02G03G08G10G28G31G32G25G04
  -2274666.07047  -1743961.03145  21752295.3444                   21752293.4694
        44.5004         33.7504
   -178249.09847   -120544.21146  21383793.4614                   21383788.8364
        46.2504         37.7504
  -2956833.42246  -2252784.67245  23326303.5164                   23326304.9924
        39.5004         34.7504
   2385309.34446   1862939.75444  25351401.2274                   25351410.5354
        39.0004         27.7504
   1816837.91447   1420760.57846  22848050.8524                   22848051.8364
        43.5004         39.2504
   -421327.34047   -309018.25046  20880476.3204                   20880473.8204
        47.5004         37.7504
  -2626475.68448  -2015280.82047  20936734.1024                   20936731.0004
        48.5004         45.5004
   1982863.97347   1553340.54747  22325866.5394                   22325866.1564
        46.5004         43.5004
  -1119100.70755   -836563.14554  24493895.8054                   24493898.6884
        31.0004         25.0004
  -1390718.35546  -1040301.41843  24772879.0944                   24772884.3204
        37.5004         19.5004
 25  7 14 23 13 30.0000000  0 11G01G02G03G08G10G28G31G32G25G04G26
  -2431364.50047  -1866063.66445  21722476.8204                   21722474.8094
        44.2504         33.7504
   -270729.81647   -192607.12146  21366194.9384                   21366190.3554
        47.5004         37.2504
  -3141759.41846  -2396882.76245  23291112.9144                   23291114.4414
        39.7504         34.2504
   2359605.00046   1842910.25444  25346509.9844                   25346519.4774
        38.2504         25.7504
   1779634.56347   1391770.90246  22840971.1724                   22840972.2664
        44.0004         39.2504
   -519826.87547   -385771.11746  20861732.1254                   20861730.0314
        46.7504         37.5004
  -2793061.72348  -2145088.06647  20905033.5474                   20905030.7664
        49.2504         45.5004
   1948087.51647   1526241.99647  22319248.3754                   22319248.2814
        46.5004         43.5004
  -1241299.84055   -931783.21154  24470642.7734                   24470645.0984
        31.5004         26.0004
  -1571298.21546  -1181012.73443  24738515.4144                   24738521.1024
        36.7504         18.2504
   2776217.48056   2207279.48054  25210260.8134                   25210271.8834
        37.7504         27.0004
 25  7 14 23 14  0.0000000  0 11G01G02G03G08G10G28G31G32G25G04G26
  -2587614.89547  -1987817.19145  21692743.3204                   21692741.3164
        44.5004         32.7504
   -362715.26247   -264284.09846  21348690.7974                   21348686.1174
        46.5004         37.7504
  -3326693.22346  -2540986.95345  23255921.1334                   23255922.3164
        39.5004         33.5004
   2333778.51246   1822785.40244  25341595.4774                   25341605.4454
        40.0004         26.5004
   1742660.05947   1362959.55146  22833935.6024                   22833936.3284
        44.2504         39.7504
   -617756.87947   -462080.19546  20843096.7974                   20843094.4964
        47.5004         38.5004
  -2959159.60248  -2274514.92647  20873426.2274                   20873423.1374
        49.2504         45.5004
   1913378.34447   1499195.86747  22312643.7974                   22312643.3594
        46.0004         43.7504
  -1363053.21155  -1026655.90654  24447474.2664                   24447476.6454
        31.2504         25.0004
  -1751773.82446  -1321642.79342  24704171.7424                   24704177.1054
        38.0004         17.7504
   2591703.75446   2063503.06344  25175148.3364                   25175159.7114
        38.0004         27.2504
 25  7 14 23 14 30.0000000  0 11G01G02G03G08G10G28G31G32G25G04G26
  -2743413.57847  -2109218.74245  21663095.9774                   21663093.7584
        45.0004         33.2504
   -454204.59847   -335574.50446  21331281.1564                   21331276.3984
        47.7504         37.0004
  -3511632.21546  -2685095.19145  23220728.6334                   23220729.9804
        39.0004         34.0004
   2307828.84446   1802564.68444  25336656.3984                   25336668.3284
        38.2504         26.2504
   1705916.04747   1334327.80546  22826943.1254                   22826944.2154
        43.0004         39.2504
   -715116.12147   -537944.52346  20824569.9924                   20824567.4884
        45.5004         38.0004
  -3124765.90248  -2403558.73447  20841912.3364                   20841909.5864
        49.5004         46.0004
   1878736.94547   1472202.55147  22306051.5474                   22306051.4384
        46.0004         43.7504
  -1484357.56245  -1121178.74643  24424390.2974                   24424392.9144
        31.7504         23.2504
  -1932143.23446  -1462190.08642  24669848.4224                   24669853.2504
        38.0004         17.2504
   2407013.24646   1919588.91444  25140002.4384                   25140013.5554
        38.0004         28.5004
 25  7 14 23 15  0.0000000  0 10G01G02G03G10G28G31G32G25G04G26
  -2898749.94947  -2230260.03945  21633536.3594                   21633534.1414
        45.0004         33.5004
   -545189.31647   -406471.69546  21313967.1094                   21313962.8444
        47.7504         37.2504
  -3696566.80946  -2829200.00045  23185536.6254                   23185538.2584
        39.0004         33.7504
   1669411.09047   1305882.32846  22819996.7274                   22819997.1764
        43.0004         38.5004
   -811896.37947   -613357.69146  20806153.1254                   20806150.9064
        47.2504         37.2504
  -3289869.89848  -2532211.15247  20810493.9774                   20810491.2734
        48.5004         45.7504
   1844170.71547   1445267.80147  22299473.8204                   22299473.3554
        45.7504         43.5004
  -1605202.54345  -1215343.61343  24401395.0634                   24401396.5434
        31.7504         22.7504
  -2112397.72346  -1602647.87542  24635547.0004                   24635552.4144
        38.5004         16.7504
   2222156.95346   1775545.62944  25104824.9774                   25104836.0434
        37.0004         27.0004
 25  7 14 23 15 30.0000000  0 10G01G02G03G10G28G31G32G25G04G26
  -3053623.02047  -2350940.32845  21604064.6884                   21604062.5864
        45.5004         33.5004
   -635670.77348   -476976.73846  21296748.9224                   21296744.1884
        48.0004         37.5004
  -3881497.08746  -2973301.42145  23150346.2424                   23150346.8834
        38.5004         33.0004
   1633144.18447   1277622.33646  22813095.4924                   22813096.4144
        44.2504         38.7504
   -908099.06647   -688320.81246  20787846.7814                   20787843.6454
        47.5004         37.5004
  -3454470.13748  -2660471.02347  20779171.8134                   20779168.6764
        48.2504         45.5004
   1809677.41047   1418389.87947  22292909.8204                   22292909.4774
        47.0004         43.2504
  -1725587.39855  -1309149.95753  24378485.2814                   24378487.8714
        31.2504         22.7504
  -2292537.99746  -1743016.67542  24601268.3284                   24601273.0474
        39.5004         17.2504
   2037136.26646   1631374.23844  25069616.2734                   25069627.6844
        37.0004         27.0004
 25  7 14 23 16  0.0000000  0 10G01G02G03G10G28G31G32G25G04G26
  -3208021.57047  -2471250.86745  21574683.8984                   21574681.6174
        45.5004         33.7504
   -725639.78948   -547082.47346  21279628.4614                   21279624.1374
        48.0004         37.5004
  -4066412.67646  -3117391.41445  23115157.6954                   23115158.4224
        39.5004         33.0004
   1597124.53947   1249555.03146  22806240.8674                   22806241.9884
        43.2504         38.7504
  -1003715.50447   -762827.10546  20769651.1564                   20769648.9384
        46.0004         38.0004
  -3618555.44148  -2788329.64847  20747946.9224                   20747944.6524
        48.2504         45.5004
   1775265.13747   1391575.10247  22286361.3444                   22286361.2774
        47.2504         43.5004
  -1845501.46955  -1402589.44154  24355667.1724                   24355669.6684
        33.5004         25.2504
  -2472554.66846  -1883289.17642  24567011.5944                   24567016.9304
        40.0004         16.7504
   1851962.71146   1487083.74244  25034378.3674                   25034389.1644
        37.5004         27.0004
 25  7 14 23 16 30.0000000  0 10G01G02G03G10G28G31G32G25G04G26
  -3361934.59047  -2591183.04745  21545395.1334                   21545393.1724
        44.7504         33.7504
   -815087.89848   -616782.30946  21262607.1414                   21262602.9614
        48.7504         37.5004
  -4251303.63746  -3261462.23045  23079972.7344                   23079974.5204
        40.0004         33.7504
   1561361.08247   1221687.34046  22799435.1804                   22799436.2974
        43.7504         38.5004
  -1098737.21147   -836869.98046  20751569.4454                   20751566.6294
        46.7504         38.0004
  -3782114.72748  -2915778.39847  20716822.5864                   20716820.1604
        48.5004         45.7504
   1740941.64147   1364829.50047  22279830.1094                   22279829.7344
        47.0004         43.2504
  -1964933.87555  -1495653.61754  24332940.5554                   24332941.9654
        31.2504         24.5004
  -2652438.43046  -2023458.03542  24532779.8204                   24532785.2154
        39.0004         17.2504
   1666647.80146   1342683.12544  24999113.6724                   24999124.0474
        36.2504         28.0004
 25  7 14 23 17  0.0000000  0 10G01G02G03G10G28G31G32G25G04G26
  -3515358.44547  -2710734.07845  21516199.5234                   21516197.3444
        45.7504         33.5004
   -904013.73448   -686075.18046  21245685.1094                   21245680.6914
        48.7504         37.5004
  -4436167.20346  -3405511.68745  23044794.3754                   23044796.5394
        39.0004         33.2504
   1525855.54347   1194020.63346  22792679.5864                   22792679.9964
        44.0004         38.7504
  -1193162.94947   -910448.45346  20733600.3914                   20733598.1134
        47.2504         38.5004
  -3945144.24248  -3042814.32847  20685799.3594                   20685796.2154
        48.0004         46.0004
   1706707.52747   1338153.54747  22273315.2034                   22273315.1374
        46.7504         43.0004
  -2083881.37545  -1588339.93444  24310304.3674                   24310306.9694
        32.5004         24.7504
  -2832187.52046  -2163521.97742  24498573.9454                   24498579.5944
        38.2504         16.2504
   1481195.58645   1198175.53944  24963822.7274                   24963833.5084
        34.5004         27.5004
 25  7 14 23 17 30.0000000  0 10G01G02G03G10G28G31G32G25G04G26
  -3668287.07447  -2829899.21545  21487097.8594                   21487095.9774
        44.7504         33.0004
   -992413.52748   -754958.14146  21228862.9844                   21228858.5554
        48.2504         37.2504
  -4620998.34046  -3549535.86345  23009622.8674                   23009623.7664
        37.7504         33.0004
   1490611.97347   1166558.05546  22785972.4614                   22785973.3244
        43.5004         39.0004
  -1286989.17247   -983559.78146  20715746.0634                   20715743.6884
        46.2504         37.5004
  -4107637.42648  -3169432.34847  20654877.5004                   20654874.9844
        49.0004         46.0004
   1672565.67247   1311549.48047  22266818.5704                   22266818.3794
        47.5004         43.2504
  -2202338.20755  -1680643.92254  24287763.2114                   24287765.5554
        33.0004         25.2504
  -3011797.49646  -2303477.57842  24464396.1804                   24464400.8364
        37.7504         17.2504
   1295612.55545   1053566.02744  24928507.0314                   24928517.4494
        34.0004         27.2504
 25  7 14 23 18  0.0000000  0 10G01G02G03G10G28G31G32G25G04G26
  -3820719.07047  -2948677.37145  21458091.0554                   21458089.0274
        44.7504         33.7504
  -1080288.38348   -823432.05946  21212140.8284                   21212136.6484
        48.0004         37.5004
  -4805796.44946  -3693534.31245  22974456.4774                   22974457.6954
        39.0004         32.2504
   1455629.78547   1139299.13746  22779316.1174                   22779316.7624
        42.5004         38.5004
  -1380216.96547  -1056204.80146  20698005.2504                   20698002.8714
        47.5004         38.0004
  -4269593.05148  -3295631.48847  20624058.7584                   20624055.7274
        48.7504         46.2504
   1638514.45347   1285016.04347  22260339.0314                   22260338.3164
        45.7504         43.5004
  -2320303.39855  -1772564.82454  24265315.6484                   24265317.1724
        33.0004         24.0004
  -3191268.74246  -2443325.03942  24430243.8204                   24430248.2274
        37.0004         16.7504
   1109900.65245    908856.07444  24893166.8444                   24893177.0474
        34.0004         26.7504
 25  7 14 23 18 30.0000000  0 10G01G02G03G10G28G31G32G25G04G26
  -2397225.27347  -1839461.41045  21728972.8984                   21728970.9774
        44.7504         34.0004
    407786.65248    336106.91846  21495312.4694                   21495307.8324
        48.5004         38.0004
  -3415132.15646  -2609899.73045  23239091.2504                   23239092.3594
        39.0004         32.2504
   2996332.19947   2339846.41846  23072501.3914                   23072502.2074
        42.5004         38.2504
    102578.34847     99220.13746  20980172.0704                   20980169.2814
        47.0004         38.0004
  -2855581.64547  -2193804.36347  20893136.1414                   20893133.1214
        47.7504         46.0004
   3179976.00447   2486154.89547  22553669.0234                   22553668.7664
        46.2504         43.0004
   -862349.25455   -636496.62554  24542754.7974                   24542756.8014
        33.7504         25.2504
  -1795172.83645  -1355457.85242  24695911.8674                   24695916.3834
        35.7504         16.2504
   2499490.66045   1991654.08644  25157596.7194                   25157606.7074
        32.7504         24.2504
 25  7 14 23 19  0.0000000  0 10G01G02G03G10G28G31G32G25G04G26
  -2548653.90647  -1957457.72345  21700156.7504                   21700154.9774
        45.0004         33.5004
    320965.12548    268453.77046  21478790.6644                   21478786.2234
        48.0004         37.7504
  -3599856.67246  -2753840.83645  23203938.8674                   23203940.3094
        39.5004         32.5004
   2961876.86747   2312998.05146  23065945.0784                   23065945.7774
        42.5004         38.5004
     10549.96547     27509.72746  20962659.7424                   20962657.1914
        47.0004         38.0004
  -3016451.62947  -2319157.54747  20862523.3674                   20862520.6524
        47.0004         46.2504
   3146106.91047   2459763.36747  22547224.1644                   22547223.9804
        46.2504         43.2504
   -979321.94155   -727644.12954  24520494.8984                   24520497.8554
        33.2504         25.5004
  -1974361.64545  -1495085.21142  24661813.5634                   24661817.5204
        35.0004         15.5004
   2313532.65645   1846752.35544  25122209.4614                   25122219.6564
        32.5004         25.0004
 25  7 14 23 19 30.0000000  0 10G01G02G03G10G28G31G32G25G04G26
  -2699574.98447  -2075058.54345  21671437.3674                   21671435.4454
        45.5004         33.2504
    234672.83248    201213.02046  21462369.7974                   21462365.8554
        48.5004         37.7504
  -3784539.81646  -2897749.69545  23168794.9224                   23168796.2504
        39.5004         33.2504
   2927687.90647   2286357.24646  23059439.2034                   23059440.2194
        43.2504         38.0004
    -80876.68047    -43731.80546  20945261.4694                   20945259.2194
        47.2504         38.0004
  -3176772.75448  -2444083.05547  20832015.1644                   20832012.4734
        48.2504         46.5004
   3112330.25447   2433443.86747  22540796.9144                   22540796.6134
        45.7504         42.7504
  -1095793.18445   -818400.87544  24498330.8834                   24498333.4454
        32.7504         25.0004
  -2153405.95745  -1634600.03942  24627740.8594                   24627745.7974
        34.5004         16.2504
   2127458.53145   1701760.12944  25086800.7274                   25086810.5474
        30.5004         25.0004
 25  7 14 23 20  0.0000000  0 10G01G02G03G10G28G31G32G25G04G26
  -2849985.08247  -2192261.19145  21642815.5554                   21642813.4614
        45.5004         33.0004
    148910.33248    134385.09046  21446050.0314                   21446045.2934
        48.7504         37.2504
  -3969178.94146  -3041624.28145  23133659.4064                   23133660.6884
        39.7504         34.2504
   2893766.78147   2259925.14546  23052984.6334                   23052984.8364
        43.0004         38.2504
   -171700.65647   -114503.72346  20927978.4774                   20927975.7544
        47.0004         37.7504
  -3336541.35948  -2568578.01647  20801612.4224                   20801609.2114
        48.5004         46.2504
   3078646.43447   2407196.70747  22534386.5554                   22534386.3714
        45.2504         42.5004
  -1211759.73455   -908764.39154  24476262.1644                   24476266.3284
        33.2504         25.7504
  -2332304.01245  -1774000.84442  24593697.9534                   24593702.7034
        34.0004         17.2504
   1941271.89554   1556680.25853  25051370.0314                   25051379.5634
        29.5004         22.0004
 25  7 14 23 20 30.0000000  0 10G01G02G03G10G28G31G32G25G04G26
  -2999884.40247  -2309065.84845  21614290.8204                   21614288.7274
        45.7504         33.7504
     63675.35548     67968.22746  21429830.2034                   21429825.7234
        48.7504         37.7504
  -4153774.99246  -3185465.30945  23098532.1954                   23098532.9964
        39.7504         33.0004
   2860111.26247   2233700.00846  23046580.2504                   23046580.3794
        43.7504         38.7504
   -261924.73847   -184808.18046  20910809.2664                   20910806.8094
        47.5004         38.0004
  -3495757.66048  -2692642.61747  20771314.6644                   20771311.5354
        48.2504         46.2504
   3045052.29747   2381019.43447  22527994.0084                   22527993.6844
        46.2504         42.2504
  -1327222.33255   -998735.21154  24454291.7274                   24454294.1334
        33.5004         26.2504
  -2511057.69545  -1913289.15642  24559682.3284                   24559686.9144
        35.0004         16.2504
   1754973.57454   1411513.31653  25015917.9064                   25015927.6214
        29.2504         23.0004
 25  7 14 23 21  0.0000000  0 10G01G02G03G10G28G31G32G25G04G26
  -3149264.05547  -2425465.56245  21585864.7344                   21585862.3404
        46.5004         33.7504
    -21025.61748      1967.46146  21413711.7584                   21413707.5904
        48.7504         37.7504
  -4338319.83646  -3329266.40645  23063413.8754                   23063414.9694
        40.0004         33.5004
   2826728.31347   2207687.25046  23040227.2814                   23040228.3554
        43.2504         38.5004
   -351542.59447   -254640.27046  20893755.5234                   20893753.2074
        47.0004         37.5004
  -3654412.77348  -2816269.93047  20741123.1334                   20741120.1174
        48.0004         46.5004
   3011553.76647   2354916.66047  22521619.5634                   22521619.0704
        46.2504         42.0004
  -1442172.49645  -1088306.74244  24432416.2584                   24432419.5704
        33.5004         24.5004
  -2689659.77745  -2052459.36742  24525694.6724                   24525700.0044
        33.7504         16.7504
   1568572.96144   1266266.69543  24980447.5164                   24980456.1684
        28.5004         22.7504
 25  7 14 23 21 30.0000000  0 10G01G02G03G10G28G31G32G25G04G26
  -3298121.77047  -2541458.56645  21557538.0234                   21557535.9654
        46.2504         32.7504
   -105192.64148    -63617.25046  21397695.5704                   21397691.4104
        48.5004         37.7504
  -4522811.77746  -3473026.23045  23028306.9064                   23028308.0164
        41.0004         35.5004
   2793618.38347   2181887.23046  23033926.7274                   23033927.3164
        44.2504         38.5004
   -440554.54748   -324000.22346  20876816.9614                   20876814.4414
        48.5004         38.0004
  -3812504.20348  -2939458.01247  20711039.1484                   20711036.6724
        48.5004         46.5004
   2978150.19147   2328887.87946  22515262.7734                   22515262.9104
        46.2504         41.7504
  -1556608.11745  -1177477.32844  24410640.2894                   24410643.3204
        32.5004         25.0004
  -2868109.80545  -2191511.07442  24491736.8524                   24491741.9534
        33.5004         17.2504
                                  24944954.4304                   24944965.7774
        28.5004         22.7504
 25  7 14 23 22  0.0000000  0 10G01G02G03G10G28G31G32G25G04G26
  -3446457.35247  -2657044.71545  21529310.7114                   21529308.4384
        46.2504         33.5004
   -188828.05148   -128787.70746  21381780.2114                   21381775.6644
        49.2504         38.2504
  -4707251.53546  -3616745.43045  22993208.8444                   22993209.8364
        40.0004         34.7504
   2760779.54347   2156298.45346  23027677.8984                   23027678.9964
        42.5004         37.5004
   -528963.01648   -392889.93446  20859993.2584                   20859991.1024
        48.0004         38.2504
  -3970031.55548  -3062206.55147  20681063.1174                   20681059.6604
        48.5004         46.5004
   2944838.85247   2302930.96947  22508924.4534                   22508924.0124
        46.5004         42.0004
  -1670529.65245  -1266247.32844  24388962.6724                   24388965.2504
        33.2504         24.5004
                                  24457807.1884                   24457811.9924
        34.0004         17.7504
   1195474.51255    975541.85253  24909446.7504                   24909456.3984
        30.5004         22.5004
 25  7 14 23 22 30.0000000  0 10G01G02G03G10G28G31G32G25G04G26
  -3594267.63747  -2772221.54345  21501183.2584                   21501181.3164
        46.2504         33.2504
   -271931.00848   -193543.27046  21365966.2344                   21365961.8794
        49.2504         38.0004
  -4891636.65446  -3760422.07445  22958120.8754                   22958122.4454
        40.2504         34.5004
   2728213.11347   2130921.95346  23021480.2814                   23021481.5664
        42.0004         37.2504
   -616767.32448   -461308.86346  20843285.0394                   20843282.4694
        48.0004         37.5004
  -4126991.52348  -3184512.97347  20651194.5704                   20651191.6844
        48.0004         46.7504
   2911620.01247   2277046.13347  22502602.9304                   22502602.6294
        46.2504         42.0004
  -1783934.13355  -1354614.42254  24367382.0314                   24367384.6094
        33.7504         24.5004
  -3224556.16045  -2469260.92242  24423908.1804                   24423911.2704
        34.2504         16.7504
   1008781.55955    830067.44153  24873920.3984                   24873929.0784
        31.0004         22.7504
 25  7 14 23 23  0.0000000  0 10G01G02G03G10G28G31G32G25G04G26
  -3741549.66847  -2886986.74645  21473156.3754                   21473154.1994
        46.5004         33.2504
   -354500.92248   -257883.47346  21350254.0864                   21350249.5634
        49.2504         38.0004
  -5075964.60946  -3904054.17645  22923045.3754                   22923045.5634
        41.0004         35.7504
   2695920.15647   2105758.53546  23015336.3524                   23015336.3874
        42.5004         37.7504
   -703967.21148   -529256.81646  20826691.4304                   20826688.9804
        48.7504         38.0004
  -4283381.73448  -3306375.42647  20621434.6024                   20621431.5474
        48.0004         46.5004
   2878493.84847   2251233.51246  22496299.1564                   22496298.6884
        45.7504         41.5004
  -1896819.09445  -1442576.71943  24345901.8524                   24345903.4304
        33.5004         23.2504
  -3402549.66045  -2607956.90243  24390036.1884                   24390039.9184
        35.5004         19.0004
    821997.81345    684522.30944  24838375.7114                   24838385.1564
        32.0004         24.5004
 25  7 14 23 23 30.0000000  0 10G01G02G03G10G28G31G32G25G04G26
  -3888297.68447  -3001335.82845  21445230.8914                   21445229.1334
        46.5004         33.5004
   -436534.44948   -321805.71546  21334643.7424                   21334638.8524
        49.0004         37.7504
  -5260230.44146  -4047637.87145  22887979.8524                   22887981.4414
        40.5004         35.5004
   2663904.50047   2080811.19946  23009242.5864                   23009243.7934
        43.7504         37.7504
   -790559.46948   -596731.30146  20810213.6334                   20810210.5554
        49.2504         38.2504
  -4439195.93048  -3427789.03947  20591784.0554                   20591781.0704
        48.2504         46.7504
   2845463.21947   2225495.33246  22490013.7194                   22490013.3054
        46.5004         41.5004
  -2009179.29345  -1530130.08244  24324519.5704                   24324521.6564
        33.5004         26.5004
  -3580385.51645  -2746530.02343  24356194.6884                   24356198.8134
        35.5004         19.0004
    635129.86745    538911.51244  24802815.9224                   24802824.1094
        34.7504         27.0004
 25  7 14 23 24  0.0000000  0 10G01G02G03G10G28G31G32G25G04G26
  -4034509.61747  -3115267.19145  21417407.5394                   21417405.5394
        47.0004         33.7504
   -518031.85948   -385310.20346  21319135.1724                   21319130.6374
        48.2504         37.7504
  -5444432.57046  -4191171.92246  22852927.9534                   22852928.9804
        40.5004         36.0004
   2632166.33647   2056080.11346  23003204.1254                   23003204.8284
        43.0004         37.0004
   -876544.67247   -663732.74646  20793850.6094                   20793848.3524
        47.0004         38.0004
  -4594431.93748  -3548752.11747  20562243.4144                   20562240.4414
        48.2504         46.7504
   2812527.42647   2199831.04747  22483745.8594                   22483745.6994
        46.0004         42.0004
  -2121012.91845  -1617273.12544  24303236.8284                   24303240.6884
        33.2504         25.7504
  -3758063.32046  -2884980.04743  24322383.6564                   24322387.5594
        36.5004         20.2504
    448180.42245    393237.23844  24767240.1484                   24767249.0984
        35.0004         27.0004
 25  7 14 23 24 30.0000000  0 10G01G02G03G10G28G31G32G25G04G26
  -4180184.31247  -3228779.91845  21389687.0864                   21389684.7624
        46.7504         33.5004
   -598994.50448   -448397.99246  21303728.5784                   21303724.0354
        49.0004         38.2504
  -5628570.37546  -4334655.85546  22817887.5004                   22817888.5944
        41.0004         36.0004
   2600704.84847   2031564.59046  22997216.9384                   22997217.7194
        42.5004         37.5004
   -961924.23448   -730262.27046  20777603.8364                   20777601.0744
        48.2504         37.5004
  -4749088.58648  -3669263.74647  20532813.3134                   20532810.1454
        48.0004         46.7504
   2779684.87547   2174239.42246  22477496.8834                   22477496.0204
        46.0004         41.5004
  -2232319.32445  -1704005.38344  24282057.8834                   24282059.5044
        34.2504         25.2504
  -3935583.44545  -3023307.18043  24288602.7584                   24288606.4774
        35.5004         19.5004
    261151.49646    247500.98044  24731649.5004                   24731657.8444
        38.0004         28.2504
 25  7 14 23 25  0.0000000  0 10G01G02G03G10G28G31G32G25G04G26
  -4325318.55147  -3341871.50045  21362068.9534                   21362066.6214
        46.7504         33.2504
   -679421.42248   -511068.32846  21288423.6484                   21288419.1214
        49.0004         37.7504
  -5812641.18746  -4478087.59846  22782859.8834                   22782860.7544
        41.5004         36.2504
   2569521.41847   2007265.73046  22991282.7194                   22991283.8364
        42.5004         37.7504
  -1046697.60248   -796319.43046  20761471.9384                   20761469.2704
        48.0004         38.5004
  -4903162.68047  -3789321.43047  20503493.9774                   20503491.0044
        47.7504         46.7504
   2746935.98047   2148720.78147  22471264.7504                   22471264.2664
        45.7504         42.0004
  -2343095.64545  -1790324.57444  24260977.3284                   24260980.0594
        33.7504         26.0004
  -4112944.21945  -3161510.14543  24254852.2814                   24254855.1994
        35.7504         19.7504
     74047.21546    101706.00044  24696044.1954                   24696052.3364
        38.2504         28.2504
 25  7 14 23 25 30.0000000  0 10G01G02G03G10G28G31G32G25G04G26
  -4469907.94947  -3454538.55145  21334554.4774                   21334552.3094
        46.5004         34.0004
   -759310.78548   -573319.79746  21273221.1484                   21273216.6684
        48.7504         37.2504
  -5996641.21546  -4621464.17646  22747845.4614                   22747847.0634
        41.7504         36.5004
   2538618.50046   1983185.45346  22985402.4384                   22985403.6994
        41.5004         37.5004
  -1130863.06248   -861902.89846  20745455.6884                   20745453.3834
        48.0004         38.0004
  -5056649.54748  -3908921.54747  20474286.2424                   20474283.5314
        48.2504         46.5004
   2714282.43847   2123276.43046  22465051.1484                   22465050.9264
        46.7504         41.7504
  -2453337.96155  -1876227.66054  24239999.0084                   24240001.7854
        34.0004         25.5004
  -4290142.90246  -3299586.79743  24221131.4694                   24221135.4264
        36.0004         20.2504
   -113127.12146    -44143.59844  24660426.3364                   24660433.5944
        38.5004         26.7504
 25  7 14 23 26  0.0000000  0 10G01G02G03G10G28G31G32G25G04G26
  -4613950.46947  -3566779.44545  21307144.0084                   21307141.7114
        46.7504         33.5004
   -838662.96148   -635152.67646  21258120.9614                   21258116.7194
        48.7504         37.7504
  -6180568.86746  -4764784.36346  22712844.9924                   22712846.2464
        40.5004         36.7504
   2507996.33647   1959323.94146  22979575.1024                   22979576.1844
        43.2504         37.7504
  -1214421.17248   -927013.10946  20729555.0004                   20729552.6764
        48.0004         37.5004
  -5209547.20348  -4028062.53147  20445191.1804                   20445187.8164
        48.7504         46.7504
   2681723.54347   2097905.83246  22458855.1484                   22458855.0904
        47.0004         41.7504
  -2563044.75445  -1961713.45744  24219122.2114                   24219124.8404
        34.0004         26.7504
  -4467179.11746  -3437536.89143  24187443.6724                   24187446.5634
        36.5004         21.0004
   -300368.68746   -190045.61744  24624793.6954                   24624802.0664
        38.5004         27.0004
 25  7 14 23 26 30.0000000  0 10G01G02G03G10G28G31G32G25G04G26
  -3182017.79747  -2450987.73445  21579631.3754                   21579629.3404
        46.5004         34.2504
    657945.71148    531035.87946  21542916.1954                   21542911.7424
        49.2504         38.2504
  -4788994.85546  -3680440.92246  22977652.8204                   22977653.9694
        41.5004         36.0004
   4053077.57846   3163283.27346  23273594.6414                   23273595.3404
        41.5004         37.5004
    278051.70748    235952.78146  21013563.3444                   21013560.9384
        48.0004         38.2504
  -3786427.08248  -2919137.72347  20716001.6804                   20715998.4924
        49.0004         46.5004
   4224681.22347   3300210.49246  22752470.3754                   22752469.9224
        45.0004         41.7504
  -1096789.17245   -819176.59844  24498141.9924                   24498144.0314
        34.2504         26.5004
  -3068624.85946  -2347754.10943  24453578.1884                   24453582.5084
        36.7504         19.7504
   1087753.42146    891608.47244  24888944.2664                   24888952.7344
        39.2504         27.2504
 25  7 14 23 27  0.0000000  0 10G01G02G03G10G28G31G32G25G04G26
  -3324958.64847  -2562370.18745  21552430.6884                   21552428.6724
        46.5004         34.2504
    579668.36747    470040.52046  21528020.5084                   21528016.3014
        47.0004         37.5004
  -4972771.10246  -3823643.13346  22942681.3444                   22942682.5084
        40.5004         36.0004
   4023019.21947   3139861.11346  23267874.3594                   23267875.4654
        42.7504         38.0004
    195708.21947    171789.02746  20997893.8134                   20997891.2274
        46.0004         37.7504
  -3938138.46948  -3037354.34847  20687131.8364                   20687128.6214
        48.7504         46.7504
   4192311.59047   3274987.37147  22746310.6094                   22746310.4574
        46.7504         42.0004
  -1205418.09845   -903822.46544  24477469.9614                   24477472.3244
        34.7504         26.5004
  -3245332.68446  -2485448.29343  24419952.0394                   24419955.7974
        37.5004         20.5004
    900388.30946    745610.18444  24853290.1644                   24853297.4024
        38.2504         25.5004
 25  7 14 23 27 30.0000000  0 10G01G02G03G10G28G31G32G25G04G26
  -3467347.97347  -2673322.88345  21525334.9384                   21525332.6844
        46.7504         33.7504
    501925.83248    409461.90646  21513226.9384                   21513222.2344
        48.5004         37.5004
  -5156471.58246  -3966786.30146  22907724.5004                   22907725.1884
        41.0004         36.2504
   3993240.62947   3116656.94546  23262207.6804                   23262208.8134
        43.5004         37.5004
    113968.75048    108095.94546  20982339.3914                   20982336.9064
        48.7504         37.7504
  -4089256.07848  -3155108.28547  20658374.8594                   20658371.8484
        49.0004         46.7504
   4160033.30547   3249835.43046  22740168.4454                   22740167.9384
        46.5004         41.7504
  -1313508.25045   -988048.52744  24456901.3674                   24456903.6914
        35.0004         26.0004
  -3421877.91446  -2623015.79743  24386356.6024                   24386359.6604
        38.2504         20.7504
    712963.70346    599565.51244  24817623.8834                   24817631.3524
        38.2504         24.5004
 25  7 14 23 28  0.0000000  0 10G01G02G03G10G28G31G32G25G04G26
  -3609180.10547  -2783841.40645  21498345.6174                   21498343.3014
        46.5004         34.0004
    424721.16448    349302.40646  21498534.8594                   21498530.5514
        48.2504         38.5004
  -5340091.02046  -4109866.32446  22872782.4454                   22872783.7274
        41.0004         36.7504
   3963745.63746   3093673.75446  23256595.2584                   23256596.2274
        41.5004         36.7504
     32836.33248     44875.88346  20966900.3284                   20966897.6604
        48.0004         37.2504
  -4239774.26248  -3272395.13747  20629732.5234                   20629729.6134
        48.5004         47.0004
   4127849.44547   3224757.07046  22734044.0704                   22734043.9064
        45.2504         41.5004
  -1421054.20345  -1071850.56244  24436436.1094                   24436438.4924
        34.0004         25.2504
  -3598256.46946  -2760453.37943  24352792.4304                   24352795.6134
        38.5004         20.2504
    525486.24246    453479.63744  24781947.4384                   24781955.0704
        38.7504         24.0004
 25  7 14 23 28 30.0000000  0 10G01G02G03G10G28G31G32G25G04G26
  -3750452.75047  -2893923.97745  21471461.9144                   21471459.9574
        46.7504         33.5004
    348054.10548    289561.82046  21483945.8444                   21483941.4064
        48.0004         37.0004
  -5523627.40246  -4252881.64146  22837857.0944                   22837857.2664
        40.7504         36.2504
   3934534.78546   3070911.96546  23251037.2814                   23251038.0514
        41.5004         38.0004
    -47689.39548    -17871.43446  20951577.0394                   20951574.1684
        49.0004         37.7504
  -4389690.41448  -3389212.88347  20601204.2034                   20601200.6844
        48.0004         47.2504
   4095759.77347   3199752.10247  22727937.0634                   22727936.8244
        45.2504         42.0004
  -1528054.27045  -1155227.22344  24416074.3134                   24416077.1254
        33.7504         25.5004
  -3774467.44946  -2897760.44943  24319260.7814                   24319263.6134
        38.0004         21.7504
    337959.26246    307355.14543  24746262.6724                   24746268.5274
        39.5004         22.5004
 25  7 14 23 29  0.0000000  0 10G01G02G03G10G28G31G32G25G04G26
  -3891163.98047  -3003569.06645  21444685.6334                   21444683.5044
        47.0004         34.2504
    271924.27748    230239.85546  21469459.0784                   21469454.3484
        48.7504         37.0004
  -5707079.13346  -4395830.97346  22802946.9144                   22802948.2034
        41.0004         37.0004
   3905608.18047   3048371.67246  23245532.5394                   23245533.4344
        43.7504         38.0004
   -127609.21947    -80146.61746  20936368.6254                   20936365.7384
        47.7504         37.5004
  -4539002.66048  -3505560.05147  20572791.0864                   20572787.8914
        48.5004         47.0004
   4063763.66447   3174820.03946  22721848.8834                   22721848.6454
        46.2504         41.5004
  -1634506.93445  -1238177.33244  24395817.1024                   24395820.0514
        33.7504         25.7504
  -3950510.54346  -3034936.70343  24285760.5944                   24285763.6994
        38.2504         19.7504
    150385.71146    161194.37143  24710567.7974                   24710574.7504
        38.2504         23.0004
 25  7 14 23 29 30.0000000  0 10G01G02G03G10G28G31G32G25G04G26
  -4031311.61747  -3112775.00445  21418016.3754                   21418014.3164
        46.7504         34.0004
    196331.38348    171336.28546  21455073.9144                   21455069.5944
        48.7504         38.0004
  -5890444.39546  -4538712.93046  22768053.8754                   22768054.4104
        40.5004         36.5004
   3876966.14547   3026053.10946  23240081.7664                   23240083.3754
        43.7504         37.7504
   -206923.60247   -141950.02346  20921275.6024                   20921273.0394
        47.2504         38.5004
  -4687708.85948  -3621434.96547  20544493.5164                   20544489.6604
        49.0004         47.0004
   4031860.77747   3149960.61746  22715777.4694                   22715777.4104
        46.2504         41.7504
  -1740410.45345  -1320699.52044  24375663.9454                   24375666.5274
        34.5004         25.5004
  -4126384.94946  -3171981.53543  24252292.8984                   24252295.9494
        39.0004         21.0004
    -37231.07446     14999.93444  24674865.0394                   24674872.3404
        38.7504         25.7504
 25  7 14 23 30  0.0000000  0 10G01G02G03G10G28G31G32G25G04G26
  -4170892.13747  -3221539.03145  21391455.0704                   21391452.8914
        45.7504         34.0004
    121276.39548    112851.86346  21440791.4454                   21440787.0554
        48.0004         37.0004
  -6073719.84046  -4681524.89146  22733177.4534                   22733178.4654
        41.2504         36.5004
   3848610.43447   3003957.66846  23234685.9844                   23234687.6294
        43.5004         37.2504
   -285631.74647   -203281.03946  20906297.3594                   20906294.9574
        47.2504         37.5004
  -4835805.54748  -3736834.94547  20516310.9064                   20516308.0594
        48.5004         47.0004
   4000052.11747   3125174.62146  22709724.9924                   22709724.8984
        46.2504         41.5004
  -1845761.83245  -1402791.48844  24355617.0864                   24355618.8364
        34.0004         26.7504
  -4302088.72746  -3308893.36743  24218857.3444                   24218860.5514
        38.5004         21.0004
   -224886.44546   -131224.61744  24639155.4614                   24639161.7584
        38.7504         25.0004
 25  7 14 23 30 30.0000000  0 10G01G02G03G10G28G31G32G25G04G26
  -4309901.00447  -3329857.61345  21365002.6484                   21365000.1564
        47.0004         34.5004
     46761.46548     54788.27046  21426612.0944                   21426607.5474
        48.5004         37.2504
  -6256901.20746  -4824263.54746  22698319.6884                   22698320.3594
        41.7504         36.7504
   3820543.75847   2982087.44546  23229345.1724                   23229346.5634
        43.7504         37.5004
   -363731.81647   -264138.23446  20891435.5784                   20891433.1684
        47.5004         37.5004
  -4983287.90648  -3851756.23047  20488246.2504                   20488243.2154
        49.0004         47.0004
   3968339.75047   3100463.65247  22703690.2504                   22703690.1914
        45.7504         42.0004
  -1950557.00445  -1484450.04344  24335673.8754                   24335676.9844
        33.5004         25.7504
  -4477618.73046  -3445669.81243  24185454.8054                   24185457.8134
        37.2504         20.7504
   -412574.73046   -277474.79743  24603438.6564                   24603445.1334
        37.0004         22.7504
 25  7 14 23 31  0.0000000  0 10G01G02G03G10G28G31G32G25G04G26
  -4448340.27747  -3437732.35245  21338658.5164                   21338656.2194
        46.2504         34.5004
    -27217.89848     -2858.00046  21412533.7664                   21412529.3524
        48.5004         37.2504
  -6439990.77746  -4966930.66446  22663477.7894                   22663479.1134
        41.7504         36.5004
   3792762.26247   2960439.43446  23224058.5234                   23224059.7624
        43.2504         37.0004
   -441228.53947   -324525.28146  20876688.9694                   20876685.8054
        47.5004         37.2504
  -5130158.25448  -3966200.62547  20460297.6644                   20460294.4654
        48.5004         47.2504
   3936719.16047   3075824.19146  22697673.4224                   22697673.3954
        45.5004         40.7504
  -2054798.58245  -1565677.23044  24315838.4064                   24315840.5314
        33.7504         25.2504
  -4652978.52346  -3582313.62943  24152084.6724                   24152087.9884
        38.2504         20.7504
   -600296.85946   -423751.36344  24567715.9454                   24567722.8524
        36.5004         25.7504
 25  7 14 23 31 30.0000000  0 10G01G02G03G10G28G31G32G25G04G26
  -4586205.22347  -3545159.57045  21312423.4384                   21312421.2504
        46.7504         34.5004
   -100659.48448    -60085.23046  21398558.8754                   21398553.9884
        48.2504         37.2504
  -6622983.94546  -5109522.67246  22628656.2504                   22628656.7304
        41.5004         37.0004
   3765268.95747   2939015.98046  23218826.5864                   23218828.0234
        43.7504         37.5004
   -518119.82847   -384440.57446  20862056.7344                   20862054.2584
        47.5004         37.5004
  -5276412.26648  -4080164.75047  20432466.5314                   20432463.3524
        49.5004         47.0004
   3905192.66847   3051258.05946  22691674.1254                   22691673.5164
        46.5004         40.7504
  -2158482.22345  -1646469.66444  24296107.9064                   24296110.3954
        34.5004         26.7504
  -4828164.64846  -3718822.12943  24118747.9384                   24118751.0204
        39.5004         22.5004
   -788046.68745   -570049.44144  24531988.1024                   24531995.0554
        34.7504         25.7504
 25  7 14 23 32  0.0000000  0 10G01G02G03G10G28G31G32G25G04G26
  -4723493.96547  -3652137.80145  21286298.5944                   21286296.2624
        46.5004         34.5004
   -173563.80948   -116893.80946  21384685.2274                   21384680.8714
        48.2504         38.0004
  -6805878.98047  -5252038.22346  22593851.8204                   22593852.8554
        42.0004         36.5004
   3738064.02347   2917817.23446  23213650.4844                   23213651.5944
        43.2504         37.7504
   -594406.53547   -443884.75846  20847539.8594                   20847536.8714
        47.5004         37.5004
  -5422047.48848  -4193646.71147  20404752.8284                   20404749.5864
        49.0004         47.2504
   3873759.82047   3026764.90246  22685692.1564                   22685692.4024
        46.2504         41.0004
  -2261606.49645  -1726826.22344  24276483.6334                   24276486.5554
        33.7504         26.7504
  -5003176.69946  -3855194.96143  24085443.8364                   24085447.2504
        39.0004         21.2504
   -975821.24245   -716366.87544  24496255.7424                   24496262.3554
        35.2504         24.2504
 25  7 14 23 32 30.0000000  0 10G01G02G03G10G28G31G32G25G04G26
  -4860204.94147  -3758665.82045  21260283.3984                   21260281.1134
        47.0004         35.0004
   -245931.67248   -173284.37146  21370914.0394                   21370909.8794
        48.0004         36.7504
  -6988674.43446  -5394476.16446  22559067.0864                   22559068.1724
        41.7504         36.2504
   3711147.17647   2896842.97746  23208528.0234                   23208529.1334
        42.5004         37.2504
   -670089.80148   -502858.72746  20833137.9774                   20833135.2814
        48.0004         37.2504
  -5567062.73048  -4306645.56247  20377157.1884                   20377153.9804
        49.0004         47.2504
   3842419.84847   3002344.10546  22679728.6024                   22679728.1334
        45.7504         41.0004
  -2364170.46945  -1806746.18044  24256967.1484                   24256968.8134
        34.2504         25.7504
  -5178014.57046  -3991432.09443  24052173.8444                   24052176.3284
        39.5004         20.2504
  -1163617.65245   -862701.31244  24460518.5234                   24460525.5514
        35.0004         25.7504
 25  7 14 23 33  0.0000000  0 10G01G02G03G10G28G31G32G25G04G26
  -4996332.37547  -3864739.13345  21234378.5234                   21234376.2464
        46.0004         34.5004
   -317759.95747   -229254.48846  21357245.6644                   21357241.3204
        47.7504         37.5004
  -7171364.68747  -5536832.14146  22524302.6484                   22524302.9534
        42.0004         36.7504
   3684522.52347   2876096.42646  23203461.3834                   23203462.8244
        42.5004         36.7504
   -745166.60547   -561360.12546  20818851.3444                   20818848.3834
        47.0004         38.0004
  -5711452.12148  -4419156.74647  20349681.0944                   20349677.8674
        48.7504         47.2504
   3811176.07847   2977998.27746  22673782.7114                   22673782.8954
        46.2504         40.7504
  -2466168.87145  -1886225.42644  24237557.8364                   24237559.4774
        33.0004         24.5004
  -5352673.85546  -4127530.05143  24018937.1334                   24018939.2114
        38.2504         19.2504
  -1351428.91045  -1009047.33644  24424779.3054                   24424786.2274
        33.0004         24.2504
 25  7 14 23 33 30.0000000  0 10G01G02G03G10G28G31G32G25G04G26
  -5131876.78947  -3970358.14545  21208585.1254                   21208583.4654
        46.5004         34.5004
   -389051.63348   -284806.46946  21343679.1954                   21343674.7194
        48.0004         37.2504
  -7353950.28946  -5679106.57446  22489556.8204                   22489557.8204
        41.5004         36.5004
   3658187.77747   2855575.77346  23198450.2114                   23198451.4964
        43.5004         36.5004
   -819640.10247   -619391.42246  20804679.3834                   20804676.7034
        47.5004         37.7504
  -5855215.96948  -4531180.49247  20322323.7584                   20322320.5634
        49.0004         47.5004
   3780025.80147   2953725.29746  22667855.4844                   22667855.2584
        46.0004         41.2504
  -2567602.66445  -1965264.71944  24218256.1334                   24218256.6954
        34.2504         25.7504
  -5527156.43746  -4263490.34843  23985733.9774                   23985735.8404
        38.5004         19.7504
  -1539254.07045  -1155404.16044  24389036.9064                   24389043.6644
        34.0004         26.0004
 25  7 14 23 34  0.0000000  0 10G01G02G03G10G28G31G32G25G04G26
  -5266837.00447  -4075521.93745  21182903.4304                   21182901.1454
        47.2504         34.5004
   -459807.77347   -339941.14546  21330214.7424                   21330210.3794
        47.5004         37.2504
  -7536430.03946  -5821298.51646  22454832.6414                   22454833.3094
        41.5004         36.7504
   3632142.36747   2835280.55146  23193493.8834                   23193495.1564
        43.5004         37.0004
   -893511.78147   -676953.76646  20790621.9534                   20790619.5004
        47.2504         37.2504
  -5998353.14848  -4642715.91847  20295085.5554                   20295082.1684
        49.0004         47.5004
   3748967.89147   2929524.29346  22661945.6414                   22661945.2304
        44.7504         40.2504
  -2668471.13745  -2043863.50844  24199059.0084                   24199062.6724
        33.0004         26.2504
  -5701462.46146  -4399313.03943  23952563.5634                   23952566.3914
        38.2504         19.5004
  -1727090.74645  -1301769.99244  24353292.0704                   24353299.0004
        32.0004         25.7504
 25  7 14 23 34 30.0000000  0 10G01G02G03G10G28G31G32G25G04G26
  -3825787.13347  -2952625.93045  21457126.3134                   21457124.0784
        47.2504         34.7504
   1045392.92248    832942.49246  21616645.1724                   21616640.6724
        48.0004         36.5004
  -6143376.43446  -4735802.14546  22719922.0234                   22719922.7304
        41.7504         37.0004
   5181806.95347   4042811.30946  23488385.5634                   23488387.1954
        43.2504         36.0004
    608639.49248    493553.72346  21076471.5164                   21076469.1484
        48.0004         37.5004
  -4565437.80548  -3526158.47747  20567759.8284                   20567756.8524
        49.2504         47.5004
   5293422.63747   4132995.48846  22955845.7034                   22955845.5044
        45.5004         40.2504
  -1193350.16445   -894418.56644  24479766.4384                   24479768.5084
        33.5004         27.0004
  -4300166.00046  -3307393.52743  24219222.0084                   24219224.9804
        38.2504         20.7504
   -339509.60945   -220537.53144  24617340.5004                   24617346.7504
        31.7504         24.5004
 25  7 14 23 35  0.0000000  0 10G01G02G03G10G28G31G32G25G04G26
  -3959570.28147  -3056872.52345  21431668.3054                   21431666.2854
        46.7504         35.0004
    975709.00447    778643.30946  21603384.6884                   21603380.5594
        47.2504         37.5004
  -6325635.80147  -4877822.36346  22685238.7734                   22685239.9844
        42.0004         36.5004
   5156343.89547   4022969.86745  23483540.5314                   23483541.7734
        43.2504         35.5004
    535971.89148    436929.61746  21062643.5864                   21062640.8484
        48.5004         37.2504
  -4707313.68048  -3636711.07047  20540762.1334                   20540758.9384
        49.5004         47.5004
   5262551.47347   4108940.00046  22949970.5554                   22949970.4454
        45.7504         40.5004
  -1293081.03145   -972130.90644  24460789.0864                   24460790.2464
        32.7504         26.5004
  -4474114.22346  -3442937.41443  24186120.2664                   24186122.7734
        38.5004         19.2504
   -527356.19555   -366911.04354  24581593.7504                   24581600.4304
        32.0004         24.5004
 25  7 14 23 35 30.0000000  0 10G01G02G03G10G28G31G32G25G04G26
  -4092757.99647  -3160655.15645  21406323.4304                   21406321.1994
        46.7504         34.7504
    906564.42247    724764.39146  21590226.9454                   21590222.6954
        47.7504         37.5004
  -6507777.99647  -5019751.28946  22650578.4304                   22650579.3754
        42.0004         37.5004
   5131176.39547   4003358.74245  23478751.0704                   23478752.5394
        44.5004         35.5004
    463909.16447    380776.85246  21048930.6804                   21048927.9104
        47.7504         37.5004
  -4848551.98048  -3746766.85947  20513885.2584                   20513881.8914
        49.0004         47.2504
   5231777.25847   4084960.05546  22944114.4224                   22944114.9184
        45.2504         40.7504
  -1392236.83645  -1049395.15244  24441919.3594                   24441921.6454
        33.0004         26.5004
  -4647878.64846  -3578338.10943  24153054.4844                   24153056.8954
        37.5004         19.5004
   -715198.66445   -513281.40244  24545849.6724                   24545854.5204
        34.0004         26.7504
 25  7 14 23 36  0.0000000  0 10G01G02G03G10G28G31G32G25G04G26
  -4225349.88347  -3263973.49645  21381091.6804                   21381089.9304
        46.2504         35.0004
    837957.18447    671304.19146  21577171.5474                   21577167.3244
        46.2504         36.7504
  -6689802.57047  -5161588.56246  22615939.9144                   22615940.9884
        42.7504         37.5004
   5106303.16447   3983976.93045  23474017.5944                   23474019.0084
        43.7504         35.0004
    392448.98847    325093.59446  21035332.0944                   21035329.7704
        45.7504         37.2504
  -4989152.41048  -3856325.60247  20487129.6094                   20487126.6454
        49.5004         47.5004
   5201098.23047   4061054.28546  22938276.5704                   22938276.7154
        45.2504         40.2504
  -1490817.93445  -1126211.58644  24423159.9384                   24423162.0124
        33.5004         26.7504
  -4821460.12146  -3713596.23843  24120022.7974                   24120025.6294
        36.5004         19.0004
   -903035.22745   -659647.15244  24510102.8284                   24510109.7344
        34.5004         26.7504
 25  7 14 23 36 30.0000000  0 10G01G02G03G10G28G31G32G25G04G26
  -4357344.86747  -3366826.71945  21355974.0864                   21355971.6414
        46.7504         34.7504
    769885.96147    618261.65246  21564217.8984                   21564213.5744
        46.2504         37.2504
  -6871708.25847  -5303333.19546  22581324.7274                   22581325.2704
        42.5004         37.5004
   5081723.66047   3964824.00045  23469340.9924                   23469341.5124
        43.0004         34.5004
    321589.80547    269878.64846  21021848.5004                   21021845.7304
        45.7504         38.0004
  -5129113.65648  -3965386.28147  20460495.9304                   20460493.0314
        49.5004         47.5004
   5170513.39547   4037221.91046  22932456.8834                   22932456.3954
        45.0004         40.5004
  -1588823.65645  -1202579.67644  24404510.6334                   24404512.9774
        34.0004         27.2504
  -4994858.94545  -3848712.02343  24087025.4924                   24087027.8714
        35.2504         18.2504
  -1090863.31645   -806006.27744  24474360.7974                   24474366.8244
        35.5004         28.5004
 25  7 14 23 37  0.0000000  0 10G01G02G03G10G28G31G32G25G04G26
  -4488743.94147  -3469215.59845  21330969.9924                   21330967.5704
        45.2504         34.5004
    702346.99647    565633.86746  21551365.5944                   21551361.0824
        46.7504         37.0004
  -7053496.00047  -5444985.92646  22546731.8834                   22546732.1954
        43.0004         38.0004
   5057435.10247   3945897.78145  23464718.2344                   23464719.7774
        43.0004         34.0004
    251327.77347    215129.01646  21008477.4534                   21008475.0594
        46.0004         37.0004
  -5268437.30148  -4073950.12547  20433983.8594                   20433980.5274
        49.5004         47.5004
   5140019.53947   4013460.42246  22926653.5234                   22926653.8164
        45.7504         40.0004
  -1686255.59045  -1278500.64844  24385969.1094                   24385971.8674
        33.0004         26.7504
  -5168077.34846  -3983687.23442  24054062.6254                   24054065.5634
        37.0004         17.2504
  -1278682.36345   -952358.39844  24438620.6024                   24438625.9804
        35.2504         29.5004
 25  7 14 23 37 30.0000000  0 10G01G02G03G10G28G31G32G25G04G26
  -4619539.29347  -3571134.03545  21306080.3674                   21306077.9964
        45.7504         34.5004
    635345.70747    513425.04746  21538615.5864                   21538611.2774
        46.0004         37.5004
  -7235157.70347  -5586540.43746  22512162.8984                   22512163.3404
        43.7504         37.5004
   5033443.82047   3927203.20345  23460153.1094                   23460154.2344
        42.5004         33.5004
    181668.09447    160848.74246  20995222.2344                   20995219.4494
        45.7504         37.0004
  -5407115.28148  -4182010.86347  20407594.1024                   20407591.0044
        49.5004         47.5004
   5109622.50447   3989774.38746  22920869.4224                   22920869.3714
        45.5004         40.5004
  -1783106.42645  -1353968.82444  24367539.0944                   24367542.0164
        34.0004         26.5004
  -5341108.71546  -4118516.68742  24021135.7504                   24021139.2704
        37.0004         16.7504
  -1466482.96145  -1098696.14544  24402882.3914                   24402888.1214
        35.0004         29.5004
 25  7 14 23 38  0.0000000  0 10G01G02G03G10G28G31G32G25G04G26
  -4749729.87947  -3672581.24245  21281305.8984                   21281303.5784
        45.7504         34.5004
    568880.98448    461634.33246  21525968.3834                   21525963.8054
        48.0004         37.2504
  -7416692.18447  -5727995.82446  22477617.5704                   22477618.1054
        43.2504         37.5004
   5009749.18446   3908739.79345  23455644.2194                   23455645.7704
        41.5004         33.2504
    112609.10547    107036.53546  20982080.5394                   20982078.2304
        46.7504         37.0004
  -5545146.51248  -4289567.62947  20381327.5704                   20381324.3834
        50.0004         47.5004
   5079321.23047   3966162.97346  22915103.5554                   22915103.8364
        45.2504         40.5004
  -1879375.63745  -1428983.77344  24349219.9534                   24349222.3134
        34.2504         25.0004
  -5513953.27046  -4253200.60943  23988244.8284                   23988247.2034
        38.0004         18.5004
  -1654262.55546  -1245017.52045  24367148.5784                   24367154.6524
        36.5004         30.2504
 25  7 14 23 38 30.0000000  0 10G01G02G03G10G28G31G32G25G04G26
  -4879314.41447  -3773556.19145  21256646.6644                   21256644.1844
        45.0004         35.2504
    502951.48847    410260.66846  21513422.3054                   21513417.9804
        47.0004         37.2504
  -7598097.82447  -5869350.82046  22443097.0554                   22443097.8674
        43.5004         38.0004
   4986350.87947   3890507.29745  23451191.5164                   23451193.3954
        42.5004         33.0004
     44149.37947     53691.29346  20969053.2194                   20969050.2894
        46.7504         37.5004
  -5682530.08648  -4396619.73847  20355184.5784                   20355181.1724
        49.2504         47.7504
   5049115.05147   3942625.64546  22909355.3914                   22909355.5634
        45.5004         40.5004
  -1975062.42255  -1503544.90254  24331011.5234                   24331013.4964
        32.7504         25.2504
  -5686610.85946  -4387738.83642  23955388.9144                   23955391.8984
        37.2504         16.2504
  -1842018.16846  -1391320.22345  24331419.6174                   24331425.6844
        37.0004         30.5004
 25  7 14 23 39  0.0000000  0 10G01G02G03G10G28G31G32G25G04G26
  -5008292.57847  -3874058.64845  21232102.8914                   21232100.4614
        46.0004         34.2504
    437555.16847    359302.47746  21500977.8054                   21500973.3524
        46.0004         37.0004
  -7779374.07047  -6010604.97746  22408601.2584                   22408602.2074
        43.2504         37.7504
   4963247.60547   3872504.68045  23446795.1724                   23446796.8014
        42.0004         33.5004
    -23713.44947       811.17246  20956139.2584                   20956136.4024
        45.7504         37.5004
  -5819265.50448  -4503166.78147  20329164.4924                   20329161.1604
        49.5004         47.7504
   5019002.27347   3919161.10946  22903625.3204                   22903625.0664
        45.2504         40.5004
  -2070167.00845  -1577652.36744  24312914.1884                   24312915.8634
        34.0004         26.0004
  -5859082.34846  -4522132.04343  23922568.6564                   23922571.1844
        37.0004         19.0004
  -2029747.80946  -1537602.69945  24295696.5704                   24295701.3754
        37.5004         30.7504
 25  7 14 23 39 30.0000000  0 10G01G02G03G10G28G31G32G25G04G26
  -5136659.19547  -3974084.58645  21207675.5314                   21207672.9924
        46.0004         35.0004
    372694.54347    308761.70746  21488635.0474                   21488630.4224
        47.2504         36.5004
  -7960515.39547  -6151754.00446  22374131.1724                   22374132.2274
        43.0004         38.0004
   4940442.93846   3854734.74645  23442456.0084                   23442457.4144
        41.2504         33.5004
    -90976.94547    -51601.94946  20943339.6724                   20943336.8244
        47.5004         37.5004
  -5955347.71948  -4609204.84047  20303268.8364                   20303265.6954
        49.5004         47.7504
   4988986.17247   3895771.89546  22897913.4844                   22897913.3134
        45.5004         40.0004
  -2164685.01645  -1651302.77044  24294926.8284                   24294929.5274
        32.2504         26.0004
  -6031363.80146  -4656377.16042  23889784.1414                   23889786.7544
        37.5004         17.7504
  -2217444.71546  -1683859.67245  24259978.2974                   24259983.5084
        38.2504         30.2504
 25  7 14 23 40  0.0000000  0 10G01G02G03G10G28G31G32G25G04G26
  -5264412.73047  -4073632.77345  21183364.7504                   21183362.1644
        46.0004         34.5004
    308368.84047    258637.75446  21476394.2664                   21476390.0314
        46.7504         36.5004
  -8141520.00847  -6292796.50446  22339687.4614                   22339688.0394
        43.5004         38.7504
   4917936.84846   3837197.46945  23438173.0394                   23438174.5784
        41.0004         33.0004
   -157642.26647   -103548.94546  20930653.3204                   20930650.7974
        47.5004         37.0004
  -6090775.39548  -4714732.87547  20277497.8284                   20277494.5044
        48.5004         47.5004
   4959066.28147   3872457.65646  22892219.6484                   22892219.7344
        45.5004         40.5004
  -2258615.18445  -1724495.11744  24277053.0394                   24277055.2034
        34.7504         26.0004
  -6203454.89846  -4790473.96143  23857036.3054                   23857038.8204
        38.2504         18.2504
  -2405105.61346  -1830088.60545  24224267.1724                   24224272.3634
        38.5004         31.0004
 25  7 14 23 40 30.0000000  0 10G01G02G03G10G28G31G32G25G04G26
  -5391550.60947  -4172701.25045  21159171.3444                   21159169.0634
        45.7504         34.5004
    244578.12147    208930.68046  21464255.3524                   21464251.0634
        46.2504         36.7504
  -8322384.91847  -6433730.14546  22305269.3754                   22305270.2774
        43.5004         38.5004
   4895730.29346   3819893.56645  23433947.6254                   23433949.2344
        41.0004         33.0004
   -223709.55947   -155029.95746  20918081.1174                   20918078.5824
        46.5004         36.7504
  -6225545.94548  -4819748.86747  20251851.8594                   20251848.7344
        49.5004         47.7504
   4929243.25847   3849218.89846  22886544.9144                   22886544.6764
        45.2504         40.5004
  -2351955.57845  -1797227.88744  24259290.3134                   24259293.1764
        33.7504         27.0004
  -6375354.16046  -4924421.29743  23824325.0234                   23824327.4964
        38.0004         19.2504
  -2592726.23846  -1976286.16044  24188563.6254                   24188568.9804
        38.0004         29.7504
 25  7 14 23 41  0.0000000  0 10G01G02G03G10G28G31G32G25G04G26
  -5518074.12947  -4271290.99245  21135094.2114                   21135092.5124
        46.0004         34.5004
    181319.04747    159637.86346  21452217.5704                   21452213.2894
        46.0004         36.7504
  -8503111.00847  -6574555.61346  22270878.3524                   22270879.3594
        43.0004         38.5004
   4873820.48846   3802820.89545  23429778.2974                   23429779.7814
        41.2504         33.5004
   -289182.75447   -206048.02746  20905622.0004                   20905619.2234
        45.7504         37.7504
  -6359660.80148  -4924253.91848  20226330.8984                   20226327.0984
        49.0004         48.0004
   4899514.05147   3826053.23846  22880887.7274                   22880887.5044
        45.5004         39.7504
  -2444708.05545  -1869502.54344  24241639.8914                   24241642.8794
        33.5004         26.0004
  -6547063.89846  -5058220.91443  23791649.3444                   23791652.0904
        38.2504         20.0004
  -2780305.97746  -2122451.86345  24152868.7194                   24152873.5004
        38.0004         30.5004
 25  7 14 23 41 30.0000000  0 10G01G02G03G10G28G31G32G25G04G26
  -5643982.41847  -4369401.34045  21111134.9534                   21111132.6884
        46.0004         34.2504
    118589.59047    110757.73446  21440280.6644                   21440276.0864
        46.7504         36.5004
  -8683697.01247  -6715271.92246  22236513.9224                   22236514.7114
        43.2504         37.7504
   4852206.70346   3785978.89545  23425665.5634                   23425667.0554
        41.2504         34.0004
   -354063.74247   -256604.64846  20893275.6484                   20893272.8594
        46.0004         38.0004
  -6493119.20348  -5028247.45747  20200934.3284                   20200930.8834
        49.0004         47.7504
   4869877.62947   3802959.88346  22875247.7274                   22875247.7074
        44.5004         39.7504
  -2536872.27745  -1941318.80544  24224103.0084                   24224104.5274
        32.7504         26.5004
  -6718584.45346  -5191873.14143  23759009.7424                   23759012.2274
        38.7504         20.2504
  -2967842.35946  -2268583.78144  24117180.9304                   24117185.9104
        38.5004         29.2504
 25  7 14 23 42  0.0000000  0 10G01G02G03G10G28G31G32G25G04G26
  -5769271.03147  -4467028.82445  21087293.3054                   21087291.0004
        46.0004         34.5004
     56391.97747     62292.03146  21428444.8204                   21428440.6054
        46.5004         36.2504
  -8864137.94147  -6855875.18746  22202177.5084                   22202177.7664
        43.2504         38.0004
   4830892.01246   3769369.94945  23421609.4924                   23421611.2624
        41.0004         34.5004
   -418350.72747   -306698.40646  20881042.2504                   20881039.7074
        46.2504         36.7504
  -6625916.84048  -5131726.10547  20175663.5394                   20175660.1954
        49.0004         47.7504
   4840336.63747   3779940.89546  22869626.3594                   22869626.5474
        45.0004         39.2504
  -2628444.41445  -2012673.70744  24206676.8284                   24206679.1804
        32.7504         27.7504
  -6889912.47346  -5325375.32443  23726407.7424                   23726409.7234
        38.7504         20.5004
  -3155328.95346  -2414676.92245  24081503.6334                   24081508.1564
        38.0004         30.7504
 25  7 14 23 42 30.0000000  0 10G01G02G03G10G28G31G32G25G04G26
  -4318513.45747  -3336568.36345  21363362.9694                   21363360.9454
        45.2504         34.2504
   1570147.96947   1241842.12146  21716503.0394                   21716498.9614
        46.0004         36.2504
  -7469004.98447  -5768758.53946  22467662.5314                   22467662.7344
        42.0004         38.7504
   6385297.83647   4980595.16845  23717403.1174                   23717404.6914
        42.0004         34.5004
   1093378.05947    871272.07846  21168714.8594                   21168712.1844
        46.0004         37.0004
  -5182626.90648  -4007084.57048  20450312.5944                   20450309.3324
        49.2504         48.0004
   6386312.70347   4984597.53146  23163815.7274                   23163815.9224
        44.7504         40.0004
  -1143999.62945   -855963.48044  24489156.9224                   24489159.7814
        32.7504         27.2504
  -5485620.94546  -4231122.01243  23993635.6334                   23993638.1414
        39.0004         21.0004
  -1767335.28546  -1333123.10945  24345630.6254                   24345634.3244
        39.0004         31.0004
 25  7 14 23 43  0.0000000  0 10G01G02G03G10G28G31G32G25G04G26
  -4442557.10947  -3433225.75045  21339758.7504                   21339756.7504
        45.5004         34.2504
   1509012.16447   1194203.80946  21704869.2274                   21704864.9224
        47.5004         36.5004
  -7649148.73447  -5909130.22746  22433382.2114                   22433382.5864
        43.2504         38.5004
   6364582.18046   4964452.98445  23713461.2894                   23713463.1094
        41.5004         35.7504
   1030276.57047    822102.08646  21156707.0394                   21156704.0704
        47.0004         37.7504
  -5314097.58648  -4109529.22748  20425294.2974                   20425291.1604
        49.7504         48.0004
   6356962.95347   4961727.56646  23158230.7814                   23158231.0084
        44.5004         39.5004
  -1234383.57845   -926392.53544  24471958.0944                   24471960.3554
        33.0004         26.0004
  -5656561.40646  -4364322.20743  23961106.3984                   23961108.6334
        39.2504         22.2504
  -1954711.17246  -1479130.00445  24309973.4384                   24309977.4224
        39.5004         30.5004
 25  7 14 23 43 30.0000000  0 10G01G02G03G10G28G31G32G25G04G26
  -4565977.39547  -3529397.39545  21316272.3674                   21316270.3014
        46.0004         34.5004
   1448404.75447   1146977.22346  21693336.0864                   21693331.6134
        46.0004         36.0004
  -7829142.15647  -6049384.78146  22399130.7114                   22399130.8444
        42.2504         38.5004
   6344164.75047   4948543.19545  23709575.9774                   23709577.3914
        42.5004         35.5004
    967764.77347    773391.59046  21144811.0234                   21144808.7624
        46.0004         37.5004
  -5444903.98848  -4211456.27048  20400402.8594                   20400399.6564
        48.2504         48.0004
   6327707.16447   4938930.80546  23152663.4144                   23152663.7544
        44.2504         39.2504
  -1324173.46945   -996358.69544  24454871.7424                   24454873.7544
        32.0004         25.5004
  -5827308.80146  -4497371.97743  23928613.8754                   23928616.3054
        40.0004         22.5004
  -2142027.87646  -1625090.79744  24274327.7194                   24274332.2384
        38.0004         28.5004
 25  7 14 23 44  0.0000000  0 10G01G02G03G10G28G31G32G25G04G26
  -4688772.50847  -3625081.89145  21292905.5314                   21292903.5594
        45.2504         35.0004
   1388324.63747   1100161.52046  21681903.0864                   21681898.9964
        47.0004         37.0004
  -8008982.89547  -6189520.37146  22364907.6094                   22364907.9964
        43.5004         38.5004
   6324045.79747   4932865.99245  23705747.4454                   23705749.3204
        42.2504         35.7504
    905841.72347    725139.86346  21133027.5864                   21133025.1954
        46.2504         37.5004
  -5575044.55148  -4312864.47348  20375637.6724                   20375634.9734
        48.0004         48.0004
   6298545.37947   4916207.29746  23147114.1174                   23147114.4384
        44.7504         39.2504
  -1413367.96945  -1065860.92244  24437898.1884                   24437900.1484
        32.7504         25.5004
  -5997862.23446  -4630270.60543  23896158.9614                   23896160.8834
        40.0004         22.5004
  -2329281.86346  -1771002.72344  24238693.8364                   24238698.4964
        38.0004         29.5004
 25  7 14 23 44 30.0000000  0 10G01G02G03G10G28G31G32G25G04G26
  -4810941.60547  -3720278.57845  21269657.2274                   21269654.7424
        46.0004         34.5004
   1328770.74248   1053755.85946  21670570.4534                   21670566.2194
        48.0004         36.7504
  -8188669.45747  -6329535.81646  22330714.8834                   22330715.1764
        42.5004         38.7504
   6304224.82447   4917420.97746  23701975.5634                   23701977.8984
        43.0004         36.5004
    844505.57447    677345.46946  21121355.7894                   21121353.1334
        47.5004         37.2504
  -5704518.68448  -4413753.37948  20350999.8284                   20350996.4654
        48.2504         48.0004
   6269476.84447   4893556.44546  23141583.0784                   23141583.1134
        44.5004         39.5004
  -1501966.87955  -1134899.05554  24421038.4304                   24421040.4184
        32.2504         24.5004
  -6168222.02346  -4763018.34043  23863740.4454                   23863741.9024
        39.2504         22.5004
  -2516470.16446  -1916863.48044  24203073.1804                   24203077.4344
        39.0004         29.2504
 25  7 14 23 45  0.0000000  0 10G01G02G03G10G28G31G32G25G04G26
  -4932478.41047  -3814982.58245  21246529.6334                   21246527.5204
        46.0004         35.0004
   1269746.87147   1007763.20345  21659338.5084                   21659334.5864
        47.2504         35.7504
  -8368194.88347  -6469425.69546  22296551.8054                   22296552.5594
        42.5004         39.0004
   6284706.64547   4902211.90246  23698261.8134                   23698263.6454
        43.2504         36.7504
    783760.01247    630011.25446  21109796.3914                   21109793.4384
        47.7504         36.7504
  -5833320.12948  -4514118.11748  20326489.8754                   20326486.6374
        48.2504         48.0004
   6240506.19147   4870981.86746  23136069.9774                   23136069.8284
        44.0004         39.0004
  -1589964.37545  -1203468.52344  24404293.7974                   24404295.2464
        32.0004         26.5004
  -6338382.73046  -4895610.94943  23831359.3984                   23831361.4304
        39.5004         22.7504
  -2703584.49246  -2062666.60544  24167466.7274                   24167470.7894
        39.2504         27.7504
 25  7 14 23 45 30.0000000  0 10G01G02G03G10G28G31G32G25G04G26
  -5053386.33647  -3909196.54745  21223521.5784                   21223519.8444
        45.2504         35.0004
   1211247.00847    962178.85945  21648206.7894                   21648202.0864
        47.0004         35.7504
  -8547561.91047  -6609192.16446  22262419.6094                   22262419.9964
        42.5004         39.0004
   6265486.34447   4887234.94546  23694603.8444                   23694605.7154
        43.0004         36.7504
    723598.93447    583132.50046  21098348.2584                   21098345.2894
        47.0004         37.0004
  -5961452.44148  -4613961.44948  20302106.9844                   20302103.5704
        49.0004         48.0004
   6211628.45347   4848479.69546  23130574.6644                   23130574.6524
        43.5004         39.2504
  -1677364.60945  -1271572.60944  24387661.4454                   24387663.2274
        32.2504         26.7504
  -6508348.74246  -5028051.86343  23799016.3204                   23799017.7304
        39.5004         22.0004
  -2890626.23446  -2208413.18744  24131873.2974                   24131877.6214
        38.7504         27.2504
 25  7 14 23 46  0.0000000  0 10G01G02G03G10G28G31G32G25G04G26
  -5173662.60947  -4002918.31245  21200634.0394                   21200631.6524
        46.2504         35.2504
   1153271.35547    917002.99646  21637174.4844                   21637170.2304
        47.2504         36.5004
  -8726767.08247  -6748832.50446  22228317.9614                   22228318.6994
        42.5004         39.7504
   6246565.37947   4872491.23046  23691003.7424                   23691005.7034
        43.5004         37.2504
    664022.46147    536709.27346  21087010.7734                   21087008.5704
        47.2504         36.5004
  -6088912.83248  -4713281.21948  20277851.8284                   20277848.5594
        48.7504         48.0004
   6182844.82847   4826050.85246  23125098.0084                   23125097.4224
        44.5004         38.5004
  -1764165.32045  -1339209.53544  24371143.7974                   24371145.9454
        32.2504         26.7504
  -6678118.30946  -5160339.69143  23766709.9064                   23766711.5634
        39.0004         22.2504
  -3077590.57446  -2354099.48844  24096295.1724                   24096298.7734
        37.0004         25.2504
 25  7 14 23 46 30.0000000  0 10G01G02G03G10G28G31G32G25G04G26
  -5293303.32847  -4096144.84045  21177867.0004                   21177865.0354
        46.7504         34.5004
   1095821.77047    872237.05546  21626242.0234                   21626237.6914
        45.7504         36.2504
  -8905805.66847  -6888343.05546  22194248.0084                   22194248.2704
        43.0004         39.2504
   6227946.12147   4857982.61746  23687460.6484                   23687462.9534
        43.2504         37.7504
    605031.76247    490742.48846  21075785.1954                   21075782.6454
        45.7504         36.7504
  -6215697.79748  -4812074.67248  20253725.8364                   20253722.0864
        48.2504         48.2504
   6154157.64847   4803697.16446  23119638.8204                   23119638.8954
        44.5004         39.2504
  -1850363.18045  -1406376.69944  24354739.5554                   24354743.3444
        32.0004         25.7504
  -6847688.41046  -5292472.07843  23734441.2114                   23734443.3524
        39.0004         22.0004
  -3264471.48846  -2499720.75844  24060732.2194                   24060736.5984
        37.0004         26.7504
 25  7 14 23 47  0.0000000  0 10G01G02G03G10G28G31G32G25G04G26
  -5412309.51247  -4188876.93445  21155220.6024                   21155218.5204
        46.7504         35.5004
   1038894.89147    827878.41846  21615409.2344                   21615404.7854
        47.0004         36.0004
  -9084677.93747  -7027723.99646  22160209.6334                   22160210.4964
        43.2504         39.2504
   6209626.28547   4843707.30946  23683974.9614                   23683976.6994
        42.7504         37.0004
    546623.31348    445229.40646  21064670.8524                   21064668.0594
        48.0004         36.7504
  -6341808.40248  -4910342.64848  20229727.7194                   20229724.1334
        49.0004         48.0004
   6125564.50047   4781416.73846  23114197.9454                   23114197.6764
        44.5004         38.2504
  -1935959.69145  -1473075.29344  24338451.3594                   24338454.6884
        31.5004         24.5004
  -7017060.90646  -5424450.50443  23702211.3524                   23702212.6214
        39.2504         23.2504
  -3451267.89846  -2645276.18744  24025186.0864                   24025189.9264
        37.5004         26.2504
 25  7 14 23 47 30.0000000  0 10G01G02G03G10G28G31G32G25G04G26
  -5530677.05147  -4281111.38345  21132695.9534                   21132693.8524
        46.7504         35.0004
    982492.17647    783928.21545  21604676.0234                   21604671.6954
        46.7504         35.7504
  -9263378.98447  -7166971.52746  22126204.1094                   22126204.4344
        42.5004         39.5004
   6191608.55147   4829667.41446  23680546.1564                   23680548.0664
        43.5004         36.7504
    488798.48047    400171.09046  21053666.9064                   21053664.3094
        47.0004         36.7504
  -6467240.59048  -5008081.99648  20205858.4774                   20205854.9924
        48.7504         48.0004
   6097067.93047   4759211.57046  23108774.9694                   23108774.9344
        44.5004         39.0004
  -2020951.45745  -1539302.63344  24322279.0784                   24322281.3404
        31.5004         24.5004
  -7186232.58246  -5556272.45343  23670018.2974                   23670019.9344
        39.5004         23.7504
  -3637973.49245  -2790760.85944  23989657.1024                   23989660.5744
        35.2504         26.2504
 25  7 14 23 48  0.0000000  0 10G01G02G03G10G28G31G32G25G04G26
  -5648405.80547  -4372848.07445  21110293.1484                   21110290.9264
        46.5004         35.0004
    926611.47747    740384.78145  21594042.0004                   21594037.8244
        45.7504         35.7504
  -9441907.73047  -7306084.79746  22092231.0864                   22092231.6174
        43.0004         39.7504
   6173891.69547   4815861.96946  23677174.7894                   23677176.7464
        42.5004         36.7504
    431554.84047    355565.65246  21042773.9614                   21042771.3984
        45.7504         36.5004
  -6591994.25448  -5105292.61348  20182118.7584                   20182115.4654
        49.0004         48.2504
   6068666.74247   4737080.72746  23103370.2894                   23103370.3014
        43.5004         39.0004
  -2105338.83645  -1605059.04744  24306220.5784                   24306222.7304
        30.5004         24.7504
  -7355204.19946  -5687938.50843  23637864.2894                   23637866.2234
        40.2504         22.7504
  -3824585.88345  -2936172.91044  23954146.3204                   23954149.6994
        34.7504         26.2504
 25  7 14 23 48 30.0000000  0 10G01G02G03G10G28G31G32G25G04G26
  -5765496.42647  -4464087.52045  21088011.7194                   21088009.4144
        47.0004         35.2504
    871249.77747    697245.75846  21583507.1254                   21583503.0984
        47.0004         36.0004
  -9620264.07847  -7445063.73846  22058291.4384                   22058291.5514
        43.7504         39.2504
   6156473.62147   4802289.33246  23673860.4224                   23673862.3054
        42.5004         36.7504
    374889.03947    311410.47746  21031990.7664                   21031988.1454
        46.2504         36.7504
  -6716070.47348  -5201975.36348  20158507.9384                   20158504.5204
        49.0004         48.5004
   6040358.80947   4715022.54746  23097983.5554                   23097983.8914
        43.5004         38.7504
  -2189123.23445  -1670345.60243  24290276.6484                   24290278.9734
        30.2504         23.2504
  -7523977.27346  -5819449.87144  23605747.7424                   23605748.5824
        41.0004         24.0004
  -4011103.70345  -3081511.23844  23918652.4774                   23918656.6254
        35.0004         25.7504
 25  7 14 23 49  0.0000000  0 10G01G02G03G10G28G31G32G25G04G26
  -5881942.48447  -4554824.71145  21065852.5234                   21065849.9614
        47.5004         35.0004
    816411.35947    654514.48845  21573072.0944                   21573067.3714
        47.5004         35.5004
  -9798440.53947  -7583902.51246  22024384.6254                   22024385.3874
        42.5004         39.7504
   6139359.64146   4788953.64546  23670603.8984                   23670605.6254
        41.0004         36.5004
    318804.99247    267708.61746  21021318.3204                   21021315.9344
        47.2504         37.0004
  -6839463.00048  -5298125.36348  20135027.0004                   20135023.6024
        48.5004         48.5004
   6012149.30547   4693041.07846  23092615.4924                   23092615.5234
        43.5004         39.5004
  -2272298.57445  -1735157.55944  24274449.7504                   24274451.6644
        31.0004         25.2504
  -7692546.13746  -5950802.05944  23573669.8524                   23573671.8954
        41.2504         24.7504
  -4197518.06645  -3226768.98844  23883178.9064                   23883182.7974
        35.5004         27.5004
 25  7 14 23 49 30.0000000  0 10G01G02G03G10G28G31G32G25G04G26
  -5997746.77047  -4645061.82445  21043815.8594                   21043813.9384
        47.0004         35.0004
    762090.59447    612186.58645  21562734.9614                   21562731.0744
        47.5004         35.5004
  -9976438.96947  -7722602.54746  21990513.2034                   21990513.6684
        43.2504         39.7504
   6122545.53946   4775851.62546  23667404.0554                   23667406.3324
        41.7504         36.0004
    263297.26647    224455.83646  21010755.5234                   21010752.8444
        47.7504         36.7504
  -6962174.47348  -5393744.67248  20111675.8204                   20111672.3914
        49.5004         48.5004
   5984033.98847   4671132.99246  23087265.5474                   23087265.4024
        44.0004         39.0004
  -2354868.41845  -1799497.72344  24258737.6724                   24258739.1174
        30.5004         24.5004
  -7860914.35546  -6081997.94543  23541630.5084                   23541631.8874
        41.0004         23.0004
  -4383829.53146  -3371946.55144  23847724.8594                   23847728.8634
        36.7504         27.7504
 25  7 14 23 50  0.0000000  0 10G01G02G03G10G28G31G32G25G04G26
  -6112904.68447  -4734795.27045  21021902.0554                   21021900.0274
        46.5004         35.2504
    708290.11347    570264.09846  21552497.3054                   21552493.2194
        47.2504         36.0004
 -10154253.74247  -7861159.47746  21956675.8444                   21956676.2814
        43.0004         39.2504
   6106034.65246   4762985.88745  23664262.5164                   23664264.6374
        41.2504         35.2504
    208367.86747    181653.70346  21000302.8524                   21000300.2974
        47.0004         37.2504
  -7084200.67248  -5488830.00448  20088454.9534                   20088451.5234
        48.5004         48.2504
   5956016.27347   4649300.95746  23081933.2504                   23081933.8524
        43.2504         38.5004
  -2436828.62145  -1863362.82444  24243140.3134                   24243142.2854
        30.7504         25.2504
  -8029078.20346  -6213034.57443  23509630.1174                   23509631.5274
        40.0004         22.7504
  -4570031.19546  -3517038.54744  23812291.5234                   23812295.6604
        37.5004         29.0004
 25  7 14 23 50 30.0000000  0 10G01G02G03G10G28G31G32G25G04G26
  -4651994.80547  -3596423.93445  21299903.7344                   21299901.7774
        46.7504         35.0004
   2230426.78947   1756344.59046  21842150.2664                   21842145.8754
        45.7504         36.5004
  -8756460.43047  -6771969.84846  22222667.2974                   22222667.5314
        43.7504         40.0004
   7665243.80546   5977953.94145  23960970.1334                   23960971.9804
        41.7504         34.2504
   1729433.59847   1366899.71946  21289751.9454                   21289749.3834
        46.5004         36.7504
  -5630120.04348  -4355780.14148  20365157.2194                   20365153.7934
        48.7504         48.5004
   7503513.34447   5855142.78146  23376412.4144                   23376413.0124
        43.0004         38.2504
   -942759.40645   -699153.05543  24527452.6884                   24527454.3094
        30.5004         23.5004
  -6621615.17646  -5116310.01243  23777461.1024                   23777462.5124
        40.5004         23.7504
  -3180696.94946  -2434440.24244  24076673.2194                   24076676.5944
        38.0004         28.0004
 25  7 14 23 51  0.0000000  0 10G01G02G03G10G28G31G32G25G04G26
  -4765864.22747  -3685153.35545  21278235.3204                   21278233.2894
        47.0004         34.7504
   2177655.56347   1715224.10945  21832108.2504                   21832103.8874
        46.0004         35.5004
  -8933909.17247  -6910241.55546  22188899.7034                   22188900.1564
        44.0004         40.2504
   7649331.22346   5965554.40645  23957942.7734                   23957944.7274
        41.7504         34.5004
   1675648.80547   1324989.48046  21279517.4844                   21279514.5904
        46.0004         36.5004
  -5750780.33248  -4449801.12148  20342196.2664                   20342193.2304
        49.0004         48.5004
   7475682.64147   5833456.46946  23371116.6254                   23371117.0784
        42.5004         38.5004
  -1023506.44145   -762072.83643  24512086.1484                   24512088.5904
        30.5004         23.2504
  -6789376.66046  -5247033.10943  23745536.6724                   23745538.0784
        39.2504         21.7504
  -3366676.23046  -2579358.98045  24041282.0704                   24041286.0944
        37.5004         30.0004
 25  7 14 23 51 30.0000000  0 10G01G02G03G10G28G31G32G25G04G26
  -4879088.21147  -3773379.84045  21256689.5864                   21256686.9774
        47.7504         34.7504
   2125396.48447   1674502.71945  21822163.7034                   21822159.2894
        46.5004         35.7504
  -9111172.10547  -7048368.47746  22155168.1484                   22155168.0084
        44.0004         41.0004
   7633717.05946   5953387.41445  23954971.0234                   23954973.0944
        41.0004         33.5004
   1622433.63747   1283523.10246  21269390.6024                   21269388.1644
        46.5004         36.7504
  -5870756.66448  -4543289.15248  20319365.4694                   20319361.8284
        49.2504         48.5004
   7447944.82447   5811842.54346  23365838.5164                   23365838.9184
        43.2504         38.7504
  -1103646.53544   -824519.68043  24496835.8834                   24496838.7344
        28.5004         23.5004
  -6956936.87146  -5377599.37543  23713650.8284                   23713652.7464
        39.0004         22.5004
  -3552539.52746  -2724187.33245  24005913.5784                   24005917.4104
        37.5004         30.7504
 25  7 14 23 52  0.0000000  0 10G01G02G03G10G28G31G32G25G04G26
  -4991663.32847  -3861100.71945  21235267.1094                   21235265.2234
        47.2504         35.0004
   2073650.78147   1634181.35546  21812316.9694                   21812312.3794
        47.7504         36.0004
  -9288244.62547  -7186347.02046  22121472.1094                   22121472.3094
        43.7504         40.5004
   7618403.53946   5941454.68445  23952056.7344                   23952059.2854
        40.5004         33.0004
   1569788.95748   1242501.26646  21259372.5394                   21259370.4414
        48.0004         36.5004
  -5990045.98848  -4636241.85948  20296665.4924                   20296662.4804
        48.7504         48.5004
   7420302.16447   5790302.75846  23360578.2814                   23360578.0594
        43.0004         37.7504
  -1183176.92644   -886491.45344  24481702.5004                   24481704.7664
        29.7504         25.0004
  -7124293.10946  -5508006.68043  23681803.7734                   23681805.8014
        39.2504         21.5004
  -3738280.99646  -2868920.76645  23970567.8594                   23970571.5864
        37.7504         31.2504
 25  7 14 23 52 30.0000000  0 10G01G02G03G10G28G31G32G25G04G26
  -5103592.30947  -3948318.11345  21213967.7974                   21213965.3284
        47.2504         35.2504
   2022413.24647   1594255.96545  21802566.7034                   21802562.4534
        47.5004         35.5004
  -9465128.39547  -7324178.48046  22087811.9614                   22087812.0984
        44.2504         40.2504
   7603386.71146   5929753.12145  23949199.1804                   23949201.1294
        40.2504         31.7504
   1517709.47348   1201919.83246  21249462.5704                   21249459.8324
        48.0004         36.2504
  -6108651.07448  -4728661.39148  20274095.6564                   20274092.5514
        49.2504         48.5004
   7392750.75047   5768834.07846  23355334.9924                   23355335.8284
        44.0004         38.2504
  -1262100.95345   -947990.71544  24466683.6334                   24466686.0164
        30.5004         24.2504
  -7291448.75446  -5638257.68743  23649994.9694                   23649996.6254
        39.5004         22.0004
  -3923900.94946  -3013559.51345  23935245.1724                   23935248.9924
        38.0004         30.5004
 25  7 14 23 53  0.0000000  0 10G01G02G03G10G28G31G32G25G04G26
  -5214869.57047  -4035027.67645  21192792.7034                   21192789.9844
        47.0004         35.2504
   1971687.36748   1554729.27745  21792913.6564                   21792909.5004
        48.0004         35.2504
  -9641816.59047  -7461857.54346  22054189.3054                   22054189.8984
        44.0004         40.7504
   7588670.89146   5918286.12145  23946399.2114                   23946401.4384
        39.5004         30.2504
   1466198.23047   1161781.18846  21239659.8204                   21239657.3014
        47.7504         36.0004
  -6226566.48848  -4820543.51248  20251657.0234                   20251653.6174
        49.2504         48.5004
   7365295.03147   5747439.96146  23350110.6804                   23350111.0514
        44.0004         38.5004
  -1340413.49654  -1009013.50053  24451780.8134                   24451783.0204
        28.7504         23.5004
  -7458398.90246  -5768348.59043  23618225.5234                   23618226.7114
        38.5004         20.2504
  -4109391.21546  -3158097.21145  23899948.2114                   23899951.8094
        38.7504         30.7504
 25  7 14 23 53 30.0000000  0 10G01G02G03G10G28G31G32G25G04G26
  -5325494.07048  -4121228.59845  21171741.5474                   21171739.0004
        48.0004         35.5004
   1921471.71948   1515600.16445  21783358.2664                   21783354.2854
        48.2504         35.5004
  -9818306.93747  -7599382.43046  22020604.2584                   22020604.5984
        44.5004         40.0004
   7574255.97346   5907053.59045  23943656.3754                   23943658.9224
        39.7504         31.5004
   1415253.71147   1122084.14846  21229965.6564                   21229963.0664
        47.5004         36.0004
  -6343791.33648  -4911887.53148  20229350.0634                   20229346.7934
        49.2504         48.5004
   7337935.00047   5726120.39846  23344904.1094                   23344904.4144
        44.0004         38.5004
  -1418114.17644  -1069559.51643  24436996.3674                   24436997.2854
        29.5004         22.5004
  -7625143.08246  -5898278.96943  23586495.3524                   23586496.3984
        37.7504         22.0004
  -4294748.24646  -3302531.10545  23864675.3594                   23864679.0314
        38.0004         32.2504
 25  7 14 23 54  0.0000000  0 10G01G02G03G10G28G31G32G25G04G26
  -5435467.78547  -4206922.40245  21150814.0864                   21150812.0124
        47.5004         35.5004
   1871762.05947   1476865.32445  21773898.7344                   21773894.5084
        47.7504         35.5004
  -9994600.15247  -7736753.71146  21987056.9454                   21987056.8484
        45.5004         40.2504
   7560138.77746   5896053.05945  23940969.5634                   23940971.4144
        40.0004         31.0004
   1364871.44947   1082825.22346  21220377.9694                   21220375.7584
        47.7504         36.5004
  -6460327.89548  -5002695.23048  20207173.3914                   20207170.4844
        49.7504         48.5004
   7310667.61747   5704873.04346  23339715.6414                   23339715.8524
        43.5004         38.5004
  -1495205.53945  -1129630.70744  24422325.1724                   24422327.3204
        30.5004         24.2504
  -7791683.90246  -6028050.91043  23554803.4534                   23554804.7774
        37.0004         22.2504
  -4479971.60246  -3446860.82445  23829428.6024                   23829432.3524
        39.0004         33.0004
 25  7 14 23 54 30.0000000  0 10G01G02G03G10G28G31G32G25G04G26
  -5544789.97747  -4292108.53145  21130010.6254                   21130008.5274
        47.2504         35.0004
   1822557.01648   1438523.69946  21764535.0554                   21764531.2624
        48.2504         36.0004
 -10170694.24647  -7873969.82446  21953546.9844                   21953547.1454
        44.5004         40.5004
   7546318.95746   5885284.24644  23938340.6564                   23938342.3554
        39.2504         29.0004
   1315049.63347   1044003.00846  21210897.5164                   21210894.7814
        47.7504         36.5004
  -6576175.61748  -5092966.16848  20185128.6024                   20185125.3984
        49.0004         48.5004
   7283492.68847   5683697.72346  23334544.6174                   23334544.9774
        43.0004         39.2504
                                  24407771.6884                   24407773.8954
        29.7504         24.2504
  -7958021.27046  -6157664.30943  23523150.6094                   23523151.7384
        37.5004         21.7504
  -4665057.73846  -3591083.63745  23794207.5164                   23794211.0314
        39.7504         33.5004
 25  7 14 23 55  0.0000000  0 10G01G02G03G10G28G31G32G25G04G26
  -5653454.86747  -4376782.47345  21109332.6644                   21109330.0984
        47.5004         35.0004
   1773859.91848   1400577.87145  21755269.0084                   21755264.3094
        48.5004         35.0004
 -10346582.13747  -8011025.26646  21920076.6024                   21920076.4494
        45.0004         40.2504
   7532801.05146   5874750.68844  23935767.5004                   23935769.9654
        39.2504         29.2504
   1265791.56347   1005620.07846  21201523.6884                   21201521.3404
        47.7504         36.5004
  -6691329.13348  -5182696.16048  20163215.8914                   20163212.2114
        49.7504         48.7504
   7256414.94547   5662598.13346  23329391.7114                   23329391.6254
        43.5004         38.7504
  -1647554.88344  -1248344.52343  24393333.9144                   24393336.6484
        28.0004         22.5004
  -8124149.93746  -6287115.09043  23491537.1804                   23491538.0824
        38.0004         22.0004
  -4849998.44546  -3735193.11345  23759013.8674                   23759017.9104
        39.5004         33.0004
 25  7 14 23 55 30.0000000  0 10G01G02G03G10G28G31G32G25G04G26
  -5761467.42648  -4460948.10545  21088778.0234                   21088775.9694
        48.0004         35.5004
   1725663.48448   1363022.16045  21746097.3594                   21746093.0824
        48.5004         35.7504
 -10522267.44547  -8147922.85246  21886645.2814                   21886644.6764
        43.5004         40.5004
   7519578.94546   5864447.62144  23933252.1174                   23933254.1454
        39.2504         28.0004
   1217089.72347    967670.57446  21192256.5634                   21192253.8914
        47.0004         36.2504
  -6805793.15248  -5271888.89548  20141433.8284                   20141430.2624
        49.0004         48.7504
   7229428.50047   5641569.68446  23324256.4534                   23324256.7854
        43.7504         38.0004
  -1722813.19154  -1306987.39553  24379012.8204                   24379015.2624
        28.5004         22.0004
  -8290075.42246  -6416407.55143  23459962.4304                   23459963.7504
        37.0004         22.0004
  -5034795.98846  -3879191.04745  23723848.4924                   23723851.6524
        39.7504         33.0004
 25  7 14 23 56  0.0000000  0 10G01G02G03G10G28G31G32G25G04G26
  -5868826.32847  -4544604.39545  21068348.7274                   21068346.2464
        47.0004         34.7504
   1677967.02748   1325856.05945  21737021.0084                   21737017.0044
        48.0004         35.0004
 -10697747.35547  -8284660.39146  21853252.2424                   21853252.0514
        44.5004         40.7504
   7506652.94146   5854375.27744  23930791.8054                   23930794.4774
        38.7504         28.5004
   1168943.03147    930153.65246  21183094.2504                   21183091.7384
        47.5004         36.2504
  -6919566.57048  -5360543.49648  20119783.5164                   20119780.0354
        49.5004         48.7504
   7202533.75447   5620612.69146  23319138.7114                   23319138.8404
        43.5004         38.2504
  -1797461.69954  -1365155.11353  24364808.3914                   24364810.2464
        28.7504         23.0004
  -8455796.89846  -6545541.05943  23428426.5474                   23428427.5234
        37.7504         21.0004
  -5219446.34046  -4023074.28545  23688710.5944                   23688713.6174
        40.0004         33.5004
 25  7 14 23 56 30.0000000  0 10G01G02G03G10G28G31G32G25G04G26
  -5975528.15647  -4627748.68045  21048043.8674                   21048041.6994
        47.5004         35.0004
   1630771.55548   1289080.32445  21728040.1094                   21728035.7734
        48.2504         35.5004
 -10873017.09847  -8421234.16446  21819899.8134                   21819899.6724
        44.7504         40.7504
   7494025.39146   5844535.50044  23928388.4454                   23928391.4104
        39.5004         28.7504
   1121352.41047    893070.02346  21174037.9384                   21174035.7114
        46.7504         36.0004
  -7032646.61748  -5448657.80548  20098264.8204                   20098261.5164
        49.7504         48.7504
   7175733.25447   5599729.12946  23314038.5554                   23314038.7974
        43.0004         38.0004
  -1871497.51244  -1422845.36743  24350719.8834                   24350721.5634
        29.5004         22.5004
  -8621311.48446  -6674513.34443  23396930.3594                   23396930.9884
        38.2504         21.0004
  -5403943.32046  -4166838.02345  23653602.2734                   23653605.3874
        40.5004         33.5004
 25  7 14 23 57  0.0000000  0 10G01G02G03G10G28G31G32G25G04G26
  -6081571.70747  -4710380.02045  21027864.4694                   21027862.4614
        46.5004         35.5004
   1584075.98847   1252694.13345  21719154.1174                   21719149.9534
        47.5004         35.7504
 -11048074.05547  -8557642.12946  21786587.2424                   21786586.8594
        44.5004         41.0004
   7481696.21146   5834928.22745  23926043.5234                   23926045.4964
        39.7504         30.0004
   1074316.52747    856418.66445  21165087.5394                   21165085.2034
        47.2504         35.5004
  -7145031.87548  -5536230.72748  20076879.1564                   20076875.6024
        49.5004         49.0004
   7149027.32447   5578919.25446  23308956.9144                   23308957.2384
        44.2504         38.0004
  -1944920.03144  -1480057.74244  24336747.0084                   24336749.4494
        29.7504         26.0004
  -8786618.44946  -6803323.83643  23365472.7114                   23365474.2034
        38.5004         21.7504
  -5588283.14146  -4310479.29745  23618522.8834                   23618525.9964
        39.0004         32.7504
 25  7 14 23 57 30.0000000  0 10G01G02G03G10G28G31G32G25G04G26
  -6186957.68747  -4792498.96545  21007810.2664                   21007807.6254
        47.0004         35.2504
   1537877.43448   1216695.21545  21710363.0164                   21710359.0594
        48.5004         35.5004
 -11222917.34047  -8693883.60246  21753315.3054                   21753315.4534
        45.0004         41.2504
   7469663.79746   5825552.19145  23923753.8054                   23923756.2774
        40.2504         30.2504
   1027832.30947    820197.17646  21156241.8284                   21156239.1764
        47.2504         36.0004
  -7256723.49648  -5623263.14848  20055624.5554                   20055621.2274
        49.5004         48.7504
   7122414.44147   5558181.89546  23303892.3674                   23303892.7734
        44.2504         38.2504
  -2017730.67644  -1536793.30943  24322892.6484                   24322893.9184
        29.7504         23.5004
  -8951718.96546  -6931973.45743  23334056.0864                   23334056.2304
        38.5004         20.5004
  -5772463.60946  -4453996.41445  23583474.4144                   23583477.9734
        39.0004         32.7504
 25  7 14 23 58  0.0000000  0 10G01G02G03G10G28G31G32G25G04G26
  -6291686.59447  -4874105.91045  20987881.2734                   20987878.6764
        46.0004         35.2504
   1492173.14848   1181081.44945  21701665.6724                   21701661.3984
        48.0004         35.2504
 -11397546.00447  -8829957.83646  21720084.7974                   21720084.7704
        44.7504         40.7504
   7457926.52746   5816406.13745  23921519.9614                   23921522.3954
        39.5004         30.2504
    981896.77047    784403.22346  21147500.5234                   21147497.7544
        46.5004         36.5004
  -7367722.17648  -5709755.61748  20034502.4614                   20034498.9774
        49.2504         48.7504
   7095893.30947   5537516.02346  23298845.9384                   23298846.1954
        44.0004         38.0004
  -2089930.40245  -1593052.84844  24309152.7424                   24309155.5354
        30.5004         25.2504
  -9116613.91446  -7060462.90643  23302676.5784                   23302677.6214
        39.0004         20.7504
  -5956482.50846  -4597387.63745  23548456.2114                   23548459.7734
        39.7504         32.0004
 25  7 14 23 58 30.0000000  0 10G01G02G03G10G28G31G32G25G04G26
  -6395756.85547  -4955199.61745  20968077.0004                   20968075.1094
        46.2504         35.5004
   1446962.49247   1145852.31645  21693062.6804                   21693058.1994
        47.5004         35.5004
 -11571956.88747  -8965862.37546  21686895.4144                   21686895.0274
        45.0004         41.0004
   7446484.94946   5807490.50445  23919342.9224                   23919345.7814
        39.2504         30.7504
    936509.11347    749036.20346  21138864.1254                   21138861.4264
        47.0004         36.7504
  -7478026.63348  -5795707.12948  20013512.1804                   20013508.7344
        50.0004         48.7504
   7069464.80947   5516922.33646  23293816.5004                   23293817.0354
        43.5004         37.7504
  -2161518.32045  -1648835.64843  24295529.5314                   24295531.8554
        31.0004         23.5004
  -9281302.20346  -7188791.32443  23271337.5474                   23271339.0084
        39.5004         21.2504
  -6140335.36746  -4740649.46145  23513471.0004                   23513473.8524
        39.7504         32.2504
 25  7 14 23 59  0.0000000  0 10G01G02G03G10G28G31G32G25G04G26
  -4923741.85547  -3808174.94545  21248192.2664                   21248189.9924
        46.5004         35.2504
   2977668.32447   2338610.07045  21984345.9924                   21984342.1054
        47.2504         35.2504
 -10170719.47347  -7873989.02346  21953542.1414                   21953541.6334
        45.5004         41.0004
   9010761.64146   7026407.27345  24217015.7974                   24217017.6484
        40.5004         31.2504
   2467091.58247   1941697.84846  21430123.7274                   21430121.2624
        47.0004         36.0004
  -6012210.03948  -4653512.37148  20292447.5864                   20292444.2274
        49.5004         48.7504
   8618552.25847   6724003.39846  23588598.5474                   23588598.3674
        44.5004         37.7504
   -657069.50445   -476537.93444  24581818.3054                   24581819.3094
        31.5004         25.5004
  -7870355.48446  -6089352.20743  23539831.6884                   23539832.7854
        38.5004         22.0004
  -4748590.06646  -3656172.46145  23778310.9774                   23778313.7664
        40.0004         31.0004
 25  7 14 23 59 30.0000000  0 10G01G02G03G10G28G31G32G25G04G26
  -5026489.96947  -3888238.41845  21228639.8134                   21228637.8244
        46.2504         35.0004
   2933443.38747   2304149.04345  21975930.5234                   21975926.3594
        47.2504         35.5004
 -10344685.17647  -8009546.67246  21920437.3834                   21920437.4534
        45.7504         41.0004
   8999913.36746   7017953.95745  24214950.9144                   24214953.4614
        40.5004         32.0004
   2422797.30547   1907182.80946  21421694.9694                   21421692.6214
        47.2504         36.0004
  -6121121.26248  -4738378.25048  20271722.5634                   20271719.2854
        50.0004         48.7504
   8592311.77747   6703556.22346  23583605.0164                   23583605.0984
        43.0004         37.2504
   -727430.64845   -531364.83644  24568428.1564                   24568430.1294
        32.5004         26.0004
  -8034626.62546  -6217355.56643  23508571.5864                   23508572.4964
        39.2504         21.7504
  -4932097.42246  -3799165.07045  23743390.2664                   23743393.4064
        39.5004         31.7504
 25  7 15  0  0  0.0000000  0 10G01G02G03G10G28G31G32G25G04G26
  -5128581.19547  -3967790.03545  21209212.6334                   21209210.4574
        46.2504         35.0004
   2889703.90647   2270066.28545  21967607.3594                   21967602.8054
        47.2504         34.7504
 -10518429.95347  -8144932.18046  21887374.7974                   21887374.6954
        45.0004         41.5004
   8989356.04746   7009727.32845  24212942.0474                   24212944.7934
        39.5004         31.5004
   2379041.93847   1873087.70346  21413368.3834                   21413366.2074
        46.7504         36.0004
  -6229340.50448  -4822704.92648  20251129.3364                   20251125.7344
        49.5004         49.0004
   8566160.03147   6683178.18446  23578628.6644                   23578628.8634
        43.5004         37.2504
   -797183.44145   -585717.68744  24555154.7734                   24555156.9924
        32.2504         26.5004
  -8198693.96546  -6345200.13343  23477350.8834                   23477351.1804
        39.0004         22.0004
  -5115431.86746  -3942022.93445  23708503.1094                   23708505.8754
        38.0004         32.0004
