     2.11           OBSERVATION DATA    G (GPS)             RINEX VERSION / TYPE
teqc  2019Feb25                         20250821 08:15:46UTCPGM / RUN BY / DATE
Linux 2.6.32-573.12.1.x86_64|x86_64|gcc -static|Linux 64|=+ COMMENT
BIT 2 OF LLI FLAGS DATA COLLECTED UNDER A/S CONDITION       COMMENT
04223570                                                    MARKER NAME
0422                                                        MARKER NUMBER
-Unknown-           -Unknown-                               OBSERVER / AGENCY
0220340422          TRIMBLE 5700        2.32                REC # / TYPE / VERS
-Unknown-           TRM41249.00     NONE                    ANT # / TYPE
 -2421504.4981 -4592703.6641  3693449.8656                  APPROX POSITION XYZ
        0.0000        0.0000        0.0000                  ANTENNA: DELTA H/E/N
     1     1                                                WAVELENGTH FACT L1/2
     7    L1    L2    C1    P1    P2    S1    S2            # / TYPES OF OBSERV
    18                                                      LEAP SECONDS
 SNR is mapped to RINEX snr flag value [0-9]                COMMENT
  L1 & L2: min(max(int(snr_dBHz/6), 0), 9)                  COMMENT
  2005    12    23     0     0   30.0000000     GPS         TIME OF FIRST OBS
                                                            END OF HEADER
 05 12 23  0  0 30.0000000  0 10G03G09G16G04G28G26G06G31G01G02
 -37570382.38758 -29252034.57858  19845421.5234                   19845422.7194
        50.0004         50.7504
  -9476304.66856  -7358273.77755  23637678.6804                   23637683.7424
        39.7504         34.0004
 -20046720.52357 -15115317.76654  22194666.6024                   22194667.3094
        44.2504         27.2504
 -30526699.63357 -22407072.41855  21089092.7584                   21089092.9494
        47.0004         34.0004
 -17970176.78556 -13982033.63353  24327304.4774                   24327305.4694
        39.5004         22.5004
 -28340206.15657 -22058243.87957  21408657.8674                   21408660.3164
        46.5004         42.7504
  -3470184.05956  -2680063.45354  24911792.5234                   24911797.7274
        38.7504         26.5004
 -32740502.34457 -25480075.39157  21573006.5314                   21573006.0084
        45.2504         42.0004
 -25696277.66857 -19977897.86754  22730217.2734                   22730219.5634
        42.5004         27.2504
 -14375211.25856 -11138452.86753  24722514.6024                   24722523.3094
        37.2504         19.2504
 05 12 23  0  1  0.0000000  0 10G03G09G16G04G28G26G06G31G01G02
 -37606539.53148 -29280208.96548  19838540.8914                   19838541.8834
        49.5004         50.7504
  -9584254.57846  -7442390.43745  23617136.5084                   23617141.2234
        40.5004         34.7504
 -20166254.71547 -15208461.16444  22171920.0554                   22171920.3634
        43.7504         29.5004
 -30599193.50847 -22463561.10245  21075297.5864                   21075297.9224
        47.0004         35.0004
 -17901658.87146 -13928643.12143  24340342.2344                   24340343.6524
        40.5004         21.5004
 -28378786.35247 -22088306.33247  21401316.1884                   21401319.0784
        46.2504         42.7504
  -3553437.78946  -2744936.44844  24895949.2034                   24895954.6914
        39.0004         27.5004
 -32688220.20747 -25439336.08647  21582955.7734                   21582954.8244
        45.0004         42.0004
 -25641091.95746 -19934896.14144  22740718.2974                   22740721.8364
        41.2504         27.7504
 -14319216.24246 -11094820.78143  24733170.4224                   24733180.1414
        36.2504         19.5004
 05 12 23  0  1 30.0000000  0 10G03G09G16G04G28G26G06G31G01G02
 -37642122.98448 -29307936.32448  19831769.3674                   19831770.8324
        48.2504         50.7504
  -9692159.83646  -7526472.30545  23596602.8444                   23596607.6524
        40.0004         34.5004
 -20285447.22347 -15301338.31244  22149238.0084                   22149238.9654
        43.2504         28.0004
 -30671519.13347 -22519918.69145  21061534.2194                   21061534.7194
        47.0004         35.0004
 -17833094.87146 -13875216.68743  24353390.2034                   24353390.9694
        40.5004         21.0004
 -28416730.79347 -22117873.40647  21394095.6724                   21394098.0634
        44.2504         42.5004
  -3636198.38746  -2809425.21144  24880200.8834                   24880205.2734
        38.5004         25.2504
 -32635647.40647 -25398370.28947  21592960.0234                   21592959.0744
        45.5004         42.0004
 -25585665.83646 -19891707.10244  22751266.0394                   22751268.9064
        41.5004         27.0004
 -14263291.74646 -11051243.64843  24743813.9924                   24743822.2034
        38.0004         19.2504
 05 12 23  0  2  0.0000000  0 10G03G09G16G04G28G26G06G31G01G02
 -37677133.69148 -29335217.38748  19825107.0164                   19825108.6334
        50.0004         50.7504
  -9800022.12546  -7610520.69545  23576077.4774                   23576082.0984
        40.0004         34.2504
 -20404297.16047 -15393948.52744  22126621.5234                   22126622.0594
        43.0004         28.5004
 -30743678.02347 -22576146.36345  21047802.8674                   21047803.6604
        47.0004         34.0004
 -17764488.38346 -13821757.14543  24366445.1024                   24366446.8954
        40.2504         21.7504
 -28454040.71547 -22146946.04347  21386995.5394                   21386998.3364
        46.2504         42.5004
  -3718466.07046  -2873529.85243  24864545.4454                   24864550.4804
        38.0004         22.2504
 -32582788.03147 -25357181.19146  21603018.9304                   21603018.0944
        45.0004         41.7504
 -25530004.30946 -19848334.60944  22761857.9144                   22761861.0784
        41.0004         27.2504
 -14207442.34846 -11007725.03143  24754440.1724                   24754449.9184
        37.7504         20.5004
 05 12 23  0  2 30.0000000  0 10G03G09G16G04G28G26G06G31G01G02
 -37711565.51248 -29362047.36748  19818555.1334                   19818556.4844
        49.0004         50.7504
  -9907836.14846  -7694531.47345  23555560.5314                   23555565.0784
        39.5004         33.5004
 -20522795.54347 -15486284.81644  22104071.8914                   22104072.7544
        43.7504         28.0004
 -30815664.75447 -22632239.86745  21034104.2504                   21034105.0474
        47.0004         34.7504
 -17695836.07446 -13768261.88743  24379509.3444                   24379511.0354
        40.2504         22.0004
 -28490710.42647 -22175519.80547  21380017.7664                   21380020.5274
        45.2504         43.0004
  -3800234.22746  -2937245.29343  24848986.0554                   24848989.9184
        38.5004         22.5004
 -32529640.12147 -25315767.25447  21613132.8594                   21613131.5124
        45.2504         42.0004
 -25474105.37146 -19804777.15244  22772495.4924                   22772499.0084
        40.0004         26.7504
 -14151665.28946 -10964262.73843  24765054.6804                   24765064.6724
        37.5004         20.5004
 05 12 23  0  3  0.0000000  0 10G03G09G16G04G28G26G06G31G01G02
 -37745413.32048 -29388422.27748  19812114.0164                   19812115.3634
        48.7504         50.7504
 -10015597.47746  -7778501.19145  23535054.5634                   23535058.7854
        40.5004         33.5004
 -20640934.84047 -15578341.29344  22081590.9454                   22081591.1724
        43.5004         29.2504
 -30887474.70747 -22688195.64145  21020439.2194                   21020439.8554
        47.0004         35.0004
 -17627135.38746 -13714728.95743  24392582.7194                   24392584.0474
        39.5004         21.2504
 -28526735.08247 -22203590.94147  21373162.3204                   21373165.0984
        45.7504         42.7504
  -3881497.21946  -3000567.08244  24833521.6724                   24833526.6374
        37.7504         24.7504
 -32476201.69947 -25274126.94947  21623302.1024                   21623300.8014
        46.0004         42.0004
 -25417967.94546 -19761033.87544  22783178.0084                   22783181.1844
        41.2504         27.7504
 -14095958.88746 -10920855.54343  24775656.0634                   24775665.2194
        37.7504         19.2504
 05 12 23  0  3 30.0000000  0 10G03G09G16G04G28G26G06G31G01G02
 -37778672.99248 -29414338.89148  19805785.0634                   19805786.0554
        48.5004         50.5004
 -10123302.61346  -7862427.12945  23514558.3754                   23514563.2234
        39.0004         33.5004
 -20758708.33247 -15670112.73044  22059179.2894                   22059179.3284
        44.0004         27.5004
 -30959104.35947 -22744010.91045  21006808.9534                   21006809.1564
        47.0004         35.2504
 -17558384.91046 -13661157.23843  24405665.7034                   24405667.4574
        38.5004         20.2504
 -28562110.93747 -22231156.51247  21366430.4774                   21366433.0664
        45.5004         42.7504
  -3962250.36346  -3063491.58243  24818155.0474                   24818159.5204
        37.7504         21.7504
 -32422471.94947 -25232259.63347  21633526.1254                   21633525.2774
        46.0004         42.2504
 -25361591.91046 -19717104.66044  22793906.5864                   22793909.9304
        40.5004         28.0004
 -14040322.36746 -10877502.80943  24786243.6884                   24786253.4924
        36.5004         19.5004
 05 12 23  0  4  0.0000000  0 10G03G09G16G04G28G26G06G31G01G02
 -37811349.16848 -29439800.84048  19799566.5474                   19799567.9924
        48.0004         50.5004
 -10230956.86346  -7946313.41445  23494072.9694                   23494077.3244
        39.5004         32.7504
 -20876118.17647 -15761600.80944  22036836.9924                   22036836.9104
        43.5004         27.0004
 -31030558.82447 -22799689.68045  20993211.5634                   20993211.8244
        47.2504         34.7504
 -17489591.83246 -13607552.34043  24418756.3364                   24418758.4264
        38.2504         19.5004
 -28596843.07847 -22258220.47747  21359821.2974                   21359823.7974
        44.2504         42.5004
  -4042497.78546  -3126022.06044  24802884.7344                   24802889.3484
        38.0004         24.0004
 -32368459.34047 -25190171.91047  21643804.6564                   21643803.1684
        45.2504         42.5004
 -25304986.02047 -19672996.32844  22804678.0784                   22804681.5004
        42.0004         28.0004
 -13984763.59446 -10834210.62143  24796817.5474                   24796826.1214
        37.5004         19.7504
 05 12 23  0  4 30.0000000  0 10G03G09G16G04G28G26G06G31G01G02
 -37843436.78147 -29464804.16848  19793460.5164                   19793461.7464
        47.7504         50.5004
 -10338555.80946  -8030156.59445  23473596.5554                   23473601.4064
        39.0004         31.7504
 -20993156.79747 -15852799.63344  22014565.0084                   22014565.2664
        43.5004         26.7504
 -31101833.62947 -22855228.44145  20979648.2734                   20979648.6914
        47.5004         35.0004
 -17420753.68446 -13553912.27043  24431855.8984                   24431857.3984
        38.7504         20.5004
 -28630926.71547 -22284779.13747  21353335.2894                   21353337.9184
        44.2504         42.5004
  -4122233.64546  -3188153.86344  24787711.2504                   24787716.0704
        37.5004         24.5004
 -32314161.74647 -25147862.12147  21654137.2274                   21654135.8444
        46.5004         42.0004
 -25248149.10246 -19628707.98444  22815494.3204                   22815497.3134
        41.5004         28.5004
 -13929280.68745 -10790977.56643  24807374.1884                   24807384.2814
        35.7504         19.5004
 05 12 23  0  5  0.0000000  0 10G03G09G16G04G28G26G06G31G01G02
 -37874930.00848 -29489344.33648  19787467.5944                   19787468.9304
        50.2504         50.5004
 -10446094.31646  -8113952.68045  23453132.8594                   23453137.4144
        39.2504         32.5004
 -21109815.74247 -15943702.58244  21992365.0394                   21992365.3554
        43.5004         28.5004
 -31172923.39547 -22910623.02745  20966120.3674                   20966120.9264
        47.5004         35.5004
 -17351867.22346 -13500234.57043  24444964.5704                   24444966.1844
        39.0004         21.0004
 -28664356.45747 -22310828.26247  21346973.7894                   21346976.0944
        45.5004         42.7504
  -4201451.78146  -3249882.26244  24772636.6954                   24772641.2704
        36.2504         25.0004
 -32259577.23047 -25105328.75447  21664524.3594                   21664522.7154
        45.7504         42.5004
 -25191079.39847 -19584238.25844  22826354.3914                   22826357.3594
        42.0004         29.0004
 -13873871.55146 -10747801.98843  24817919.3914                   24817929.5474
        36.7504         19.2504
 05 12 23  0  5 30.0000000  0 10G03G09G16G04G28G26G06G31G01G02
 -36330412.67248 -28285824.33248  20081379.6724                   20081380.9804
        49.7504         50.5004
  -8978154.25846  -6970103.14145  23732472.7034                   23732477.0274
        38.7504         32.2504
 -19650673.37547 -14806708.41044  22270030.4454                   22270030.9384
        43.2504         28.2504
 -29668411.05547 -21738275.71145  21252419.6484                   21252419.6024
        47.5004         35.0004
 -15707522.03146 -12218926.68743  24757872.8674                   24757874.8444
        38.5004         19.5004
 -27121716.42647 -21108771.07047  21640527.8594                   21640530.8794
        46.0004         43.0004
  -2704733.80945  -2083608.48044  25057451.5234                   25057457.0554
        35.5004         25.2504
 -30629295.79347 -23834979.59847  21974756.3834                   21974755.3404
        46.5004         42.2504
 -23558367.61746 -18311995.47344  23137049.0784                   23137052.5554
        41.2504         27.7504
 -12243125.90646  -9477091.44943  25128240.7734                   25128250.0234
        36.7504         18.5004
 05 12 23  0  6  0.0000000  0 10G03G09G16G04G28G26G06G31G01G02
 -36360727.39848 -28309446.18748  20075610.6724                   20075612.2464
        50.0004         50.5004
  -9085583.77346  -7053814.32845  23712029.5704                   23712033.6804
        39.7504         32.2504
 -19766575.38747 -14897021.54744  22247975.1254                   22247975.0274
        43.2504         28.5004
 -29739142.34447 -21793390.96945  21238959.4694                   21238959.9454
        47.7504         34.7504
 -15638556.61346 -12165187.48443  24770996.7274                   24770998.6604
        38.0004         20.2504
 -27153849.80147 -21133810.02747  21634413.7114                   21634416.5354
        45.5004         43.0004
  -2782924.82046  -2144536.51244  25042572.3364                   25042577.9734
        36.0004         24.0004
 -30574157.54347 -23792014.75047  21985249.0084                   21985248.1094
        45.7504         42.5004
 -23500854.35946 -18267180.12544  23147993.6884                   23147997.3204
        41.5004         27.7504
 -12187883.92246  -9441794.12552  25138753.0784                   25138763.4414
        37.0004         17.7504
 05 12 23  0  6 30.0000000  0 10G03G09G16G04G28G26G06G31G01G02
 -36390450.28948 -28332606.88348  20069954.9614                   20069956.1764
        48.0004         50.5004
  -9192957.11346  -7137481.73845  23691596.9384                   23691601.3244
        40.0004         33.0004
 -19882092.84047 -14987035.02744  22225993.0164                   22225993.1604
        44.2504         28.2504
 -29809692.39547 -21848365.00445  21225534.3054                   21225535.2074
        47.5004         34.5004
 -15569552.75846 -12111418.30943  24784128.4454                   24784130.2424
        37.5004         19.2504
 -27185332.97747 -21158342.35547  21628422.6024                   21628425.3984
        44.5004         42.7504
  -2860598.85945  -2205061.72743  25027791.9384                   25027797.6414
        35.0004         23.5004
 -30518744.81247 -23748836.03547  21995793.6484                   21995792.7304
        45.5004         42.5004
 -23443122.68446 -18222194.56644  23158979.7894                   23158982.5904
        40.5004         25.7504
 -12132727.77045  -9398815.71142  25149248.6724                   25149260.3874
        34.0004         16.2504
 05 12 23  0  7  0.0000000  0 10G03G09G16G04G28G26G06G31G01G02
 -36419582.81648 -28355307.54748  20064411.2734                   20064412.4414
        50.0004         50.7504
  -9300276.16446  -7221106.84445  23671174.6094                   23671178.9964
        40.7504         34.5004
 -19997224.26647 -15076747.71544  22204084.2114                   22204084.3954
        44.2504         28.0004
 -29880063.11747 -21903199.30145  21212143.3834                   21212144.0864
        47.0004         35.0004
 -15500514.52046 -12057622.37143  24797266.9064                   24797267.4454
        38.0004         20.2504
 -27216167.91047 -21182369.54747  21622554.9304                   21622557.2624
        46.7504         43.0004
  -2937756.92245  -2265184.86743  25013108.6564                   25013114.6994
        35.5004         22.7504
 -30463062.19947 -23705447.00047  22006389.3444                   22006388.6564
        47.0004         42.2504
 -23385177.92246 -18177042.97744  23170006.3054                   23170009.4024
        40.5004         25.2504
 -12077661.91845  -9355907.60942  25159727.6804                   25159738.7704
        34.0004         16.2504
 05 12 23  0  7 30.0000000  0 10G03G09G16G04G28G26G06G31G01G02
 -36448120.32048 -28377544.56248  20058980.4224                   20058981.9144
        49.5004         50.7504
  -9407536.83246  -7304686.46545  23650763.4774                   23650767.9614
        40.7504         35.2504
 -20111962.17247 -15166153.76244  22182249.9304                   22182250.2774
        44.0004         28.5004
 -29950250.14847 -21957890.46145  21198787.1024                   21198787.4884
        47.2504         35.0004
 -15431439.49246 -12003797.74243  24810409.6174                   24810411.7624
        38.0004         19.5004
 -27246350.37547 -21205888.33247  21616811.2194                   21616813.9104
        46.7504         43.0004
  -3014393.61745  -2324901.73044  24998524.9454                   24998531.2424
        35.2504         24.5004
 -30407108.43047 -23661846.68047  22017036.9774                   22017036.4144
        47.0004         42.5004
 -23327019.30146 -18131724.76244  23181074.3444                   23181077.0824
        41.0004         25.7504
 -12022685.12555  -9321635.89852  25170190.2274                   25170200.3674
        35.2504         16.7504
 05 12 23  0  8  0.0000000  0 10G03G09G16G04G28G26G06G31G01G02
 -36476068.61348 -28399322.45348  20053662.1884                   20053663.5784
        48.7504         50.7504
  -9514745.35946  -7388225.46945  23630362.5234                   23630366.5394
        41.7504         34.5004
 -20226309.82847 -15255255.70744  22160490.7114                   22160490.4454
        43.7504         29.2504
 -30020259.65647 -22012443.29345  21185464.5634                   21185464.8204
        47.0004         34.7504
 -15362335.93446 -11949950.88743  24823560.4774                   24823562.2114
        37.5004         20.0004
 -27275886.52747 -21228903.48447  21611190.8204                   21611193.4614
        44.5004         43.0004
  -3090514.19945  -2384216.43044  24984040.0164                   24984045.9454
        35.2504         24.7504
 -30350892.91447 -23618042.41447  22027735.0004                   22027733.9224
        46.5004         42.0004
 -23268656.49646 -18086247.43044  23192180.0474                   23192183.2664
        41.5004         26.0004
 -11967806.19946  -9278873.47742  25180633.3444                   25180644.0314
        37.0004         16.2504
 05 12 23  0  8 30.0000000  0 10G03G09G16G04G28G26G06G31G01G02
 -36503421.64548 -28420636.50448  20048457.1174                   20048458.3714
        49.7504         50.7504
  -9621896.09446  -7471719.44145  23609972.2584                   23609976.0594
        41.5004         34.7504
 -20340258.69547 -15344046.92244  22138806.5234                   22138806.6994
        43.5004         29.0004
 -30090085.81247 -22066853.25045  21172177.1334                   21172177.9384
        47.0004         35.5004
 -15293200.05146 -11896078.84443  24836716.1094                   24836718.0744
        37.2504         19.2504
 -27304770.78947 -21251410.68047  21605694.4774                   21605696.6804
        46.5004         43.0004
  -3166112.11745  -2443123.86744  24969654.7424                   24969660.3134
        33.7504         25.7504
 -30294412.48847 -23574031.71547  22038482.5634                   22038481.7624
        46.5004         42.2504
 -23210087.24247 -18040609.22744  23203325.2034                   23203328.9104
        42.7504         26.2504
 -11913021.99645  -9236184.89542  25191058.1094                   25191068.9884
        34.2504         16.2504
 05 12 23  0  9  0.0000000  0 10G03G09G16G04G28G26G06G31G01G02
 -36530177.18448 -28441484.96948  20043365.7584                   20043366.9694
        48.2504         50.7504
  -9728987.21547  -7555166.96545  23589593.2734                   23589597.7544
        42.2504         35.2504
 -20453803.78547 -15432523.49244  22117199.2274                   22117199.8524
        43.5004         29.2504
 -30159726.73447 -22121118.87946  21158924.9694                   21158925.5314
        47.0004         36.2504
 -15224031.91846 -11842181.69143  24849878.4844                   24849880.5554
        36.5004         20.0004
 -27333001.36747 -21273408.51247  21600322.1724                   21600324.6174
        45.0004         43.0004
  -3241184.48445  -2501621.79344  24955367.9384                   24955373.8324
        34.2504         26.5004
 -30237668.31247 -23529815.50446  22049280.6484                   22049279.8244
        46.5004         41.5004
 -23151313.21546 -17994811.46944  23214510.0084                   23214513.6334
        41.7504         25.0004
 -11858333.63345  -9193570.93442  25201465.6414                   25201476.7304
        33.5004         17.2504
 05 12 23  0  9 30.0000000  0 11G03G09G16G04G28G26G06G31G07G01G02
 -36556332.93448 -28461866.07048  20038388.4144                   20038390.1054
        48.0004         50.7504
  -9836016.77346  -7638566.51245  23569226.0314                   23569230.0044
        41.5004         35.2504
 -20566940.14147 -15520681.58644  22095670.4694                   22095670.5204
        43.0004         29.7504
 -30229180.31247 -22175238.51645  21145707.7504                   21145708.8524
        47.0004         35.2504
 -15154831.53945 -11788259.38743  24863047.2974                   24863049.3134
        35.7504         18.2504
 -27360576.45347 -21294895.57047  21595074.6804                   21595077.3524
        44.5004         43.2504
  -3315728.43045  -2559707.94544  24941184.2504                   24941189.2704
        35.0004         26.7504
 -30180661.06247 -23485394.30546  22060129.0004                   22060128.4264
        46.2504         41.5004
   1415975.55955   1127555.33654  25345902.5474                   25345914.0354
        35.5004         26.0004
 -23092335.81247 -17948855.23044  23225733.2814                   23225736.6134
        42.0004         27.0004
 -11803741.69945  -9151032.13342  25211852.3444                   25211866.1804
        33.0004         14.7504
 05 12 23  0 10  0.0000000  0 11G03G09G16G04G28G26G06G31G07G01G02
 -36581912.98048 -28481798.57048  20033520.8284                   20033521.9224
        50.5004         50.5004
  -9943009.25847  -7721937.16445  23548865.8364                   23548869.9964
        42.2504         35.5004
 -20679688.89147 -15608537.64145  22074214.4924                   22074215.1484
        43.5004         30.0004
 -30298470.79747 -22229231.06245  21132522.9144                   21132523.1564
        46.5004         35.7504
 -15085625.16846 -11734332.43443  24876216.1024                   24876218.9184
        36.0004         18.5004
 -27387520.52747 -21315890.93047  21589947.5234                   21589950.1604
        47.0004         42.7504
  -3389767.44545  -2617400.66844  24927093.9614                   24927099.6914
        35.7504         27.2504
 -30123418.03147 -23440789.37546  22071022.0474                   22071020.8404
        46.0004         41.2504
   1299845.96945   1037065.23044  25323804.1094                   25323814.5354
        35.0004         26.7504
 -23033182.90647 -17902762.23444  23236989.2584                   23236993.3134
        42.0004         25.7504
 -11749273.30545  -9108589.65642  25222220.4144                   25222231.5044
        34.5004         15.5004
 05 12 23  0 10 30.0000000  0 11G03G09G16G04G28G26G06G31G07G01G02
 -36606931.10548 -28501293.20748  20028759.9304                   20028761.2464
        49.5004         50.7504
 -10049978.75046  -7805289.89546  23528510.3134                   23528514.7814
        41.5004         36.0004
 -20792061.14847 -15696100.32045  22052830.8444                   22052831.4694
        43.7504         30.5004
 -30367612.23847 -22283107.48445  21119365.7114                   21119365.8984
        46.5004         35.2504
 -15016428.82845 -11680413.25042  24889384.2504                   24889386.2154
        35.5004         17.2504
 -27413847.82847 -21336405.68047  21584937.6484                   21584939.8914
        46.5004         43.0004
  -3463314.78945  -2674710.24244  24913098.6724                   24913104.1764
        35.5004         27.5004
 -30065956.16047 -23396013.91846  22081956.3834                   22081955.6524
        45.7504         41.7504
   1183851.89146    946680.72344  25301730.7584                   25301741.5044
        36.0004         26.5004
 -22973872.10347 -17856546.22044  23248276.5554                   23248279.6564
        42.7504         27.5004
 -11694945.20745  -9066256.44542  25232556.8984                   25232569.7894
        33.5004         17.2504
 05 12 23  0 11  0.0000000  0 11G03G09G16G04G28G26G06G31G07G01G02
 -36631379.03948 -28520343.53948  20024107.2504                   20024108.7464
        50.0004         50.7504
 -10156917.22746  -7888618.44946  23508160.1954                   23508164.6334
        41.2504         36.0004
 -20904046.14147 -15783361.22745  22031521.0554                   22031521.1214
        43.5004         30.5004
 -30436596.47347 -22336861.39546  21106238.4774                   21106238.3054
        47.0004         36.0004
 -14947236.37945 -11626497.13342  24902551.2114                   24902553.3914
        35.0004         17.7504
 -27439550.64547 -21356433.83647  21580046.3364                   21580048.9184
        46.0004         43.0004
  -3536361.53545  -2731629.75044  24899198.1724                   24899203.6804
        35.7504         26.0004
 -30008270.17247 -23351063.82446  22092933.8984                   22092932.4344
        45.7504         40.7504
   1068002.03945    856408.59844  25279684.2194                   25279695.3094
        35.2504         25.0004
 -22914398.68746 -17810203.46544  23259593.9924                   23259597.7464
        41.5004         26.5004
 -11640752.34445  -9024028.60943  25242870.6804                   25242882.5124
        34.7504         18.5004
 05 12 23  0 11 30.0000000  0 11G03G09G16G04G28G26G06G31G07G01G02
 -36655246.68748 -28538941.70748  20019565.6414                   20019566.8984
        50.0004         50.7504
 -10263814.87546  -7971915.17646  23487818.4924                   23487822.6454
        41.0004         36.0004
 -21015630.91447 -15870310.28945  22010287.5084                   22010286.9344
        43.5004         30.2504
 -30505413.46147 -22390484.98445  21093143.1884                   21093143.3284
        47.5004         35.7504
 -14878039.82846 -11572577.80942  24915719.6724                   24915721.3324
        36.5004         16.7504
 -27464619.23847 -21375967.78147  21575276.0864                   21575278.9224
        46.7504         43.0004
  -3608896.85246  -2788150.75044  24885395.9534                   24885400.8554
        37.5004         29.0004
 -29950352.97347 -23305933.57846  22103955.5554                   22103954.6454
        46.5004         40.7504
    952306.88345    766257.02743  25257667.5944                   25257678.5434
        32.2504         22.2504
 -22854756.37546 -17763729.16444  23270943.0474                   23270947.2234
        40.0004         25.0004
 -11586686.75846  -8981899.93743  25253159.2894                   25253170.1414
        36.5004         19.2504
 05 12 23  0 12  0.0000000  0 10G03G09G16G04G28G26G06G31G07G01
 -36678522.76648 -28557078.90248  20015136.5234                   20015137.8524
        49.5004         50.5004
 -10370660.71946  -8055171.53546  23467486.3444                   23467490.3954
        41.0004         36.2504
 -21126801.30947 -15956936.45345  21989131.2974                   21989131.7774
        43.5004         30.7504
 -30574052.09447 -22443969.59046  21080081.3204                   21080081.5124
        47.0004         36.0004
 -14808830.04346 -11518648.11743  24928889.1884                   24928891.4384
        37.0004         18.2504
 -27489042.87547 -21394999.16847  21570628.1334                   21570630.9454
        46.2504         43.2504
  -3680909.17646  -2844264.22344  24871692.5704                   24871697.4264
        37.2504         29.0004
 -29892196.60547 -23260616.96546  22115021.7274                   22115021.1954
        45.5004         41.2504
    836777.69945    676234.77743  25235683.7974                   25235693.3874
        31.2504         22.0004
 -22794937.54746 -17717117.30143  23282326.5164                   23282330.1844
        40.7504         23.5004
 05 12 23  0 12 30.0000000  0 10G03G09G16G04G28G26G06G31G07G01
 -36701202.60948 -28574751.50448  20010820.5554                   20010822.0904
        49.5004         50.5004
 -10477450.16046  -8138383.91846  23447164.8444                   23447169.0704
        41.2504         36.2504
 -21237550.11747 -16043234.10945  21968056.5314                   21968056.7734
        44.0004         30.2504
 -30642507.72747 -22497311.59846  21067054.9844                   21067055.3324
        47.0004         36.0004
 -14739604.48446 -11464706.18043  24942062.3984                   24942064.6374
        37.5004         18.5004
 -27512817.31247 -21413524.68747  21566104.2584                   21566106.9264
        46.2504         43.0004
  -3752393.00846  -2899965.88744  24858088.9774                   24858094.8914
        36.5004         27.7504
 -29833798.82447 -23215112.23046  22126134.7114                   22126133.6764
        45.5004         41.0004
    721420.17245    586346.30943  25213730.8134                   25213740.8714
        30.0004         20.5004
 -22734941.21546 -17670367.12543  23293744.1254                   23293747.4144
        40.7504         23.0004
 05 12 23  0 13  0.0000000  0 10G03G09G16G04G28G26G06G31G07G01
 -36723265.99648 -28591943.75448  20006622.0164                   20006623.6024
        49.7504         50.5004
 -10584163.24646  -8221536.80945  23426857.9064                   23426862.1174
        40.5004         35.5004
 -21347853.96547 -16129185.04344  21947066.5944                   21947066.7894
        43.5004         29.7504
 -30710760.21947 -22550495.31245  21054066.7664                   21054066.7074
        46.7504         35.5004
 -14670344.88746 -11410737.68443  24955242.6024                   24955243.9304
        39.0004         19.0004
 -27535922.91047 -21431529.02747  21561707.1954                   21561709.8714
        45.5004         43.0004
  -3823327.61345  -2955239.57844  24844591.4774                   24844595.8094
        35.5004         28.5004
 -29775142.86747 -23169406.32046  22137296.6254                   22137295.6884
        44.5004         40.5004
    606254.54345    496607.35243  25191814.9694                   25191825.0514
        33.0004         21.5004
 -22674750.70346 -17623465.61743  23305197.2664                   23305201.9804
        39.7504         23.5004
 05 12 23  0 13 30.0000000  0 10G03G09G16G04G28G26G06G31G07G01
 -36744694.58248 -28608641.34848  20002544.1954                   20002545.7584
        48.0004         50.5004
 -10690781.77746  -8304616.02045  23406568.9534                   23406572.9774
        40.0004         34.7504
 -21457691.99247 -16214773.00444  21926165.1644                   21926165.0274
        44.0004         29.7504
 -30778791.20347 -22603506.42645  21041120.4304                   21041121.0744
        46.5004         35.7504
 -14601035.01246 -11356730.04343  24968431.6254                   24968433.2304
        38.5004         18.5004
 -27558341.70747 -21448998.21147  21557441.1884                   21557443.5204
        44.5004         43.0004
  -3893694.02346  -3010070.53544  24831200.9384                   24831205.6214
        38.2504         29.7504
 -29716213.11347 -23123487.07846  22148510.8364                   22148510.0084
        45.5004         40.5004
    491299.46145    407032.48843  25169940.3754                   25169949.5634
        35.5004         23.0004
 -22614351.30946 -17576401.35244  23316691.3524                   23316695.4144
        41.5004         25.2504
 05 12 23  0 14  0.0000000  0 10G03G09G16G04G28G26G06G31G07G01
 -36765495.33648 -28624849.73048  19998585.8524                   19998587.6764
        50.0004         50.5004
 -10797312.86346  -8387627.08645  23386296.3444                   23386300.6914
        40.0004         35.0004
 -21567068.29747 -16300001.19144  21905351.3364                   21905351.3404
        43.7504         29.5004
 -30846607.62147 -22656350.34045  21028215.3754                   21028215.8484
        47.0004         35.2504
 -14531683.64146 -11302690.02043  24981628.5394                   24981630.5434
        39.7504         18.5004
 -27580081.27347 -21465938.10947  21553303.9694                   21553306.8404
        46.0004         43.0004
  -3963498.60546  -3064463.69544  24817917.4064                   24817922.3954
        38.0004         28.5004
 -29657019.66447 -23077362.34846  22159774.2894                   22159773.9734
        45.0004         40.5004
    376548.33246    317616.52043  25148103.3054                   25148112.5904
        36.0004         22.5004
 -22553753.59046 -17529182.55144  23328223.0314                   23328227.3984
        41.0004         26.0004
 05 12 23  0 14 30.0000000  0 10G03G09G16G04G28G26G06G31G07G01
 -36785673.61348 -28640573.06248  19994746.2114                   19994747.6294
        49.5004         50.5004
 -10903761.90246  -8470574.20345  23366039.8674                   23366043.3244
        38.2504         34.7504
 -21675985.26247 -16384871.43745  21884625.0084                   21884624.9384
        43.5004         30.7504
 -30914214.77347 -22709031.19545  21015350.6174                   21015350.6254
        47.2504         35.5004
 -14462298.17246 -11248623.46143  24994831.6724                   24994834.5044
        39.0004         19.2504
 -27601147.37147 -21482353.23447  21549295.2504                   21549298.0124
        46.2504         43.0004
  -4032746.05146  -3118422.73444  24804739.8754                   24804745.1254
        38.2504         29.5004
 -29597570.64147 -23031038.46546  22171087.6334                   22171086.6054
        46.2504         40.7504
    261996.68446    228355.97743  25126304.6564                   25126313.8284
        37.0004         22.7504
 -22492966.42647 -17481816.12144  23339791.3204                   23339795.0864
        42.0004         25.0004
 05 12 23  0 15  0.0000000  0 10G03G09G16G04G28G26G06G31G07G01
 -36805230.91848 -28655812.52348  19991024.5164                   19991026.1914
        48.0004         50.5004
 -11010130.49246  -8553458.65245  23345798.3754                   23345802.0824
        38.7504         34.7504
 -21784441.77347 -16469382.90645  21863986.6254                   21863986.1414
        44.5004         30.0004
 -30981614.12147 -22761550.12145  21002524.9304                   21002525.0704
        46.7504         35.5004
 -14392881.99646 -11194532.95343  25008041.5704                   25008043.4774
        38.7504         18.5004
 -27621542.12147 -21498245.23447  21545414.2664                   21545417.1094
        44.5004         43.0004
  -4101437.31246  -3171948.38345  24791668.5234                   24791673.1174
        37.5004         30.2504
 -29537870.40247 -22984518.83646  22182448.4144                   22182447.5904
        46.0004         41.5004
    147643.03146    139249.68044  25104543.4144                   25104552.5554
        36.5004         24.5004
 -22431994.86347 -17434306.02344  23351393.2894                   23351397.8444
        42.0004         26.7504
 05 12 23  0 15 30.0000000  0 10G03G09G16G04G28G26G06G31G07G01
 -36824175.06648 -28670574.19548  19987419.5474                   19987420.8794
        49.0004         50.5004
 -11116426.47746  -8636286.52745  23325571.1564                   23325574.7704
        39.0004         34.0004
 -21892442.61747 -16553539.30145  21843434.3914                   21843434.2274
        44.0004         30.5004
 -31048813.36747 -22813913.11745  20989737.1334                   20989737.2384
        47.0004         34.7504
 -14323444.80146 -11140426.06242  25021255.3204                   25021256.6294
        38.7504         17.7504
 -27641273.80547 -21513620.56247  21541659.4844                   21541662.0204
        44.5004         43.2504
  -4169579.61346  -3225046.26644  24778701.5474                   24778705.5784
        38.7504         29.5004
 -29477929.64147 -22937811.78547  22193854.6954                   22193853.6564
        46.5004         42.0004
     33480.26646     50292.14844  25082818.7504                   25082827.3204
        37.5004         25.7504
 -22370850.21146 -17386661.06244  23363028.6804                   23363032.8834
        41.0004         25.0004
 05 12 23  0 16  0.0000000  0 10G03G09G16G04G28G26G06G31G07G01
 -36842502.21948 -28684855.09048  19983931.7664                   19983933.2584
        50.0004         50.7504
 -11222646.05146  -8719054.86345  23305358.0314                   23305361.2974
        39.2504         34.0004
 -21999980.95747 -16637335.31644  21822970.1564                   21822970.3404
        44.2504         29.7504
 -31115808.52047 -22866117.09045  20976988.2584                   20976988.4024
        46.5004         35.0004
 -14253984.68046 -11086301.30543  25034473.4694                   25034474.8524
        38.0004         18.2504
 -27660339.09447 -21528476.61347  21538031.7584                   21538034.3324
        45.7504         43.2504
  -4237168.45746  -3277712.89145  24765839.1174                   24765844.3554
        40.0004         31.7504
 -29417747.25447 -22890916.45346  22205307.4144                   22205306.0314
        45.7504         41.0004
    -80487.37546    -38513.33243  25061130.8364                   25061140.5314
        36.7504         23.7504
 -22309532.13746 -17338880.98844  23374697.8284                   23374701.8834
        41.5004         25.7504
 05 12 23  0 16 30.0000000  0 10G03G09G16G04G28G26G06G31G07G01
 -36860208.10548 -28698651.88748  19980562.7814                   19980564.2344
        49.7504         50.7504
 -11328784.94146  -8801760.34845  23285160.0704                   23285163.7584
        39.0004         34.0004
 -22107049.73447 -16720765.43045  21802596.0704                   21802595.7384
        44.5004         31.5004
 -31182595.15647 -22918158.57445  20964279.0394                   20964279.0274
        47.0004         35.2504
 -14184498.96546 -11032156.60542  25047695.7344                   25047697.3054
        38.0004         17.2504
 -27678734.32047 -21542810.54347  21534531.1644                   21534533.1914
        46.5004         43.2504
  -4304198.98446  -3329944.45345  24753084.3134                   24753089.2034
        39.5004         30.5004
 -29357321.75447 -22843831.68446  22216805.1484                   22216805.0394
        45.7504         41.5004
   -194254.83246   -127162.91044  25039481.0634                   25039490.0314
        39.0004         25.5004
 -22248039.81646 -17290965.11344  23386399.1804                   23386403.7814
        40.7504         25.0004
 05 12 23  0 17  0.0000000  0 10G03G09G16G04G28G26G06G31G07G01
 -36877301.95348 -28711971.76648  19977310.2424                   19977311.7704
        50.7504         50.7504
 -11434852.21946  -8884410.01245  23264975.7894                   23264979.4344
        40.0004         34.5004
 -22213655.46947 -16803834.73045  21782309.3984                   21782309.2234
        45.2504         31.0004
 -31249182.27047 -22970044.60245  20951608.1254                   20951608.4224
        46.2504         35.7504
 -14114998.86246 -10978000.72042  25060921.6804                   25060923.2664
        38.5004         17.7504
 -27696469.09047 -21556629.82447  21531156.3444                   21531159.1094
        46.7504         43.2504
  -4370679.71946  -3381747.60945  24740433.4454                   24740438.0274
        39.2504         31.2504
 -29296664.91847 -22796566.65646  22228348.3204                   22228347.9064
        46.0004         41.0004
   -307831.07446   -215663.45743  25017868.0864                   25017876.6724
        38.7504         23.7504
 -22186385.78946 -17242923.27044  23398131.6484                   23398136.6454
        39.2504         24.5004
 05 12 23  0 17 30.0000000  0 10G03G09G16G04G28G26G06G31G07G01
 -36893787.43048 -28724817.59048  19974172.9384                   19974174.3484
        50.2504         50.7504
 -11540851.54746  -8967006.71945  23244805.0234                   23244808.4144
        41.0004         34.7504
 -22319798.49647 -16886543.48445  21762111.3134                   21762110.5944
        45.5004         31.7504
 -31315573.35947 -23021777.87545  20938974.2504                   20938974.8324
        47.0004         35.5004
 -14045489.61346 -10923837.72343  25074148.1334                   25074150.9224
        37.7504         20.2504
 -27713547.78547 -21569937.88347  21527906.4384                   21527908.8674
        46.2504         43.0004
  -4436613.89146  -3433124.86745  24727887.1804                   24727891.1564
        39.7504         30.5004
 -29235783.32447 -22749126.48446  22239933.5864                   22239932.7344
        45.7504         40.5004
   -421219.51646   -304017.68444  24996290.4774                   24996299.5394
        39.7504         24.5004
 -22124577.31246 -17194761.06244  23409893.9534                   23409898.5984
        39.7504         24.7504
 05 12 23  0 18  0.0000000  0 10G03G09G16G04G28G26G06G31G07G01
 -36909657.89548 -28737184.18448  19971152.9064                   19971153.9804
        50.0004         50.7504
 -11646776.17646  -9049545.25045  23224648.6094                   23224651.4024
        40.5004         34.7504
 -22425469.41447 -16968884.36745  21742002.8754                   21742002.5664
        45.7504         31.2504
 -31381761.48447 -23073352.99645  20926378.8914                   20926379.3014
        46.7504         35.5004
 -13975966.45746 -10869663.88743  25087378.6094                   25087380.6804
        38.0004         18.5004
 -27729964.19547 -21582729.87147  21524782.3834                   21524784.7774
        46.2504         43.0004
  -4501994.02046  -3484070.40245  24715445.0554                   24715450.0084
        38.7504         30.7504
 -29174673.10547 -22701508.17246  22251562.4224                   22251561.8204
        45.2504         40.5004
   -534412.61346   -392219.66444  24974750.9774                   24974759.2424
        40.2504         26.2504
 -22062611.01246 -17146475.88344  23421685.6484                   23421690.5274
        41.5004         24.2504
 05 12 23  0 18 30.0000000  0 10G03G09G16G04G28G26G06G31G07G01
 -36924922.20748 -28749078.45348  19968248.1334                   19968249.4534
        49.2504         50.5004
 -11752634.76246  -9132032.30545  23204503.5004                   23204507.1024
        40.0004         34.5004
 -22530674.41847 -17050862.19945  21721982.9144                   21721982.3874
        45.5004         31.0004
 -31447755.22747 -23124776.65646  20913820.2894                   20913821.0434
        46.5004         36.0004
 -13906439.79746 -10815487.30543  25100608.7584                   25100611.2854
        36.7504         19.2504
 -27745727.75447 -21595013.14547  21521782.6804                   21521785.1024
        45.2504         43.2504
  -4566828.44546  -3534590.70744  24703107.3204                   24703112.0434
        38.0004         29.0004
 -29113345.43047 -22653720.41046  22263232.8674                   22263232.2194
        45.5004         40.7504
   -647418.41046   -480275.67644  24953246.1334                   24953254.2344
        39.0004         25.7504
 -22000499.07047 -17098077.19944  23433506.4224                   23433510.2664
        42.2504         24.5004
 05 12 23  0 19  0.0000000  0 10G03G09G16G04G28G26G06G31G07G01
 -36939581.84848 -28760501.53948  19965458.3594                   19965459.9304
        49.0004         50.5004
 -11858428.69146  -9214468.96945  23184372.2504                   23184375.3874
        40.7504         34.7504
 -22635411.75447 -17132475.61345  21702052.1024                   21702051.8594
        45.7504         32.2504
 -31513555.79347 -23176049.79745  20901298.9774                   20901299.7504
        47.0004         35.7504
 -13836912.79345 -10761310.44543  25113839.1254                   25113841.5634
        35.5004         19.2504
 -27760840.50047 -21606789.29747  21518906.7974                   21518909.0084
        44.5004         43.2504
  -4631117.98046  -3584686.43744  24690873.2894                   24690878.8444
        38.0004         29.5004
 -29051804.63747 -22605766.58246  22274943.8674                   22274943.0634
        45.5004         40.7504
   -760237.96146   -568186.59844  24931776.0554                   24931784.8914
        38.7504         25.7504
 -21938246.36747 -17049568.82443  23445352.1564                   23445356.4654
        42.0004         23.7504
 05 12 23  0 19 30.0000000  0 10G03G09G16G04G28G26G06G31G07G01
 -36953631.08648 -28771448.99648  19962785.0704                   19962786.4804
        49.5004         50.5004
 -11964152.02746  -9296850.65245  23164252.7974                   23164256.1214
        39.5004         34.7504
 -22739672.76247 -17213717.87145  21682211.3914                   21682211.1414
        45.0004         32.5004
 -31579157.05947 -23227167.63745  20888815.9304                   20888815.8794
        46.2504         35.5004
 -13767381.32845 -10707130.12543  25127070.6564                   25127073.6484
        34.5004         19.0004
 -27775297.23847 -21618054.27347  21516155.5474                   21516158.4694
        45.2504         43.2504
  -4694856.39846  -3634352.71144  24678744.3674                   24678749.2304
        38.5004         29.0004
 -28990047.08647 -22557643.85246  22286695.9144                   22286694.9614
        45.2504         39.7504
   -872865.30546   -655947.78144  24910343.8284                   24910352.6484
        38.0004         25.2504
 -21875850.42247 -17000948.83243  23457226.0554                   23457229.9574
        43.0004         23.5004
 05 12 23  0 20  0.0000000  0 10G03G09G16G04G28G26G06G31G07G01
 -36967068.77348 -28781919.92248  19960227.9384                   19960229.6604
        49.7504         50.5004
 -12069803.33246  -9379176.18745  23144147.8834                   23144152.1724
        40.0004         35.5004
 -22843453.30147 -17294585.72745  21662463.2274                   21662462.2774
        46.2504         32.0004
 -31644557.55547 -23278129.02346  20876370.4224                   20876370.5634
        46.7504         36.0004
 -13697845.78145 -10652946.63742  25140302.1414                   25140305.3364
        32.7504         17.2504
 -27789097.43047 -21628807.65247  21513529.2584                   21513531.4734
        46.2504         43.0004
  -4758041.80546  -3683588.07044  24666720.5634                   24666725.4734
        37.5004         28.7504
 -28928074.76647 -22509353.77746  22298488.9384                   22298488.1174
        44.7504         39.7504
   -985298.35946   -743557.59844  24888948.1644                   24888957.3014
        37.5004         27.7504
 -21813313.42647 -16952218.91843  23469126.6484                   23469130.7584
        42.5004         22.0004
 05 12 23  0 20 30.0000000  0 10G03G09G16G04G28G26G06G31G07G01
 -36979899.51248 -28791917.89848  19957786.3674                   19957787.7384
        50.2504         50.5004
 -12175387.02346  -9461449.04345  23124056.2344                   23124059.2114
        39.0004         35.0004
 -22946755.08647 -17375080.52745  21642804.6094                   21642804.8834
        45.5004         31.7504
 -31709761.41847 -23328937.21145  20863962.7664                   20863962.6454
        47.2504         35.5004
 -13628312.32844 -10598764.84042  25153535.1954                   25153538.3404
        29.7504         16.7504
 -27802246.19947 -21639053.42647  21511027.7424                   21511030.2974
        47.5004         43.2504
  -4820678.13346  -3732395.57444  24654800.8984                   24654806.3054
        38.0004         29.0004
 -28865894.66447 -22460901.79346  22310321.4384                   22310320.6454
        44.5004         39.7504
  -1097541.34046   -831019.27044  24867589.2194                   24867597.0514
        38.0004         28.2504
 -21750643.18446 -16903385.17243  23481052.6254                   23481056.5354
        41.5004         22.7504
 05 12 23  0 21  0.0000000  0 10G03G09G16G04G28G26G06G31G07G01
 -36992119.89148 -28801440.27748  19955460.9924                   19955462.1994
        50.0004         50.5004
 -12280899.28946  -9543666.25845  23103977.6484                   23103981.2504
        40.0004         34.5004
 -23049571.77347 -17455197.33645  21623239.4844                   21623239.3834
        45.0004         32.0004
 -31774764.82847 -23379589.18746  20851592.8834                   20851592.8914
        47.2504         36.2504
                                  25166766.6094                   25166770.1054
        30.2504         16.2504
 -27814740.71147 -21648789.39847  21508650.3134                   21508652.7424
        47.2504         43.0004
  -4882761.43446  -3780772.14144  24642986.9774                   24642991.8754
        38.0004         28.0004
 -28803505.71947 -22412287.07446  22322193.6484                   22322192.7934
        44.5004         39.2504
  -1209589.80146   -918329.39844  24846266.3524                   24846274.5864
        38.7504         28.7504
 -21687839.42246 -16854447.41443  23493003.3524                   23493007.3674
        41.7504         22.7504
 05 12 23  0 21 30.0000000  0 10G03G09G16G04G28G26G06G31G07G01
 -37003730.95348 -28810487.85948  19953251.4454                   19953252.7034
        50.2504         50.5004
 -12386340.98846  -9625828.48045  23083912.1484                   23083915.8954
        41.5004         35.7504
 -23151901.10247 -17534934.38745  21603766.8054                   21603766.1414
        45.2504         32.5004
 -31839568.38747 -23430085.44146  20839260.7424                   20839261.1054
        47.7504         36.5004
 -13489248.53144 -10490403.60942  25179998.1024                   25180001.5984
        29.2504         15.5004
 -27826582.58647 -21658016.81647  21506396.2584                   21506398.7384
        47.5004         43.0004
  -4944292.07046  -3828718.06244  24631277.5554                   24631282.8364
        39.0004         29.0004
 -28740911.50047 -22363512.41046  22334104.8524                   22334104.0314
        43.5004         39.2504
  -1321444.43446  -1005488.45344  24824981.2664                   24824989.1334
        38.7504         29.2504
 -21624906.41846 -16805408.92643  23504979.4224                   23504984.3984
        40.7504         22.2504
 05 12 23  0 22  0.0000000  0 10G03G09G16G04G28G26G06G31G07G01
 -37014731.76248 -28819059.92248  19951157.8754                   19951159.1844
        50.2504         50.5004
 -12491710.76246  -9707934.68046  23063861.7194                   23063864.7934
        41.2504         36.2504
 -23253739.22747 -17614288.68445  21584387.7504                   21584387.5164
        45.7504         32.5004
 -31904170.68047 -23480424.86746  20826967.5704                   20826967.7034
        47.0004         36.2504
 -13419721.23445 -10436226.61742  25193228.1564                   25193231.5664
        31.5004         16.7504
 -27837771.48047 -21666735.42247  21504266.9534                   21504269.3914
        47.2504         43.0004
  -5005268.49246  -3876232.14144  24619675.3984                   24619678.9184
        39.0004         29.2504
 -28678113.60247 -22314579.02746  22346054.4304                   22346054.2664
        44.0004         39.5004
  -1433103.39846  -1092495.03544  24803732.8524                   24803740.7464
        38.0004         26.0004
 -21561846.50846 -16756271.59043  23516979.1724                   23516984.1374
        38.7504         22.5004
 05 12 23  0 22 30.0000000  0 10G03G09G16G04G28G26G06G31G07G01
 -37025124.79748 -28827158.39548  19949180.2194                   19949181.7114
        50.2504         50.5004
 -12597010.72747  -9789986.47746  23043823.3364                   23043827.2774
        42.0004         36.0004
 -23355085.65247 -17693259.83645  21565101.4694                   21565101.3134
        44.7504         32.5004
 -31968573.59847 -23530608.93446  20814712.0394                   20814712.3674
        47.0004         36.0004
 -13350201.09455 -10382055.12153  25206457.9144                   25206460.7424
        33.5004         18.5004
 -27848310.42647 -21674947.57447  21502261.8594                   21502264.5084
        47.2504         43.2504
  -5065692.55146  -3923315.79344  24608175.5234                   24608181.1804
        37.5004         28.2504
 -28615116.75847 -22265490.61746  22358042.5864                   22358041.9614
        44.5004         38.0004
  -1544568.60246  -1179350.64544  24782521.6644                   24782529.0004
        37.2504         26.0004
 -21498665.09446 -16707039.59043  23529001.8914                   23529008.0354
        37.7504         22.5004
 05 12 23  0 23  0.0000000  0 10G03G09G16G04G28G26G06G31G07G01
 -37034907.64848 -28834781.40248  19947318.6174                   19947319.8054
        50.0004         50.5004
 -12702238.05547  -9871981.67246  23023799.3984                   23023802.3834
        42.2504         36.5004
 -23455934.99647 -17771843.65645  21545910.6644                   21545910.5044
        45.5004         32.2504
 -32032774.28148 -23580635.41046  20802495.3364                   20802495.4574
        48.0004         36.0004
 -13280687.07445 -10327888.40243  25219686.3984                   25219688.5824
        35.2504         18.5004
 -27858197.64547 -21682651.89147  21500380.2894                   21500382.5084
        46.5004         43.2504
  -5125561.17246  -3969966.63344  24596784.3914                   24596788.3834
        38.2504         29.0004
 -28551920.50047 -22216246.83246  22370068.5864                   22370068.2424
        44.7504         38.5004
  -1655836.92645  -1266052.83644  24761347.0704                   24761355.3984
        35.5004         24.5004
 -21435363.09446 -16657713.63343  23541049.2114                   23541054.2274
        36.7504         23.0004
 05 12 23  0 23 30.0000000  0 10G03G09G16G04G28G26G06G31G07G01
 -37044079.63348 -28841928.40248  19945573.2114                   19945574.6414
        50.0004         50.5004
 -12807391.59447  -9953919.39846  23003789.0084                   23003792.7344
        42.5004         37.0004
 -23556283.35547 -17850037.09845  21526815.0164                   21526814.8094
        44.5004         32.7504
 -32096771.38347 -23630503.24646  20790316.7974                   20790316.8094
        47.2504         36.0004
 -13211179.74246 -10273726.91043  25232912.7974                   25232914.9264
        37.5004         20.0004
 -27867433.02047 -21689848.28147  21498622.5784                   21498625.2194
        47.0004         42.7504
  -5184873.07846  -4016183.68444  24585497.1564                   24585502.2814
        37.5004         28.7504
 -28488527.20747 -22166849.50046  22382132.2664                   22382131.3594
        44.5004         38.5004
  -1766906.88345  -1352600.47344  24740211.0944                   24740218.4264
        35.0004         24.0004
 -21371942.74646 -16608295.45343  23553116.8364                   23553123.5004
        37.5004         22.7504
 05 12 23  0 24  0.0000000  0 10G03G09G16G04G28G26G06G31G07G01
 -37052639.57048 -28848598.48848  19943944.6884                   19943945.7854
        49.7504         50.5004
 -12912469.69547 -10035798.33246  22983793.3204                   22983796.5864
        43.0004         37.5004
 -23656126.78547 -17927837.09445  21507815.5234                   21507815.2504
        45.5004         31.5004
 -32160563.12147 -23680211.07846  20778177.5314                   20778178.0944
        47.2504         36.0004
 -13141679.25046 -10219570.73043  25246138.2034                   25246140.9384
        38.7504         20.0004
 -27876015.90247 -21696536.23047  21496989.5394                   21496991.9414
        46.0004         43.0004
  -5243626.40646  -4061965.47344  24574317.3444                   24574321.3674
        37.5004         28.2504
 -28424937.80547 -22117299.35946  22394233.0784                   22394232.0274
        45.0004         38.2504
  -1877776.71945  -1438992.18044  24719112.4304                   24719120.7974
        35.5004         24.5004
 -21308405.96146 -16558786.59844  23565208.2734                   23565214.2194
        39.5004         25.2504
 05 12 23  0 24 30.0000000  0 10G03G09G16G04G28G26G06G31G07G01
 -37060592.22748 -28854795.37148  19942430.9224                   19942432.3444
        50.0004         50.5004
 -13017476.67247 -10117621.85946  22963810.8134                   22963814.7384
        42.7504         36.7504
 -23755466.39147 -18005244.49245  21488911.2974                   21488911.3404
        45.5004         32.0004
 -32224153.67647 -23729762.11745  20766076.8674                   20766076.8794
        46.5004         35.5004
 -13072191.72346 -10165424.63343  25259361.0004                   25259363.6884
        40.0004         19.7504
 -27883951.75447 -21702720.01247  21495478.8134                   21495481.6254
        46.2504         43.0004
  -5301825.27046  -4107315.20744  24563241.3364                   24563246.4184
        37.2504         28.0004
 -28361159.12947 -22067601.73446  22406369.2814                   22406368.6994
        44.5004         38.2504
  -1988450.09446  -1525230.83644  24698052.7974                   24698060.5394
        37.5004         26.0004
 -21244760.64846 -16509193.10944  23577319.8834                   23577325.8954
        40.5004         26.7504
 05 12 23  0 25  0.0000000  0 10G03G09G16G04G28G26G06G31G07G01
 -37067932.56248 -28860515.11348  19941034.3754                   19941035.7664
        49.2504         50.2504
 -13122406.89847 -10199385.58246  22943843.5784                   22943846.5394
        42.7504         37.5004
 -23854294.52347 -18082253.34045  21470105.6024                   21470104.9614
        45.0004         32.5004
 -32287537.27747 -23779151.90646  20754015.3524                   20754015.0554
        46.7504         36.0004
 -13002713.29346 -10111285.61743  25272583.2664                   25272585.1054
        40.2504         21.5004
 -27891236.10247 -21708396.11347  21494093.0084                   21494095.5904
        46.0004         42.7504
  -5359464.08646  -4152228.54344  24552273.3284                   24552278.3754
        36.5004         29.0004
 -28297188.35247 -22017754.42646  22418542.4064                   22418541.7424
        44.5004         38.2504
  -2098921.39546  -1611312.02044  24677030.3914                   24677037.5124
        37.7504         26.5004
 -21181004.66446 -16459513.39844  23589452.5944                   23589458.1844
        41.2504         27.7504
 05 12 23  0 25 30.0000000  0 10G03G09G16G04G28G26G06G31G07G01
 -37074664.33648 -28865760.65648  19939753.2034                   19939754.0084
        49.2504         50.2504
 -13227263.61747 -10281092.02346  22923890.1954                   22923893.1564
        43.0004         38.0004
 -23952611.83647 -18158864.14845  21451396.1174                   21451395.2814
        45.0004         32.5004
 -32350717.05947 -23828382.87146  20741992.5704                   20741992.7664
        45.7504         36.0004
 -12933248.94946 -10057157.57443  25285801.8754                   25285804.0204
        40.5004         19.5004
 -27897873.28547 -21713567.94547  21492830.0474                   21492832.8984
        46.2504         43.0004
  -5416545.87946  -4196707.82044  24541410.9844                   24541416.2624
        37.0004         28.2504
 -28233031.48847 -21967762.11346  22430751.5314                   22430750.9304
        45.2504         38.5004
  -2209193.73446  -1697238.15244  24656045.6094                   24656053.0274
        38.2504         28.0004
 -21117144.80547 -16409752.73044  23601605.3834                   23601610.7464
        42.7504         28.0004
 05 12 23  0 26  0.0000000  0 10G03G09G16G04G28G26G06G31G07G01
 -37080786.14848 -28870530.90248  19938588.0394                   19938589.7114
        48.7504         50.2504
 -13332044.74247 -10362739.56646  22903950.4064                   22903953.9184
        43.0004         36.7504
 -24050413.69147 -18235073.30545  21432784.9774                   21432784.2664
        45.2504         32.0004
 -32413690.83647 -23877453.31245  20730009.3364                   20730009.1334
        46.2504         35.7504
 -12863798.37946 -10003040.29343  25299017.8364                   25299020.0514
        41.0004         19.5004
 -27903862.51647 -21718234.87147  21491690.9534                   21491692.6684
        45.7504         42.7504
  -5473068.56646  -4240751.44944  24530655.1884                   24530660.0434
        37.7504         28.5004
 -28168689.40247 -21917625.46546  22442995.5634                   22442994.8364
        45.2504         38.5004
  -2319264.75446  -1783007.36744  24635099.4924                   24635106.9454
        39.0004         28.5004
 -21053182.55547 -16359912.28144  23613777.2424                   23613782.5044
        42.2504         25.5004
 05 12 23  0 26 30.0000000  0 10G03G09G16G04G28G26G06G31G07G01
 -37086298.30148 -28874826.08648  19937539.3524                   19937540.6954
        49.0004         50.2504
 -13436750.02047 -10444328.00446  22884025.8834                   22884028.8634
        42.0004         37.2504
 -24147697.43447 -18310878.73445  21414272.4144                   21414271.6414
        44.7504         32.0004
 -32476458.15647 -23926362.87946  20718064.7034                   20718065.0744
        45.5004         36.0004
 -12794363.09046  -9948934.88743  25312230.6884                   25312232.8874
        41.2504         20.0004
 -27909204.68047 -21722397.59447  21490673.8054                   21490676.1374
        45.0004         42.5004
  -5529031.83246  -4284359.15644  24520006.0784                   24520010.5554
        37.5004         27.5004
 -28104164.47747 -21867346.35946  22455273.8674                   22455273.9494
        44.7504         38.5004
  -2429133.92246  -1868619.31644  24614192.1954                   24614199.3794
        39.2504         28.2504
 -20989121.09447 -16309994.51644  23625967.5084                   23625973.2304
        43.0004         25.5004
 05 12 23  0 27  0.0000000  0 10G03G09G16G04G28G26G06G31G07G01
 -37091202.65248 -28878647.66448  19936605.8594                   19936607.5314
        48.7504         50.2504
 -13541380.64147 -10525858.25046  22864115.5234                   22864118.0634
        42.5004         37.2504
 -24244461.68447 -18386279.36345  21395858.4534                   21395857.8404
        44.5004         32.5004
 -32539020.11747 -23975112.43046  20706159.7114                   20706159.7304
        45.7504         36.0004
 -12724946.10246  -9894843.71943  25325440.7894                   25325442.4024
        41.0004         18.2504
 -27913902.34447 -21726058.10947  21489780.0634                   21489782.1524
        44.7504         42.5004
  -5584437.00046  -4327532.00844  24509462.3834                   24509466.9024
        37.7504         27.2504
 -28039460.75047 -21816927.91446  22467587.1414                   22467586.1724
        45.0004         39.0004
  -2538802.35946  -1954074.84844  24593322.7974                   24593329.7304
        39.0004         28.5004
 -20924965.25847 -16260003.23444  23638176.4384                   23638181.8984
        42.0004         24.2504
 05 12 23  0 27 30.0000000  0 10G03G09G16G04G28G26G06G31G07G01
 -37095495.73448 -28881992.91848  19935788.9614                   19935790.3094
        49.0004         50.2504
 -13645932.44547 -10607327.09046  22844219.3524                   22844222.5744
        42.5004         37.2504
 -24340699.79347 -18461270.01645  21377544.9454                   21377544.3134
        44.2504         32.7504
 -32601372.42647 -24023698.60545  20694294.1414                   20694294.3674
        45.5004         35.5004
 -12655544.92646  -9840764.86742  25338647.4774                   25338649.0314
        40.7504         17.2504
 -27917952.52747 -21729214.09447  21489009.1724                   21489011.6884
        45.5004         43.0004
  -5639279.87146  -4370266.68744  24499025.5784                   24499030.7344
        36.5004         27.2504
 -27974576.64847 -21766368.91846  22479933.8134                   22479932.8754
        45.2504         38.7504
  -2648265.69146  -2039370.57444  24572492.2034                   24572498.7464
        38.7504         26.7504
 -20860714.37947 -16209937.85243  23650402.6564                   23650408.4414
        42.0004         23.5004
 05 12 23  0 28  0.0000000  0  9G03G09G16G04G26G06G31G07G01
 -37099179.52748 -28884863.41848  19935088.1804                   19935089.5234
        49.2504         50.2504
 -13750406.74247 -10688735.52046  22824338.6254                   22824341.6334
        42.5004         37.5004
 -24436410.71147 -18535849.87545  21359332.2584                   21359331.0784
        45.0004         32.7504
 -32663516.22347 -24072122.31246  20682468.6484                   20682468.7464
        46.2504         37.0004
 -27921357.96147 -21731867.66847  21488361.2664                   21488363.6684
        45.2504         42.5004
  -5693561.77346  -4412564.23844  24488697.0084                   24488701.2704
        37.7504         27.0004
 -27909516.11747 -21715672.43746  22492314.5394                   22492313.8164
        44.7504         39.0004
  -2757524.89146  -2124507.25044  24551699.8444                   24551706.6844
        39.0004         27.2504
 -20796373.32846 -16159802.23443  23662646.3134                   23662652.3014
        40.7504         22.0004
 05 12 23  0 28 30.0000000  0  9G03G09G16G04G26G06G31G07G01
 -37102256.87148 -28887261.35548  19934502.5634                   19934504.4454
        48.7504         50.2504
 -13854805.55947 -10770085.13346  22804472.2584                   22804475.4414
        42.5004         37.7504
 -24531593.97747 -18610018.57445  21341218.6724                   21341218.3594
        45.2504         33.0004
 -32725453.40247 -24120385.02346  20670682.6254                   20670682.3554
        46.0004         36.5004
 -27924121.92647 -21734021.40247  21487834.9384                   21487837.5904
        44.7504         42.5004
  -5747284.82046  -4454426.34044  24478472.7894                   24478478.4654
        37.5004         27.0004
 -27844283.98447 -21664842.25446  22504727.9614                   22504727.3284
        44.5004         39.0004
  -2866582.01246  -2209486.44144  24530947.3674                   24530953.8554
        39.7504         27.2504
 -20731947.63346 -16109600.66843  23674906.9844                   23674912.7384
        38.2504         19.5004
 05 12 23  0 29  0.0000000  0  9G03G09G16G04G26G06G31G07G01
 -37104702.89548 -28889167.35548  19934037.2664                   19934038.7384
        48.2504         50.2504
 -13959103.25847 -10851355.95346  22784624.6644                   22784627.7504
        42.7504         37.7504
 -24626221.64547 -18683754.34045  21323211.6094                   21323211.1684
        45.0004         32.5004
 -32787158.28547 -24168466.71946  20658940.3284                   20658940.6994
        47.2504         36.7504
 -27926220.30147 -21735656.49247  21487435.6254                   21487438.0904
        44.2504         42.2504
  -5800423.64146  -4495833.18044  24468360.8204                   24468366.2194
        36.2504         26.2504
 -27778857.67647 -21613860.75846  22517177.9694                   22517177.7114
        45.0004         39.2504
  -2975411.37946  -2294288.16844  24510237.7194                   24510244.2624
        40.0004         27.5004
 -20667415.25446 -16059315.99243  23687186.4454                   23687192.7814
        36.5004         18.5004
 05 12 23  0 29 30.0000000  0  9G03G09G16G04G26G06G31G07G01
 -37106504.69548 -28890571.37148  19933694.3054                   19933695.4884
        48.0004         50.2504
 -14063286.12547 -10932537.29346  22764799.7584                   22764802.4694
        42.7504         38.5004
 -24720277.59847 -18757044.61745  21305313.6094                   21305312.8874
        44.7504         32.5004
 -32848616.98447 -24216356.58246  20647245.3444                   20647244.9104
        46.0004         36.2504
 -27927640.79747 -21736763.35547  21487165.2584                   21487168.0314
        44.2504         42.5004
  -5852964.61346  -4536774.16444  24458363.7584                   24458367.5634
        36.0004         26.7504
 -27713225.83247 -21562719.09446  22529667.4924                   22529666.6334
        44.5004         38.5004
  -3083999.09046  -2378901.58644  24489574.0004                   24489580.0864
        40.2504         29.2504
 -20602766.08246 -16008940.25043  23699489.2664                   23699495.9064
        36.0004         19.2504
 05 12 23  0 30  0.0000000  0  9G03G09G16G04G26G06G31G07G01
 -37107670.25848 -28891479.60948  19933472.4064                   19933473.7384
        48.2504         50.2504
 -14167361.34447 -11013634.75046  22744994.2274                   22744997.6914
        43.0004         38.7504
 -24813766.87547 -18829893.32445  21287523.4384                   21287522.3014
        44.2504         32.5004
 -32909836.51247 -24264060.07846  20635595.5704                   20635595.4064
        45.7504         36.2504
 -27928391.98447 -21737348.69547  21487022.3914                   21487025.1334
        44.0004         42.5004
  -5904915.07046  -4577255.02044  24448476.5554                   24448481.8874
        36.7504         27.0004
 -27647398.57847 -21511425.17246  22542193.7424                   22542193.5124
        44.0004         38.0004
  -3192352.28146  -2463332.26644  24468954.9844                   24468961.0394
        40.2504         28.5004
 -20538010.70746 -15958481.86342  23711811.7274                   23711818.4384
        36.2504         17.2504
 05 12 23  0 30 30.0000000  0  9G03G09G16G04G26G06G31G07G01
 -37108211.66048 -28891901.49248  19933369.5394                   19933370.8984
        49.0004         50.2504
 -14271340.03947 -11094657.00846  22725207.8524                   22725210.9414
        43.2504         39.5004
 -24906698.29747 -18902307.34845  21269838.6724                   21269838.1604
        44.5004         33.5004
 -32970827.99247 -24311585.88746  20623989.0944                   20623989.4534
        45.2504         36.5004
 -27928486.57847 -21737422.41447  21487004.8754                   21487006.7584
        44.5004         42.5004
  -5956286.33246  -4617284.53144  24438701.9534                   24438706.6294
        36.5004         27.5004
 -27581389.93447 -21459989.89846  22554754.8834                   22554754.3444
        44.5004         38.5004
  -3300481.74246  -2547588.61744  24448378.1884                   24448384.0394
        39.7504         29.2504
 -20473164.05946 -15907952.30943  23724152.9924                   23724158.9804
        37.5004         20.5004
 05 12 23  0 31  0.0000000  0  9G03G09G16G04G26G06G31G07G01
 -37108127.36748 -28891835.82048  19933385.3984                   19933386.8014
        49.0004         50.2504
 -14375219.84447 -11175602.19546  22705440.3754                   22705443.2664
        43.0004         39.5004
 -24999067.04747 -18974282.93745  21252261.4064                   21252261.2034
        45.2504         32.5004
 -33031588.84847 -24358931.98446  20612426.7814                   20612426.7704
        46.0004         36.0004
 -27927923.74647 -21736983.83647  21487111.4064                   21487114.3674
        45.2504         42.5004
  -6007076.39546  -4656861.17244  24429036.3594                   24429041.4804
        36.5004         27.2504
 -27515200.23047 -21408413.54746  22567350.3914                   22567350.2774
        43.7504         37.7504
  -3408385.35546  -2631668.98044  24427844.1804                   24427849.8524
        39.7504         29.5004
 -20408227.19146 -15857352.49243  23736510.3524                   23736516.2624
        39.0004         21.5004
 05 12 23  0 31 30.0000000  0  9G03G09G16G04G26G06G31G07G01
 -37107421.35248 -28891285.68748  19933519.8984                   19933521.0864
        49.0004         50.2504
 -14479003.81247 -11256472.70746  22685690.7194                   22685693.7074
        43.7504         39.0004
 -25090874.02347 -19045820.76245  21234790.7504                   21234790.2344
        44.5004         33.2504
 -33092121.97747 -24406100.64146  20600907.4614                   20600907.9774
        45.7504         37.0004
 -27926708.02747 -21736036.52347  21487343.5164                   21487345.7074
        45.0004         42.2504
  -6057288.47346  -4695987.43044  24419480.7734                   24419486.5084
        36.0004         27.5004
 -27448835.10947 -21356700.50846  22579979.6954                   22579979.1804
        44.0004         38.5004
  -3516066.02746  -2715575.62944  24407353.1484                   24407358.7194
        40.0004         28.5004
 -20343206.68446 -15806687.46543  23748882.6414                   23748889.6484
        39.0004         22.7504
 05 12 23  0 32  0.0000000  0  9G03G09G16G04G26G06G31G07G01
 -35530677.58248 -27662654.19548  20233564.2034                   20233565.6134
        48.7504         50.0004
 -13007271.40247 -10109668.12546  22965752.4304                   22965755.6994
        43.2504         38.5004
 -23606696.92247 -17889319.05545  21517220.6414                   21517219.5164
        45.0004         32.5004
 -31577008.21947 -23225492.50446  20889224.1564                   20889224.4454
        45.2504         36.2504
 -26349424.03947 -20506984.06647  21787490.2734                   21787492.6334
        45.2504         42.5004
  -4531504.21546  -3507064.58244  24709828.8754                   24709833.3914
        36.2504         25.7504
 -25806882.44147 -20077256.90646  22892432.5704                   22892431.9574
        44.0004         37.7504
  -2048103.16846  -1571708.11744  24686697.0634                   24686702.5434
        40.2504         29.0004
 -18702691.24646 -14528364.06643  24061063.3674                   24061069.3444
        39.7504         22.5004
 05 12 23  0 32 30.0000000  0  9G03G09G16G04G26G06G31G07G01
 -35528739.64848 -27661144.12548  20233932.8054                   20233934.5164
        48.5004         50.0004
 -13110872.22347 -10190395.93046  22946036.9304                   22946039.8364
        43.0004         38.2504
 -23697382.13747 -17959982.78145  21499963.7274                   21499962.8054
        44.5004         33.5004
 -31637094.17647 -23272312.71546  20877790.2194                   20877790.1094
        45.5004         36.0004
 -26346916.00847 -20505029.75447  21787967.3524                   21787969.8524
        44.0004         42.2504
  -4580569.95746  -3545297.60944  24700493.1954                   24700495.8674
        36.5004         26.2504
 -25740183.11747 -20025283.44546  22905124.9924                   22905124.4064
        42.7504         37.5004
  -2155346.52346  -1655274.02044  24666288.8594                   24666294.1484
        39.2504         29.2504
 -18637522.77046 -14477583.74644  24073464.6804                   24073471.0124
        40.0004         24.7504
 05 12 23  0 33  0.0000000  0  9G03G09G16G04G26G06G31G07G01
 -35526192.25848 -27659159.15248  20234417.5554                   20234419.3524
        48.0004         50.0004
 -13214386.49247 -10271056.28946  22926339.5004                   22926342.2934
        43.0004         38.5004
 -23787507.98047 -18030210.64545  21482813.1414                   21482812.5984
        45.7504         32.5004
 -31696961.32447 -23318962.42646  20866397.7974                   20866397.7154
        45.5004         36.0004
 -26343769.27047 -20502577.74647  21788566.4694                   21788568.6094
        44.5004         42.2504
  -4629067.96946  -3583088.23044  24691261.7194                   24691267.3404
        37.0004         27.5004
 -25673325.81647 -19973186.88746  22917847.5554                   22917847.5664
        44.2504         38.5004
  -2262375.98846  -1738673.25445  24645920.9304                   24645926.9064
        39.2504         30.0004
 -18572290.64546 -14426753.80944  24085878.4534                   24085884.9144
        40.2504         26.2504
 05 12 23  0 33 30.0000000  0  9G03G09G16G04G26G06G31G07G01
 -35523034.42647 -27656698.51648  20235018.7734                   20235019.8404
        47.7504         50.0004
 -13317812.09447 -10351647.56246  22906657.8984                   22906660.1414
        42.5004         38.0004
 -23877070.69547 -18099999.69945  21465770.0944                   21465769.1804
        45.0004         32.0004
 -31756607.57447 -23365440.00846  20855047.5234                   20855047.5124
        45.7504         37.0004
 -26339983.53147 -20499627.82447  21789286.9064                   21789289.1644
        44.0004         42.2504
  -4676996.78546  -3620435.34044  24682142.5554                   24682146.3164
        37.2504         26.5004
 -25606311.35547 -19920967.86746  22930600.3914                   22930599.9734
        42.0004         37.5004
  -2369189.85546  -1821904.49245  24625595.0394                   24625600.7034
        39.7504         30.0004
 -18506996.36746 -14375875.48844  24098303.1094                   24098309.9064
        39.2504         26.0004
 05 12 23  0 34  0.0000000  0  9G03G09G16G04G26G06G31G07G01
 -35519262.79747 -27653759.59048  20235736.2814                   20235737.3954
        47.7504         49.7504
 -13421144.67647 -10432166.34846  22886993.7114                   22886996.6644
        42.7504         37.5004
 -23966063.46547 -18169344.64545  21448835.0784                   21448834.1884
        45.7504         32.7504
 -31816028.25447 -23411741.83246  20843740.3134                   20843740.2034
        45.0004         36.7504
 -26335556.00847 -20496177.81247  21790128.9144                   21790131.4304
        44.0004         42.2504
  -4724352.27045  -3657335.67244  24673130.5704                   24673135.1484
        35.7504         25.5004
 -25539137.80547 -19868624.88346  22943382.8364                   22943382.4304
        42.0004         36.7504
  -2475783.34046  -1904964.03145  24605310.8984                   24605316.4224
        39.7504         30.0004
 -18441639.13346 -14324948.10243  24110740.8914                   24110747.5594
        40.7504         23.7504
 05 12 23  0 34 30.0000000  0  9G03G09G16G04G26G06G31G07G01
 -35514878.89148 -27650343.57048  20236570.6414                   20236572.1334
        48.2504         50.0004
 -13524384.59447 -10512612.93746  22867347.7114                   22867350.6884
        42.2504         37.5004
 -24054484.66847 -18238244.20745  21432009.2814                   21432008.1684
        45.5004         33.5004
 -31875223.77047 -23457868.19946  20832475.2344                   20832475.4344
        46.2504         36.7504
 -26330488.87947 -20492229.39847  21791093.7274                   21791095.7584
        45.0004         42.0004
  -4771135.31246  -3693789.96544  24664228.1644                   24664232.9064
        37.0004         27.0004
 -25471808.55946 -19816160.57846  22956194.9614                   22956194.8204
        41.7504         37.7504
  -2582157.30146  -1987852.49645  24585067.9144                   24585073.7464
        40.5004         30.5004
 -18376222.86346 -14273974.70743  24123189.1094                   24123196.0044
        41.0004         23.7504
 05 12 23  0 35  0.0000000  0  9G03G09G16G04G26G06G31G07G01
 -35509885.33248 -27646452.48848  20237520.8364                   20237522.3874
        48.0004         49.7504
 -13627533.31247 -10592988.47346  22847719.8054                   22847722.2304
        42.5004         38.0004
 -24142333.44547 -18306697.73445  21415292.2034                   21415291.0784
        45.2504         32.2504
 -31934195.44147 -23503820.13746  20821253.7194                   20821253.3524
        46.7504         36.7504
 -26324785.43447 -20487785.15247  21792178.5314                   21792181.1804
        45.5004         42.2504
  -4817347.93046  -3729799.76644  24655434.5864                   24655438.6524
        36.7504         28.0004
 -25404327.70347 -19763578.12146  22969036.7034                   22969036.1764
        42.5004         36.2504
  -2688313.03946  -2070570.91444  24564867.3364                   24564872.6454
        40.0004         29.5004
 -18310752.58646 -14222959.23443  24135647.7504                   24135654.8984
        38.7504         22.2504
 05 12 23  0 35 30.0000000  0  9G03G09G16G04G26G06G31G07G01
 -35504285.23848 -27642088.78948  20238586.6094                   20238587.7424
        48.2504         49.7504
 -13730592.78147 -10673294.45746  22828107.7034                   22828110.5824
        43.0004         38.5004
 -24229609.90247 -18374705.29345  21398683.8984                   21398683.2074
        45.2504         33.7504
 -31992945.06247 -23549599.05546  20810073.7274                   20810073.8674
        45.7504         36.0004
 -26318449.37547 -20482847.95747  21793384.7274                   21793386.7304
        45.0004         42.0004
  -4862992.50046  -3765366.93744  24646748.2344                   24646752.9844
        36.0004         28.0004
 -25336699.84847 -19710881.12546  22981905.2664                   22981905.4734
        43.0004         37.0004
  -2794252.52346  -2153120.84044  24544707.2974                   24544712.3794
        41.0004         29.2504
 -18245233.92246 -14171906.04743  24148116.9454                   24148122.8324
        38.7504         21.0004
 05 12 23  0 36  0.0000000  0  9G03G09G16G04G26G06G31G07G01
 -35498077.82448 -27637251.85548  20239768.1024                   20239769.0394
        48.0004         49.7504
 -13833560.99247 -10753529.34046  22808514.0234                   22808516.0944
        43.0004         38.7504
 -24316310.14147 -18442263.86345  21382185.5084                   21382184.1884
        45.0004         33.5004
 -32051470.53147 -23595203.30146  20798936.6174                   20798936.8674
        46.2504         36.5004
 -26311480.62147 -20477417.76247  21794710.6804                   21794713.3204
        43.7504         42.0004
  -4908067.59046  -3800490.35544  24638171.2894                   24638175.3554
        37.0004         28.2504
 -25268925.63747 -19658070.09846  22994803.2344                   22994802.1414
        43.2504         37.7504
  -2899973.84046  -2235500.75445  24524589.3834                   24524594.5554
        41.2504         30.0004
 -18179668.34046 -14120816.32043  24160593.2814                   24160599.6454
        37.5004         20.7504
 05 12 23  0 36 30.0000000  0  9G03G09G16G04G26G06G31G07G01
 -35491265.69548 -27631943.71148  20241064.3524                   20241065.4494
        49.2504         49.7504
 -13936439.32447 -10833694.18046  22788936.7664                   22788939.0434
        43.2504         39.0004
 -24402433.36347 -18509372.79745  21365796.3674                   21365795.6994
        46.0004         33.7504
 -32109773.16047 -23640633.91046  20787842.3674                   20787841.8404
        47.0004         36.5004
 -26303882.41447 -20471497.07047  21796156.8364                   21796158.5704
        45.0004         42.2504
  -4952575.21146  -3835171.59444  24629700.3054                   24629706.4184
        36.5004         28.5004
 -25201009.13747 -19605148.19546  23007726.6484                   23007726.0354
        43.5004         37.5004
  -3005478.52046  -2317711.86344  24504512.0864                   24504517.4384
        41.0004         29.2504
 -18114060.78946 -14069693.87143  24173077.8674                   24173084.8244
        36.7504         19.0004
 05 12 23  0 37  0.0000000  0  9G03G09G16G04G26G06G31G07G01
 -35483846.79348 -27626162.75848  20242475.9694                   20242477.3364
        49.5004         49.5004
 -14039224.35947 -10913786.32046  22769377.5084                   22769379.8634
        43.7504         39.2504
 -24487974.05147 -18576027.81245  21349518.9304                   21349517.6374
        45.0004         33.7504
 -32167849.42247 -23685888.11346  20776790.7194                   20776790.3404
        46.7504         36.5004
 -26295653.29747 -20465084.76647  21797722.5164                   21797724.9384
        45.7504         42.0004
  -4996512.66046  -3869408.54744  24621340.0784                   24621344.9024
        36.0004         28.0004
 -25132949.89847 -19552115.06246  23020678.1024                   23020677.3984
        44.0004         37.0004
  -3110763.33646  -2399751.66444  24484476.8594                   24484481.5904
        40.0004         28.5004
 -18048411.54346 -14018538.96943  24185571.0164                   24185577.8874
        37.0004         18.5004
 05 12 23  0 37 30.0000000  0  9G03G09G16G04G26G06G31G07G01
 -35475818.89848 -27619907.26648  20244003.4224                   20244004.6644
        48.5004         49.5004
 -14141912.70747 -10993803.12946  22749836.7814                   22749838.8134
        43.0004         39.5004
 -24572926.63747 -18642224.56645  21333352.5474                   21333351.5234
        44.7504         33.2504
 -32225695.77747 -23730963.18046  20765783.1174                   20765782.5944
        46.2504         36.5004
 -26286791.78147 -20458179.68046  21799408.7034                   21799411.0864
        45.7504         41.7504
  -5039876.98046  -3903198.91444  24613088.3204                   24613093.1094
        36.2504         28.7504
 -25064747.23847 -19498970.18446  23033656.9384                   23033656.0744
        42.7504         37.7504
  -3215825.03946  -2481617.62144  24464484.0554                   24464489.1054
        38.5004         26.7504
 -17982720.68746 -13967351.59043  24198071.4774                   24198078.0434
        36.7504         18.5004
 05 12 23  0 38  0.0000000  0  9G03G09G16G04G26G06G31G07G01
 -35467192.37948 -27613185.32048  20245644.9694                   20245646.8634
        49.0004         49.5004
 -14244513.28547 -11073751.54346  22730312.1094                   22730314.0984
        42.7504         38.5004
 -24657299.06647 -18707969.25445  21317297.1414                   21317296.1374
        45.2504         34.0004
 -32283321.10547 -23775866.01246  20754816.9844                   20754816.5864
        46.5004         36.7504
 -26277308.80147 -20450790.34046  21801213.2734                   21801215.2774
        45.2504         41.7504
  -5082677.88346  -3936550.28144  24604943.2584                   24604947.9534
        36.2504         28.7504
 -24996412.43747 -19445722.33646  23046660.0234                   23046660.0204
        44.0004         37.0004
  -3320672.58646  -2563316.70744  24444531.2814                   24444536.2934
        39.2504         25.0004
 -17917000.75446 -13916141.56243  24210578.0004                   24210585.2074
        38.0004         18.2504
 05 12 23  0 38 30.0000000  0  9G03G09G16G04G26G06G31G07G01
 -35457963.82048 -27605994.24248  20247400.8364                   20247402.3244
        49.0004         49.5004
 -14347021.42647 -11153627.93046  22710805.1174                   22710807.8404
        43.5004         39.0004
 -24741084.28547 -18773256.37545  21301353.2114                   21301351.8364
        45.2504         34.0004
 -32340720.57447 -23820592.85546  20743894.3054                   20743894.1724
        47.2504         36.0004
 -26267201.65247 -20442914.63346  21803136.7894                   21803139.1454
        46.0004         41.7504
  -5124911.42645  -3969459.52044  24596905.7664                   24596911.5704
        35.7504         28.5004
 -24927943.70747 -19392370.12946  23059689.5784                   23059689.2384
        43.2504         37.7504
  -3425301.55546  -2644845.45744  24424621.3444                   24424625.7234
        39.0004         27.0004
 -17851250.63346 -13864908.01243  24223090.1414                   24223097.0394
        38.5004         20.2504
 05 12 23  0 39  0.0000000  0  9G03G09G16G04G26G06G31G07G01
 -35448134.77748 -27598335.27048  20249271.6024                   20249272.8204
        48.7504         49.5004
 -14449437.19947 -11233432.34046  22691315.8524                   22691318.4144
        43.5004         39.0004
 -24824280.25847 -18838084.34445  21285521.4534                   21285520.9064
        46.0004         34.0004
 -32397894.23047 -23865143.73046  20733014.3284                   20733014.6414
        47.5004         36.5004
 -26256472.52747 -20434554.27746  21805178.5944                   21805180.4964
        46.0004         41.7504
  -5166578.38746  -4001927.26644  24588977.1334                   24588983.0164
        36.5004         29.0004
 -24859344.01647 -19338915.88346  23072743.8674                   23072743.3444
        42.0004         37.5004
  -3529712.01646  -2726203.96944  24404751.8284                   24404756.7154
        39.0004         25.0004
 -17785474.08646 -13813653.84443  24235607.6094                   24235614.8524
        38.7504         21.2504
 05 12 23  0 39 30.0000000  0  9G03G09G16G04G26G06G31G07G01
 -35437706.40248 -27590209.27748  20251255.9304                   20251257.7424
        48.5004         49.5004
 -14551760.37547 -11313164.59446  22671844.1334                   22671846.8524
        43.5004         38.5004
 -24906885.01247 -18902451.62145  21269802.3284                   21269801.3594
        45.0004         34.2504
 -32454841.65247 -23909518.32446  20722177.7894                   20722177.5944
        47.0004         36.5004
 -26245123.18447 -20425710.62546  21807338.2034                   21807340.2974
        45.7504         41.7504
  -5207679.35546  -4033953.99644  24581156.5004                   24581161.4884
        36.7504         28.5004
 -24790615.55947 -19285361.29746  23085822.8364                   23085822.0234
        42.5004         36.7504
  -3633904.34846  -2807392.50044  24384924.6884                   24384929.5864
        37.7504         25.5004
 -17719674.34046 -13762381.65243  24248129.0784                   24248136.4884
        39.2504         21.0004
 05 12 23  0 40  0.0000000  0  9G03G09G16G04G26G06G31G07G01
 -35426676.55148 -27581614.60248  20253355.0004                   20253356.5234
        49.0004         49.5004
 -14653987.28147 -11392821.83246  22652391.2584                   22652393.4574
        42.7504         38.2504
 -24988893.12547 -18966353.98445  21254196.6954                   21254195.5864
        46.0004         34.0004
 -32511559.22747 -23953713.82046  20711384.6724                   20711384.5864
        46.5004         36.2504
 -26233152.19947 -20416382.59847  21809616.1724                   21809618.4844
        45.7504         42.0004
  -5248211.46546  -4065537.46144  24573443.4304                   24573448.2974
        37.0004         28.5004
 -24721757.60247 -19231705.80946  23098925.6484                   23098925.3594
        42.5004         37.0004
  -3737875.03546  -2888408.30944  24365139.7344                   24365144.2384
        38.5004         26.0004
 -17653851.49246 -13711091.44943  24260654.9774                   24260662.0664
        38.7504         22.5004
 05 12 23  0 40 30.0000000  0  9G03G09G16G04G26G06G31G07G01
 -35415041.89848 -27572548.66048  20255569.0474                   20255570.5634
        49.0004         49.5004
 -14756113.12947 -11472400.32446  22632957.1804                   22632959.8134
        43.0004         38.7504
 -25070298.29747 -19029786.52345  21238705.8674                   21238704.4574
        47.0004         34.2504
 -32568041.97747 -23997726.32046  20700636.4064                   20700636.3914
        47.0004         37.0004
 -26220556.80547 -20406567.99247  21812012.8054                   21812015.4384
        45.7504         42.0004
  -5288170.72346  -4096674.54744  24565839.3754                   24565844.2814
        36.0004         28.2504
 -24652768.08647 -19177947.80546  23112053.8054                   23112053.3014
        42.5004         36.7504
  -3841619.37946  -2969247.75444  24345397.4304                   24345402.0354
        38.5004         28.0004
 -17588004.14846 -13659782.14844  24273185.2734                   24273192.6804
        40.2504         24.0004
 05 12 23  0 41  0.0000000  0  9G03G09G16G04G26G06G31G07G01
 -35402803.34448 -27563012.14848  20257897.9224                   20257899.4884
        48.5004         49.5004
 -14858137.31247 -11551899.60246  22613542.7194                   22613545.2584
        43.5004         39.0004
 -25151097.93047 -19092747.22745  21223330.2974                   21223329.1054
        46.2504         34.7504
 -32624289.21947 -24041555.32446  20689932.7814                   20689933.0164
        46.7504         36.5004
 -26207338.59047 -20396268.09447  21814528.2114                   21814530.6134
        44.0004         42.0004
  -5327557.43746  -4127365.49244  24558344.1954                   24558349.3244
        36.5004         29.0004
 -24583648.76246 -19124088.66846  23125206.5944                   23125206.6954
        41.2504         36.0004
  -3945136.84046  -3049910.40244  24325699.4534                   24325703.4844
        39.5004         29.0004
 -17522135.48846 -13608456.25444  24285719.5944                   24285727.8874
        39.5004         25.0004
 05 12 23  0 41 30.0000000  0  9G03G09G16G04G26G06G31G07G01
 -35389961.93048 -27553005.86348  20260342.0234                   20260343.3094
        49.0004         49.5004
 -14960059.35247 -11631319.27746  22594147.1884                   22594149.2584
        43.5004         39.5004
 -25231289.89847 -19155234.41845  21208069.7274                   21208068.8484
        46.2504         34.5004
 -32680300.40647 -24085200.37946  20679274.4224                   20679274.1294
        45.7504         36.0004
 -26193499.31247 -20385484.23846  21817161.9064                   21817164.2034
        45.7504         41.7504
  -5366371.98446  -4157610.58644  24550958.0634                   24550962.9024
        37.0004         28.2504
 -24514402.16447 -19070130.34445  23138384.1884                   23138384.0314
        42.7504         35.7504
  -4048427.34846  -3130396.23045  24306042.7034                   24306047.3444
        39.7504         30.5004
 -17456248.41846 -13557116.04743  24298257.7584                   24298265.9804
        39.0004         22.7504
 05 12 23  0 42  0.0000000  0  9G03G09G16G04G26G06G31G07G01
 -35376525.76648 -27542536.14148  20262898.6254                   20262900.0704
        48.2504         49.7504
 -15061885.68747 -11710664.39146  22574770.4774                   22574772.8554
        43.7504         39.0004
 -25310878.73447 -19217251.64145  21192925.2344                   21192923.4104
        46.5004         34.7504
 -32736081.95347 -24128666.49246  20668659.5084                   20668659.7114
        47.5004         37.0004
 -26179047.65647 -20374223.20746  21819911.4924                   21819914.3954
        43.5004         41.2504
  -5404621.81246  -4187415.66044  24543679.3204                   24543684.2624
        37.0004         27.5004
 -24445037.33647 -19016079.89845  23151584.1094                   23151583.9264
        42.5004         35.5004
  -4151497.80946  -3210710.57845  24286429.3524                   24286433.7814
        40.0004         32.5004
 -17390353.16046 -13505769.44143  24310797.9384                   24310805.8014
        39.0004         22.7504
 05 12 23  0 42 30.0000000  0  9G03G09G16G04G26G06G31G07G01
 -35362488.96148 -27531598.39148  20265569.6804                   20265571.0984
        49.2504         49.5004
 -15163608.88747 -11789929.14146  22555413.1334                   22555415.5594
        44.2504         39.5004
 -25389855.81247 -19278792.16445  21177895.9304                   21177894.7544
        47.0004         34.0004
 -32791626.23847 -24171947.73846  20658090.1254                   20658089.5904
        47.0004         37.0004
 -26163978.33247 -20362480.88346  21822779.3594                   21822781.7344
        45.7504         41.5004
  -5442300.39546  -4216775.61744  24536509.6564                   24536514.0944
        37.0004         26.7504
 -24375549.46547 -18961933.57446  23164807.1484                   23164806.9774
        43.0004         36.0004
  -4254340.93446  -3290847.78945  24266859.0634                   24266863.3134
        40.7504         33.5004
 -17324445.75446 -13454413.36743  24323339.7584                   24323348.3874
        38.5004         23.5004
 05 12 23  0 43  0.0000000  0  9G03G09G16G04G26G06G31G07G01
 -35347853.57448 -27520194.21548  20268354.7344                   20268356.4414
        49.2504         49.5004
 -15265229.35247 -11869113.82846  22536075.4144                   22536077.7424
        43.5004         39.7504
 -25468219.58647 -19339854.78945  21162983.8204                   21162982.3554
        47.0004         34.2504
 -32846933.67247 -24215044.41446  20647564.9844                   20647564.9804
        46.5004         37.0004
 -26148294.11347 -20350259.41447  21825763.9774                   21825766.3164
        45.5004         42.0004
  -5479409.12146  -4245691.51644  24529448.2974                   24529452.6024
        37.0004         27.7504
 -24305941.67247 -18907693.80146  23178052.9224                   23178052.8324
        43.0004         36.0004
  -4356957.41447  -3370808.39845  24247331.3914                   24247335.5554
        42.0004         35.2504
 -17258530.22346 -13403050.97343  24335883.6954                   24335890.9104
        38.5004         22.2504
 05 12 23  0 43 30.0000000  0  9G03G09G16G04G26G06G31G07G01
 -35332618.84848 -27508323.02048  20271253.7424                   20271255.1564
        48.0004         49.5004
 -15366744.63347 -11948216.55146  22516757.7664                   22516760.0744
        43.2504         39.7504
 -25545966.01247 -19400436.35545  21148189.1414                   21148187.6524
        46.5004         34.5004
 -32902001.66847 -24257954.52346  20637085.6954                   20637086.1564
        46.2504         36.5004
 -26131994.86347 -20337558.70346  21828865.8444                   21828868.3634
        44.0004         41.5004
  -5515946.54346  -4274162.25044  24522496.0004                   24522499.7344
        37.2504         27.5004
 -24236214.15647 -18853360.75046  23191322.1024                   23191321.2854
        43.5004         36.5004
  -4459344.99246  -3450590.65645  24227847.8444                   24227851.3444
        41.0004         34.5004
 -17192607.71146 -13351683.14143  24348428.7974                   24348436.5044
        37.5004         22.0004
 05 12 23  0 44  0.0000000  0  9G03G09G16G04G26G06G31G07G01
 -35316791.07448 -27495989.70748  20274265.6804                   20274267.2464
        48.5004         49.5004
 -15468159.35547 -12027240.91846  22497458.9614                   22497461.1054
        42.7504         39.0004
 -25623098.23047 -19460539.32845  21133511.3834                   21133509.8094
        45.5004         35.0004
 -32956834.81247 -24300681.62546  20626651.7734                   20626651.6524
        46.2504         37.0004
 -26115087.58647 -20324384.19946  21832083.2194                   21832085.5394
        45.7504         41.5004
  -5551918.39146  -4302192.27744  24515650.8594                   24515654.5474
        36.2504         27.2504
 -24166374.36747 -18798940.21146  23204611.9844                   23204612.1994
        43.0004         36.5004
  -4561508.75446  -3530198.50845  24208405.4774                   24208410.1134
        40.7504         34.2504
 -17126686.44946 -13300316.29343  24360972.1414                   24360980.8914
        37.5004         22.2504
 05 12 23  0 44 30.0000000  0  9G03G09G16G04G26G06G31G07G01
 -35300370.12548 -27483194.18748  20277390.4844                   20277392.1524
        49.2504         49.5004
 -15569471.61347 -12106185.43746  22478180.1024                   22478182.1524
        42.5004         39.5004
 -25699612.88747 -19520161.08645  21118951.0314                   21118949.5274
        46.0004         34.7504
 -33011431.13747 -24343224.20346  20616262.4534                   20616262.2974
        46.0004         36.7504
 -26097572.71547 -20310736.25046  21835416.2424                   21835418.5124
        46.2504         41.5004
  -5587323.85946  -4329780.96144  24508913.2584                   24508916.9574
        36.7504         27.2504
 -24096422.97347 -18744432.70746  23217923.3364                   23217923.2274
        43.0004         36.7504
  -4663447.30147  -3609630.85545  24189007.4534                   24189011.8754
        42.2504         34.7504
 -17060768.10946 -13248951.71543  24373516.4224                   24373525.5554
        37.2504         21.7504
 05 12 23  0 45  0.0000000  0  9G03G09G16G04G26G06G31G07G01
 -35283359.14548 -27469938.89848  20280627.4064                   20280629.2974
        49.2504         49.2504
 -15670682.80947 -12185051.20346  22458919.4064                   22458922.0704
        43.0004         39.5004
 -25775509.80147 -19579301.48845  21104508.3834                   21104506.7854
        47.0004         34.0004
 -33065791.94547 -24385583.25446  20605917.6884                   20605917.6094
        46.5004         37.2504
 -26079454.05947 -20296617.82846  21838863.9534                   21838866.4414
        46.0004         41.0004
  -5622165.44146  -4356930.27044  24502282.0554                   24502287.1604
        36.2504         27.2504
 -24026363.91047 -18689841.31646  23231255.5084                   23231255.1914
        43.0004         37.0004
  -4765162.00846  -3688888.79345  24169652.0394                   24169655.8954
        41.2504         34.5004
 -16994857.74646 -13197593.36343  24386059.3754                   24386067.4104
        37.0004         20.2504
 05 12 23  0 45 30.0000000  0  9G03G09G16G04G26G06G31G07G01
 -35265757.69147 -27456223.50048  20283977.1174                   20283978.7194
        47.7504         49.5004
 -15771790.66047 -12263836.44546  22439679.6334                   22439681.4414
        43.0004         39.7504
 -25850784.87947 -19637957.33645  21090183.6564                   21090182.5274
        46.5004         34.5004
 -33119914.96547 -24427757.02046  20595618.5234                   20595618.1644
        47.2504         37.0004
 -26060731.84847 -20282029.10246  21842426.5554                   21842429.0664
        43.5004         41.2504
  -5656442.04346  -4383639.33644  24495760.0864                   24495764.6644
        36.5004         27.2504
 -23956197.67647 -18635166.39146  23244607.6724                   23244607.4024
        43.0004         37.2504
  -4866651.62546  -3767971.33645  24150339.0554                   24150342.2584
        40.7504         33.5004
 -16928956.69546 -13146242.32843  24398599.9224                   24398608.2814
        37.5004         20.0004
 05 12 23  0 46  0.0000000  0  9G03G09G16G04G26G06G31G07G01
 -35247561.93048 -27442045.00848  20287439.6254                   20287441.1524
        49.2504         49.2504
 -15872789.56247 -12342536.79346  22420459.9384                   22420462.2974
        44.0004         39.7504
 -25925431.60947 -19696123.57045  21075978.7114                   21075977.5394
        45.7504         34.7504
 -33173794.45747 -24469741.01646  20585365.3134                   20585365.3874
        47.0004         36.7504
 -26041402.85947 -20266967.57046  21846104.5084                   21846107.1524
        44.7504         41.2504
  -5690149.15646  -4409904.64544  24489345.2734                   24489350.7734
        36.0004         27.7504
 -23885921.43747 -18580405.75846  23257980.6644                   23257980.7344
        42.7504         36.7504
  -4967910.33646  -3846873.93745  24131069.4224                   24131073.5004
        40.7504         32.7504
 -16863062.87946 -13094896.90643  24411139.5004                   24411148.3054
        36.5004         19.0004
 05 12 23  0 46 30.0000000  0  9G03G09G16G04G26G06G31G07G01
 -35228776.23848 -27427406.82448  20291014.3134                   20291016.1214
        49.5004         49.5004
 -15973682.00447 -12421154.18046  22401260.9774                   22401263.1174
        44.0004         39.7504
 -25999450.89847 -19753800.89845  21061893.2814                   21061891.8984
        46.7504         34.5004
 -33227432.85947 -24511537.15246  20575158.2344                   20575158.2854
        46.7504         37.5004
 -26021472.07047 -20251437.09446  21849897.7424                   21849899.9804
        45.7504         41.0004
  -5723290.53146  -4435729.11344  24483038.3054                   24483043.8204
        36.5004         27.0004
 -23815540.13747 -18525563.25846  23271374.0084                   23271373.8984
        43.0004         37.0004
  -5068941.44946  -3925599.20345  24111843.4774                   24111847.4924
        40.2504         32.7504
 -16797182.46546 -13043561.89143  24423677.3444                   24423685.4024
        37.5004         18.5004
 05 12 23  0 47  0.0000000  0  9G03G09G16G04G26G06G31G07G01
 -35209400.05948 -27412308.52348  20294701.5634                   20294703.0554
        48.7504         49.5004
 -16074465.55547 -12499686.73846  22382082.2504                   22382084.3954
        43.7504         40.2504
 -26072838.93047 -19810986.33245  21047928.2034                   21047926.2584
        45.7504         34.7504
 -33280827.72347 -24553143.52346  20564997.7734                   20564997.4964
        46.2504         36.7504
 -26000939.66847 -20235437.84046  21853804.7034                   21853807.0824
        45.2504         41.0004
  -5755865.05146  -4461111.88344  24476841.2114                   24476844.8134
        37.7504         27.0004
 -23745054.39547 -18470639.35946  23284787.2584                   23284787.2154
        43.5004         37.0004
  -5169742.98846  -4004145.55945  24092661.3984                   24092665.0124
        38.2504         30.2504
 -16731316.55946 -12992238.20343  24436211.8914                   24436219.4884
        37.0004         19.0004
 05 12 23  0 47 30.0000000  0  9G03G09G16G04G26G06G31G07G01
 -35189432.34848 -27396749.28548  20298501.2584                   20298502.5394
        49.5004         49.2504
 -16175137.23047 -12578132.11346  22362924.9454                   22362927.0004
        43.5004         40.0004
 -26145591.40247 -19867676.52045  21034083.6564                   21034082.9144
        47.0004         34.5004
 -33333975.98847 -24594557.73846  20554884.0634                   20554883.5864
        47.0004         37.0004
 -25979805.19147 -20218969.43446  21857826.3204                   21857828.9144
        44.7504         41.0004
  -5787871.01646  -4486051.62144  24470750.0554                   24470754.3954
        36.5004         26.0004
 -23674463.56247 -18415633.59446  23298219.7194                   23298220.0824
        43.0004         36.2504
  -5270312.40246  -4082511.03544  24073523.0314                   24073527.2114
        38.2504         28.5004
 -16665465.78146 -12940926.31642  24448742.4454                   24448751.0824
        37.2504         17.7504
 05 12 23  0 48  0.0000000  0  9G03G09G16G04G26G06G31G07G01
 -35168881.94548 -27380736.00848  20302411.9694                   20302413.5234
        49.5004         49.5004
 -16275703.95347 -12656495.70746  22343787.8134                   22343789.6644
        44.0004         40.2504
 -26217713.81647 -19923875.76245  21020359.1174                   21020357.6414
        46.5004         34.5004
 -33386884.55147 -24635785.16446  20544815.4304                   20544815.6374
        47.0004         36.7504
 -25958078.09047 -20202039.24246  21861960.8674                   21861963.0984
        45.2504         41.0004
  -5819316.48845  -4510554.61344  24464766.0164                   24464770.4024
        35.7504         27.2504
 -23603777.09847 -18360553.29746  23311671.2664                   23311671.1994
        43.0004         36.5004
  -5370656.79346  -4160701.21544  24054428.3054                   24054432.0434
        37.5004         28.0004
 -16599640.62946 -12889634.42243  24461269.0474                   24461277.4694
        38.0004         18.5004
 05 12 23  0 48 30.0000000  0  9G03G09G16G04G26G06G31G07G01
 -35147742.76248 -27364263.93748  20306434.9064                   20306435.9454
        49.0004         49.5004
 -16376157.62547 -12734771.21946  22324671.8134                   22324673.7504
        43.0004         40.2504
 -26289196.84447 -19979576.77045  21006756.8364                   21006755.3714
        46.2504         34.7504
 -33439545.29347 -24676819.49646  20534794.5164                   20534794.6454
        47.0004         36.7504
 -25935752.91447 -20184643.01646  21866208.9064                   21866211.5004
        44.5004         41.0004
  -5850194.87146  -4534615.71944  24458890.0234                   24458894.7464
        36.7504         26.0004
 -23532990.12147 -18305394.66845  23325141.5634                   23325141.6334
        43.0004         35.7504
  -5470768.75846  -4238710.25844  24035377.4694                   24035380.3594
        37.2504         27.5004
 -16533836.67246 -12838358.98843  24473791.4534                   24473799.7304
        37.5004         18.5004
 05 12 23  0 49  0.0000000  0  9G03G09G16G04G26G06G31G07G01
 -35126014.12148 -27347332.55148  20310569.6724                   20310571.1214
        48.0004         49.2504
 -16476495.60947 -12812956.58246  22305578.7194                   22305579.9494
        42.5004         40.2504
 -26360036.75447 -20034776.65645  20993276.2894                   20993274.6174
        46.2504         34.5004
 -33491955.45347 -24717658.56246  20524821.4224                   20524821.2194
        47.0004         37.0004
 -25912829.64147 -20166780.73846  21870571.6884                   21870573.8094
        43.2504         41.0004
  -5880504.86345  -4558233.92244  24453121.8674                   24453127.0554
        35.0004         27.2504
 -23462102.34047 -18250157.49646  23338631.5234                   23338631.0944
        43.5004         36.0004
  -5570646.20746  -4316536.57044  24016370.1484                   24016373.9924
        37.7504         28.2504
 -16468054.85546 -12787100.80943  24486309.5314                   24486318.4614
        38.2504         18.5004
 05 12 23  0 49 30.0000000  0  9G03G09G16G04G26G06G31G07G01
 -35103699.98847 -27329944.93448  20314815.9224                   20314817.2274
        47.5004         49.2504
 -16576719.76647 -12891053.24246  22286505.8444                   22286508.0274
        43.2504         40.5004
 -26430234.11347 -20089475.85545  20979917.9224                   20979916.7154
        46.5004         35.5004
 -33544116.92247 -24758303.84446  20514895.3284                   20514895.0434
        47.0004         36.7504
 -25889312.80947 -20148455.94546  21875046.8054                   21875048.8594
        43.5004         40.7504
  -5910249.72746  -4581411.76644  24447461.6724                   24447466.8094
        36.5004         27.7504
 -23391118.40247 -18194845.38345  23352138.8364                   23352138.5944
        43.2504         35.5004
  -5670291.27046  -4394181.83244  23997409.1174                   23997412.1134
        39.7504         29.0004
 -16402300.63746 -12735864.16442  24498822.0234                   24498831.1484
        38.5004         17.2504
 05 12 23  0 50  0.0000000  0  9G03G09G16G04G26G06G31G07G01
 -35080801.00848 -27312101.59448  20319173.3524                   20319174.9264
        48.0004         49.2504
 -16676828.75047 -12969060.15646  22267456.1024                   22267458.1724
        43.5004         40.7504
 -26499786.35247 -20143672.37145  20966682.3914                   20966681.0904
        46.2504         34.2504
 -33596028.25047 -24798754.20346  20505016.8134                   20505016.4414
        47.0004         37.0004
 -25865203.75447 -20129669.67646  21879634.3134                   21879636.7734
        43.2504         40.5004
  -5939429.52046  -4604149.28544  24441909.9534                   24441914.6374
        36.2504         28.0004
 -23320039.28147 -18139459.09845  23365664.9304                   23365664.3834
        42.7504         34.5004
  -5769703.39146  -4471645.57845  23978491.4224                   23978493.9264
        40.5004         30.7504
 -16336576.20746 -12684650.73443  24511330.3204                   24511338.4344
        38.0004         18.5004
 05 12 23  0 50 30.0000000  0  9G03G09G16G04G26G06G31G07G01
 -35057314.10248 -27293800.13348  20323642.8134                   20323643.9774
        48.5004         49.2504
 -16776817.30147 -13046973.22746  22248428.8054                   22248430.9534
        43.5004         41.2504
 -26568687.16447 -20197361.27745  20953571.1804                   20953569.6764
        46.0004         35.0004
 -33647684.22347 -24839005.59846  20495187.0704                   20495186.6214
        47.0004         36.5004
 -25840499.99647 -20110420.00446  21884335.9774                   21884337.8244
        44.2504         41.0004
  -5968040.52746  -4626443.60944  24436464.8444                   24436469.5394
        37.0004         28.7504
 -23248862.68447 -18083996.86745  23379209.4924                   23379209.0634
        42.0004         34.7504
  -5868877.84846  -4548924.15245  23959619.3834                   23959622.2894
        41.7504         30.2504
 -16270879.96546 -12633459.27742  24523831.2424                   24523840.9384
        38.2504         17.7504
 05 12 23  0 51  0.0000000  0  9G03G09G16G04G26G06G31G07G01
 -35033242.53148 -27275043.08248  20328223.4694                   20328224.9414
        49.0004         49.2504
 -16876686.60547 -13124793.39146  22229424.2734                   22229426.4304
        44.2504         41.5004
 -26636936.50847 -20250542.54745  20940583.8284                   20940582.4414
        46.2504         35.5004
 -33699085.94547 -24879058.87146  20485405.2114                   20485405.3054
        47.7504         37.2504
 -25815205.45747 -20090709.98446  21889148.4844                   21889151.2154
        45.0004         41.0004
  -5996085.38746  -4648296.77744  24431126.9384                   24431133.3674
        37.5004         27.7504
 -23177592.22747 -18028461.50045  23392771.8134                   23392771.3164
        43.0004         34.2504
  -5967816.08646  -4626018.66045  23940791.4614                   23940794.4804
        41.7504         32.0004
 -16205216.71146 -12582293.51642  24536326.8834                   24536336.4264
        37.0004         17.7504
 05 12 23  0 51 30.0000000  0  9G03G09G16G04G26G06G31G07G01
 -35008592.18748 -27255835.04348  20332914.2814                   20332916.0084
        49.2504         49.0004
 -16976440.39547 -13202523.53146  22210441.5864                   22210443.6524
        43.5004         41.5004
 -26704536.97747 -20303218.19545  20927719.2894                   20927718.1054
        46.5004         34.5004
 -33750237.20347 -24918916.96946  20475671.7814                   20475671.5124
        47.0004         37.2504
 -25789326.64547 -20070544.69146  21894073.4774                   21894076.0084
        45.0004         40.5004
  -6023569.43746  -4669712.93744  24425899.3364                   24425902.7584
        37.7504         28.5004
 -23106234.47347 -17972858.10945  23406350.4384                   23406350.4414
        42.5004         33.7504
  -6066522.85246  -4702932.80545  23922008.1334                   23922011.3054
        41.7504         33.0004
 -16139593.85946 -12531159.28543  24548815.2734                   24548824.2544
        38.5004         19.0004
 05 12 23  0 52  0.0000000  0  9G03G09G16G04G26G06G31G07G01
 -34983357.55148 -27236171.71548  20337716.3984                   20337718.0314
        48.7504         49.0004
 -17076070.95747 -13280157.66846  22191482.0394                   22191484.4304
        45.0004         41.5004
 -26771479.95747 -20355381.51645  20914981.0554                   20914979.4414
        46.5004         35.2504
 -33801130.17647 -24958573.80546  20465987.3594                   20465987.0704
        47.0004         37.0004
 -25762858.57047 -20049920.23046  21899109.9454                   21899112.0514
        45.0004         40.5004
  -6050486.32446  -4690687.17244  24420776.0234                   24420781.0434
        37.5004         29.2504
 -23034784.09446 -17917182.53545  23419946.6954                   23419947.2814
        41.5004         32.5004
  -6164991.00447  -4779661.01245  23903270.7974                   23903273.0904
        42.0004         33.0004
 -16074007.13746 -12480053.16043  24561296.3984                   24561305.7194
        37.0004         20.2504
 05 12 23  0 52 30.0000000  0  9G03G09G16G04G26G06G31G07G01
 -34957539.25448 -27216053.59048  20342629.1954                   20342631.0784
        48.0004         49.0004
 -17175576.70347 -13357694.53946  22172546.7664                   22172549.1524
        45.0004         41.2504
 -26837762.71947 -20407030.38745  20902367.7344                   20902366.1954
        46.0004         35.2504
 -33851763.27347 -24998028.14846  20456351.8594                   20456351.6094
        47.5004         36.7504
 -25735802.52347 -20028837.60546  21904258.7814                   21904261.1414
        43.0004         40.5004
  -6076836.25446  -4711219.61744  24415761.4224                   24415766.9884
        38.2504         29.5004
 -22963242.46146 -17861435.85245  23433561.0634                   23433561.0274
        41.5004         33.0004
  -6263219.41046  -4856202.41045  23884577.8984                   23884580.5434
        41.5004         33.0004
 -16008458.57046 -12428976.80143  24573769.7734                   24573779.6374
        37.7504         19.0004
 05 12 23  0 53  0.0000000  0  9G03G09G16G04G26G06G31G07G01
 -34931135.59048 -27195479.32848  20347654.0554                   20347655.6054
        48.2504         48.7504
 -17274953.65647 -13435131.06246  22153636.4694                   22153638.1094
        45.0004         41.5004
 -26903380.43747 -20458161.04345  20889881.0944                   20889879.7774
        45.7504         34.7504
 -33902132.56247 -25037276.93046  20446767.2664                   20446766.9104
        47.5004         37.0004
 -25708157.47347 -20007296.02346  21909519.0314                   21909521.6604
        44.2504         40.5004
  -6102616.84846  -4731308.42644  24410855.5634                   24410861.1604
        38.7504         28.5004
 -22891608.15246 -17805616.96545  23447192.4694                   23447192.5044
        40.5004         31.5004
  -6361204.53946  -4932554.23845  23865932.0474                   23865934.4884
        40.7504         33.5004
 -15942947.91846 -12377929.99243  24586236.4064                   24586246.4384
        37.0004         19.5004
 05 12 23  0 53 30.0000000  0  9G03G09G16G04G26G06G31G07G01
 -34904155.43048 -27174455.85948  20352788.1094                   20352789.4694
        48.5004         48.5004
 -17374208.43747 -13512472.38746  22134748.6414                   22134750.4614
        44.0004         41.2504
 -26968338.84047 -20508777.93745  20877519.9534                   20877518.5204
        46.7504         35.0004
 -33952244.60247 -25076325.25446  20437231.1334                   20437230.7974
        47.0004         37.0004
 -25679932.81647 -19985302.79746  21914890.4304                   21914893.0744
        44.0004         40.5004
  -6127836.27346  -4750959.93744  24406057.6954                   24406061.9534
        38.2504         29.0004
 -22819890.38746 -17749733.05545  23460839.8914                   23460839.9344
        41.0004         31.7504
  -6458953.96146  -5008722.40245  23847330.0634                   23847333.3404
        39.7504         31.7504
 -15877485.27746 -12326920.57443  24598693.4534                   24598703.4224
        37.5004         19.0004
 05 12 23  0 54  0.0000000  0  9G03G09G16G04G26G06G31G07G01
 -34876598.55547 -27152982.99648  20358032.0864                   20358033.3484
        47.7504         48.5004
 -17473338.53547 -13589716.55146  22115884.5474                   22115887.0044
        45.0004         40.7504
 -27032634.35547 -20558878.29745  20865284.4064                   20865283.1724
        46.7504         35.7504
 -34002096.87947 -25115171.16046  20427744.6414                   20427743.9964
        47.5004         37.2504
 -25651129.03147 -19962858.30546  21920371.8834                   21920374.0274
        43.0004         40.2504
  -6152493.79746  -4770173.63744  24401364.2584                   24401369.5784
        36.0004         29.7504
 -22748089.32846 -17693784.24645  23474503.2974                   23474503.6604
        40.5004         32.5004
  -6556465.85546  -5084705.50045  23828773.4774                   23828777.0664
        39.0004         30.7504
 -15812071.82446 -12275949.45043  24611143.2194                   24611151.6604
        38.0004         19.0004
 05 12 23  0 54 30.0000000  0  9G03G09G16G04G26G06G31G07G01
 -34848466.92248 -27131062.27348  20363385.1254                   20363386.8714
        48.5004         48.5004
 -17572343.60947 -13666863.29346  22097044.7344                   22097046.2154
        44.7504         41.2504
 -27096266.00847 -20608461.36745  20853175.4774                   20853175.0124
        46.5004         34.5004
 -34051689.04747 -25153814.39546  20418307.0474                   20418307.4614
        47.5004         37.5004
 -25621748.62947 -19939964.49646  21925962.1484                   21925965.1914
        44.2504         40.2504
  -6176590.75846  -4788950.50844  24396778.8364                   24396784.3634
        37.2504         29.5004
 -22676207.08246 -17637772.18445  23488182.1094                   23488182.2074
        41.0004         32.2504
  -6653740.56246  -5160503.75845  23810263.8444                   23810266.2894
        39.5004         31.0004
 -15746710.68446 -12225019.14143  24623580.3054                   24623589.6954
        38.7504         19.2504
 05 12 23  0 55  0.0000000  0  9G03G09G16G04G26G06G31G07G01
 -34819759.78548 -27108693.11348  20368848.1254                   20368849.5634
        48.5004         48.5004
 -17671220.44947 -13743910.12146  22078229.4224                   22078231.2934
        44.7504         41.0004
 -27159229.35247 -20657523.68445  20841194.5944                   20841192.8484
        46.2504         35.5004
 -34101017.94947 -25192252.48446  20408920.8364                   20408920.1484
        47.5004         37.5004
 -25591791.42247 -19916621.23446  21931663.0394                   21931665.7704
        44.7504         39.5004
  -6200125.73846  -4807289.48444  24392299.0864                   24392305.5274
        37.7504         29.5004
 -22604243.25046 -17581696.55145  23501876.4064                   23501876.6724
        41.2504         32.5004
  -6750775.45746  -5236115.15644  23791798.3284                   23791801.3524
        39.2504         29.7504
 -15681402.45346 -12174129.96143  24636009.1414                   24636018.2544
        38.5004         19.2504
 05 12 23  0 55 30.0000000  0  9G03G09G16G04G26G06G31G07G01
 -34790479.49248 -27085877.32448  20374419.8204                   20374421.3874
        48.2504         48.5004
 -17769969.05547 -13820857.01646  22059437.6174                   22059439.5904
        45.0004         41.2504
 -27221523.98847 -20706064.92645  20829340.1804                   20829338.1844
        46.5004         34.0004
 -34150083.58648 -25230485.43046  20399583.6484                   20399583.0514
        48.2504         38.0004
 -25561260.40647 -19892830.84446  21937473.0474                   21937475.2384
        44.5004         39.5004
  -6223100.53146  -4825191.95344  24387929.0004                   24387934.3134
        36.7504         29.5004
 -22532200.61347 -17525559.49645  23515585.8134                   23515585.6724
        42.0004         33.5004
  -6847570.98046  -5311539.99644  23773377.9694                   23773380.8284
        40.2504         29.2504
 -15616150.60546 -12123284.77343  24648425.8284                   24648435.6094
        38.0004         19.5004
 05 12 23  0 56  0.0000000  0  9G03G09G16G04G26G06G31G07G01
 -34760628.02348 -27062616.46948  20380100.2584                   20380102.1844
        48.7504         48.2504
 -17868589.03147 -13897703.69547  22040671.0864                   22040673.0124
        44.5004         42.0004
 -27283148.66847 -20754084.12545  20817612.9844                   20817611.5864
        47.2504         35.2504
 -34198885.48447 -25268512.87546  20390296.8914                   20390296.4224
        47.7504         37.2504
 -25530158.16047 -19868595.34846  21943391.5084                   21943394.0124
        44.0004         40.0004
  -6245516.45346  -4842658.94545  24383664.3204                   24383668.7154
        38.0004         30.7504
 -22460081.15247 -17469362.58645  23529309.7344                   23529309.8834
        42.0004         33.2504
  -6944127.52046  -5386778.66845  23755003.3834                   23755006.6454
        40.0004         30.7504
 -15550958.37546 -12072486.04743  24660832.3594                   24660840.7974
        39.5004         21.0004
 05 12 23  0 56 30.0000000  0  9G03G09G16G04G26G06G31G07G01
 -34730200.97348 -27038907.11348  20385890.5164                   20385892.3244
        48.5004         48.2504
 -17967073.55947 -13974444.82447  22021930.4534                   22021931.5354
        45.0004         42.2504
 -27344095.79347 -20801575.34845  20806014.9224                   20806013.9064
        46.5004         35.0004
 -34247416.83648 -25306329.50446  20381061.0944                   20381061.2234
        48.0004         37.2504
 -25498480.87547 -19843911.76246  21949420.0704                   21949422.1804
        43.7504         40.2504
  -6267368.64846  -4859686.65645  24379505.3054                   24379510.1524
        37.7504         30.5004
 -22387880.37947 -17413102.32845  23543049.2114                   23543049.6454
        42.0004         33.5004
  -7040439.37946  -5461826.69145  23736676.7274                   23736678.7894
        41.5004         31.2504
 -15485822.53946 -12021731.23843  24673226.2894                   24673236.8554
        37.5004         19.5004
 05 12 23  0 57  0.0000000  0  9G03G09G16G04G26G06G31G07G01
 -34699200.01647 -27014750.55148  20391790.0314                   20391791.6524
        47.5004         48.2504
 -18065421.71147 -14051079.70347  22003214.8444                   22003216.8404
        45.5004         42.2504
 -27404363.57047 -20848537.21945  20794546.4304                   20794545.2424
        46.7504         34.7504
 -34295676.83248 -25343934.68446  20371877.8674                   20371877.9844
        48.0004         37.0004
 -25466230.78147 -19818781.82846  21955556.5004                   21955558.7624
        43.0004         40.5004
  -6288657.96546  -4876275.75845  24375453.4144                   24375459.1134
        36.5004         30.5004
 -22315600.55947 -17356780.46545  23556803.8364                   23556804.0084
        42.0004         33.7504
  -7136506.51247  -5536684.03145  23718396.0004                   23718397.6764
        43.0004         32.0004
 -15420745.82446 -11971022.55143  24685610.4774                   24685621.0234
        37.7504         18.2504
 05 12 23  0 57 30.0000000  0  9G03G09G16G04G26G06G31G07G01
 -34667632.24648 -26990152.32448  20397797.0704                   20397798.3364
        48.0004         48.0004
 -18163638.18447 -14127611.96147  21984524.4844                   21984526.7934
        45.5004         42.7504
 -27463956.19947 -20894973.00045  20783206.1884                   20783204.8834
        46.2504         35.0004
 -34343670.12947 -25381332.04746  20362745.2194                   20362744.7344
        47.7504         37.0004
 -25433415.63747 -19793211.60246  21961801.1954                   21961803.2584
        44.0004         40.0004
  -6309391.05946  -4892431.44945  24371507.7734                   24371513.9804
        36.0004         31.0004
 -22243249.05547 -17300402.73845  23570572.1644                   23570571.6994
        42.0004         33.2504
  -7232333.98047  -5611354.60545  23700159.8984                   23700162.1414
        43.7504         32.2504
 -15355736.48446 -11920366.28943  24697981.4454                   24697992.3914
        36.5004         20.0004
 05 12 23  0 58  0.0000000  0  9G03G09G16G04G26G06G31G07G01
 -34635492.19948 -26965108.16048  20403912.8754                   20403914.5314
        48.5004         48.0004
 -18261714.95347 -14204035.37146  21965860.9924                   21965863.1294
        45.2504         41.7504
 -27522865.28147 -20940876.13745  20771996.5314                   20771995.3324
        46.0004         35.7504
 -34391388.74247 -25418515.37546  20353664.7194                   20353664.4924
        47.7504         37.5004
 -25400030.47747 -19767197.21146  21968154.7114                   21968156.2934
        44.2504         40.0004
  -6329561.86346  -4908148.99645  24367669.9384                   24367675.1294
        37.7504         30.5004
 -22170820.18747 -17243964.75045  23584354.7974                   23584354.9694
        42.0004         33.2504
  -7327914.66447  -5685832.89145  23681971.5944                   23681973.3594
        44.0004         32.7504
 -15290790.05146 -11869759.08643  24710340.8364                   24710352.0164
        36.0004         19.2504
 05 12 23  0 58 30.0000000  0  9G03G09G16G04G26G06G31G07G01
 -34602782.96147 -26939620.47748  20410137.8364                   20410139.0634
        47.5004         48.0004
 -18359652.47747 -14280350.27347  21947224.0864                   21947226.6374
        45.0004         42.0004
 -27581090.41447 -20986246.32445  20760916.9144                   20760915.4024
        46.5004         35.5004
 -34438833.21547 -25455485.09046  20344636.2894                   20344636.0314
        47.2504         37.5004
 -25366079.00447 -19740741.53946  21974615.0164                   21974617.1604
        43.0004         40.2504
  -6349172.78146  -4923430.28145  24363938.4924                   24363943.3634
        38.0004         31.5004
 -22098316.86747 -17187468.73845  23598152.1564                   23598152.1484
        42.0004         33.5004
  -7423249.79747  -5760119.83645  23663829.9694                   23663831.8054
        45.0004         33.5004
 -15225910.67646 -11819204.15243  24722687.8834                   24722698.4224
        37.0004         18.2504
 05 12 23  0 59  0.0000000  0  9G03G09G16G04G26G06G31G07G01
 -34569508.89547 -26913692.66048  20416469.3914                   20416471.1214
        47.2504         48.0004
 -18457452.61747 -14356558.13746  21928613.2814                   21928615.0634
        45.5004         41.7504
 -27638632.91847 -21031084.60245  20749966.2504                   20749965.2664
        45.7504         35.0004
 -34486005.34447 -25492242.57846  20335659.9384                   20335659.1764
        47.0004         38.0004
 -25331566.09047 -19713848.37946  21981182.2814                   21981184.7304
        43.5004         39.7504
  -6368227.62146  -4938278.24645  24360312.6724                   24360317.1054
        37.7504         31.7504
 -22025743.65247 -17130918.26245  23611962.0164                   23611962.1414
        42.7504         33.0004
  -7518342.03147  -5834217.48845  23645734.5474                   23645736.1294
        44.5004         35.2504
 -15161103.75446 -11768705.61343  24735020.8134                   24735030.9804
        36.5004         18.2504
 05 12 23  0 59 30.0000000  0  9G03G09G16G04G26G06G31G07G01
 -34535666.99248 -26887322.37548  20422909.1334                   20422910.7114
        48.0004         48.0004
 -18555109.71147 -14432654.52746  21910030.0554                   21910031.8164
        45.2504         41.5004
 -27695486.66447 -21075386.18445  20739147.6174                   20739146.3524
        47.0004         34.7504
 -34532899.54347 -25528783.50446  20326736.4304                   20326735.8404
        47.5004         37.5004
 -25296489.41847 -19686515.92246  21987857.5784                   21987859.8204
        44.0004         40.0004
  -6386722.85946  -4952690.17245  24356792.9694                   24356797.8984
        38.7504         31.7504
 -21953097.63747 -17074311.04345  23625786.2114                   23625786.3834
        42.2504         34.2504
  -7613186.56647  -5908122.11745  23627686.2194                   23627687.8404
        43.7504         34.7504
 -15096367.25845 -11718262.00442  24747339.3444                   24747350.9304
        35.5004         17.7504
 05 12 23  1  0  0.0000000  0  9G03G09G16G04G26G06G31G07G01
 -34501258.90647 -26860510.91848  20429456.8284                   20429458.5394
        47.0004         48.0004
 -18652622.73447 -14508638.65646  21891474.3984                   21891475.6524
        45.5004         41.5004
 -27751649.89847 -21119149.70345  20728460.1644                   20728458.6914
        47.5004         34.5004
 -34579514.88748 -25565107.14146  20317864.9304                   20317864.9734
        48.0004         37.5004
 -25260851.12547 -19658745.84446  21994638.9454                   21994641.5864
        42.7504         39.5004
  -6404659.43746  -4966666.76245  24353378.8984                   24353384.3524
        38.5004         32.5004
 -21880380.28947 -17017648.25845  23639623.9064                   23639623.7464
        42.0004         34.0004
  -7707783.34447  -5981833.68445  23609684.6414                   23609686.2774
        43.0004         34.7504
 -15031703.78145 -11667875.28942  24759644.8834                   24759655.8244
        33.5004         15.5004
 05 12 23  1  0 30.0000000  0  9G03G09G16G04G26G06G31G07G01
 -34466284.46548 -26833258.14547  20436112.7114                   20436114.0164
        48.5004         47.7504
 -18749988.87947 -14584508.34446  21872945.3444                   21872947.7974
        45.7504         41.7504
 -27807119.91447 -21162373.06245  20717904.6024                   20717902.8094
        46.5004         35.2504
 -34625848.56248 -25601211.28946  20309048.4144                   20309048.0944
        48.0004         37.7504
 -25224651.61347 -19630538.46546  22001528.0394                   22001530.3834
        44.2504         40.2504
  -6422036.69146  -4980207.52745  24350073.6564                   24350078.0354
        39.0004         33.2504
 -21807591.80947 -16960930.04345  23653474.8594                   23653475.3834
        42.0004         34.5004
  -7802130.16847  -6055350.46945  23591730.8134                   23591732.7304
        42.2504         34.7504
 -14967114.00045 -11617545.96142  24771935.6564                   24771948.4924
        35.0004         16.2504
 05 12 23  1  1  0.0000000  0  9G03G09G16G04G26G06G31G07G01
 -34430748.90248 -26805568.12148  20442874.4144                   20442876.2154
        48.5004         48.0004
 -18847210.72347 -14660265.57447  21854444.7814                   21854446.6484
        46.0004         42.0004
 -27861898.67247 -21205057.77745  20707480.4774                   20707478.9924
        46.7504         35.5004
 -34671903.20748 -25637098.01246  20300284.2894                   20300284.4414
        48.2504         37.0004
 -25187896.69547 -19601898.28946  22008522.0164                   22008524.1524
        44.2504         39.7504
  -6438859.27046  -4993316.07045  24346872.7504                   24346877.0234
        39.7504         32.7504
 -21734736.92246 -16904160.10245  23667338.5634                   23667339.6294
        41.5004         34.0004
  -7896231.03646  -6128675.61645  23573823.8754                   23573825.3794
        41.7504         34.0004
 -14902604.14145 -11591407.91052  24784212.8134                   24784224.4064
        34.5004         17.2504
 05 12 23  1  1 30.0000000  0  9G03G09G16G04G26G06G31G07G01
 -32819233.95348 -25549842.22347  20749535.5394                   20749537.4144
        48.0004         47.7504
 -17368862.72347 -13508306.03947  22135765.2814                   22135767.1054
        46.0004         42.2504
 -26340561.65647 -20019600.33245  20996981.0314                   20996979.8714
        46.7504         35.5004
 -33142255.07047 -24445164.38746  20591366.5234                   20591366.6884
        47.5004         37.7504
 -23575168.71147 -18345227.15646  22315414.2114                   22315416.0904
        44.0004         38.7504
  -4879706.57046  -3778391.93745  24643569.1254                   24643574.0784
        38.7504         32.7504
 -20086398.45346 -15619740.61345  23981007.1094                   23981007.6214
        41.2504         34.0004
  -6414661.19546  -4974205.37945  23855756.4924                   23855758.8874
        41.5004         34.0004
 -13262757.68745 -10313605.83642  25096265.8594                   25096277.0274
        35.7504         16.7504
 05 12 23  1  2  0.0000000  0  9G03G09G16G04G26G06G31G07G01
 -32782578.86748 -25521279.84447  20756510.8524                   20756512.8524
        48.5004         47.7504
 -17465790.30947 -13583833.96547  22117320.5864                   22117321.9654
        45.5004         42.5004
 -26393951.19947 -20061202.54345  20986821.9774                   20986820.2464
        47.2504         35.7504
 -33187746.21147 -24480612.02046  20582710.2034                   20582709.7074
        47.7504         37.5004
 -23537307.32047 -18315724.80146  22322618.5084                   22322621.3364
        43.7504         39.5004
  -4895420.75446  -3790636.78745  24640578.7504                   24640584.1844
        39.0004         33.5004
 -20013412.89546 -15562868.82845  23994895.9304                   23994896.7154
        41.5004         33.7504
  -6508266.62546  -5047144.45345  23837943.7974                   23837945.6294
        40.5004         34.0004
 -13198412.82845 -10263467.34442  25108509.2974                   25108521.6844
        34.7504         16.2504
 05 12 23  1  2 30.0000000  0  9G03G09G16G04G26G06G31G07G01
 -32745368.00048 -25492284.39147  20763591.8444                   20763593.5274
        48.7504         47.7504
 -17562570.63347 -13659247.14547  22098903.3284                   22098905.3754
        45.0004         42.0004
 -26446645.37547 -20102262.91845  20976794.3524                   20976792.8484
        47.2504         35.7504
 -33232955.56648 -24515840.07446  20574107.0784                   20574106.9964
        48.0004         37.7504
 -23498897.55547 -18285795.14146  22329927.9064                   22329930.2504
        44.0004         39.0004
  -4910583.89546  -3802452.26645  24637692.2814                   24637698.7234
        39.2504         33.7504
 -19940366.10946 -15505949.34445  24008796.8204                   24008796.7274
        41.2504         33.0004
  -6601625.68446  -5119891.52045  23820178.1174                   23820180.6914
        41.5004         34.5004
 -13134155.83245 -10213397.33642  25120736.9224                   25120750.1804
        33.7504         17.2504
 05 12 23  1  3  0.0000000  0  9G03G09G16G04G26G06G31G07G01
 -32707603.54748 -25462857.58247  20770778.3204                   20770780.0704
        48.7504         47.7504
 -17659203.02747 -13734545.03147  22080515.0474                   22080516.8484
        44.7504         42.0004
 -26498643.46947 -20142780.89546  20966899.4924                   20966897.9184
        47.0004         36.0004
 -33277882.49648 -24550848.05946  20565557.6724                   20565557.3634
        48.0004         38.0004
 -23459942.05547 -18255440.23446  22337340.4454                   22337343.1724
        44.0004         39.0004
  -4925197.54746  -3813839.56645  24634912.4614                   24634917.7034
        39.5004         33.5004
 -19867259.71946 -15448983.39845  24022708.5634                   24022708.5704
        40.5004         33.2504
  -6694738.31647  -5192446.60945  23802458.9534                   23802461.3284
        42.0004         34.7504
 -13069989.45745 -10163397.93742  25132948.4614                   25132961.0164
        35.0004         15.5004
 05 12 23  1  3 30.0000000  0  9G03G09G16G04G26G06G31G07G01
 -32669286.82448 -25433000.43448  20778069.9694                   20778071.2774
        48.7504         48.0004
 -17755686.09847 -13809726.57847  22062154.7344                   22062156.7854
        45.7504         42.5004
 -26549943.76647 -20182755.11345  20957137.2344                   20957135.8444
        47.0004         35.7504
 -33322525.73847 -24585634.99246  20557062.1724                   20557062.2384
        47.7504         37.7504
 -23420442.77347 -18224661.60946  22344857.2734                   22344860.0864
        44.5004         39.2504
  -4939262.52346  -3824799.33645  24632235.7814                   24632241.0084
        39.5004         33.7504
 -19794094.79346 -15391971.84445  24036631.3284                   24036631.7934
        39.7504         32.5004
  -6787604.54347  -5264809.70345  23784786.6954                   23784789.4144
        42.0004         34.7504
 -13005916.09446 -10113471.03942  25145142.4774                   25145154.7664
        36.7504         14.7504
 05 12 23  1  4  0.0000000  0  9G03G09G16G04G26G06G31G07G01
 -32630416.04348 -25402711.55147  20785466.9304                   20785468.9064
        48.2504         47.7504
 -17852015.07847 -13884788.04347  22043823.9614                   22043825.8754
        45.0004         42.0004
 -26600541.50047 -20222181.88345  20947508.6414                   20947507.5354
        47.2504         35.5004
 -33366880.57047 -24620197.17646  20548621.7814                   20548621.8444
        47.7504         37.7504
 -23380398.43047 -18193458.25446  22352477.7344                   22352480.4344
        43.5004         39.5004
  -4952776.49646  -3835329.75845  24629663.7974                   24629669.4574
        39.5004         33.2504
 -19720869.37946 -15334913.15645  24050565.7894                   24050566.5164
        40.2504         33.2504
  -6880220.40647  -5336977.69945  23767163.0234                   23767165.2384
        42.5004         35.0004
 -12941934.30545 -10063615.37542  25157316.1804                   25157330.4344
        33.0004         16.2504
 05 12 23  1  4 30.0000000  0  9G03G09G16G04G26G06G31G07G01
 -32590995.97748 -25371994.65248  20792968.3754                   20792969.9534
        49.2504         48.0004
 -17948191.87147 -13959730.92647  22025522.0394                   22025523.6374
        45.0004         42.0004
 -26650438.29747 -20261062.47745  20938013.5704                   20938012.0554
        47.0004         35.7504
 -33410949.03147 -24654536.22746  20540236.0394                   20540235.5744
        47.7504         38.0004
 -23339814.26647 -18161834.26646  22360200.6334                   22360203.2814
        44.0004         39.7504
  -4965743.58246  -3845434.03145  24627196.6254                   24627202.4264
        40.0004         34.5004
 -19647588.08246 -15277810.91045  24064511.1334                   24064511.1804
        39.7504         33.2504
  -6972588.73047  -5408952.83645  23749585.2664                   23749587.4534
        43.0004         35.2504
 -12878049.83645 -10013835.60542  25169474.0474                   25169487.3444
        34.5004         15.5004
 05 12 23  1  5  0.0000000  0  9G03G09G16G04G26G06G31G07G01
 -32551028.68047 -25340851.34047  20800573.9694                   20800575.3204
        47.7504         47.7504
 -18044215.61747 -14034554.55147  22007249.5164                   22007251.1414
        46.2504         42.2504
 -26699633.12547 -20299396.07845  20928651.8674                   20928650.5944
        47.2504         35.5004
 -33454730.32448 -24688651.50846  20531904.8364                   20531904.1914
        48.0004         38.0004
 -23298692.91447 -18129791.68446  22368025.8054                   22368028.4264
        43.0004         39.2504
  -4978165.43446  -3855113.43445  24624832.5704                   24624838.2934
        40.5004         34.2504
 -19574252.48046 -15220666.34045  24078465.6094                   24078466.5204
        39.2504         32.2504
  -7064709.74647  -5480735.26245  23732055.4614                   23732057.2114
        43.0004         34.5004
 -12814265.32455  -9964133.73452  25181611.2664                   25181625.3484
        33.0004         16.2504
 05 12 23  1  5 30.0000000  0  9G03G09G16G04G26G06G31G07G01
 -32510516.78148 -25309283.66047  20808283.1024                   20808284.5984
        48.0004         47.5004
 -18140086.08647 -14109258.74247  21989005.1484                   21989007.4384
        45.5004         42.0004
 -26748125.78547 -20337182.54345  20919424.4774                   20919422.9264
        47.0004         35.7504
 -33498224.28547 -24722542.89846  20523628.0084                   20523627.6524
        47.7504         37.7504
 -23257037.54747 -18097332.99246  22375952.5474                   22375954.9884
        42.7504         39.2504
  -4990043.98446  -3864369.48045  24622572.7114                   24622577.3834
        40.5004         34.0004
 -19500865.10946 -15163481.43745  24092431.3984                   24092431.9654
        38.7504         32.0004
  -7156584.20747  -5552325.58245  23714571.7114                   23714574.0864
        43.5004         33.5004
 -12750583.98845  -9914512.24642  25193730.6254                   25193744.6374
        34.5004         17.2504
 05 12 23  1  6  0.0000000  0  9G03G09G16G04G26G06G31G07G01
 -32469457.31648 -25277289.31647  20816095.9774                   20816098.0634
        48.5004         47.2504
 -18235797.26647 -14183838.81247  21970792.7814                   21970794.1684
        45.5004         42.5004
 -26795910.33247 -20374417.23445  20910331.2974                   20910329.4804
        47.5004         35.7504
 -33541425.00447 -24756205.78146  20515407.2894                   20515406.9384
        47.5004         38.2504
 -23214845.62547 -18064456.20746  22383981.3914                   22383983.7664
        44.0004         39.7504
  -5001375.80546  -3873199.50845  24620416.0004                   24620421.1884
        40.0004         34.0004
 -19427422.16846 -15106253.21945  24106406.6644                   24106407.6094
        38.2504         30.5004
  -7248207.15647  -5623719.93045  23697137.5394                   23697138.6174
        42.5004         33.0004
 -12687003.75445  -9864969.55543  25205828.8754                   25205842.8874
        34.2504         18.2504
 05 12 23  1  6 30.0000000  0  9G03G09G16G04G26G06G31G07G01
 -32427853.12148 -25244870.50047  20824013.1884                   20824014.8404
        48.5004         47.2504
 -18331349.00847 -14258294.64847  21952609.8134                   21952611.4924
        46.0004         43.0004
 -26842986.58647 -20411100.00445  20901372.6884                   20901371.2664
        47.2504         35.7504
 -33584332.46947 -24789640.16046  20507242.1954                   20507241.9844
        47.5004         38.2504
 -23172120.59447 -18031164.00846  22392112.0164                   22392114.1174
        44.0004         38.5004
  -5012163.11746  -3881605.24645  24618363.1804                   24618368.4304
        40.0004         34.5004
 -19353926.35546 -15048983.81245  24120392.5314                   24120393.4384
        38.0004         30.0004
  -7339579.60247  -5694919.09845  23679749.0394                   23679750.5164
        42.5004         33.5004
 -12623527.69545  -9815508.02342  25217909.0554                   25217921.7664
        35.7504         17.2504
 05 12 23  1  7  0.0000000  0  9G03G09G16G04G26G06G31G07G01
 -32385702.68047 -25212026.04347  20832034.4064                   20832036.0124
        47.5004         47.0004
 -18426736.78947 -14332622.72747  21934458.0314                   21934459.5984
        46.0004         43.0004
 -26889350.01647 -20447227.32046  20892550.2344                   20892548.4494
        46.0004         36.0004
 -33626942.26647 -24822842.59446  20499133.8524                   20499133.6294
        47.5004         37.5004
 -23128861.38747 -17997455.57046  22400343.1954                   22400346.5864
        43.7504         38.7504
  -5022403.89146  -3889585.11745  24616414.7504                   24616420.0204
        39.7504         34.0004
 -19280375.60546 -14991671.61344  24134388.0704                   24134389.9264
        38.0004         28.5004
  -7430697.87147  -5765920.20745  23662409.3754                   23662411.3754
        42.0004         33.2504
 -12560155.01646  -9766127.06243  25229969.1024                   25229981.8054
        36.7504         19.2504
 05 12 23  1  7 30.0000000  0  8G03G09G16G04G26G06G31G07
 -32343012.30148 -25178760.84847  20840157.9534                   20840159.7194
        48.0004         47.0004
 -18521963.88747 -14406825.59847  21916336.6644                   21916338.1724
        45.5004         42.7504
 -26935004.01247 -20482801.83245  20883862.4614                   20883860.8284
        46.5004         35.5004
 -33669257.77047 -24855815.69946  20491081.4064                   20491081.0514
        47.0004         37.5004
 -23085074.80147 -17963336.19546  22408675.6724                   22408679.1954
        43.7504         38.5004
  -5032103.94946  -3897143.63345  24614567.6644                   24614574.2544
        39.0004         33.2504
 -19206775.96146 -14934321.30144  24148394.0474                   24148395.1954
        38.7504         29.0004
  -7521566.32447  -5836726.65245  23645117.3524                   23645119.5904
        42.0004         33.2504
 05 12 23  1  8  0.0000000  0  8G03G09G16G04G26G06G31G07
 -32299779.31247 -25145072.84847  20848385.1884                   20848386.5824
        47.2504         47.0004
 -18617024.50847 -14480898.73447  21898247.0944                   21898248.8284
        45.2504         43.0004
 -26979943.01647 -20517819.22345  20875310.7814                   20875309.4224
        46.5004         35.7504
 -33711273.35247 -24888555.10946  20483086.1024                   20483085.7114
        47.2504         38.0004
 -23040758.70347 -17928804.21146  22417109.0864                   22417111.9264
        43.0004         38.5004
  -5041260.02746  -3904278.29345  24612827.0944                   24612831.7304
        39.5004         33.7504
 -19133123.85946 -14876930.10545  24162409.7194                   24162410.7274
        38.5004         30.2504
  -7612180.63347  -5907335.07845  23627874.2734                   23627875.6134
        43.0004         33.5004
 05 12 23  1  8 30.0000000  0  8G03G09G16G04G26G06G31G07
 -32255989.23048 -25110950.73847  20856718.1954                   20856719.9184
        48.0004         46.7504
 -18711901.15247 -14554828.52347  21880192.7734                   21880194.6644
        46.0004         43.5004
 -27024149.77747 -20552266.02345  20866898.4384                   20866896.4804
        46.5004         35.2504
 -33752971.60247 -24921047.24246  20475151.0394                   20475150.6994
        47.5004         38.0004
 -22995899.11347 -17893848.72746  22425645.5634                   22425648.0704
        44.2504         38.0004
  -5049857.18046  -3910977.41045  24611190.8674                   24611195.9494
        39.2504         33.5004
 -19059404.65246 -14819486.60544  24176439.2584                   24176439.0354
        39.0004         29.2504
  -7702524.09847  -5977732.46145  23610682.6254                   23610683.8164
        43.7504         34.2504
 05 12 23  1  9  0.0000000  0  8G03G09G16G04G26G06G31G07
 -32211630.36347 -25076385.43447  20865159.3594                   20865161.2814
        47.7504         46.7504
 -18806578.94947 -14628603.37147  21862176.0164                   21862177.3524
        46.0004         43.5004
 -27067609.29347 -20586130.54745  20858628.3524                   20858626.7504
        46.2504         35.7504
 -33794337.79348 -24953280.62546  20467279.5164                   20467278.8594
        48.5004         37.5004
 -22950484.75047 -17858460.94946  22434287.7504                   22434290.4024
        42.7504         38.2504
  -5057883.10246  -3917231.43045  24609663.7584                   24609669.0004
        39.2504         32.7504
 -18985605.68446 -14761980.95744  24190481.6564                   24190482.6954
        39.0004         28.5004
  -7792583.03947  -6047908.12945  23593545.1804                   23593546.5234
        43.2504         34.7504
 05 12 23  1  9 30.0000000  0  8G03G09G16G04G26G06G31G07
 -32166700.90247 -25041375.50047  20873708.8364                   20873711.0354
        47.0004         46.7504
 -18901052.94947 -14702219.42247  21844198.3984                   21844199.8834
        46.2504         43.7504
 -27110316.99647 -20619409.25445  20850501.3444                   20850499.6334
        46.7504         35.2504
 -33835367.12548 -24985251.52046  20459471.9694                   20459471.3364
        48.0004         38.2504
 -22904514.39846 -17822639.93446  22443035.4384                   22443037.9654
        41.7504         38.2504
  -5065335.54746  -3923038.56245  24608246.1094                   24608250.5434
        39.5004         33.0004
 -18911724.95746 -14704411.61344  24204541.2894                   24204541.7074
        38.5004         29.0004
  -7882353.89147  -6117859.31245  23576461.6024                   23576463.2504
        43.2504         34.7504
 05 12 23  1 10  0.0000000  0  8G03G09G16G04G26G06G31G07
 -32121211.13347 -25005928.96947  20882365.4064                   20882367.6414
        47.0004         46.5004
 -18995330.27747 -14775682.22747  21826257.9384                   21826259.3554
        46.7504         43.5004
 -27152280.44947 -20652108.02345  20842515.9694                   20842514.4344
        46.5004         35.5004
 -33876066.89847 -25016965.61746  20451727.0634                   20451726.7424
        47.5004         37.5004
 -22857998.72347 -17786393.98846  22451887.5554                   22451890.1334
        42.7504         38.0004
  -5072224.28546  -3928406.45345  24606934.8984                   24606939.0904
        39.0004         33.0004
 -18837772.30146 -14646786.20744  24218614.1094                   24218614.6334
        39.5004         29.7504
  -7971844.84447  -6187592.40245  23559432.3914                   23559433.1954
        44.0004         35.0004
 05 12 23  1 10 30.0000000  0  8G03G09G16G04G26G06G31G07
 -32075167.54347 -24970050.88747  20891127.4774                   20891129.2854
        47.0004         46.5004
 -19089414.23847 -14848994.35547  21808354.2894                   21808355.6954
        46.0004         44.0004
 -27193503.25847 -20684229.66845  20834671.6174                   20834670.0664
        46.5004         35.2504
 -33916440.47747 -25048425.54746  20444044.1174                   20444043.8674
        47.7504         38.0004
 -22810944.70747 -17749728.56246  22460841.4064                   22460844.0944
        43.2504         37.7504
  -5078555.20746  -3933339.68745  24605730.3364                   24605734.3484
        38.5004         31.7504
 -18763752.94546 -14589108.85245  24232699.2424                   24232699.8204
        39.5004         30.5004
  -8061060.12547  -6257110.67245  23542455.2194                   23542456.5004
        43.0004         34.7504
 05 12 23  1 11  0.0000000  0  8G03G09G16G04G26G06G31G07
 -32028576.91047 -24933746.53947  20899993.2034                   20899994.9494
        47.7504         46.5004
 -19183308.29747 -14922158.50447  21790486.5784                   21790488.1994
        47.0004         43.7504
 -27233989.23447 -20715777.15245  20826967.6094                   20826965.7704
        46.7504         35.5004
 -33956491.59047 -25079634.19146  20436422.8204                   20436422.4534
        47.0004         38.0004
 -22763359.59447 -17712649.28546  22469896.5944                   22469899.0474
        42.7504         38.0004
  -5084334.61746  -3937843.17645  24604629.3054                   24604634.8954
        38.0004         31.5004
 -18689673.43446 -14531384.60545  24246796.8284                   24246796.9144
        41.0004         30.5004
  -8150004.48447  -6326417.83645  23525529.4384                   23525530.5824
        43.5004         35.0004
 05 12 23  1 11 30.0000000  0  8G03G09G16G04G26G06G31G07
 -31981446.21947 -24897021.36347  20908962.1094                   20908963.9844
        47.5004         46.5004
 -19277016.29347 -14995177.66847  21772654.2114                   21772656.2384
        45.7504         43.7504
 -27273742.55947 -20746753.73845  20819402.5394                   20819400.9964
        47.0004         35.7504
 -33996224.20747 -25110594.66846  20428861.5634                   20428861.6524
        46.0004         38.2504
 -22715250.85947 -17675162.00046  22479050.6724                   22479054.3484
        42.5004         38.0004
  -5089569.01246  -3941921.97345  24603634.3444                   24603638.9804
        38.2504         30.5004
 -18615540.14546 -14473618.44145  24260903.4454                   24260903.9804
        40.7504         31.0004
  -8238683.31247  -6395518.07045  23508654.6094                   23508655.8364
        43.0004         35.0004
 05 12 23  1 12  0.0000000  0  8G03G09G16G04G26G06G31G07
 -31933778.14548 -24859877.45347  20918032.7194                   20918034.8094
        48.0004         46.5004
 -19370537.63747 -15068051.38347  21754858.1254                   21754859.5004
        46.2504         44.0004
 -27312763.08647 -20777159.32045  20811977.1414                   20811975.3674
        47.0004         35.5004
 -34035637.84847 -25141306.57846  20421361.3984                   20421361.3094
        47.7504         37.7504
 -22666621.64847 -17637269.14546  22488305.5084                   22488308.1334
        42.7504         38.2504
  -5094260.55146  -3945577.75445  24602741.5864                   24602746.0554
        39.0004         30.7504
 -18541354.75846 -14415811.70345  24275020.1724                   24275020.7934
        41.5004         30.5004
  -8327096.93447  -6464411.65645  23491829.8204                   23491830.6054
        42.5004         34.0004
 05 12 23  1 12 30.0000000  0  8G03G09G16G04G26G06G31G07
 -31885575.04747 -24822316.64147  20927205.8284                   20927207.6884
        46.5004         46.5004
 -19463871.34047 -15140778.88347  21737097.2114                   21737098.5664
        46.5004         44.0004
 -27351050.46147 -20806993.61345  20804691.1484                   20804689.6914
        47.2504         35.5004
 -34074731.75847 -25171769.35946  20413922.1724                   20413922.0664
        46.5004         37.7504
 -22617474.68046 -17598972.84446  22497657.5314                   22497660.0004
        41.5004         37.5004
  -5098411.07046  -3948811.99245  24601952.6724                   24601956.9144
        39.0004         30.7504
 -18467119.02046 -14357965.70745  24289147.3054                   24289147.7544
        41.7504         31.5004
  -8415245.61347  -6533098.77745  23475054.8594                   23475056.4224
        42.0004         33.0004
 05 12 23  1 13  0.0000000  0  8G03G09G16G04G26G06G31G07
 -31836845.59047 -24784345.67247  20936478.8364                   20936480.5164
        47.5004         46.2504
 -19557022.75447 -15213364.35247  21719370.8914                   21719372.6684
        45.7504         44.2504
 -27388610.39147 -20836261.06645  20797543.5164                   20797542.2234
        47.0004         35.5004
 -34113511.48447 -25201987.32046  20406542.4224                   20406542.1524
        47.0004         38.0004
 -22567819.09047 -17560280.21546  22507107.0004                   22507109.6914
        42.7504         37.5004
  -5102028.83246  -3951631.07845  24601262.5004                   24601267.9024
        38.0004         30.0004
 -18392840.58646 -14300086.45745  24303282.0164                   24303282.7344
        41.2504         31.2504
  -8503136.07847  -6601584.70345  23458330.2034                   23458331.7304
        42.0004         34.0004
 05 12 23  1 13 30.0000000  0  8G03G09G16G04G26G06G31G07
 -31787588.06247 -24745963.22747  20945852.2504                   20945853.7704
        47.7504         46.2504
 -19649986.86747 -15285803.87147  21701680.2734                   21701682.4614
        46.2504         45.0004
 -27425438.57447 -20864958.33246  20790535.6484                   20790534.0474
        47.5004         36.5004
 -34151972.18447 -25231956.69146  20399224.1484                   20399223.7504
        46.7504         37.7504
 -22517653.66447 -17521190.31246  22516653.0944                   22516655.4614
        43.5004         37.2504
  -5105111.56646  -3954033.28144  24600675.8134                   24600681.3524
        37.2504         29.0004
 -18318517.30946 -14242172.25845  24317425.3524                   24317425.6024
        41.7504         32.0004
  -8590764.50047  -6669866.41845  23441654.9844                   23441656.2344
        42.2504         34.0004
 05 12 23  1 14  0.0000000  0  8G03G09G16G04G26G06G31G07
 -31737804.65647 -24707171.00047  20955325.6884                   20955327.3524
        47.2504         46.5004
 -19742762.45347 -15358096.47747  21684025.7274                   21684027.4804
        46.2504         44.7504
 -27461534.43047 -20893084.94945  20783666.7344                   20783665.0204
        47.0004         35.7504
 -34190112.78547 -25261676.63346  20391965.9844                   20391965.7424
        47.0004         38.0004
 -22466980.95347 -17481705.10946  22526295.9384                   22526298.4734
        42.5004         37.0004
  -5107660.91446  -3956019.82444  24600192.0704                   24600196.7504
        38.0004         29.0004
 -18244150.48847 -14184224.13345  24331576.4534                   24331577.2034
        42.0004         32.5004
  -8678130.89846  -6737943.97745  23425029.3054                   23425030.6804
        41.7504         34.7504
 05 12 23  1 14 30.0000000  0  8G03G09G16G04G26G06G31G07
 -31687495.02348 -24667968.73447  20964898.9924                   20964900.9384
        48.0004         46.2504
 -19835345.82847 -15430239.31247  21666408.3754                   21666409.7664
        46.0004         44.7504
 -27496894.60947 -20920638.31245  20776937.6564                   20776936.7384
        47.0004         35.7504
 -34227929.84847 -25291144.45746  20384769.3524                   20384769.2584
        47.5004         39.0004
 -22415801.09847 -17441824.73446  22536035.1414                   22536037.5514
        42.2504         37.5004
  -5109676.16446  -3957590.18744  24599808.1094                   24599813.4654
        36.0004         29.0004
 -18169738.89146 -14126241.11745  24345736.9064                   24345737.3714
        41.5004         32.2504
  -8765233.09047  -6805815.65246  23408454.2894                   23408455.9734
        42.7504         36.0004
 05 12 23  1 15  0.0000000  0  8G03G09G16G04G26G06G31G07
 -31636664.35548 -24628360.46147  20974572.1414                   20974574.2034
        48.2504         46.0004
 -19927738.71147 -15502233.71547  21648826.3204                   21648827.8054
        46.2504         44.7504
 -27531521.86347 -20947620.56646  20770348.5234                   20770346.7894
        47.7504         36.0004
 -34265425.31647 -25320361.70746  20377634.8834                   20377634.1564
        46.7504         38.0004
 -22364119.71547 -17401553.55946  22545869.4384                   22545872.0784
        44.0004         37.5004
  -5111162.03946  -3958748.06244  24599524.9064                   24599530.8134
        36.7504         29.0004
 -18095286.65646 -14068226.44545  24359904.6644                   24359905.5634
        41.2504         32.0004
  -8852073.75447  -6873483.54746  23391929.4924                   23391930.5204
        42.5004         36.0004
 05 12 23  1 15 30.0000000  0  8G03G09G16G04G26G06G31G07
 -31585314.96548 -24588347.98847  20984343.8754                   20984345.4414
        48.0004         46.0004
 -20019940.00447 -15574078.81647  21631280.8754                   21631282.0634
        46.2504         44.5004
 -27565415.79347 -20974031.39146  20763898.7894                   20763897.1484
        46.0004         36.5004
 -34302598.25847 -25349327.63746  20370560.8204                   20370560.3984
        46.5004         38.5004
 -22311939.49647 -17360893.68446  22555799.7274                   22555801.9964
        44.2504         37.0004
  -5112120.24245  -3959494.78944  24599343.0314                   24599348.0554
        35.0004         28.7504
 -18020795.28546 -14010181.27345  24374080.8364                   24374080.6414
        40.7504         31.7504
  -8938653.57847  -6940948.19146  23375453.3594                   23375454.7464
        43.5004         36.2504
 05 12 23  1 16  0.0000000  0  8G03G09G16G04G26G06G31G07
 -31533447.91047 -24547932.14147  20994213.7504                   20994215.5394
        47.0004         46.0004
 -20111947.36347 -15645772.81647  21613772.3204                   21613773.5474
        46.2504         44.2504
 -27598574.52747 -20999869.34846  20757589.0704                   20757586.7854
        47.5004         36.0004
 -34339446.51647 -25378040.56246  20363548.6414                   20363548.0434
        47.7504         38.2504
 -22259261.90647 -17319846.23846  22565823.7504                   22565826.0634
        42.0004         37.2504
  -5112551.48046  -3959830.87944  24599260.9304                   24599266.1914
        36.2504         28.5004
 -17946265.13746 -13952105.86745  24388262.7114                   24388263.4574
        41.0004         32.0004
  -9024971.35247  -7008208.62946  23359027.9614                   23359028.7734
        42.7504         36.0004
 05 12 23  1 16 30.0000000  0  8G03G09G16G04G26G06G31G07
 -31481066.29347 -24507115.34447  21004181.3674                   21004183.1174
        47.2504         46.0004
 -20203760.31647 -15717315.32047  21596301.0554                   21596302.0204
        46.7504         44.2504
 -27630998.24647 -21025134.54345  20751418.8284                   20751417.2304
        46.5004         35.7504
 -34375969.93047 -25406500.36346  20356598.5554                   20356598.2464
        47.7504         38.2504
 -22206090.42647 -17278413.94546  22575941.6484                   22575944.5474
        43.0004         37.5004
  -5112458.34046  -3959758.36744  24599278.0474                   24599283.5354
        36.7504         28.7504
 -17871698.23046 -13894001.84045  24402451.8984                   24402452.8754
        40.2504         31.5004
  -9111027.98047  -7075265.59046  23342651.1564                   23342652.5514
        43.2504         36.5004
 05 12 23  1 17  0.0000000  0  9G03G09G16G04G27G26G06G31G07
 -31428172.96548 -24465899.80547  21014246.8134                   21014249.0634
        48.0004         46.0004
 -20295378.25047 -15788705.86747  21578866.5004                   21578867.8244
        46.5004         44.2504
 -27662687.85947 -21049827.73046  20745388.1254                   20745386.7504
        47.0004         36.2504
 -34412168.11747 -25434706.74646  20349709.8914                   20349709.7464
        47.5004         38.2504
   4613710.66856   3616711.33654  25050277.4844                   25050284.0314
        38.2504         24.2504
 -22152428.32447 -17236599.35246  22586153.2034                   22586156.1454
        43.5004         36.5004
  -5111843.28946  -3959279.18044  24599396.1804                   24599401.0744
        36.0004         29.2504
 -17797096.30146 -13835870.52045  24416648.1094                   24416649.4304
        39.5004         31.5004
  -9196824.28947  -7142119.71146  23326324.7504                   23326325.5634
        42.7504         36.0004
 05 12 23  1 17 30.0000000  0  9G03G09G16G04G27G26G06G31G07
 -31374784.55548 -24424298.48847  21024406.0554                   21024408.2344
        48.0004         46.0004
 -20386814.26647 -15859954.65647  21561466.7504                   21561467.7344
        46.5004         44.5004
 -27693657.13347 -21073959.61345  20739494.8134                   20739493.1094
        47.5004         35.5004
 -34448054.32848 -25462670.02746  20342881.3054                   20342880.9964
        48.0004         38.2504
   4508890.43046   3535033.42644  25030330.2974                   25030336.8444
        38.5004         24.5004
 -22098292.63347 -17194415.72346  22596455.3834                   22596457.7424
        43.5004         37.0004
  -5110722.39845  -3958405.82444  24599609.5234                   24599614.7114
        35.2504         28.7504
 -17722475.00446 -13777724.10945  24430848.7584                   24430849.0784
        39.5004         30.5004
  -9282374.69547  -7208782.22345  23310044.6334                   23310045.8674
        43.0004         35.0004
 05 12 23  1 18  0.0000000  0  9G03G09G16G04G27G26G06G31G07
 -31320923.95347 -24382329.23847  21034655.5164                   21034657.6844
        47.5004         46.0004
 -20478087.66447 -15931076.72747  21544097.9224                   21544099.1054
        46.0004         45.0004
 -27723926.18047 -21097545.86345  20733735.0004                   20733733.3794
        47.0004         35.5004
 -34483648.23847 -25490405.53146  20336108.1334                   20336107.5554
        47.7504         38.2504
   4404091.35946   3453372.02044  25010387.4144                   25010394.6094
        38.5004         24.5004
 -22043706.63746 -17151881.20746  22606842.2584                   22606845.2344
        41.5004         36.5004
  -5109118.09046  -3957155.77044  24599914.6024                   24599919.8244
        36.0004         29.0004
 -17647856.59846 -13719579.94545  24445047.6484                   24445048.4844
        39.2504         31.5004
  -9367699.97747  -7275269.32045  23293808.1414                   23293808.6804
        43.2504         35.5004
 05 12 23  1 18 30.0000000  0  9G03G09G16G04G27G26G06G31G07
 -31266582.82847 -24339985.54747  21044996.5004                   21044998.9574
        47.7504         45.7504
 -20569186.56647 -16002062.83247  21526762.6564                   21526763.7464
        45.5004         44.5004
 -27753483.93747 -21120577.86745  20728110.6804                   20728108.9344
        47.0004         35.7504
 -34518938.06648 -25517904.09846  20329392.3834                   20329392.3674
        48.0004         37.7504
   4299327.28546   3371737.88344  24990450.8524                   24990458.2194
        38.7504         26.2504
 -21988662.30146 -17108989.55146  22617316.9774                   22617319.5904
        41.5004         37.0004
  -5107021.64546  -3955522.25844  24600313.5864                   24600318.7854
        36.0004         27.7504
 -17573231.23846 -13661430.37945  24459248.9304                   24459249.7344
        38.2504         31.0004
  -9452789.58647  -7341572.77745  23277616.2114                   23277616.3554
        43.5004         35.2504
 05 12 23  1 19  0.0000000  0  9G03G09G16G04G27G26G06G31G07
 -31211757.42648 -24297264.50047  21055429.3674                   21055431.3754
        48.0004         45.5004
 -20660103.68047 -16072907.28147  21509461.4614                   21509462.6094
        45.7504         44.5004
 -27782324.37147 -21143050.91445  20722622.0634                   20722620.5044
        47.5004         35.2504
 -34553916.83248 -25545160.27046  20322736.5004                   20322735.7584
        48.5004         38.5004
   4194607.03546   3290137.89144  24970523.9064                   24970530.3324
        40.2504         29.2504
 -21933156.37147 -17065738.21146  22627879.2274                   22627882.3364
        42.7504         36.5004
  -5104428.81246  -3953501.91844  24600805.7894                   24600811.7704
        36.7504         29.7504
 -17498593.96146 -13603271.54345  24473451.8444                   24473452.8594
        38.7504         30.0004
  -9537637.62147  -7407688.02045  23261470.0084                   23261470.3714
        43.0004         35.0004
 05 12 23  1 19 30.0000000  0  9G03G09G16G04G27G26G06G31G07
 -31156447.28548 -24254165.73847  21065954.4224                   21065956.6764
        48.2504         45.5004
 -20750834.93747 -16143606.91847  21492195.8134                   21492196.7304
        45.2504         44.5004
 -27810444.10247 -21164962.37945  20717271.2114                   20717269.1724
        46.5004         35.5004
 -34588580.77347 -25572171.13346  20316140.2194                   20316140.0394
        47.7504         38.2504
   4089936.38346   3208576.54344  24950605.7424                   24950611.8634
        39.2504         28.5004
 -21877188.69947 -17022127.07046  22638529.7814                   22638532.5434
        42.7504         37.0004
  -5101338.83646  -3951094.21144  24601394.7504                   24601400.0944
        37.0004         29.5004
 -17423943.36346 -13545102.32045  24487657.4534                   24487658.2584
        37.0004         30.0004
  -9622241.56247  -7473613.06245  23245370.2344                   23245370.0664
        43.5004         35.5004
 05 12 23  1 20  0.0000000  0  9G03G09G16G04G27G26G06G31G07
 -31100654.72348 -24210691.06647  21076571.7584                   21076573.5554
        48.0004         45.7504
 -20841378.98847 -16214160.66447  21474966.0554                   21474966.7734
        45.5004         44.5004
 -27837843.41047 -21186312.46145  20712057.3444                   20712055.1844
        47.0004         35.5004
 -34622928.76647 -25598935.79346  20309603.6724                   20309603.5904
        47.0004         38.7504
   3985318.47346   3127056.27044  24930696.8054                   24930703.7894
        40.0004         29.7504
 -21820761.97346 -16978158.22346  22649267.5554                   22649270.5434
        41.7504         36.5004
  -5097753.46946  -3948300.48445  24602078.1024                   24602082.8754
        37.2504         30.2504
 -17349281.07046 -13486923.96544  24501864.2584                   24501866.0784
        37.0004         29.0004
  -9706601.21147  -7539347.74245  23229316.7274                   23229317.6484
        43.2504         35.7504
 05 12 23  1 20 30.0000000  0  9G03G09G16G04G27G26G06G31G07
 -31044374.91448 -24166836.71947  21087281.2034                   21087283.3754
        48.0004         45.5004
 -20931727.29347 -16284561.89847  21457772.8984                   21457773.9774
        45.7504         44.0004
 -27864514.55547 -21207095.15646  20706981.9694                   20706980.3484
        47.0004         36.0004
 -34656952.59847 -25625447.85946  20303129.2814                   20303129.2344
        47.5004         38.5004
   3880763.62946   3045585.15244  24910800.7974                   24910807.6214
        38.2504         28.0004
 -21763871.68047 -16933828.14846  22660092.7504                   22660096.1134
        42.0004         36.0004
  -5093667.46546  -3945116.65245  24602855.6334                   24602860.2584
        38.7504         32.0004
 -17274600.84846 -13428731.67644  24516076.3134                   24516077.2774
        36.0004         28.0004
  -9790710.04746  -7604886.99245  23213311.2034                   23213311.8754
        41.7504         35.2504
 05 12 23  1 21  0.0000000  0  9G03G09G16G04G27G26G06G31G07
 -30987611.96947 -24122605.90247  21098083.3754                   21098085.3404
        47.5004         45.7504
 -21021880.38747 -16354811.02347  21440617.5394                   21440618.3094
        45.5004         44.0004
 -27890459.16847 -21227311.72745  20702044.9534                   20702042.6884
        46.0004         35.5004
 -34690653.04347 -25651707.93446  20296716.2274                   20296716.1644
        47.5004         38.7504
   3776273.00046   2964164.09444  24890916.8054                   24890923.4884
        39.0004         29.7504
 -21706522.32846 -16889140.37146  22671006.3054                   22671009.4024
        40.7504         36.2504
  -5089084.47346  -3941545.53145  24603727.1094                   24603732.4264
        38.0004         32.0004
 -17199905.50045 -13370527.56244  24530290.1804                   24530291.4344
        35.2504         26.7504
  -9874569.89847  -7670232.23846  23197353.4924                   23197354.2464
        43.0004         36.2504
 05 12 23  1 21 30.0000000  0  9G03G09G16G04G27G26G06G31G07
 -30930359.16047 -24077993.37947  21108978.0084                   21108980.5004
        46.5004         45.2504
 -21111827.75847 -16424899.84447  21423501.0554                   21423502.1214
        45.0004         44.2504
 -27915668.04748 -21246954.99646  20697247.6484                   20697246.4064
        48.2504         36.0004
 -34724019.87547 -25677708.04346  20290367.0394                   20290366.3484
        47.2504         39.2504
   3671858.87146   2882802.61345  24871047.3754                   24871053.9224
        38.7504         30.2504
 -21648707.47346 -16844089.86745  22682008.1564                   22682011.2424
        40.7504         35.7504
  -5083997.50446  -3937581.70745  24604694.9384                   24604700.5004
        37.7504         32.5004
 -17125187.08646 -13312305.49644  24544508.7504                   24544509.9654
        36.2504         26.5004
  -9958171.63347  -7735376.34846  23181444.5394                   23181445.4144
        43.0004         36.5004
 05 12 23  1 22  0.0000000  0  9G03G09G16G04G27G26G06G31G07
 -30872616.18747 -24032998.90647  21119966.1334                   21119968.2894
        47.0004         45.5004
 -21201565.42247 -16494825.25847  21406424.4454                   21406425.7424
        45.7504         44.5004
 -27940138.34047 -21266022.73845  20692591.3444                   20692589.8244
        47.7504         35.7504
 -34757049.43448 -25703445.34846  20284081.1174                   20284080.8484
        48.2504         38.5004
   3567526.88346   2801505.15244  24851192.9304                   24851200.2934
        38.0004         29.2504
 -21590427.16046 -16798676.66846  22693098.4144                   22693101.7114
        39.7504         36.0004
  -5078405.68746  -3933224.51645  24605759.0004                   24605764.7544
        38.5004         33.0004
 -17050444.47746 -13254064.56644  24558732.2974                   24558733.4694
        36.7504         27.0004
 -10041513.03547  -7800317.60245  23165584.5944                   23165585.9774
        43.0004         35.2504
 05 12 23  1 22 30.0000000  0  9G03G09G16G04G27G26G06G31G07
 -30814387.71947 -23987626.12947  21131046.4774                   21131048.6764
        46.2504         45.2504
 -21291094.30147 -16564587.98047  21389387.2974                   21389388.7424
        46.0004         45.0004
 -27963872.36347 -21284516.77346  20688074.9844                   20688072.9924
        47.2504         36.2504
 -34789742.95347 -25728920.80146  20277860.1804                   20277859.7464
        47.2504         38.0004
   3463277.94546   2720272.40244  24831355.0704                   24831362.3134
        37.0004         29.7504
 -21531686.47346 -16752904.73446  22704277.1644                   22704279.7384
        40.0004         36.0004
  -5072313.37146  -3928477.33245  24606919.1724                   24606924.3164
        38.5004         32.5004
 -16975680.74246 -13195807.18044  24572958.2344                   24572959.7034
        37.0004         25.7504
 -10124596.13347  -7865057.59045  23149775.0164                   23149775.6054
        42.7504         35.5004
 05 12 23  1 23  0.0000000  0  9G03G09G16G04G27G26G06G31G07
 -30755676.31247 -23941877.03147  21142219.0704                   21142221.0824
        45.7504         45.0004
 -21380413.17647 -16634187.06247  21372390.7734                   21372391.7304
        45.5004         45.2504
 -27986870.06247 -21302437.03546  20683698.4224                   20683697.1054
        47.7504         36.0004
 -34822099.50847 -25754133.68046  20271702.8524                   20271702.3794
        47.0004         38.7504
   3359115.01246   2639106.68045  24811534.2344                   24811540.5704
        36.7504         31.0004
 -21472488.21546 -16706776.25045  22715541.5704                   22715545.1604
        40.0004         35.7504
  -5065722.57046  -3923341.70345  24608173.6564                   24608178.8484
        39.2504         33.0004
 -16900897.36346 -13137534.47344  24587190.2734                   24587191.0004
        38.2504         26.2504
 -10207421.40247  -7929596.66445  23134013.3674                   23134014.0204
        42.5004         35.5004
 05 12 23  1 23 30.0000000  0  9G03G09G16G04G27G26G06G31G07
 -30696484.08647 -23895753.27347  21153483.0004                   21153484.8874
        46.5004         44.5004
 -21469520.37947 -16703621.21147  21355434.0554                   21355435.4494
        45.5004         45.2504
 -28009131.43048 -21319783.53545  20679462.5474                   20679460.4654
        48.2504         35.0004
 -34854117.76647 -25779082.95746  20265609.6884                   20265609.5044
        46.2504         39.0004
   3255041.32445   2558010.52044  24791728.7194                   24791735.6724
        35.5004         29.2504
 -21412834.75346 -16660293.05245  22726893.8914                   22726896.3754
        40.5004         35.7504
  -5058635.12546  -3917819.07845  24609522.1024                   24609527.2034
        38.2504         33.5004
 -16826094.94546 -13079246.92244  24601424.8054                   24601425.5234
        40.0004         28.2504
 -10289988.84847  -7993934.84446  23118301.4064                   23118302.0634
        44.0004         36.5004
 05 12 23  1 24  0.0000000  0  9G03G09G16G04G27G26G06G31G07
 -30636810.85547 -23849254.70347  21164838.7734                   21164840.5704
        46.5004         44.7504
 -21558411.95347 -16772887.33247  21338518.5084                   21338519.4614
        46.2504         45.2504
 -28030653.57447 -21336554.02746  20675366.5394                   20675364.8984
        47.7504         36.0004
 -34885794.10547 -25803765.79346  20259582.1254                   20259581.6604
        47.0004         39.0004
   3151062.78945   2476988.51644  24771942.3674                   24771948.8634
        35.0004         29.0004
 -21352726.37546 -16613455.38345  22738331.4534                   22738334.4344
        40.5004         35.7504
  -5051050.46546  -3911909.03145  24610965.1174                   24610970.5434
        39.5004         34.2504
 -16751272.16446 -13020943.46144  24615663.2424                   24615663.8594
        41.0004         27.5004
 -10372296.05147  -8058070.23846  23102639.0084                   23102639.1914
        43.5004         36.5004
 05 12 23  1 24 30.0000000  0  9G03G09G16G04G27G26G06G31G07
 -30576659.47747 -23802383.55147  21176285.0234                   21176286.9024
        47.0004         44.5004
 -21647086.93447 -16841984.68447  21321643.9844                   21321645.1844
        46.0004         45.2504
 -28051437.08647 -21352748.94946  20671411.9144                   20671409.8954
        45.7504         36.5004
 -34917127.92647 -25828181.73446  20253619.4384                   20253619.1954
        46.0004         38.5004
   3047181.92645   2396042.62144  24752173.4144                   24752180.5824
        34.2504         27.5004
 -21292166.13347 -16566265.61346  22749856.2664                   22749859.3714
        42.0004         36.2504
  -5042971.02346  -3905613.41445  24612501.8284                   24612507.6604
        37.0004         32.5004
 -16676430.31646 -12962625.16444  24629905.4384                   24629905.6954
        40.7504         28.5004
 -10454343.78547  -8122003.44946  23087025.5784                   23087025.9414
        43.0004         36.0004
 05 12 23  1 25  0.0000000  0  9G03G09G16G04G27G26G06G31G07
 -30516036.47747 -23755144.90247  21187821.3834                   21187823.2774
        46.2504         44.5004
 -21735547.96147 -16910915.32047  21304810.4924                   21304812.0004
        46.5004         45.2504
 -28071486.21947 -21368371.65246  20667596.6644                   20667594.7894
        46.5004         36.0004
 -34948122.15247 -25852333.07046  20247721.6414                   20247720.8594
        47.0004         38.7504
   2943397.89845   2315172.16844  24732424.4384                   24732430.8134
        34.2504         26.5004
 -21231160.90646 -16518729.09445  22761465.0704                   22761467.9964
        41.0004         35.7504
  -5034402.91846  -3898937.03545  24614132.7114                   24614138.7424
        37.2504         32.5004
 -16601574.89847 -12904296.27044  24644149.2894                   24644150.3134
        42.0004         27.2504
 -10536136.18047  -8185737.70746  23071461.0864                   23071461.4654
        43.0004         36.5004
 05 12 23  1 25 30.0000000  0  9G03G09G16G04G27G26G06G31G07
 -30454937.34047 -23707535.24247  21199447.9144                   21199449.9694
        46.7504         44.2504
 -21823786.67247 -16979672.72747  21288019.4064                   21288020.4064
        46.2504         45.2504
 -28090793.87947 -21383416.57446  20663922.7034                   20663920.8524
        47.0004         36.0004
 -34978768.80547 -25876213.56246  20241889.9924                   20241889.0554
        47.0004         38.0004
   2839720.66445   2234384.90644  24712695.8284                   24712702.0314
        34.2504         27.2504
 -21169706.37946 -16470842.47745  22773159.1954                   22773162.5664
        41.5004         35.7504
  -5025341.18446  -3891876.02745  24615857.6644                   24615862.9064
        37.7504         33.0004
 -16526699.96147 -12845952.16844  24658398.0084                   24658398.4414
        42.5004         26.5004
 -10617666.26247  -8249267.56246  23055946.2584                   23055946.7384
        43.5004         36.5004
 05 12 23  1 26  0.0000000  0  9G03G09G16G04G27G26G06G31G07
 -30393361.82847 -23659554.38347  21211165.5784                   21211167.7234
        46.0004         44.5004
 -21911798.99647 -17048253.72347  21271271.4064                   21271272.1054
        46.2504         45.5004
 -28109358.15247 -21397882.23045  20660389.8284                   20660387.8404
        47.5004         35.7504
 -35009064.17647 -25899820.33246  20236124.6024                   20236123.8444
        46.2504         38.2504
   2736156.27045   2153685.60944  24692988.6954                   24692993.8404
        33.0004         26.0004
 -21107802.67647 -16422605.84846  22784939.6174                   22784941.8094
        42.0004         36.0004
  -5015785.38746  -3884430.02745  24617675.8594                   24617681.5084
        36.7504         32.0004
 -16451803.86346 -12787591.58644  24672650.0004                   24672650.4534
        41.7504         27.5004
 -10698931.79347  -8312591.27746  23040482.2504                   23040482.5084
        43.5004         37.2504
 05 12 23  1 26 30.0000000  0  9G03G09G16G04G27G26G06G31G07
 -30331311.71947 -23611203.70747  21222973.4064                   21222975.7074
        46.5004         44.2504
 -21999582.75047 -17116656.62147  21254566.3674                   21254567.4064
        46.5004         45.5004
 -28127177.78147 -21411767.63746  20656998.9224                   20656997.3834
        47.5004         36.0004
 -35039006.44147 -25923151.96146  20230426.7194                   20230426.8984
        47.0004         38.5004
   2632708.34845   2073077.07044  24673302.0704                   24673308.7304
        33.7504         27.5004
 -21045451.83647 -16374020.80146  22796804.4844                   22796807.1054
        42.0004         36.5004
  -5005736.72746  -3876599.98845  24619587.7344                   24619593.6024
        36.2504         32.0004
 -16376886.78946 -12729214.66844  24686905.9454                   24686906.8874
        41.5004         27.5004
 -10779932.39847  -8375708.53946  23025067.7274                   23025068.5434
        44.0004         37.0004
 05 12 23  1 27  0.0000000  0  9G03G09G16G04G27G26G06G31G07
 -30268786.74247 -23562483.00847  21234871.4304                   21234873.8524
        46.5004         44.2504
 -22087133.78147 -17184878.18047  21237905.9064                   21237907.1094
        47.0004         45.7504
 -28144250.30147 -21425070.88746  20653750.1254                   20653748.2814
        47.5004         36.0004
 -35068591.81647 -25946205.48846  20224796.8134                   20224796.1804
        47.0004         38.7504
   2529383.03145   1992564.07044  24653639.7974                   24653645.7304
        34.2504         27.2504
 -20982653.77746 -16325087.28146  22808753.9844                   22808757.6024
        41.7504         36.0004
  -4995194.73046  -3868385.50445  24621594.5784                   24621599.5944
        36.2504         31.7504
 -16301947.10247 -12670820.15244  24701166.5634                   24701167.9414
        42.0004         28.0004
 -10860665.04347  -8438617.01246  23009705.1484                   23009705.2114
        44.0004         37.5004
 05 12 23  1 27 30.0000000  0  9G03G09G16G04G27G26G06G31G07
 -30205792.68447 -23513396.78947  21246858.4144                   21246861.0354
        45.5004         44.0004
 -22174453.93747 -17252919.82847  21221289.4144                   21221290.6484
        46.0004         45.5004
 -28160579.23847 -21437794.71946  20650642.5944                   20650640.7074
        47.5004         36.0004
 -35097822.52047 -25968982.66446  20219234.3914                   20219234.0634
        46.5004         38.5004
   2426180.09845   1912146.41044  24634000.8524                   24634006.6644
        34.0004         28.2504
 -20919414.66046 -16275810.08246  22820788.3594                   22820791.3364
        41.7504         36.2504
  -4984164.69946  -3859790.75845  24623692.4924                   24623699.2704
        36.0004         31.5004
 -16226989.28146 -12612411.47744  24715430.5634                   24715431.9064
        41.5004         28.5004
 -10941133.61747  -8501319.71946  22994392.4224                   22994392.6134
        43.5004         37.0004
 05 12 23  1 28  0.0000000  0  9G03G09G16G04G27G26G06G31G07
 -30142331.02747 -23463946.21547  21258935.2504                   21258937.5164
        45.7504         44.0004
 -22261540.70347 -17320779.62947  21204717.6414                   21204718.7894
        45.0004         45.7504
 -28176164.17647 -21449938.81245  20647677.1484                   20647675.5824
        47.5004         35.7504
 -35126696.43747 -25991481.80946  20213739.8054                   20213739.8014
        46.0004         38.5004
   2323103.64845   1831827.30144  24614385.6334                   24614391.5234
        35.5004         28.5004
 -20855736.19146 -16226190.53546  22832906.3674                   22832909.1134
        40.7504         36.2504
  -4972647.75445  -3850816.59044  24625885.2504                   24625890.5434
        34.5004         29.0004
 -16152013.53946 -12553988.85544  24729698.4614                   24729699.1564
        41.2504         29.0004
 -11021337.55147  -8563816.20746  22979129.9384                   22979130.0944
        45.0004         37.2504
 05 12 23  1 28 30.0000000  0  9G03G09G16G04G27G26G06G31G07
 -30078406.76247 -23414135.15647  21271099.5704                   21271101.9694
        45.5004         44.0004
 -22348395.15247 -17388458.39147  21188189.6254                   21188190.7274
        47.0004         46.0004
 -28191007.73447 -21461505.20345  20644852.1564                   20644850.4574
        47.5004         35.5004
 -35155215.06647 -26013704.12146  20208312.4774                   20208312.3754
        47.5004         38.7504
   2220154.38746   1751607.26644  24594795.7194                   24594800.9024
        37.0004         28.7504
 -20791623.59846 -16176232.70346  22845106.7664                   22845109.0084
        41.5004         36.0004
  -4960648.64845  -3841466.69545  24628169.6564                   24628174.1374
        34.2504         30.2504
 -16077022.81246 -12495554.55545  24743969.1174                   24743969.6454
        40.2504         30.2504
 -11101279.12147  -8626108.26646  22963916.9614                   22963917.7504
        44.5004         38.0004
 05 12 23  1 29  0.0000000  0  9G03G09G16G04G27G26G06G31G07
 -30014021.54347 -23363964.92247  21283352.0164                   21283354.1254
        46.0004         44.0004
 -22435014.94147 -17455954.29747  21171706.3524                   21171707.8954
        46.2504         46.2504
 -28205109.29747 -21472493.41845  20642168.9224                   20642167.1134
        47.0004         35.5004
 -35183376.40247 -26035648.02346  20202953.9774                   20202953.5204
        46.5004         38.5004
   2117336.39546   1671489.55544  24575229.6724                   24575235.1414
        36.5004         28.7504
 -20727078.76646 -16125938.05545  22857389.0394                   22857391.8554
        41.7504         35.7504
  -4948168.54745  -3831742.03144  24630543.5784                   24630549.2814
        32.2504         27.2504
 -16002017.55546 -12437108.94544  24758241.9694                   24758242.7274
        40.5004         29.5004
 -11180957.80947  -8688195.47346  22948754.8204                   22948755.3954
        44.5004         38.0004
 05 12 23  1 29 30.0000000  0  9G03G09G16G04G27G26G06G31G07
 -29949180.46947 -23313439.47747  21295690.5394                   21295693.0314
        45.0004         44.0004
 -22521401.09847 -17523268.16447  21155267.9614                   21155268.8914
        46.7504         46.5004
 -28218471.87547 -21482905.80545  20639625.8444                   20639624.0394
        47.5004         35.0004
 -35211181.91847 -26057314.66446  20197662.7194                   20197662.4574
        46.7504         38.5004
   2014650.37946   1591474.64544  24555688.7504                   24555694.5784
        36.2504         27.2504
 -20662107.07846 -16075310.80546  22869752.8364                   22869755.5314
        41.0004         36.0004
  -4935212.27345  -3821646.30544  24633008.6094                   24633014.3594
        33.0004         28.5004
 -15927001.08246 -12378654.59444  24772516.4614                   24772517.8054
        38.5004         28.7504
 -11260376.46947  -8750080.05946  22933641.7974                   22933641.9614
        44.5004         38.0004
 05 12 23  1 30  0.0000000  0  9G03G09G16G04G27G26G06G31G07
 -29883882.84047 -23262558.27047  21308116.4614                   21308118.9304
        45.7504         44.0004
 -22607549.00047 -17590396.37947  21138874.5864                   21138875.0984
        46.5004         46.5004
 -28231092.51648 -21492740.05546  20637224.2814                   20637222.5314
        48.0004         36.0004
 -35238627.39147 -26078700.75046  20192440.0394                   20192440.0514
        46.7504         39.0004
   1912102.73846   1511567.55544  24536174.8444                   24536180.6254
        37.0004         28.5004
 -20596707.98846 -16024350.52046  22882197.8914                   22882200.7384
        41.2504         36.0004
  -4921778.77745  -3811178.71544  24635564.9304                   24635571.4064
        32.0004         26.7504
 -15851971.25446 -12320189.82444  24786795.3284                   24786795.9144
        38.2504         28.0004
 -11339532.35547  -8811759.90646  22918579.2814                   22918579.7194
        44.7504         38.0004
 05 12 23  1 30 30.0000000  0  9G03G09G16G04G27G26G06G31G07
 -29818132.20747 -23211324.07847  21320628.9774                   21320630.8554
        45.0004         43.5004
 -22693458.06647 -17657338.48447  21122526.2034                   21122526.8164
        46.5004         46.5004
 -28242972.49248 -21501997.16445  20634963.6884                   20634961.9964
        48.2504         35.7504
 -35265712.69547 -26099806.18746  20187286.1804                   20187285.5354
        47.5004         38.5004
   1809695.60246   1431769.96144  24516687.6724                   24516692.4924
        38.2504         29.0004
 -20530885.30546 -15973060.15645  22894723.0474                   22894726.3204
        40.7504         35.7504
  -4907871.34055  -3800341.82854  24638210.7664                   24638217.3094
        30.0004         24.7504
 -15776930.32846 -12261716.40644  24801074.4304                   24801075.2774
        36.2504         28.5004
 -11418426.44547  -8873235.76246  22903565.8754                   22903566.3554
        45.5004         37.0004
 05 12 23  1 31  0.0000000  0  9G03G09G16G04G27G26G06G31G07
 -29751931.87147 -23159739.47347  21333226.4694                   21333228.5514
        45.2504         44.0004
 -22779127.58247 -17724093.93047  21106224.3364                   21106225.0594
        46.2504         46.5004
 -28254113.23048 -21510678.25045  20632843.6954                   20632841.7934
        48.0004         35.5004
 -35292437.54347 -26120630.74646  20182200.4304                   20182200.3404
        46.2504         38.5004
   1707431.50046   1352083.79344  24497226.8984                   24497232.6094
        37.5004         27.5004
 -20464642.57046 -15921442.48445  22907327.8204                   22907331.6024
        40.2504         35.5004
  -4893492.83654  -3789137.87553  24640946.6724                   24640954.1524
        29.5004         23.0004
 -15701879.59845 -12203235.37144  24815356.3134                   24815357.0234
        35.7504         27.5004
 -11497059.51647  -8934508.22346  22888602.4144                   22888603.1254
        44.0004         37.2504
 05 12 23  1 31 30.0000000  0  9G03G09G16G04G27G26G06G31G07
 -29685286.02047 -23107807.70747  21345907.9694                   21345910.7894
        45.7504         43.5004
 -22864557.57847 -17790662.73447  21089967.3444                   21089968.0904
        46.0004         46.5004
 -28264516.81648 -21518784.91846  20630863.7734                   20630861.8014
        48.5004         36.0004
 -35318802.39547 -26141174.78146  20177183.2734                   20177182.7424
        46.2504         38.7504
   1605312.01646   1272510.29344  24477793.5004                   24477799.4414
        38.0004         29.0004
 -20397984.14146 -15869500.88745  22920014.6174                   22920015.9654
        40.2504         35.5004
  -4878647.16455  -3777569.94553  24643773.1644                   24643778.9454
        31.0004         22.0004
 -15626821.69145 -12144748.73044  24829639.1724                   24829640.1884
        35.0004         26.0004
 -11575433.69947  -8995578.92646  22873688.4774                   22873688.7464
        44.0004         37.2504
 05 12 23  1 32  0.0000000  0  9G03G09G16G04G27G26G06G31G07
 -29618197.19947 -23055530.77047  21358674.7584                   21358677.5594
        45.0004         43.7504
 -22949746.61347 -17857043.77347  21073756.3444                   21073757.3164
        45.5004         46.5004
 -28274183.56247 -21526317.43045  20629024.3674                   20629022.4924
        47.7504         35.5004
 -35344806.23447 -26161437.51646  20172235.0004                   20172234.6254
        47.7504         38.7504
   1503340.39546   1193052.03544  24458389.2584                   24458394.7544
        38.2504         28.5004
 -20330912.74646 -15817237.52045  22932777.4774                   22932779.9304
        40.5004         34.5004
  -4863336.55145  -3765639.64843  24646686.6334                   24646692.1214
        31.2504         22.7504
 -15551757.71545 -12086257.39544  24843923.7274                   24843924.2774
        33.2504         25.2504
 -11653549.48047  -9056448.30146  22858823.4534                   22858823.9384
        44.5004         37.5004
 05 12 23  1 32 30.0000000  0  9G03G09G16G04G27G26G06G31G07
 -29550668.55947 -23002911.12147  21371525.4454                   21371527.7734
        44.7504         43.7504
 -23034693.62147 -17923236.22347  21057591.2504                   21057592.0514
        46.5004         46.5004
 -28283114.64548 -21533276.69945  20627324.8444                   20627322.8204
        48.2504         35.7504
 -35370448.54347 -26181418.53146  20167355.3754                   20167355.2664
        46.7504         38.7504
   1401519.37546   1113711.10244  24439012.8134                   24439018.2814
        38.0004         28.0004
 -20263431.76246 -15764654.97345  22945618.5164                   22945621.2114
        40.5004         34.5004
  -4847563.78545  -3753349.29343  24649687.6884                   24649694.1724
        31.2504         22.7504
 -15476689.03945 -12027762.39144  24858208.3444                   24858209.2624
        32.5004         24.5004
 -11731407.27747  -9117116.64846  22844007.6644                   22844008.0554
        44.5004         37.2504
 05 12 23  1 33  0.0000000  0  9G03G09G16G04G27G26G06G31G07
 -29482698.85547 -22949947.78147  21384459.7034                   21384461.8874
        45.2504         43.5004
 -23119393.27747 -17989235.92647  21041473.5704                   21041474.4144
        47.0004         46.5004
 -28291306.66448 -21539660.07845  20625766.3834                   20625764.0434
        48.0004         35.2504
 -35395724.35947 -26201113.96946  20162545.3444                   20162545.2664
        47.7504         38.7504
   1299856.02046   1034493.06344  24419667.0314                   24419671.5984
        38.7504         26.7504
 -20195540.04346 -15711752.38345  22958537.6724                   22958540.6484
        40.5004         33.5004
  -4831327.27745  -3740697.52043  24652776.6564                   24652783.1214
        31.7504         22.7504
 -15401612.84445 -11969261.52344  24872495.6414                   24872496.0354
        34.7504         25.5004
 -11809003.73847  -9177581.35546  22829241.1334                   22829241.7274
        45.0004         37.0004
 05 12 23  1 33 30.0000000  0  9G03G09G16G04G27G26G06G31G07
 -29414291.07447 -22896643.08247  21397477.5314                   21397480.0944
        45.0004         43.2504
 -23203844.43047 -18055041.98047  21025403.0004                   21025404.1914
        46.5004         46.7504
 -28298760.67648 -21545468.39146  20624347.7734                   20624345.8284
        48.7504         36.5004
 -35420633.09048 -26220523.36346  20157805.6174                   20157805.3204
        48.0004         39.0004
   1198353.07846    955399.99644  24400351.7114                   24400357.0904
        38.7504         27.5004
 -20127240.95346 -15658532.35545  22971534.3524                   22971537.1844
        40.2504         34.0004
  -4814629.94545  -3727686.71144  24655955.0314                   24655961.1484
        33.0004         25.0004
 -15326530.08245 -11910755.53144  24886783.6564                   24886784.0274
        35.5004         26.7504
 -11886339.46947  -9237842.88746  22814524.5234                   22814525.0124
        44.7504         37.2504
 05 12 23  1 34  0.0000000  0  9G03G09G16G04G27G26G06G31G07
 -29345446.85247 -22842998.29747  21410577.7034                   21410580.6254
        45.0004         43.0004
 -23288044.49247 -18120652.37947  21009380.3524                   21009381.2154
        46.5004         47.0004
 -28305476.49248 -21550701.48045  20623069.7664                   20623067.4964
        48.2504         35.5004
 -35445172.57047 -26239645.02346  20153135.7344                   20153135.6334
        45.7504         39.0004
   1097014.89846    876435.32844  24381067.7274                   24381072.9774
        38.7504         27.7504
 -20058536.11346 -15604996.16045  22984608.7424                   22984611.3244
        40.5004         35.0004
  -4797472.93445  -3714317.68444  24659220.1564                   24659225.9534
        35.0004         26.5004
 -15251440.99645 -11852244.62144  24901072.1644                   24901072.7304
        35.7504         27.7504
 -11963413.47347  -9297900.47346  22799858.2894                   22799858.2114
        44.5004         38.0004
 05 12 23  1 34 30.0000000  0  9G03G09G16G04G27G26G06G31G07
 -27700754.27047 -21561419.73447  21723552.5784                   21723554.8674
        45.0004         43.0004
 -21796572.32447 -16958466.22747  21293197.8674                   21293198.5904
        46.2504         46.7504
 -26736037.48048 -20327761.96945  20921723.8364                   20921722.1214
        48.0004         35.5004
 -33893924.22747 -25030880.07846  20448328.7974                   20448328.0634
        45.7504         38.5004
   2571264.84846   2025201.66444  24661607.4534                   24661612.9104
        39.0004         27.0004
 -18414013.84046 -14323550.28945  23297550.9144                   23297554.0594
        40.0004         35.5004
  -3204442.26245  -2472995.15244  24962363.3984                   24962369.5744
        35.2504         26.0004
 -13600932.33645 -10566134.01644  25215153.2194                   25215154.1334
        35.5004         28.0004
 -10464806.93747  -8130155.04346  23085033.9064                   23085033.7704
        45.0004         38.0004
 05 12 23  1 35  0.0000000  0  9G03G09G16G04G27G26G06G31G07
 -27631048.36747 -21507103.51247  21736817.1884                   21736819.6994
        45.0004         42.7504
 -21880268.96147 -17023684.32847  21277270.5474                   21277272.0004
        46.5004         47.0004
 -26741281.78548 -20331848.43445  20920725.6884                   20920723.7584
        48.2504         35.7504
 -33917725.58247 -25049426.57446  20443799.4064                   20443798.5704
        45.5004         38.2504
   2470262.50846   1946498.66044  24642387.5164                   24642392.9224
        40.0004         27.5004
 -18344509.37546 -14269391.00445  23310777.1884                   23310780.4734
        39.5004         35.0004
  -3186376.35245  -2458917.89144  24965801.3754                   24965807.9574
        35.5004         26.5004
 -13525836.62546 -10507617.93444  25229443.4924                   25229444.2114
        37.0004         27.7504
 -10541362.37547  -8189808.54746  23070465.7584                   23070465.2974
        45.2504         37.7504
 05 12 23  1 35 30.0000000  0  9G03G09G16G04G27G26G06G31G07
 -27560911.88747 -21452451.77047  21750163.6644                   21750165.6844
        45.5004         42.7504
 -21963707.82447 -17088701.56647  21261393.1094                   21261394.0004
        47.0004         46.7504
 -26745787.87947 -20335359.66045  20919868.2814                   20919866.4534
        47.5004         35.5004
 -33941152.50048 -25067681.30146  20439341.4844                   20439340.5204
        48.2504         38.5004
   2369436.69946   1867933.20744  24623201.6414                   24623205.9804
        40.0004         28.0004
 -18274605.51246 -14214920.51645  23324079.5004                   23324082.2384
        39.5004         34.5004
  -3167855.72746  -2444486.28544  24969326.4144                   24969332.1254
        37.0004         25.7504
 -13450734.63746 -10449096.96544  25243735.3134                   25243736.3094
        38.0004         28.5004
 -10617655.07847  -8249257.32846  23055947.0704                   23055947.1804
        44.7504         38.0004
 05 12 23  1 36  0.0000000  0  9G03G09G16G04G27G26G06G31G07
 -27490347.02047 -21397466.22747  21763591.7504                   21763594.3554
        45.5004         42.7504
 -22046886.90647 -17153516.37147  21245564.4614                   21245565.1724
        47.2504         46.7504
 -26749555.94148 -20338295.80945  20919151.1484                   20919149.6294
        48.0004         35.5004
 -33964203.53947 -25085643.14846  20434954.9614                   20434954.6764
        46.0004         38.0004
   2268791.07446   1789508.19144  24604048.7274                   24604053.4574
        39.0004         27.0004
 -18204304.68046 -14160140.69545  23337456.7424                   23337460.3984
        39.7504         34.7504
  -3148882.32046  -2429701.88344  24972937.2034                   24972942.5394
        37.2504         26.5004
 -13375627.24246 -10390571.76245  25258027.9224                   25258028.8134
        39.2504         30.7504
 -10693684.83247  -8308501.19946  23041479.2194                   23041479.3364
        45.2504         38.5004
 05 12 23  1 36 30.0000000  0  9G03G09G16G04G27G26G06G31G07
 -27419361.80147 -21342153.13747  21777100.0634                   21777102.4964
        45.0004         42.5004
 -22129809.96547 -17218131.66847  21229784.4774                   21229785.5004
        46.5004         46.7504
 -26752592.07448 -20340661.61345  20918573.3444                   20918571.7664
        48.0004         35.7504
 -33986882.94947 -25103315.40246  20430638.9694                   20430638.7734
        45.7504         38.2504
   2168323.60546   1711221.98844  24584930.6334                   24584935.3284
        39.0004         28.0004
 -18133614.98046 -14105057.86345  23350908.6804                   23350912.2734
        39.7504         34.2504
  -3129463.89546  -2414570.73444  24976633.0394                   24976638.1254
        38.2504         26.7504
 -13300520.80546 -10332047.30945  25272320.0704                   25272321.1414
        40.0004         30.2504
 -10769457.70747  -8367544.90246  23027059.8754                   23027060.0594
        45.5004         38.0004
 05 12 23  1 37  0.0000000  0  9G03G09G16G04G27G26G06G31G07
 -27347954.95347 -21286511.50047  21790688.3524                   21790690.9304
        45.2504         42.7504
 -22212471.51247 -17282543.19547  21214054.5394                   21214055.1764
        47.0004         47.0004
 -26754893.01247 -20342454.55145  20918135.8524                   20918133.8244
        47.5004         35.0004
 -34009185.81247 -25120694.25446  20426394.9844                   20426394.3714
        47.5004         38.0004
   2068041.44146   1633080.18444  24565846.6254                   24565852.0124
        39.7504         27.5004
 -18062535.28146 -14049671.14545  23364435.5474                   23364438.8364
        39.7504         35.2504
  -3109599.00446  -2399091.66844  24980412.0784                   24980418.2854
        38.0004         26.0004
 -13225412.16046 -10273521.13345  25286612.6254                   25286613.6174
        40.0004         30.5004
 -10844969.82847  -8426385.42246  23012690.4224                   23012690.3714
        45.0004         38.2504
 05 12 23  1 37 30.0000000  0  9G03G09G16G04G27G26G06G31G07
 -27276130.20347 -21230544.23447  21804356.2734                   21804358.4574
        44.5004         42.5004
 -22294870.99647 -17346750.51647  21198374.5084                   21198375.2074
        47.0004         47.0004
 -26756460.93447 -20343676.29746  20917837.5634                   20917835.9774
        47.5004         36.0004
 -34031112.10247 -25137779.66846  20422222.5784                   20422221.6764
        47.5004         38.5004
   1967946.79346   1555084.49644  24546799.6954                   24546804.3204
        39.2504         27.5004
 -17991069.46546 -13993983.55545  23378034.1094                   23378038.1524
        39.5004         33.7504
  -3089290.99946  -2383267.29844  24984277.3284                   24984283.1724
        38.2504         24.5004
 -13150303.07046 -10214994.63345  25300905.5474                   25300906.8164
        38.7504         30.0004
 -10920222.41447  -8485023.69946  22998370.4844                   22998370.2814
        45.0004         38.5004
 05 12 23  1 38  0.0000000  0  9G03G09G16G04G27G26G06G31G07
 -27203889.52747 -21174252.87147  21818103.1644                   21818105.3594
        45.0004         42.0004
 -22377006.10247 -17410751.82447  21182744.7424                   21182745.5944
        47.5004         47.0004
 -26757295.97748 -20344326.96945  20917678.3204                   20917676.5044
        48.5004         34.7504
 -34052660.02047 -25154570.24646  20418122.1334                   20418121.2704
        46.0004         39.0004
   1868043.66446   1477238.03944  24527788.4384                   24527793.5984
        38.7504         27.5004
 -17919219.61346 -13937996.70745  23391707.8524                   23391710.8364
        40.7504         34.2504
  -3068541.61346  -2367099.05143  24988225.4614                   24988231.1954
        38.0004         23.0004
 -13075193.68746 -10156467.87145  25315198.6954                   25315199.4694
        41.2504         30.5004
 -10995215.03547  -8543459.40646  22984099.6564                   22984099.8554
        45.0004         39.0004
 05 12 23  1 38 30.0000000  0 10G03G09G16G04G27G26G06G31G07G08
 -27131238.02047 -21117641.37547  21831928.4224                   21831931.0124
        44.7504         42.2504
 -22458877.64147 -17474547.76247  21167164.6484                   21167165.6334
        47.5004         47.2504
 -26757401.15647 -20344408.92645  20917658.4064                   20917656.5124
        47.7504         35.2504
 -34073830.97747 -25171067.08646  20414093.6484                   20414093.3164
        46.5004         38.5004
   1768332.88646   1399541.47844  24508813.9144                   24508819.1454
        38.0004         28.2504
 -17846990.88346 -13881714.63345  23405452.0314                   23405455.4884
        40.2504         33.7504
  -3047355.70746  -2350590.60543  24992256.9064                   24992262.4024
        39.0004         22.7504
 -13000087.20346 -10097943.35944  25329490.6954                   25329491.4384
        41.0004         28.5004
 -11069950.66047  -8601694.86346  22969877.8754                   22969877.8284
        45.5004         39.2504
   6154525.23855   4818058.85253  25004807.7344                   25004817.6764
        35.5004         21.7504
 05 12 23  1 39  0.0000000  0 10G03G09G16G04G27G26G06G31G07G08
 -27058195.25847 -21060725.02047  21845828.2424                   21845830.8164
        45.0004         42.2504
 -22540500.85247 -17538150.20347  21151632.3444                   21151633.1254
        47.5004         47.0004
 -26756794.45747 -20343936.18045  20917773.7034                   20917771.4384
        47.5004         35.5004
 -34094640.75847 -25187282.50046  20410133.6564                   20410133.0234
        46.2504         38.2504
   1668800.99646   1321984.28944  24489872.9924                   24489878.3164
        38.2504         26.5004
 -17774403.01246 -13825152.71145  23419265.0084                   23419268.2814
        39.0004         34.2504
  -3025752.52046  -2333756.99244  24996368.0394                   24996373.7734
        38.7504         24.7504
 -12925001.02747 -10039434.65644  25343779.3364                   25343780.2154
        42.2504         29.5004
 -11144446.77747  -8659743.67646  22955701.3754                   22955701.4804
        45.5004         39.0004
   6046983.68045   4734260.57043  24984342.6884                   24984351.9924
        35.5004         22.5004
 05 12 23  1 39 30.0000000  0 10G03G09G16G04G27G26G06G31G07G08
 -26984775.23847 -21003514.67647  21859799.5394                   21859801.6844
        45.0004         42.5004
 -22621885.44147 -17601566.69947  21136145.3914                   21136146.3754
        47.0004         47.0004
 -26755488.04347 -20342918.18745  20918022.3364                   20918020.6994
        47.7504         35.5004
 -34115099.65647 -25203224.49246  20406240.2114                   20406239.6094
        46.5004         38.5004
   1569439.87146   1244560.16444  24470965.9454                   24470970.8324
        38.5004         27.7504
 -17701470.08246 -13768321.91445  23433143.8054                   23433146.9884
        39.7504         33.7504
  -3003745.92246  -2316609.04743  25000556.2194                   25000560.7704
        40.2504         22.7504
 -12849947.85546  -9980951.64144  25358060.7274                   25358062.0904
        41.2504         26.0004
 -11218714.68047  -8717614.67646  22941569.1414                   22941568.8874
        45.0004         39.0004
   5939362.13745   4650399.99243  24963862.7274                   24963871.5744
        35.2504         22.5004
 05 12 23  1 40  0.0000000  0 10G03G09G16G04G27G26G06G31G07G08
 -26910978.81647 -20946011.04347  21873842.2344                   21873845.1294
        45.0004         42.2504
 -22703027.91847 -17664794.55147  21120704.7814                   21120705.3954
        47.5004         47.2504
 -26753481.14547 -20341354.36345  20918404.2034                   20918402.2704
        47.7504         35.2504
 -34135204.74247 -25218890.79746  20402414.3524                   20402413.9064
        47.0004         38.0004
   1470254.75446   1167273.19144  24452091.0944                   24452095.8404
        37.5004         28.0004
 -17628193.01246 -13711222.95345  23447087.6414                   23447090.9964
        39.7504         33.2504
  -2981336.45346  -2299147.15244  25004820.6484                   25004825.6804
        39.5004         25.0004
 -12774926.31246  -9922493.27344  25372337.1804                   25372338.1024
        41.5004         26.5004
 -11292752.87147  -8775306.69546  22927480.0784                   22927479.7304
        45.0004         39.2504
   5831665.03545   4566480.44143  24943369.3594                   24943377.8324
        35.0004         22.5004
 05 12 23  1 40 30.0000000  0 10G03G09G16G04G27G26G06G31G07G08
 -26836801.21547 -20888210.39846  21887957.6644                   21887960.4574
        45.0004         41.5004
 -22783919.13347 -17727826.62147  21105311.1644                   21105312.3204
        47.5004         47.5004
 -26750767.28947 -20339239.66445  20918920.4144                   20918918.9024
        47.7504         34.7504
 -34154947.44947 -25234274.72346  20398657.6024                   20398657.2774
        46.2504         38.5004
   1371256.31346   1090131.67244  24433252.3754                   24433257.5594
        36.5004         29.7504
 -17554567.09046 -13653852.16045  23461098.1954                   23461101.6174
        40.0004         32.5004
  -2958519.11746  -2281367.49244  25009162.4384                   25009167.8364
        40.5004         25.0004
 -12699929.29346  -9864053.98044  25386608.3984                   25386610.1094
        40.0004         24.5004
 -11366553.89547  -8832813.89546  22913435.4774                   22913436.0704
        45.0004         39.0004
   5723902.64845   4482510.01244  24922862.3914                   24922871.2384
        35.5004         25.2504
 05 12 23  1 41  0.0000000  0  9G03G09G16G04G27G26G06G07G08
 -26762239.53147 -20830110.45347  21902146.7274                   21902149.0944
        45.2504         42.0004
 -22864551.85247 -17790657.27347  21089967.7814                   21089968.0984
        47.5004         47.5004
 -26747341.66848 -20336570.34446  20919572.4774                   20919571.2074
        48.0004         36.2504
 -34174321.16847 -25249371.12546  20394970.9774                   20394969.9494
        46.2504         38.0004
   1272453.49246   1013142.59044  24414450.3134                   24414455.9224
        37.5004         28.5004
 -17480589.49246 -13596207.32045  23475176.1254                   23475179.8594
        40.0004         32.7504
  -2935290.75846  -2263267.51244  25013583.1644                   25013587.8984
        39.0004         24.2504
 -11440112.71947  -8890132.37546  22899438.0314                   22899438.0514
        45.0004         39.2504
   5616083.25446   4398495.17644  24902344.2664                   24902353.9414
        36.2504         25.2504
 05 12 23  1 41 30.0000000  0  9G03G09G16G04G27G26G06G07G08
 -26687287.58647 -20771706.41847  21916409.7814                   21916412.4184
        45.2504         42.2504
 -22944915.52047 -17853278.27347  21074674.3284                   21074675.3164
        47.0004         47.5004
 -26743196.57048 -20333340.39145  20920361.5634                   20920359.7734
        48.0004         35.5004
 -34193315.94547 -25264172.24646  20391356.3594                   20391355.5434
        47.0004         38.5004
   1173858.52346    936315.49644  24395688.8754                   24395693.9344
        36.7504         28.2504
 -17406254.14846 -13538283.71945  23489320.9924                   23489325.3594
        40.7504         33.0004
  -2911644.97346  -2244842.27744  25018082.2814                   25018087.6054
        39.2504         25.5004
 -11513420.85247  -8947255.51246  22885487.8204                   22885488.1374
        45.0004         39.2504
   5508218.61346   4314445.05544  24881818.7584                   24881827.0044
        37.2504         27.5004
 05 12 23  1 42  0.0000000  0  9G03G09G16G04G27G26G06G07G08
 -26611930.87947 -20712986.98446  21930749.8134                   21930752.3524
        45.2504         41.5004
 -23024991.18047 -17915674.85947  21059436.8984                   21059437.3014
        47.7504         47.5004
 -26738315.77047 -20329537.16046  20921290.3834                   20921288.2114
        47.5004         36.5004
 -34211913.48447 -25278663.82446  20387817.3284                   20387816.6884
        45.2504         38.0004
   1075492.01246    859666.35944  24376969.8834                   24376974.6254
        36.7504         28.2504
 -17331546.55546 -13480070.06645  23503538.2974                   23503541.3634
        40.2504         31.5004
  -2887567.07546  -2226080.36244  25022664.2894                   25022670.1134
        40.5004         26.0004
 -11586461.17247  -9004169.97746  22871588.9224                   22871588.7424
        45.2504         38.7504
   5400328.64846   4230375.24244  24861287.9924                   24861296.0944
        37.5004         27.5004
 05 12 23  1 42 30.0000000  0 10G03G09G16G04G27G26G06G30G07G08
 -26536159.23447 -20653944.22746  21945168.1484                   21945171.1764
        45.7504         41.5004
 -23104764.34447 -17977835.73447  21044256.1644                   21044257.1054
        47.0004         47.5004
 -26732687.43447 -20325151.43746  20922361.2584                   20922359.4304
        47.0004         36.0004
 -34230099.90647 -25292835.06246  20384356.7114                   20384355.7774
        47.0004         38.5004
    977370.12146    783207.85244  24358297.2344                   24358302.5204
        36.0004         28.7504
 -17256456.65646 -13421558.50445  23517827.4224                   23517830.4694
        40.5004         31.7504
  -2863046.68046  -2206973.61344  25027330.9224                   25027335.4104
        39.5004         27.0004
   6164186.18055   4827398.55154  25444768.0944                   25444778.6174
        35.7504         27.5004
 -11659221.19947  -9060866.02046  22857742.8134                   22857742.5474
        45.0004         39.0004
   5292428.83246   4146297.72744  24840753.8674                   24840763.1484
        36.7504         28.0004
 05 12 23  1 43  0.0000000  0 10G03G09G16G04G27G26G06G30G07G08
 -26459993.30147 -20594594.23046  21959662.5164                   21959665.3164
        45.2504         41.5004
 -23184251.20347 -18039773.52747  21029130.6724                   21029131.2154
        47.0004         47.5004
 -26726330.85247 -20320198.24645  20923570.8444                   20923569.3754
        47.2504         35.5004
 -34247891.95747 -25306699.00446  20380970.6884                   20380970.0904
        45.7504         38.2504
    879478.26646    706928.60944  24339669.4384                   24339674.8204
        36.2504         28.5004
 -17181005.10946 -13362765.14145  23532185.4144                   23532188.4064
        40.0004         31.7504
  -2838104.24646  -2187538.02344  25032076.7974                   25032082.7504
        39.5004         29.0004
   6064033.97745   4749358.38343  25425709.9144                   25425719.5904
        33.2504         22.5004
 -11731719.59447  -9117358.21546  22843946.7894                   22843946.8204
        44.7504         39.0004
   5184504.09446   4062200.75444  24820217.1484                   24820225.7424
        36.2504         26.2504
 05 12 23  1 43 30.0000000  0 10G03G09G16G04G27G26G06G30G07G08
 -26383457.85947 -20534956.31246  21974226.5634                   21974229.7274
        45.2504         41.5004
 -23263472.10547 -18101504.07847  21014055.3524                   21014055.8244
        47.0004         47.7504
 -26719269.22747 -20314695.68045  20924914.6954                   20924912.9024
        45.5004         35.5004
 -34265310.65647 -25320272.02346  20377655.8984                   20377656.0204
        47.0004         38.5004
    781797.74646    630814.04344  24321082.0394                   24321086.6844
        36.7504         29.5004
 -17105216.70746 -13303709.30945  23546607.4384                   23546610.8164
        39.0004         32.0004
  -2812764.19146  -2167792.63344  25036898.7664                   25036905.0864
        38.5004         28.5004
   5964030.77745   4671434.32043  25406678.9844                   25406688.9414
        33.5004         23.0004
 -11803978.29747  -9173663.63746  22830196.8674                   22830196.3094
        45.5004         39.0004
   5076535.30946   3978069.46544  24799670.2664                   24799679.7274
        37.5004         29.5004
 05 12 23  1 44  0.0000000  0 10G03G09G16G04G27G26G06G30G07G08
 -26306556.32447 -20475033.12146  21988860.5314                   21988863.7504
        44.5004         41.5004
 -23342425.96147 -18163026.54747  20999030.7504                   20999031.9454
        46.5004         47.7504
 -26711504.22347 -20308645.01245  20926392.1644                   20926390.3634
        45.5004         35.5004
 -34282355.70347 -25333553.87146  20374412.5394                   20374411.9844
        47.2504         38.0004
    684331.34046    554866.31644  24302534.1414                   24302538.6994
        37.5004         29.2504
 -17029094.88346 -13244393.65645  23561093.0394                   23561096.5124
        39.0004         31.0004
  -2787029.79746  -2147739.90644  25041796.2734                   25041801.9924
        38.5004         29.0004
   5864176.19945   4593626.01643  25387677.0234                   25387686.9184
        33.5004         23.0004
 -11875998.12147  -9229782.91846  22816491.0314                   22816490.8914
        46.0004         38.5004
   4968524.65245   3893905.60944  24779116.8204                   24779126.1174
        35.7504         28.0004
 05 12 23  1 44 30.0000000  0 10G03G09G16G04G27G26G06G30G07G08
 -26229284.31247 -20414821.25046  22003565.0314                   22003567.9924
        45.2504         41.5004
 -23421104.05547 -18224334.13347  20984058.7274                   20984059.5084
        46.0004         47.7504
 -26703030.08647 -20302041.78545  20928004.9304                   20928003.0434
        46.2504         35.2504
 -34299018.95347 -25346538.22746  20371241.5634                   20371240.9304
        46.5004         38.7504
    587089.28146    479093.39844  24284029.4694                   24284034.4144
        37.2504         29.5004
 -16952635.30146 -13184814.82045  23575642.6414                   23575646.0514
        39.0004         31.7504
  -2760896.54346  -2127376.44144  25046769.0004                   25046775.8914
        38.0004         29.0004
   5764477.46545   4515939.16843  25368705.2734                   25368714.2504
        33.5004         22.2504
 -11947772.57847  -9285711.00446  22802832.9144                   22802832.7274
        44.7504         38.7504
   4860481.78945   3809716.65244  24758556.4304                   24758565.6174
        35.7504         27.5004
 05 12 23  1 45  0.0000000  0 10G03G09G16G04G27G26G06G30G07G08
 -26151643.87947 -20354322.29346  22018339.3914                   22018342.1174
        45.5004         41.0004
 -23499503.93747 -18285424.93047  20969139.8204                   20969140.6214
        46.5004         47.7504
 -26693847.19947 -20294886.28546  20929752.3204                   20929750.5594
        46.0004         36.0004
 -34315298.57847 -25359223.64846  20368143.8204                   20368143.3364
        46.0004         38.2504
    490075.69146    403498.50044  24265568.3914                   24265573.1214
        38.0004         29.5004
 -16875840.05546 -13124974.41845  23590255.6644                   23590259.5784
        38.7504         31.2504
  -2734366.21946  -2106703.55544  25051816.9454                   25051824.1334
        36.0004         27.0004
   5664935.65645   4438374.51643  25349761.6954                   25349771.8674
        31.7504         22.5004
 -12019301.53947  -9341447.80946  22789221.7344                   22789221.4844
        46.0004         39.0004
   4752410.29746   3725505.37944  24737992.1254                   24738000.1254
        36.0004         29.5004
 05 12 23  1 45 30.0000000  0 10G03G09G16G04G27G26G06G30G07G08
 -26073634.20747 -20293535.62546  22033184.3054                   22033187.4694
        45.5004         41.0004
 -23577620.27047 -18346294.78148  20954274.8834                   20954275.8244
        46.7504         48.0004
 -26683953.28947 -20287176.74245  20931635.0704                   20931633.1414
        46.0004         35.0004
 -34331190.01647 -25371606.58646  20365119.6334                   20365119.1954
        46.5004         38.0004
    393297.59046    328087.10245  24247151.8134                   24247156.9694
        38.5004         30.7504
 -16798708.31646 -13064871.80545  23604934.0314                   23604937.2114
        38.7504         30.5004
  -2707437.92246  -2085720.52344  25056942.1414                   25056948.3404
        37.2504         27.7504
   5565554.55145   4360935.18443  25330852.1334                   25330859.8634
        35.7504         22.0004
 -12090581.60547  -9396990.65246  22775657.4454                   22775656.9454
        45.7504         38.7504
   4644316.59045   3641276.79744  24717421.7274                   24717429.9884
        34.7504         27.7504
 05 12 23  1 46  0.0000000  0 10G03G09G16G04G27G26G06G30G07G08
 -25995256.95347 -20232462.53146  22048099.0474                   22048102.2894
        45.0004         40.5004
 -23655450.31647 -18406941.55148  20939464.2114                   20939465.2384
        47.0004         48.2504
 -26673348.60547 -20278913.35545  20933652.8674                   20933651.0664
        46.2504         35.2504
 -34346691.14847 -25383685.38746  20362170.0704                   20362169.5314
        45.7504         38.0004
    296759.35546    252862.60545  24228781.5234                   24228786.3404
        38.7504         30.7504
 -16721241.77346 -13004508.32045  23619675.4534                   23619678.7384
        38.0004         30.7504
  -2680113.03946  -2064428.51644  25062141.9144                   25062148.2624
        36.7504         28.0004
   5466335.33245   4283621.91043  25311969.2814                   25311979.0704
        34.0004         21.0004
 -12161612.00447  -9452338.97346  22762140.6884                   22762140.2384
        45.5004         39.0004
   4536204.58245   3557033.93044  24696849.0784                   24696856.8324
        34.0004         28.0004
 05 12 23  1 46 30.0000000  0 10G03G09G16G04G27G26G06G30G07G08
 -25916513.41847 -20171104.02746  22063083.5314                   22063086.6334
        45.2504         40.5004
 -23732990.76247 -18467362.66048  20924708.7274                   20924709.6214
        46.5004         48.2504
 -26662032.90247 -20270095.91445  20935806.7194                   20935804.3484
        46.0004         34.7504
 -34361799.39547 -25395458.04746  20359294.8444                   20359294.5744
        46.5004         38.5004
    200465.87146    177828.83645  24210457.3134                   24210462.2344
        39.0004         32.0004
 -16643441.65246 -12943884.90245  23634480.5234                   23634483.9534
        39.0004         31.7504
  -2652392.64845  -2042828.28944  25067417.5784                   25067423.3484
        35.5004         28.0004
   5367279.94145   4206436.26243  25293119.4064                   25293128.6994
        34.5004         22.0004
 -12232391.56247  -9507491.81246  22748671.6414                   22748671.4614
        45.7504         39.0004
   4428078.66445   3472780.21144  24676271.8674                   24676280.9024
        34.0004         27.5004
 05 12 23  1 47  0.0000000  0 10G03G09G16G04G27G26G06G30G07G08
 -25837402.82047 -20109459.49646  22078138.2584                   22078141.1994
        45.5004         41.2504
 -23810236.38747 -18527554.03548  20910009.7424                   20910010.3244
        47.0004         48.2504
 -26650004.00447 -20260722.75045  20938095.2584                   20938093.2504
        46.5004         35.5004
 -34376510.28547 -25406921.08246  20356495.5704                   20356495.1054
        47.5004         38.2504
    104423.93846    102991.07445  24192181.2114                   24192185.8984
        40.0004         32.7504
 -16565307.21146 -12883000.96945  23649349.1724                   23649352.0594
        40.0004         31.5004
  -2624275.90245  -2020919.24244  25072767.0314                   25072773.6954
        35.7504         28.0004
   5268391.98845   4129381.09843  25274301.0554                   25274310.2194
        34.0004         22.5004
 -12302917.13747  -9562446.73846  22735251.0704                   22735250.7154
        46.2504         39.2504
   4319945.24645   3388520.72344  24655695.5944                   24655703.8674
        31.0004         24.2504
 05 12 23  1 47 30.0000000  0 10G03G09G16G04G27G26G06G30G07G08
 -25757930.67647 -20047533.24246  22093261.4224                   22093263.8834
        44.5004         40.5004
 -23887188.19547 -18587516.46948  20895365.9534                   20895366.6024
        47.2504         48.2504
 -26637266.03947 -20250797.05945  20940519.3054                   20940517.5204
        46.5004         35.0004
 -34390825.49647 -25418075.78946  20353771.7734                   20353771.1684
        46.2504         38.5004
      8634.21546     28349.85245  24173953.2114                   24173957.1764
        39.5004         33.0004
 -16486843.96146 -12821860.82045  23664280.1884                   23664283.3954
        38.5004         32.2504
  -2595768.03945  -1998705.43744  25078192.0944                   25078199.5784
        35.5004         28.0004
   5169669.01645   4052454.47743  25255513.7274                   25255523.4454
        35.0004         23.2504
 -12373191.87147  -9617206.20346  22721878.3204                   22721877.9964
        46.0004         39.5004
   4211804.30555   3304255.38754  24635116.2194                   24635125.0514
        31.7504         25.0004
 05 12 23  1 48  0.0000000  0 10G03G09G16G04G27G26G06G30G07G08
 -25678099.07447 -19985326.89546  22108452.8364                   22108455.5744
        44.5004         40.5004
 -23963843.70347 -18647248.01248  20880778.6414                   20880779.6804
        47.5004         48.5004
 -26623819.86347 -20240319.52345  20943078.0784                   20943076.6454
        47.0004         35.5004
 -34404743.28947 -25428920.82046  20351122.6954                   20351122.0514
        45.5004         38.2504
    -86899.24646    -46091.69545  24155773.3914                   24155778.0784
        40.7504         32.7504
 -16408053.90246 -12760466.03145  23679273.7194                   23679277.2274
        39.2504         32.5004
  -2566871.01245  -1976188.38744  25083689.9774                   25083697.0434
        33.0004         26.2504
   5071111.85946   3975657.05543  25236760.4614                   25236767.9804
        37.5004         21.7504
 -12443215.30147  -9671769.85246  22708553.3134                   22708552.9384
        45.5004         39.2504
   4103659.48445   3219987.01244  24614537.6644                   24614544.7934
        31.5004         24.0004
 05 12 23  1 48 30.0000000  0 10G03G09G16G04G27G26G06G30G07G08
 -25597908.08647 -19922840.50046  22123712.3444                   22123715.5314
        45.0004         40.5004
 -24040198.47747 -18706745.20748  20866249.4224                   20866249.9884
        47.5004         48.5004
 -26609663.97747 -20229288.96145  20945771.8914                   20945769.9414
        46.2504         34.5004
 -34418259.94547 -25439453.27746  20348550.8594                   20348550.7114
        46.5004         38.5004
   -182170.43746   -120328.86345  24137644.0554                   24137648.2664
        40.7504         32.7504
 -16328937.11746 -12698816.64145  23694328.3674                   23694332.4344
        39.2504         31.7504
  -2537584.74245  -1953368.05544  25089265.3134                   25089270.7154
        35.5004         27.2504
   4972723.53946   3898991.14143  25218037.5784                   25218044.8244
        37.0004         23.7504
 -12512984.94947  -9726135.74646  22695276.7664                   22695276.1214
        46.0004         39.2504
   3995516.26645   3135719.84044  24593958.0004                   24593965.9574
        32.0004         24.5004
 05 12 23  1 49  0.0000000  0 10G03G09G16G04G27G26G06G30G07G08
 -25517359.30947 -19860075.31246  22139040.9144                   22139043.7624
        45.5004         40.2504
 -24116249.54747 -18766005.75448  20851777.1644                   20851777.9804
        47.7504         48.7504
 -26594798.62947 -20217705.57445  20948600.4534                   20948598.6174
        47.0004         35.5004
 -34431373.29747 -25449671.47746  20346055.0314                   20346055.1414
        46.7504         38.0004
   -277174.78146   -194358.12145  24119565.1094                   24119569.8364
        40.2504         32.2504
 -16249495.15246 -12636913.85945  23709446.5944                   23709449.8914
        38.2504         33.0004
  -2507910.72346  -1930245.54344  25094911.9304                   25094917.5514
        36.7504         29.0004
   4874505.35546   3822457.83243  25199347.2734                   25199354.6454
        37.5004         23.5004
 -12582500.23447  -9780303.42646  22682048.3054                   22682047.7624
        45.0004         39.5004
   3887378.86345   3051457.18844  24573379.4774                   24573387.7234
        33.0004         25.7504
 05 12 23  1 49 30.0000000  0 10G03G09G16G04G27G26G06G30G07G08
 -25436457.59047 -19797035.10946  22154435.7274                   22154438.8634
        44.7504         40.5004
 -24191997.22348 -18825029.88348  20837362.5004                   20837363.5314
        48.0004         48.7504
 -26579227.48847 -20205572.23045  20951563.5004                   20951561.7774
        46.7504         35.0004
 -34444084.35547 -25459576.19946  20343636.7344                   20343636.3324
        46.2504         38.2504
   -371910.92646   -268178.39145  24101537.1484                   24101541.3834
        40.5004         32.2504
 -16169732.73846 -12574761.37945  23724624.2194                   23724627.9494
        39.0004         32.0004
  -2477853.55945  -1906824.47744  25100630.1484                   25100637.5434
        35.5004         28.2504
   4776455.44946   3746055.64544  25180688.2194                   25180696.1174
        37.0004         25.2504
 -12651763.67247  -9834274.83646  22668867.4924                   22668867.3134
        45.7504         39.2504
   3779248.17245   2967199.77044  24552803.3284                   24552810.9534
        34.7504         28.5004
 05 12 23  1 50  0.0000000  0 10G03G09G16G04G27G26G06G30G07G08
 -25355202.85947 -19733719.82846  22169898.6094                   22169900.9654
        45.0004         40.5004
 -24267436.90647 -18883814.00848  20823007.2424                   20823007.9654
        47.2504         48.7504
 -26562949.05947 -20192887.74645  20954661.7584                   20954659.5864
        46.2504         35.0004
 -34456389.24247 -25469164.43046  20341294.8594                   20341294.8014
        47.0004         38.0004
   -466372.75046   -341784.88745  24083561.4384                   24083565.7504
        39.7504         31.0004
 -16089649.80346 -12512359.14945  23739863.8364                   23739867.4144
        38.5004         32.2504
  -2447413.13746  -1883104.77044  25106424.1334                   25106429.7774
        37.5004         29.5004
   4678576.94946   3669787.00444  25162062.5234                   25162070.2584
        37.2504         25.2504
 -12720772.31247  -9888047.72346  22655735.2814                   22655735.3874
        45.0004         39.5004
   3671129.83645   2882951.94544  24532228.6644                   24532236.2234
        35.0004         27.0004
 05 12 23  1 50 30.0000000  0 10G03G09G16G04G27G26G06G30G07G08
 -25273599.25447 -19670132.70746  22185426.8364                   22185429.6414
        44.5004         40.7504
 -24342568.09847 -18942357.75848  20808709.5474                   20808710.4804
        47.5004         48.5004
 -26545966.19147 -20179654.34845  20957893.0944                   20957891.4804
        46.5004         35.0004
 -34468288.31247 -25478436.43446  20339030.6174                   20339030.2814
        46.2504         38.5004
   -560558.15246   -415176.00045  24065638.6884                   24065642.7234
        40.2504         32.2504
 -16009250.48846 -12449710.40245  23755163.0784                   23755167.1214
        38.5004         32.5004
  -2416593.28145  -1859089.37144  25112288.2664                   25112295.1454
        35.7504         28.5004
   4580868.68445   3593651.00844  25143468.3364                   25143476.0594
        35.7504         24.0004
 -12789528.47347  -9941623.87546  22642651.4304                   22642651.3914
        44.7504         39.2504
   3563025.43045   2798714.98044  24511656.4534                   24511664.6454
        34.2504         26.0004
 05 12 23  1 51  0.0000000  0 10G03G09G16G04G27G26G06G30G07G08
 -25191647.96947 -19606274.65646  22201021.4774                   22201025.0514
        44.7504         40.5004
 -24417387.43047 -19000658.49648  20794472.4844                   20794472.9734
        47.0004         48.5004
 -26528279.06247 -20165872.17645  20961259.1254                   20961256.8794
        46.5004         35.0004
 -34479778.96147 -25487390.18446  20336844.0314                   20336843.8014
        46.2504         38.5004
   -654462.21146   -488347.87945  24047769.1954                   24047773.8674
        40.0004         30.7504
 -15928535.84446 -12386815.93745  23770524.0084                   23770526.5634
        39.0004         33.0004
  -2385395.25445  -1834779.32444  25118224.7034                   25118232.3204
        35.7504         28.2504
   4483332.44945   3517649.07844  25124907.1334                   25124915.6764
        35.7504         26.5004
 -12858030.77347  -9995002.20346  22629616.4924                   22629615.8914
        46.0004         39.5004
   3454939.53145   2714492.43444  24491088.5084                   24491096.4264
        34.5004         26.5004
 05 12 23  1 51 30.0000000  0 10G03G09G16G04G27G26G06G30G07G08
 -25109352.57047 -19542148.47746  22216681.9144                   22216685.5704
        44.2504         40.5004
 -24491893.92647 -19058715.47348  20780294.0554                   20780294.7344
        47.2504         48.7504
 -26509889.76647 -20151542.85545  20964758.3134                   20964756.5434
        45.7504         35.0004
 -34490860.94947 -25496025.50846  20334735.2424                   20334734.7154
        46.0004         38.0004
   -748082.37546   -561298.57045  24029953.4844                   24029958.1804
        39.0004         31.0004
 -15847509.37546 -12323678.48845  23785941.7034                   23785945.4884
        38.5004         32.2504
  -2353822.35246  -1810177.15244  25124233.4224                   25124239.8794
        37.0004         28.2504
   4385967.80546   3441780.87144  25106379.8364                   25106387.6024
        37.7504         26.5004
 -12926280.07847 -10048183.40646  22616628.5554                   22616628.1994
        44.5004         39.7504
   3346874.28145   2630285.98044  24470523.5554                   24470531.9844
        34.7504         24.7504
 05 12 23  1 52  0.0000000  0 10G03G09G16G04G27G26G06G30G07G08
 -25026716.80547 -19477757.07446  22232406.8674                   22232410.7154
        44.2504         39.7504
 -24566086.70748 -19116527.98448  20766175.6564                   20766176.1994
        48.0004         48.7504
 -26490800.82847 -20136668.36345  20968390.7504                   20968389.1134
        46.7504         34.7504
 -34501534.23447 -25504342.35546  20332703.8984                   20332703.9494
        46.5004         38.0004
   -841416.14846   -634026.09044  24012192.8524                   24012197.4774
        39.7504         29.7504
 -15766174.76646 -12260300.93745  23801419.0234                   23801422.6644
        39.0004         31.5004
  -2321878.22746  -1785285.72344  25130312.5474                   25130318.7814
        36.0004         28.2504
   4288773.76646   3366045.57444  25087884.6724                   25087891.9064
        38.0004         26.5004
 -12994277.81647 -10101168.57046  22603688.9454                   22603688.6644
        45.2504         40.0004
   3238831.70346   2546097.13744  24449964.4774                   24449971.4024
        36.2504         25.0004
 05 12 23  1 52 30.0000000  0 10G03G09G16G04G27G26G06G30G07G08
 -24943743.99247 -19413103.03946  22248196.2734                   22248199.7154
        43.7504         40.0004
 -24639964.44148 -19174095.02048  20752117.0784                   20752118.0594
        48.2504         49.0004
 -26471014.49247 -20121250.44545  20972156.1954                   20972154.4804
        46.2504         35.5004
 -34511798.30947 -25512340.34046  20330750.9534                   20330750.6294
        46.5004         38.2504
   -934460.65246   -706528.20745  23994486.9384                   23994491.3484
        40.2504         30.7504
 -15684535.18646 -12196685.74645  23816954.8444                   23816958.3554
        38.7504         31.2504
  -2289566.01646  -1760107.50444  25136461.1414                   25136468.1484
        37.0004         28.7504
   4191750.25046   3290443.15644  25069420.5314                   25069428.3484
        38.0004         27.2504
 -13062025.21147 -10153958.67646  22590797.4454                   22590796.5744
        44.5004         39.7504
   3130814.27746   2461927.91444  24429409.0004                   24429416.6844
        36.2504         27.7504
 05 12 23  1 53  0.0000000  0 10G03G09G16G04G27G26G06G30G07G08
 -24860435.96547 -19348187.80146  22264049.8594                   22264052.8404
        43.7504         40.0004
 -24713524.39848 -19231414.43748  20738119.3134                   20738119.9384
        48.7504         49.0004
 -26450531.40247 -20105289.60545  20976053.8524                   20976051.6644
        46.7504         35.0004
 -34521651.23447 -25520017.94946  20328876.2584                   20328875.9264
        47.0004         38.2504
  -1027211.62146   -778801.57045  23976837.2504                   23976841.1804
        39.0004         30.5004
 -15602592.36746 -12132834.26245  23832547.9614                   23832551.6994
        39.0004         31.5004
  -2256887.51246  -1734643.83644  25142680.6954                   25142686.7894
        37.0004         29.2504
   4094898.25046   3214974.39844  25050989.6174                   25050997.6094
        37.5004         27.0004
 -13129521.14547 -10206552.84046  22577952.9384                   22577952.3954
        44.7504         40.0004
   3022825.96946   2377781.37144  24408859.5234                   24408866.3204
        37.5004         26.5004
 05 12 23  1 53 30.0000000  0 10G03G09G16G04G27G26G06G30G07G08
 -24776795.84847 -19283013.79746  22279965.6254                   22279969.4024
        43.5004         40.0004
 -24786765.09448 -19288485.07448  20724181.9614                   20724182.6604
        49.0004         49.0004
 -26429353.50847 -20088787.35545  20980084.0004                   20980082.0514
        47.0004         34.7504
 -34531092.37147 -25527374.67646  20327079.8134                   20327079.1024
        46.0004         38.5004
  -1119665.98446   -850843.83244  23959243.1414                   23959247.4804
        39.0004         29.5004
 -15520349.38346 -12068748.88345  23848198.2814                   23848202.0124
        38.5004         30.0004
  -2223845.75446  -1708897.12544  25148967.4384                   25148974.2934
        38.0004         28.2504
   3998217.71546   3139639.24244  25032592.4224                   25032599.8834
        37.5004         26.0004
 -13196766.68047 -10258951.87546  22565156.6484                   22565156.4304
        45.5004         40.5004
   2914869.46946   2293659.63344  24388315.6254                   24388323.6994
        37.7504         28.0004
 05 12 23  1 54  0.0000000  0 10G03G09G16G04G27G26G06G30G07G08
 -24692828.08647 -19217584.48446  22295945.0474                   22295948.3794
        43.5004         40.0004
 -24859686.28148 -19345306.75048  20710305.5554                   20710306.0164
        48.5004         49.0004
 -26407484.10547 -20071746.26245  20984245.0634                   20984243.4884
        47.0004         35.0004
 -34540122.32847 -25534411.01646  20325360.8674                   20325360.5514
        46.5004         38.2504
  -1211821.99246   -922653.60544  23941706.4694                   23941710.8524
        39.5004         29.5004
 -15437810.58246 -12004433.00444  23863904.8134                   23863908.6524
        38.7504         29.7504
  -2190445.04746  -1682870.69545  25155323.6804                   25155330.7814
        38.7504         30.0004
   3901707.12546   3064436.50444  25014226.9304                   25014234.0084
        37.7504         27.0004
 -13263763.78547 -10311157.32046  22552407.5554                   22552407.1724
        45.5004         40.2504
   2806946.14146   2209563.74644  24367778.6724                   24367785.9614
        39.0004         27.2504
 05 12 23  1 54 30.0000000  0 10G03G09G16G04G27G26G06G30G07G08
 -24608532.32047 -19151899.58246  22311985.7114                   22311988.8954
        44.0004         39.5004
 -24932283.02748 -19401875.60948  20696490.6484                   20696491.6174
        49.2504         49.0004
 -26384921.79747 -20054165.25045  20988539.2814                   20988536.8134
        47.0004         34.7504
 -34548736.94947 -25541123.70746  20323721.7424                   20323721.7344
        46.7504         38.7504
  -1303673.03946   -994225.74244  23924227.9064                   23924232.2114
        39.0004         29.7504
 -15354975.44146 -11939886.21145  23879668.2734                   23879671.6644
        38.5004         30.2504
  -2156684.81646  -1656564.15244  25161748.5944                   25161755.0164
        38.0004         29.5004
   3805369.78546   2989368.77044  24995893.4534                   24995901.3674
        37.0004         27.0004
 -13330509.61347 -10363166.99646  22539705.9064                   22539705.2464
        46.0004         40.0004
   2699062.12146   2125498.44544  24347248.3594                   24347256.2664
        38.2504         27.5004
 05 12 23  1 55  0.0000000  0 10G03G09G16G04G27G26G06G30G07G08
 -24523915.04347 -19085964.15246  22328087.4844                   22328091.0824
        43.0004         39.7504
 -25004557.13348 -19458193.07448  20682737.2664                   20682737.9304
        49.2504         49.0004
 -26361671.86747 -20036048.41445  20992963.2034                   20992961.1374
        47.0004         34.2504
 -34556938.93447 -25547514.87546  20322160.8834                   20322160.6174
        46.2504         37.7504
  -1395219.55146  -1065560.57844  23906806.9224                   23906811.0044
        40.0004         29.2504
 -15271850.30546 -11875113.45344  23895487.2584                   23895490.5004
        38.0004         29.7504
  -2122571.56646  -1629982.52044  25168240.2734                   25168246.4884
        38.5004         29.7504
   3709202.32045   2914433.39144  24977593.3834                   24977600.9454
        35.5004         26.5004
 -13397007.90247 -10414983.78546  22527052.2344                   22527051.0434
        45.0004         40.5004
   2591216.69146   2041463.28144  24326726.2504                   24326733.3364
        39.0004         26.7504
 05 12 23  1 55 30.0000000  0 10G03G09G16G04G27G26G06G30G07G08
 -24438976.28147 -19019778.21946  22344251.0474                   22344254.7544
        43.5004         38.7504
 -25076504.00848 -19514255.55548  20669046.4534                   20669046.6604
        49.0004         49.2504
 -26337733.32847 -20017395.01245  20997518.7584                   20997516.7034
        47.0004         34.5004
 -34564724.53147 -25553581.58646  20320679.7664                   20320679.0124
        47.0004         38.5004
  -1486455.28946  -1136653.24644  23889445.4384                   23889449.6644
        39.0004         29.5004
 -15188435.09446 -11810114.65645  23911360.1724                   23911363.6054
        38.5004         30.5004
  -2088105.26646  -1603125.75044  25174799.0004                   25174805.7274
        39.0004         29.2504
   3613207.57045   2839632.61744  24959326.0554                   24959333.7504
        34.2504         25.2504
 -13463256.35247 -10466605.88346  22514445.1724                   22514444.7384
        46.2504         40.2504
   2483415.79746   1957462.75844  24306212.5704                   24306219.4304
        38.7504         26.7504
 05 12 23  1 56  0.0000000  0 10G03G09G16G04G27G26G06G30G07G08
 -24353720.52047 -18953345.27046  22360474.8914                   22360478.1374
        43.7504         39.7504
 -25148123.45348 -19570062.89148  20655417.9774                   20655418.2894
        49.0004         49.2504
 -26313109.72747 -19998207.78945  21002204.7424                   21002202.4344
        46.0004         34.0004
 -34572094.45747 -25559324.39146  20319277.0784                   20319276.6454
        46.7504         39.0004
  -1577378.62546  -1207502.47344  23872143.4534                   23872146.8874
        39.5004         29.7504
 -15104734.09046 -11744893.16045  23927288.2114                   23927291.4184
        37.7504         30.5004
  -2053290.19946  -1575997.26644  25181423.6884                   25181431.6684
        38.2504         28.7504
   3517384.08245   2764965.30144  24941091.8444                   24941098.8794
        34.2504         26.2504
 -13529257.38747 -10518035.19546  22501885.6024                   22501884.7344
        46.0004         40.2504
   2375660.68446   1873497.89144  24285706.8284                   24285713.9454
        40.0004         27.0004
 05 12 23  1 56 30.0000000  0 10G03G09G16G04G27G26G06G30G07G08
 -24268145.05147 -18886663.20346  22376759.5554                   22376762.9304
        43.7504         39.2504
 -25219408.11348 -19625609.35948  20641852.5784                   20641853.4144
        49.0004         49.5004
 -26287797.20347 -19978483.75045  21007021.0164                   21007019.2234
        46.5004         34.0004
 -34579042.18447 -25564738.20746  20317955.2734                   20317954.8554
        47.0004         38.7504
  -1667980.56646  -1278101.28144  23854901.7974                   23854906.1174
        38.7504         29.7504
 -15020744.48046 -11679446.80944  23943270.4144                   23943274.0124
        38.0004         29.5004
  -2018123.56646  -1548594.81244  25188115.7194                   25188123.0554
        38.2504         25.5004
   3421737.56645   2690435.86744  24922891.4534                   24922897.6804
        34.0004         27.2504
 -13595005.78147 -10569267.65646  22489374.2274                   22489373.2974
        46.0004         40.2504
   2267960.02746   1789575.46544  24265212.1724                   24265218.9774
        39.5004         26.7504
 05 12 23  1 57  0.0000000  0 10G03G09G16G04G27G26G06G30G07G08
 -24182253.44947 -18819734.80946  22393104.2344                   22393107.8714
        43.5004         38.7504
 -25290356.91448 -19680894.12948  20628351.1804                   20628352.4304
        48.7504         49.5004
 -26261798.56247 -19958225.06645  21011968.6414                   21011966.4064
        46.7504         34.2504
 -34585567.60947 -25569822.95746  20316713.1094                   20316713.0354
        46.7504         38.2504
  -1758258.66446  -1348447.71944  23837722.2114                   23837726.7894
        38.5004         29.2504
 -14936469.78946 -11613778.30144  23959308.2734                   23959311.1414
        37.5004         28.7504
  -1982608.96546  -1520921.19944  25194874.6174                   25194880.6414
        39.0004         26.5004
   3326267.38745   2616043.83644  24904722.5084                   24904729.7304
        33.5004         27.7504
 -13660502.77047 -10620304.19946  22476910.0394                   22476909.3324
        45.5004         40.2504
   2160316.02046   1705697.18044  24244728.1174                   24244734.6684
        39.2504         25.2504
 05 12 23  1 57 30.0000000  0 10G03G09G16G04G27G26G06G30G07G08
 -24096050.87947 -18752564.09046  22409508.1724                   22409511.7234
        43.0004         39.2504
 -25360970.30548 -19735917.53548  20614914.0394                   20614914.7624
        49.0004         49.5004
 -26235117.86347 -19937434.91045  21017045.5704                   21017043.6564
        46.5004         34.5004
 -34591672.03147 -25574579.65246  20315551.5084                   20315551.2934
        47.5004         38.2504
  -1848211.70746  -1418540.88344  23820605.4454                   23820609.4574
        37.7504         28.5004
 -14851914.90246 -11547891.43745  23975398.1884                   23975401.3484
        39.0004         30.0004
  -1946751.33646  -1492980.32844  25201697.4774                   25201704.5864
        38.0004         26.5004
   3230971.32045   2541787.45744  24886587.4064                   24886595.0744
        33.5004         25.5004
 -13725750.82847 -10671146.78546  22464494.0234                   22464493.2704
        46.2504         40.5004
   2052729.47446   1621863.71044  24224254.5944                   24224262.0474
        38.2504         25.7504
 05 12 23  1 58  0.0000000  0 10G03G09G16G04G27G26G06G30G07G08
 -24009541.07047 -18685153.97346  22425970.6804                   22425973.9384
        43.2504         39.5004
 -25431247.33648 -19790678.84848  20601541.0944                   20601541.5514
        49.5004         49.5004
 -26207757.67647 -19916115.28945  21022252.1954                   21022250.1684
        46.0004         34.2504
 -34597355.39547 -25579008.25046  20314470.3524                   20314469.9414
        47.2504         38.0004
  -1937837.38746  -1488378.93445  23803549.5864                   23803553.9184
        37.7504         30.0004
 -14767083.32846 -11481788.96145  23991540.7034                   23991544.3524
        38.7504         30.0004
  -1910554.38746  -1464775.04344  25208585.8914                   25208593.2584
        38.7504         28.0004
   3135848.89545   2467666.37144  24868485.5944                   24868493.4344
        34.2504         26.7504
 -13790751.44147 -10721796.55946  22452124.5864                   22452123.9844
        45.5004         40.5004
   1945202.56646   1538076.69144  24203793.2194                   24203799.9384
        38.7504         26.7504
 05 12 23  1 58 30.0000000  0 10G03G09G16G04G27G26G06G30G07G08
 -23922731.00047 -18617509.87946  22442489.7974                   22442493.5434
        42.7504         38.7504
 -25501190.34048 -19845179.87948  20588231.1724                   20588232.1254
        49.7504         49.5004
 -26179724.34447 -19894271.12945  21027586.8834                   21027585.0664
        46.0004         34.5004
 -34602620.96547 -25583111.28546  20313468.0084                   20313467.9844
        47.0004         38.5004
  -2027136.43446  -1557962.46945  23786556.6484                   23786560.7704
        38.2504         31.0004
 -14681982.03946 -11415476.32444  24007734.7814                   24007738.9694
        38.7504         29.5004
  -1874025.05946  -1436310.73043  25215537.6024                   25215543.8484
        36.7504         22.7504
   3040895.80545   2393677.21944  24850417.4924                   24850424.8594
        35.0004         26.5004
 -13855508.91847 -10772256.87146  22439801.5864                   22439801.0354
        45.7504         40.7504
   1837734.16846   1454335.29744  24183342.3134                   24183349.3674
        37.5004         26.7504
 05 12 23  1 59  0.0000000  0 10G03G09G16G04G27G26G06G30G07G08
 -23835617.17647 -18549629.09446  22459067.4224                   22459071.1174
        42.5004         38.7504
 -25570791.08248 -19899414.21548  20574986.4304                   20574986.8204
        49.2504         49.5004
 -26151013.10947 -19871898.74645  21033050.3674                   21033047.9414
        46.2504         34.2504
 -34607461.47348 -25586883.11346  20312546.7974                   20312546.7894
        48.0004         37.7504
  -2116099.14546  -1627283.93745  23769627.1644                   23769631.6414
        38.7504         30.5004
 -14596607.22746 -11348950.52344  24023981.7584                   24023984.9694
        38.7504         28.5004
  -1837159.74646  -1407584.63744  25222553.3444                   25222558.9804
        37.7504         24.7504
   2946118.68045   2319825.16044  24832381.4454                   24832388.9384
        34.2504         26.7504
 -13920017.16847 -10822522.98846  22427526.2274                   22427525.6684
        46.0004         41.0004
   1730333.68846   1370646.79744  24162906.0004                   24162911.7194
        38.2504         28.0004
 05 12 23  1 59 30.0000000  0 10G03G09G16G04G27G26G06G30G07G08
 -23748207.90647 -18481518.09846  22475700.6724                   22475704.2774
        42.2504         38.5004
 -25640053.16848 -19953384.66048  20561806.4844                   20561807.0824
        49.5004         49.5004
 -26121631.57047 -19849004.03545  21038641.1724                   21038639.5274
        46.5004         34.0004
 -34611881.46947 -25590327.26646  20311705.8284                   20311705.3914
        47.7504         38.5004
  -2204727.62546  -1696344.96945  23752761.4844                   23752766.2934
        38.0004         31.2504
 -14510967.00846 -11282217.94144  24040278.0394                   24040281.7584
        37.5004         27.5004
  -1799966.71946  -1378603.18744  25229629.8204                   25229637.4414
        38.2504         26.5004
   2851512.07045   2246105.97344  24814377.8594                   24814385.4454
        33.5004         25.7504
 -13984282.41447 -10872599.73846  22415296.6564                   22415296.4024
        46.2504         41.0004
   1622998.78146   1287009.41444  24142480.0554                   24142486.1214
        37.0004         28.0004
 05 12 23  2  0  0.0000000  0 10G03G09G16G04G27G26G06G30G07G08
 -23660504.68747 -18413178.04346  22492390.3134                   22492393.8014
        42.2504         39.0004
 -25708973.41848 -20007088.73848  20548691.3914                   20548691.9064
        49.7504         49.5004
 -26091580.12147 -19825587.33645  21044359.8134                   21044358.1374
        46.5004         33.7504
 -34615878.64547 -25593441.94546  20310945.2344                   20310944.6804
        47.7504         38.7504
  -2293017.24246  -1765141.92645  23735960.9384                   23735965.2154
        38.2504         30.5004
 -14425062.68446 -11215279.56244  24056625.3444                   24056628.8404
        38.2504         26.0004
  -1762447.46945  -1349367.54744  25236769.4454                   25236777.3594
        35.2504         24.5004
   2757077.62545   2172520.93444  24796407.4614                   24796414.6994
        34.0004         24.2504
 -14048303.77747 -10922486.46946  22403113.7894                   22403112.9844
        47.0004         41.0004
   1515733.88346   1203426.54744  24122067.8674                   24122074.1414
        36.2504         28.7504
 05 12 23  2  0 30.0000000  0 10G03G09G16G04G27G26G06G30G07G08
 -23572507.86747 -18344609.21546  22509136.0944                   22509139.2854
        43.2504         38.7504
 -25777547.47748 -20060523.05548  20535642.4694                   20535642.2664
        50.0004         49.5004
 -26060858.68047 -19801648.55145  21050206.4924                   21050204.0664
        47.0004         33.7504
 -34619449.64548 -25596224.54346  20310265.6094                   20310265.4884
        48.0004         38.0004
  -2380962.17246  -1833670.32445  23719225.7034                   23719229.5554
        38.7504         31.0004
 -14338894.46546 -11148135.55544  24073022.7344                   24073026.7974
        38.2504         27.7504
  -1724602.27346  -1319877.91443  25243972.2344                   25243978.6254
        37.0004         23.2504
   2662817.82445   2099071.96144  24778470.6414                   24778477.6294
        34.5004         24.7504
 -14112079.17647 -10972181.53146  22390977.8524                   22390977.5824
        46.7504         41.2504
   1408544.48445   1119902.55544  24101669.2424                   24101676.8524
        35.0004         27.0004
 05 12 23  2  1  0.0000000  0 10G03G09G16G04G27G26G06G30G07G08
 -23484219.89847 -18275813.52046  22525936.7664                   22525940.0634
        43.0004         38.5004
 -25845773.03548 -20113685.81248  20522659.2194                   20522659.5124
        49.7504         49.5004
 -26029468.73447 -19777188.85945  21056179.0944                   21056177.3444
        47.2504         34.2504
 -34622593.16447 -25598674.03546  20309667.7584                   20309667.1804
        47.7504         37.7504
  -2468558.66446  -1901927.20745  23702556.1484                   23702559.6174
        39.0004         31.0004
 -14252464.53546 -11080787.61344  24089469.4694                   24089473.8164
        37.7504         28.2504
  -1686433.42245  -1290136.09044  25251234.8834                   25251242.6994
        35.5004         25.0004
   2568733.17246   2025759.49243  24760566.5084                   24760573.4384
        36.0004         23.7504
 -14175608.27347 -11021684.67246  22378888.4304                   22378887.9344
        46.7504         41.2504
   1301434.20345   1036440.18844  24081287.2974                   24081294.1564
        33.2504         26.0004
 05 12 23  2  1 30.0000000  0 10G03G09G16G04G27G26G06G30G07G08
 -23395643.92647 -18206793.40646  22542791.6954                   22542795.9064
        43.0004         38.5004
 -25913648.59448 -20166575.84048  20509743.2344                   20509743.3364
        49.2504         49.5004
 -25997412.64147 -19752210.09045  21062279.3524                   21062277.4844
        47.5004         34.7504
 -34625308.62947 -25600789.98046  20309150.8444                   20309150.2664
        47.5004         38.0004
  -2555803.70346  -1969910.22345  23685954.0944                   23685957.5084
        39.2504         30.5004
 -14165775.84446 -11013238.01644  24105966.1954                   24105969.7734
        38.2504         28.7504
  -1647944.10545  -1260144.56243  25258559.1564                   25258566.9534
        33.5004         23.7504
   2474823.67646   1952583.47744  24742696.6804                   24742702.6954
        36.5004         25.7504
 -14238892.08247 -11070996.68046  22366845.9844                   22366845.3484
        46.7504         41.5004
   1194405.84045    953041.68844  24060919.6334                   24060927.2664
        32.7504         25.2504
 05 12 23  2  2  0.0000000  0 10G03G09G16G04G27G26G06G30G07G08
 -23306785.80947 -18137553.44146  22559700.9384                   22559704.4654
        42.7504         38.5004
 -25981175.27348 -20219194.00048  20496893.1334                   20496893.6454
        49.7504         49.5004
 -25964695.19147 -19726715.97745  21068505.4064                   21068503.2464
        47.5004         34.0004
 -34627598.16848 -25602574.03546  20308715.0084                   20308714.7664
        48.0004         38.2504
  -2642697.00446  -2037619.16845  23669418.8754                   23669422.2074
        39.5004         31.0004
 -14078834.03946 -10945491.20444  24122509.9144                   24122514.2814
        38.7504         28.7504
  -1609140.05945  -1229907.83643  25265944.5164                   25265951.3714
        34.2504         22.5004
   2381086.21946   1879541.50444  24724857.6884                   24724865.0084
        37.5004         27.5004
 -14301934.01647 -11120120.22346  22354849.4614                   22354849.2034
        46.7504         41.2504
   1087459.53545    869707.12144  24040568.7664                   24040575.5314
        34.2504         27.0004
 05 12 23  2  2 30.0000000  0 10G03G09G16G04G27G26G06G30G07G08
 -23217648.34847 -18068095.82046  22576663.6024                   22576667.3834
        42.7504         38.2504
 -26048351.14848 -20271538.80948  20484109.7894                   20484110.5164
        49.2504         49.5004
 -25931318.39147 -19700708.08245  21074857.1884                   21074855.1094
        47.0004         33.7504
 -34629460.84447 -25604025.46946  20308360.8594                   20308360.1994
        47.0004         38.0004
  -2729235.14546  -2105051.35545  23652950.6724                   23652954.5124
        40.0004         31.2504
 -13991641.69146 -10877549.16445  24139102.7584                   24139106.5554
        38.7504         30.0004
  -1570023.99245  -1199427.91844  25273387.6884                   25273394.8404
        33.5004         24.7504
   2287521.18846   1806633.89144  24707053.8204                   24707060.3164
        38.0004         27.2504
 -14364734.51247 -11169055.62946  22342898.4774                   22342898.3594
        46.2504         41.5004
    980598.44545    786438.95744  24020233.4534                   24020240.8554
        35.0004         26.7504
 05 12 23  2  3  0.0000000  0 10G03G09G16G04G27G26G06G30G07G08
 -23128231.58647 -17998420.54746  22593678.6804                   22593682.9304
        43.0004         38.2504
 -26115171.47748 -20323606.56648  20471394.4774                   20471394.8204
        49.2504         49.5004
 -25897281.69547 -19674185.98445  21081333.5554                   21081332.1764
        47.0004         34.0004
 -34630892.96147 -25605141.40246  20308088.2734                   20308087.5664
        47.0004         37.7504
  -2815411.93746  -2172201.98045  23636551.9144                   23636555.4454
        39.7504         32.7504
 -13904198.60946 -10809411.72745  24155742.9144                   24155746.9494
        39.7504         30.5004
  -1530596.10245  -1168705.03143  25280891.1564                   25280898.1454
        33.5004         22.5004
   2194131.37546   1733862.82044  24689281.8284                   24689288.3014
        37.0004         28.5004
 -14427290.88747 -11217800.81246  22330994.6414                   22330993.7194
        46.2504         41.2504
    873828.56646    703241.85545  23999916.2114                   23999922.6094
        36.7504         31.0004
 05 12 23  2  3 30.0000000  0 10G03G09G16G04G27G26G06G30G07G08
 -23038542.21147 -17928532.87146  22610746.4614                   22610750.2274
        42.5004         37.5004
 -26181638.27748 -20375398.84848  20458746.0784                   20458746.5474
        48.7504         50.0004
 -25862590.99647 -19647154.27345  21087935.0004                   21087933.1764
        47.0004         33.7504
 -34631897.51647 -25605924.17646  20307896.9144                   20307896.7504
        47.7504         38.0004
  -2901227.97746  -2239071.50445  23620221.5474                   23620225.4654
        39.7504         33.2504
 -13816511.23046 -10741083.93445  24172429.4694                   24172432.6724
        38.5004         31.0004
  -1490862.88345  -1137744.31244  25288453.1414                   25288459.5634
        35.2504         26.5004
   2100913.00846   1661225.33644  24671543.3594                   24671549.5744
        37.0004         28.2504
 -14489607.42247 -11266359.10946  22319136.2734                   22319135.5944
        45.5004         41.2504
    767149.22346    620115.31645  23979615.4224                   23979621.7234
        37.7504         31.2504
 05 12 23  2  4  0.0000000  0 10G03G09G16G04G27G26G06G30G07G08
 -22948583.35547 -17858435.19546  22627865.6724                   22627869.0554
        42.0004         37.7504
 -26247749.95748 -20426914.41048  20446165.5314                   20446165.7664
        49.5004         50.0004
 -25827248.76647 -19619614.88745  21094660.2424                   21094658.7154
        46.5004         33.5004
 -34632473.91447 -25606373.32046  20307787.5004                   20307786.8914
        47.2504         37.7504
  -2986680.30546  -2305657.60945  23603960.3444                   23603964.4144
        40.2504         34.2504
 -13728582.40246 -10672568.02344  24189161.2974                   24189165.4104
        39.2504         29.5004
  -1450827.58645  -1106548.14143  25296071.1564                   25296076.9964
        35.0004         22.5004
   2007865.95745   1588721.35244  24653836.9304                   24653843.2934
        35.7504         27.0004
 -14551685.22347 -11314731.38746  22307323.1254                   22307322.7034
        46.5004         41.5004
    660563.21546    537061.50445  23959331.5554                   23959339.2114
        37.5004         31.7504
 05 12 23  2  4 30.0000000  0 10G03G09G16G04G27G26G06G30G07G08
 -22858354.50047 -17788127.12946  22645034.8444                   22645038.9384
        42.5004         37.5004
 -26313501.29348 -20478149.18448  20433653.4304                   20433654.0274
        49.5004         50.0004
 -25791253.77047 -19591566.84845  21101510.3444                   21101508.2774
        46.7504         32.5004
 -34632617.93747 -25606485.55146  20307759.9144                   20307759.4224
        47.5004         37.7504
  -3071762.11346  -2371955.00845  23587769.8674                   23587773.7114
        41.0004         34.7504
 -13640411.37146 -10603863.36344  24205939.7194                   24205943.5514
        38.2504         29.5004
  -1410489.65645  -1075116.07843  25303747.1254                   25303753.9884
        34.0004         22.5004
   1914993.72345   1516353.59844  24636163.1724                   24636169.8204
        35.0004         26.0004
 -14613520.89847 -11362914.97746  22295556.2894                   22295555.7504
        46.7504         41.5004
    554077.09846    454085.52345  23939068.6644                   23939075.4734
        38.5004         32.2504
 05 12 23  2  5  0.0000000  0 10G03G09G16G04G27G26G06G30G07G08
 -22767861.78147 -17717613.46146  22662255.4384                   22662259.4924
        42.2504         37.0004
 -26378893.61348 -20529104.20348  20421209.4694                   20421209.9064
        49.7504         50.0004
 -25754611.38347 -19563014.34845  21108482.8594                   21108481.0474
        47.5004         33.5004
 -34632331.96147 -25606262.71946  20307813.9694                   20307813.6254
        47.5004         38.0004
  -3156473.46546  -2437963.73445  23571650.1174                   23571653.3284
        40.7504         35.7504
 -13552004.02746 -10534974.57444  24222763.7584                   24222766.8094
        37.0004         29.2504
  -1369855.07044  -1043452.90243  25311478.3674                   25311487.2814
        26.2504         22.5004
   1822293.15645   1444119.57444  24618522.9384                   24618529.2734
        35.7504         26.0004
 -14675118.04747 -11410912.71546  22283834.9384                   22283833.7504
        46.0004         41.2504
    447690.77046    371187.29345  23918824.2344                   23918830.2734
        38.7504         32.0004
 05 12 23  2  5 30.0000000  0 10G03G09G16G04G27G26G06G30G07G08
 -22677109.70747 -17646897.69146  22679525.0164                   22679529.2304
        42.0004         37.2504
 -26443926.69548 -20579779.30548  20408834.0164                   20408834.6134
        50.5004         50.0004
 -25717325.51247 -19533960.43045  21115578.2344                   21115575.9384
        46.5004         33.2504
 -34631616.89847 -25605705.53546  20307950.4614                   20307950.0984
        47.5004         37.2504
  -3240812.64146  -2503682.47345  23555600.4224                   23555604.5044
        41.2504         34.7504
 -13463364.55545 -10465904.92644  24239631.2344                   24239634.3984
        35.7504         28.2504
  -1328928.37955  -1011562.19153  25319265.9924                   25319274.7854
        31.5004         22.5004
   1729762.62945   1372018.05944  24600915.5634                   24600920.8714
        35.5004         27.2504
 -14736479.33247 -11458726.66446  22272158.3054                   22272157.0744
        46.2504         41.2504
    341405.67246    288367.95345  23898598.4534                   23898605.0434
        39.0004         31.7504
 05 12 23  2  6  0.0000000  0 10G03G09G16G04G27G26G06G30G07G08
 -22586101.33246 -17575982.21546  22696843.1334                   22696847.9064
        41.0004         36.7504
 -26508598.90248 -20630173.20748  20396527.4304                   20396527.8954
        49.5004         50.0004
 -25679398.55947 -19504406.96545  21122795.6174                   21122793.4694
        46.5004         32.7504
 -34630472.07047 -25604813.47346  20308168.2114                   20308168.1484
        47.0004         37.7504
  -3324776.63746  -2569108.84445  23539622.6884                   23539626.6564
        40.7504         35.2504
 -13374495.75446 -10396656.55544  24256542.1414                   24256545.8284
        36.5004         29.2504
  -1287712.80945   -979446.28543  25327110.4454                   25327118.0084
        33.0004         23.0004
   1637402.10546   1300049.02344  24583338.8594                   24583345.2274
        36.5004         27.0004
 -14797605.09847 -11506357.08246  22260525.7504                   22260525.5084
        45.0004         41.5004
    235224.89146    205629.88745  23878392.6484                   23878398.6724
        38.7504         31.7504
 05 12 23  2  6 30.0000000  0 10G03G09G16G04G27G26G06G30G07G08
 -22494834.66447 -17504865.47346  22714211.0784                   22714215.1374
        42.0004         36.7504
 -26572903.46148 -20680280.62948  20384290.9064                   20384291.1094
        49.2504         50.2504
 -25640827.94947 -19474351.94945  21130135.5394                   21130133.4774
        47.0004         33.5004
 -34628891.80147 -25603582.10246  20308468.8754                   20308468.4024
        47.2504         38.0004
  -3408357.24646  -2634236.49245  23523717.9304                   23523721.1054
        41.0004         35.2504
 -13285395.33646 -10327227.71144  24273496.6094                   24273500.9414
        37.5004         29.5004
                                  25335008.5004                   25335015.9694
        33.2504         22.0004
   1545216.41046   1228216.20744  24565796.2974                   24565802.2504
        36.5004         29.2504
 -14858490.90647 -11553800.52046  22248939.8134                   22248939.0944
        46.2504         41.5004
    129156.36046    122979.28945  23858208.2814                   23858214.6454
        39.7504         31.5004
 05 12 23  2  7  0.0000000  0 10G03G09G16G04G27G26G06G30G07G08
 -22403315.65647 -17433552.10246  22731626.7274                   22731630.8714
        42.0004         36.2504
 -26636841.59848 -20730102.53548  20372123.4844                   20372124.0594
        49.7504         50.0004
 -25601619.00447 -19443799.52745  21137596.6094                   21137594.5784
        46.2504         33.5004
 -34626878.41847 -25602013.24646  20308852.3594                   20308852.1524
        47.0004         37.7504
  -3491554.41446  -2699065.32845  23507885.6334                   23507889.3244
        40.2504         35.7504
 -13196069.05946 -10257622.86744  24290494.9774                   24290499.2544
        36.0004         28.7504
  -1204414.05545   -914538.46544  25342962.9144                   25342969.2814
        34.5004         26.5004
   1453202.64545   1156517.37944  24548285.8914                   24548292.9024
        35.5004         29.7504
 -14919140.28547 -11601059.73046  22237398.7664                   22237398.1294
        47.2504         41.5004
     23200.35946     40416.37145  23838045.9144                   23838051.4064
        40.0004         33.0004
 05 12 23  2  7 30.0000000  0 10G03G09G16G04G27G26G06G30G07G08
 -22311545.64846 -17362043.15646  22749090.2424                   22749094.3324
        41.5004         36.5004
 -26700409.92648 -20779636.27748  20360026.8984                   20360027.4734
        49.5004         50.2504
 -25561772.46947 -19412750.28145  21145179.2344                   21145177.0514
        46.7504         33.2504
 -34624429.64847 -25600105.12546  20309317.8914                   20309317.7814
        47.0004         37.7504
  -3574363.24246  -2763591.57845  23492126.9384                   23492131.1524
        40.2504         35.5004
 -13106517.82845 -10187842.75044  24307536.6414                   24307540.7274
        34.7504         29.5004
  -1162338.41455   -881752.41454  25350969.0474                   25350976.0274
        32.2504         24.2504
   1361362.31346   1084953.70344  24530810.2114                   24530816.3284
        36.5004         29.5004
 -14979552.07847 -11648133.80546  22225902.7194                   22225902.0394
        47.0004         41.7504
    -82638.55546    -42055.30145  23817904.9694                   23817910.5904
        39.0004         31.7504
 05 12 23  2  8  0.0000000  0 10G03G09G16G04G27G26G06G30G07G08
 -22219530.02346 -17290342.82446  22766599.5944                   22766604.6644
        41.5004         36.7504
 -26763609.06648 -20828882.34848  20348000.2974                   20348000.8594
        49.0004         50.2504
 -25521293.14147 -19381207.96145  21152882.3594                   21152880.4734
        46.0004         33.7504
 -34621547.07847 -25597858.97746  20309866.5004                   20309866.6684
        46.0004         37.7504
  -3656783.00846  -2827814.66045  23476443.6024                   23476447.2114
        40.5004         35.5004
 -13016746.84445 -10117891.37944  24324618.6724                   24324623.5164
        35.7504         28.5004
  -1119984.27345   -848749.37544  25359029.0164                   25359036.6374
        33.5004         29.5004
   1269693.04745   1013523.32044  24513364.9694                   24513371.8284
        35.2504         29.2504
 -15039729.28947 -11695025.09047  22214451.3204                   22214450.7704
        46.5004         42.0004
   -188359.60246   -124435.14145  23797786.6024                   23797792.2034
        39.5004         30.2504
 05 12 23  2  8 30.0000000  0  9G03G09G16G04G27G26G30G07G08
 -22127267.94146 -17218450.44546  22784157.0234                   22784161.3634
        41.2504         36.7504
 -26826433.35548 -20877836.32448  20336045.6954                   20336045.8244
        48.5004         50.2504
 -25480179.44147 -19349171.31645  21160706.0704                   21160703.9454
        46.5004         33.5004
 -34618226.24247 -25595271.33246  20310498.5944                   20310498.2504
        46.2504         37.7504
  -3738806.74646  -2891729.14845  23460834.6094                   23460839.0084
        40.2504         35.5004
 -12926754.77345 -10047767.74244  24341744.9224                   24341749.0474
        34.5004         28.7504
   1178198.58246    942229.13744  24495954.2974                   24495960.7194
        37.0004         29.2504
 -15099668.72747 -11741731.09847  22203045.3754                   22203044.1134
        45.0004         42.0004
   -293955.93746   -206717.77044  23777692.6954                   23777698.1484
        39.0004         29.7504
 05 12 23  2  9  0.0000000  0  9G03G09G16G04G27G26G30G07G08
 -22034759.96547 -17146366.45346  22801760.6804                   22801765.3984
        42.0004         36.7504
 -26888878.71548 -20926495.03548  20324162.6564                   20324163.0234
        50.0004         50.2504
 -25438431.60247 -19316640.54345  21168650.1564                   21168648.0824
        46.0004         33.2504
 -34614464.18047 -25592339.87946  20311214.5234                   20311214.1724
        47.2504         36.7504
  -3820428.94546  -2955330.74645  23445302.9224                   23445306.1334
        40.5004         35.2504
 -12836542.03945  -9977472.16844  24358910.8524                   24358915.0164
        35.0004         26.5004
   1086881.39146    871073.07845  24478577.5864                   24478583.5274
        37.7504         30.7504
 -15159368.43047 -11788250.29347  22191684.6564                   22191683.6994
        47.2504         42.2504
   -399422.03546   -288898.92245  23757622.3364                   23757628.3134
        38.2504         30.0004
 05 12 23  2  9 30.0000000  0  9G03G09G16G04G27G26G30G07G08
 -21941992.98446 -17074080.65246  22819414.0084                   22819418.3444
        41.5004         36.7504
 -26950927.23048 -20974844.52048  20312354.9064                   20312355.8954
        50.0004         50.2504
 -25396035.91847 -19283604.94945  21176718.2344                   21176715.9184
        46.2504         33.5004
 -34610244.06247 -25589051.48846  20312017.5164                   20312017.3054
        47.2504         37.2504
  -3901630.39146  -3018604.48045  23429849.9534                   23429853.8324
        39.5004         35.0004
 -12746095.16845  -9906994.14144  24376122.4224                   24376126.7974
        34.2504         27.0004
    995757.29746    800067.48045  24461236.1954                   24461242.9844
        37.7504         30.5004
 -15218812.94547 -11834570.64847  22180372.7194                   22180372.2154
        47.0004         42.0004
   -504738.72746   -370963.64845  23737581.1174                   23737587.0554
        38.0004         30.0004
 05 12 23  2 10  0.0000000  0  9G03G09G16G04G27G26G30G07G08
 -21848962.25446 -17001589.34046  22837116.9844                   22837121.5124
        41.2504         36.7504
 -27012569.40248 -21022877.37148  20300625.0474                   20300625.1844
        49.5004         50.5004
 -25352987.09847 -19250060.41445  21184909.8444                   21184907.7704
        46.2504         33.5004
 -34605557.51247 -25585399.64546  20312909.2734                   20312909.0274
        47.5004         37.2504
  -3982400.21146  -3081541.88345  23414480.0704                   23414484.0124
        40.2504         35.5004
 -12655409.04745  -9836329.68444  24393379.3914                   24393383.6454
        35.5004         26.2504
    904834.13346    729218.45745  24443934.9844                   24443941.2074
        38.7504         32.0004
 -15277995.11347 -11880686.57047  22169110.8834                   22169109.6804
        47.0004         42.2504
   -609895.11346   -452903.48845  23717570.8524                   23717576.1604
        38.7504         30.5004
 05 12 23  2 10 30.0000000  0  9G03G09G16G04G27G26G30G07G08
 -21755674.75046 -16928897.94546  22854869.6804                   22854874.1764
        41.0004         36.2504
 -27073807.48048 -21070595.34848  20288971.7114                   20288972.4344
        49.5004         50.5004
 -25309291.59047 -19216011.97345  21193224.7424                   21193222.9614
        46.2504         33.7504
 -34600407.92247 -25581387.00046  20313889.5084                   20313888.7464
        47.7504         37.5004
  -4062739.31646  -3144143.68045  23399192.5944                   23399195.4734
        40.7504         35.0004
 -12564490.32446  -9765483.97744  24410680.9774                   24410684.9654
        36.0004         25.5004
    814107.72746    658522.73845  24426669.8284                   24426675.9494
        38.5004         32.2504
 -15336919.38747 -11926601.56247  22157897.7584                   22157896.4924
        47.5004         42.0004
   -714892.14146   -534719.16444  23697590.4694                   23697595.7974
        39.5004         29.2504
 05 12 23  2 11  0.0000000  0  9G03G09G16G04G27G26G30G07G08
 -21662136.16046 -16856010.90246  22872669.7194                   22872673.7584
        40.7504         36.0004
 -27134642.37948 -21117999.16048  20277395.4064                   20277395.4064
        49.5004         50.7504
 -25264954.68747 -19181463.75045  21201661.8204                   21201659.8634
        45.5004         33.2504
 -34594797.34047 -25577015.12946  20314957.1724                   20314956.7234
        47.0004         37.2504
  -4142647.25446  -3206409.50045  23383985.6334                   23383989.5904
        40.0004         34.0004
 -12473344.25846  -9694461.09044  24428025.6334                   24428029.9104
        36.2504         26.0004
    723575.46946    587978.31345  24409442.2274                   24409448.1844
        39.5004         33.0004
 -15395589.09047 -11972318.16047  22146733.0084                   22146732.5514
        47.2504         42.0004
   -819729.31646   -616410.25144  23677640.0394                   23677645.7974
        38.0004         29.5004
 05 12 23  2 11 30.0000000  0  9G03G09G16G04G27G26G30G07G08
 -21568354.34046 -16782934.32046  22890515.5234                   22890519.8284
        40.5004         36.0004
 -27195077.27048 -21165091.27048  20265894.9064                   20265895.4104
        49.7504         50.5004
 -25219983.99247 -19146421.66445  21210219.5394                   21210217.3794
        46.0004         33.5004
 -34588730.12147 -25572287.43746  20316111.3594                   20316111.1804
        47.0004         37.5004
  -4222125.96946  -3268340.85945  23368861.5004                   23368864.9654
        40.2504         35.0004
 -12381978.55946  -9623267.05144  24445411.9064                   24445416.2114
        36.7504         26.0004
    633232.20746    517581.14845  24392250.6254                   24392256.0274
        40.2504         33.5004
 -15454009.74647 -12017840.70347  22135616.1804                   22135615.0904
        47.7504         42.0004
   -924408.44946   -697978.21944  23657719.7894                   23657725.7774
        38.5004         28.5004
 05 12 23  2 12  0.0000000  0 10G03G09G16G04G27G26G21G30G07G08
 -21474335.50846 -16709673.06245  22908406.7194                   22908411.3054
        40.2504         35.0004
 -27255113.56648 -21211872.79748  20254470.1954                   20254470.7814
        50.0004         50.5004
 -25174385.12147 -19110890.08245  21218896.4534                   21218894.6644
        45.0004         32.7504
 -34582208.84847 -25567205.94946  20317352.8594                   20317352.3754
        47.2504         37.2504
  -4301175.48846  -3329937.78145  23353818.7894                   23353822.1604
        40.2504         34.5004
 -12290398.95346  -9551906.32444  24462839.1174                   24462843.3204
        37.5004         26.0004
   6148108.48856   4814049.89552  25048922.9064                   25048924.6134
        36.7504         16.2504
    543074.74346    447328.74145  24375093.8834                   24375099.3164
        39.7504         31.7504
 -15512184.93447 -12063171.97346  22124545.5704                   22124544.7464
        47.0004         41.7504
  -1028929.69546   -779423.15644  23637830.1254                   23637835.8404
        37.5004         28.5004
 05 12 23  2 12 30.0000000  0 10G03G09G16G04G27G26G21G30G07G08
 -21380105.35946 -16636247.14145  22926338.6804                   22926343.0124
        40.2504         34.5004
 -27314772.17648 -21258360.01648  20243117.4534                   20243117.9844
        50.0004         50.5004
 -25128183.52047 -19074888.84445  21227688.1954                   21227686.7544
        46.0004         32.7504
 -34575255.59447 -25561787.83646  20318675.9844                   20318675.3954
        47.7504         37.2504
  -4379815.46546  -3391215.58245  23338854.7034                   23338857.6454
        40.2504         34.5004
 -12198630.77046  -9480398.66044  24480301.8444                   24480306.2424
        39.2504         27.7504
   6036438.18846   4727034.07043  25027672.9064                   25027674.5634
        38.0004         19.2504
    453080.20746    377203.28945  24357968.7194                   24357974.2274
        39.7504         32.2504
 -15570138.40247 -12108330.46946  22113517.3364                   22113517.0004
        47.0004         41.7504
  -1133312.57846   -860760.27044  23617966.6094                   23617972.0704
        38.0004         28.5004
 05 12 23  2 13  0.0000000  0 10G03G09G16G04G27G26G21G30G07G08
 -21285680.00846 -16562669.11345  22944307.1094                   22944311.6174
        41.0004         35.5004
 -27374064.52748 -21304561.84448  20231834.3984                   20231835.4494
        50.0004         50.5004
 -25081394.50447 -19038429.89545  21236592.5234                   21236590.3244
        46.5004         33.0004
 -34567882.94547 -25556042.91046  20320078.4454                   20320078.4804
        47.5004         37.5004
  -4458056.06646  -3452182.16445  23323965.7114                   23323968.7504
        39.5004         33.0004
 -12106689.81646  -9408756.37944  24497797.9924                   24497801.6414
        38.5004         27.0004
   5925053.81646   4640241.07842  25006476.7114                   25006478.8674
        36.7504         17.2504
    363235.51646    307194.57045  24340871.4774                   24340877.1954
        40.5004         31.2504
 -15627883.41447 -12153326.52346  22102529.2504                   22102527.8164
        47.0004         41.5004
  -1237567.04346   -941997.28144  23598127.1724                   23598133.4414
        36.5004         29.2504
 05 12 23  2 13 30.0000000  0 10G03G09G16G04G27G26G21G30G07G08
 -21191058.77346 -16488938.44546  22962313.7664                   22962317.8914
        40.5004         36.0004
 -27432985.13348 -21350473.98048  20220622.3754                   20220622.8874
        49.5004         50.5004
 -25034017.18047 -19001512.51245  21245607.5784                   21245605.9654
        45.7504         32.7504
 -34560086.68747 -25549967.91846  20321562.1484                   20321562.0394
        47.2504         37.5004
  -4535890.44146  -3512832.21945  23309154.5474                   23309157.4884
        39.7504         32.7504
 -12014575.03146  -9336978.63744  24515326.8524                   24515330.7774
        39.7504         27.2504
   5813961.89845   4553675.96942  24985336.6884                   24985339.0474
        35.0004         17.7504
    273544.16046    237305.35545  24323803.5004                   24323809.3794
        39.7504         31.7504
 -15685416.81647 -12198157.70746  22091580.5474                   22091579.5744
        47.0004         41.7504
  -1341686.40646  -1023129.07044  23578314.5394                   23578319.6374
        37.0004         28.7504
 05 12 23  2 14  0.0000000  0 10G03G09G16G04G27G26G21G30G07G08
 -21096243.40646 -16415056.51645  22980355.8134                   22980360.6564
        40.5004         34.7504
 -27491531.03948 -21396094.15648  20209481.5944                   20209481.5554
        49.5004         50.5004
 -24986053.02347 -18964137.87545  21254735.2664                   21254733.2934
        46.0004         32.5004
 -34551864.98047 -25543561.39546  20323126.7814                   20323126.5314
        47.5004         37.2504
  -4613314.31646  -3573162.41845  23294420.7584                   23294423.3094
        38.7504         33.0004
 -11922287.69946  -9265066.43444  24532888.4064                   24532892.4734
        38.2504         26.2504
   5703166.02045   4467341.57842  24964252.9304                   24964255.4384
        35.0004         17.7504
    184007.32046    167536.54345  24306765.0944                   24306771.0904
        38.5004         30.2504
 -15742738.29747 -12242823.75446  22080672.6644                   22080671.5904
        47.2504         41.7504
  -1445666.19946  -1104152.08244  23558527.1804                   23558532.7894
        36.2504         28.5004
