     2.11           OBSERVATION DATA    G (GPS)             RINEX VERSION / TYPE
teqc  2019Feb25                         20250821 07:18:14UTCPGM / RUN BY / DATE
Linux 2.6.32-573.12.1.x86_64|x86_64|gcc -static|Linux 64|=+ COMMENT
BIT 2 OF LLI FLAGS DATA COLLECTED UNDER A/S CONDITION       COMMENT
04223561                                                    MARKER NAME
0422                                                        MARKER NUMBER
-Unknown-           -Unknown-                               OBSERVER / AGENCY
0220340422          TRIMBLE 5700        2.32                REC # / TYPE / VERS
-Unknown-           TRM41249.00     NONE                    ANT # / TYPE
 -2421503.7332 -4592703.4795  3693450.9905                  APPROX POSITION XYZ
        0.0000        0.0000        0.0000                  ANTENNA: DELTA H/E/N
     1     1                                                WAVELENGTH FACT L1/2
     7    L1    L2    C1    P1    P2    S1    S2            # / TYPES OF OBSERV
    18                                                      LEAP SECONDS
 SNR is mapped to RINEX snr flag value [0-9]                COMMENT
  L1 & L2: min(max(int(snr_dBHz/6), 0), 9)                  COMMENT
  2005    12    22    18    54   30.0000000     GPS         TIME OF FIRST OBS
                                                            END OF HEADER
 05 12 22 18 54 30.0000000  0  6G10G23G27G32G08G02
     -4292.57058     -2769.42258  21029123.1644                   21029125.0824
        50.0004         50.0004
     75052.69157     51242.83255  21905104.4774                   21905105.1374
        45.5004         32.0004
     52979.52357     32784.74657  21671856.6564                   21671859.6054
        46.0004         45.0004
    -74158.71958    -45495.13758  20798440.0234                   20798441.8524
        51.5004         51.0004
    -31764.75057    -19570.95356  22590322.9144                   22590326.6994
        43.5004         36.7504
   -152491.03956    -80790.92253  24730852.7344                   24730854.4844
        38.5004         20.2504
 05 12 22 18 55  0.0000000  0  8G18G10G24G23G27G32G08G02
     93026.79757     60943.23455  22663928.4144                   22663927.6994
        43.0004         31.0004
     -7057.30548     -4923.78148  21028597.1884                   21028598.8554
        48.7504         49.7504
     23819.96156     14021.79355  23244182.5314                   23244186.0474
        39.0004         32.0004
    126291.81647     91169.38345  21914855.3914                   21914855.7974
        45.7504         32.5004
     86033.70747     58541.18447  21678146.1174                   21678149.0234
        46.7504         45.0004
   -119466.39148    -80799.80548  20789818.5944                   20789820.3554
        51.5004         50.7504
    -59744.41047    -41373.31646  22584998.3834                   22585002.2234
        42.7504         38.0004
   -246919.14146   -154371.14143  24712883.7664                   24712884.9534
        36.7504         19.5004
 05 12 22 18 55 30.0000000  0  9G18G10G24G23G28G27G32G08G02
    169948.98447    120882.45344  22678566.4454                   22678568.3054
        43.2504         29.7504
     -9731.46948     -7007.56248  21028088.0554                   21028090.3444
        50.5004         50.0004
     44027.03946     29767.53145  23248027.6804                   23248031.6454
        38.2504         30.5004
    177562.15647    131120.22345  21924611.4454                   21924612.1214
        45.7504         32.5004
   -226842.12554    -79970.99253  25109043.9384                   25109054.1254
        28.7504         19.0004
    119544.36347     84653.30147  21684522.9774                   21684526.2074
        47.2504         45.5004
   -164372.28948   -115791.41048  20781272.9774                   20781275.1684
        51.7504         51.0004
    -87251.12947    -62807.14846  22579763.9224                   22579768.2894
        43.0004         38.2504
   -341410.88346   -228000.94143  24694902.0084                   24694903.7854
        38.0004         20.0004
 05 12 22 18 56  0.0000000  0  8G18G10G24G23G27G32G08G02
    247153.40247    181041.60544  22693258.0004                   22693259.8054
        43.7504         29.2504
    -12262.41448     -8979.74648  21027606.4454                   21027608.3094
        49.0004         50.0004
     64814.12546     45965.23045  23251983.2974                   23251987.4654
        38.0004         30.5004
    228916.50447    171136.54345  21934384.0084                   21934384.8834
        46.0004         32.7504
    153562.71148    111161.02347  21690996.8754                   21690999.8834
        48.0004         45.0004
   -208822.88348   -150428.23048  20772814.4844                   20772816.4694
        52.0004         51.0004
   -114231.39147    -83830.74646  22574629.5944                   22574634.2584
        43.0004         37.2504
   -435911.36746   -301637.57843  24676919.8834                   24676921.3364
        37.5004         19.5004
 05 12 22 18 56 30.0000000  0  8G18G10G24G23G27G32G08G02
    324662.27747    241438.00444  22708007.6644                   22708009.3204
        43.5004         28.0004
    -14627.27348    -10822.50048  21027156.5004                   21027158.0124
        51.0004         50.0004
     86203.93446     62632.59044  23256054.5634                   23256057.6564
        38.0004         29.7504
    280377.69947    211236.12945  21944177.2034                   21944177.4384
        46.2504         32.2504
    188110.10547    138080.98847  21697571.0864                   21697573.8524
        47.2504         45.5004
   -252794.57048   -184691.86748  20764446.8444                   20764448.6454
        51.5004         51.0004
   -140661.56647   -104425.71146  22569600.2344                   22569604.1954
        42.5004         37.5004
   -530396.33246   -375262.10243  24658939.6334                   24658940.8364
        38.5004         20.5004
 05 12 22 18 57  0.0000000  0  8G18G10G24G23G27G32G08G02
    402484.52347    302078.57844  22722816.8364                   22722818.9144
        44.5004         28.5004
    -16816.55548    -12528.44548  21026739.8834                   21026741.7274
        49.0004         50.0004
    108205.85246     79776.90645  23260240.8284                   23260244.8554
        37.5004         30.0004
    331955.34847    251426.44945  21953991.7504                   21953992.2384
        45.5004         32.7504
    223194.44947    165419.35947  21704247.5704                   21704250.1804
        47.0004         45.0004
   -296277.05948   -218574.31648  20756172.4844                   20756174.7114
        52.0004         51.2504
   -166531.40647   -124584.03546  22564677.9924                   22564681.5864
        43.2504         37.0004
   -624854.30546   -448865.60943  24640964.9454                   24640966.4384
        38.5004         20.0004
 05 12 22 18 57 30.0000000  0  9G18G10G24G23G28G27G32G08G02
    480628.02746    362969.48443  22737686.9774                   22737688.8874
        38.2504         18.5004
    -18821.81247    -14090.97346  21026357.9304                   21026360.1914
        45.5004         38.2504
    130828.25845     97404.73443  23264545.1564                   23264549.1174
        35.5004         22.7504
    383657.89547    291714.09444  21963830.6094                   21963831.2234
        42.5004         25.2504
    -95250.90215                  25030680.773
        33.000
    258822.79747    193181.62545  21711026.6884                   21711029.4614
        42.0004         32.0004
   -339261.08247   -252068.33646  20747992.2504                   20747994.0984
        46.7504         38.2504
   -191831.61346   -144298.52045  22559862.7814                   22559866.5904
        39.5004         30.5004
   -719274.934 5                  24622996.891
        32.000
 05 12 22 18 58  0.0000000  0  9G18G10G24G23G28G27G32G08G02
    559086.80947    424106.07044  22752617.1954                   22752619.6254
        43.0004         28.5004
    -20648.13748    -15514.10948  21026010.8204                   21026013.0124
        51.2504         50.2504
                                  23268966.4224                   23268971.9844
        36.0004         29.2504
    435480.39547    332095.21545  21973692.4454                   21973692.6134
        44.7504         31.0004
   -198461.64555   -133975.69953  25011041.5784                   25011050.9574
        35.0004         21.7504
    294988.26647    221362.43047  21717910.0474                   21717912.0784
        47.2504         44.7504
   -381751.12948   -285177.46948  20739907.1024                   20739909.0354
        51.0004         51.2504
   -216566.82847   -163572.71946  22555156.1484                   22555160.0514
        43.5004         37.5004
   -813661.56646   -570978.91853  24605035.5554                   24605035.7464
        37.5004         20.7504
 05 12 22 18 58 30.0000000  0  9G18G10G24G23G28G27G32G08G02
    637853.57047    485482.64144  22767606.6254                   22767608.5984
        43.0004         29.2504
    -22302.48448    -16803.21548  21025696.4614                   21025697.9844
        50.0004         50.2504
    177911.66046    134093.03945  23273504.4304                   23273509.2114
        37.5004         31.2504
    487415.94947    372564.41045  21983574.5314                   21983575.4344
        44.5004         32.7504
   -301778.95346   -214482.39843  24991380.5864                   24991389.7504
        38.7504         20.2504
    331682.48447    249955.25047  21724892.2814                   21724894.8954
        47.0004         45.0004
   -423753.25848   -317906.37948  20731914.7274                   20731916.1524
        51.0004         51.0004
   -240742.94147   -182411.26246  22550555.7584                   22550559.5124
        43.2504         37.2504
   -908019.12146   -644504.14143  24587079.4454                   24587081.0514
        37.0004         20.5004
 05 12 22 18 59  0.0000000  0  9G18G10G24G23G28G27G32G08G02
    716927.04747    547098.18444  22782653.4534                   22782656.4844
        42.5004         28.7504
    -23785.39148    -17958.73848  21025413.9304                   21025415.4924
        51.0004         50.2504
    202364.70746    153147.35545  23278158.4614                   23278162.4614
        37.0004         31.2504
    539464.10547    413121.35945  21993479.7274                   21993479.8984
        44.5004         32.5004
   -405200.07046   -295070.00843  24971700.5084                   24971710.1094
        37.5004         20.5004
    368903.27347    278958.38347  21731975.1484                   21731978.1564
        47.0004         44.7504
   -465267.36748   -350255.03148  20724014.3834                   20724016.3054
        51.2504         51.0004
   -264360.03147   -200814.20346  22546061.1804                   22546065.0744
        43.0004         37.5004
  -1002346.18046   -718005.65643  24569130.5864                   24569131.0664
        38.0004         20.5004
 05 12 22 18 59 30.0000000  0  9G18G10G24G23G28G27G32G08G02
    796300.95347    608947.84044  22797757.9774                   22797760.3554
        43.0004         29.2504
    -25102.37948    -18984.96548  21025163.4064                   21025165.3834
        49.2504         50.0004
    227419.34046    172670.39145  23282926.6724                   23282930.9804
        38.0004         31.5004
    591619.36747    453761.77045  22003404.3984                   22003405.0474
        43.5004         31.5004
   -508727.58646   -375740.53943  24951999.2274                   24952008.9024
        38.2504         18.2504
    406643.41047    308366.20747  21739156.9224                   21739160.0594
        47.2504         44.0004
   -506298.35248   -382227.21548  20716206.4924                   20716208.3164
        51.0004         51.2504
   -287422.96947   -218785.34846  22541672.3054                   22541676.2704
        43.0004         37.7504
  -1096646.76246   -791486.51643  24551184.8914                   24551186.6294
        37.7504         21.0004
 05 12 22 19  0  0.0000000  0  9G18G10G24G23G28G27G32G08G02
    875973.19547    671029.97344  22812918.9614                   22812921.5274
        43.0004         29.2504
    -26254.86348    -19883.02348  21024943.9534                   21024945.8524
        50.7504         50.0004
    253073.79346    192660.83845  23287808.0554                   23287812.5164
        38.2504         31.2504
    643880.42247    494484.62545  22013349.3834                   22013349.8954
        43.5004         32.0004
   -612360.01646   -456492.87943  24932278.6414                   24932288.3524
        38.0004         19.2504
    444899.82447    338176.31647  21746436.6174                   21746439.3554
        47.5004         44.2504
   -546846.94148   -413823.50048  20708490.4614                   20708492.8524
        51.0004         51.2504
   -309932.53547   -236325.28546  22537389.0944                   22537393.0824
        43.0004         37.0004
  -1190920.23046   -864946.27743  24533245.1414                   24533246.5704
        38.7504         21.2504
 05 12 22 19  0 30.0000000  0  9G18G10G24G23G28G27G32G08G02
    955940.05947    733341.65244  22828135.9844                   22828138.9344
        42.2504         28.7504
    -27245.97748    -20655.32448  21024755.2114                   21024757.2814
        50.5004         50.0004
    279324.72746    213116.07845  23292803.5084                   23292807.6844
        37.0004         31.7504
    696244.19547    535287.51245  22023313.9224                   22023314.8364
        43.5004         32.5004
   -716097.53146   -537327.03542  24912537.7424                   24912547.5514
        37.5004         17.2504
    483667.71147    368384.98447  21753813.9924                   21753816.9964
        47.0004         44.0004
   -586915.66048   -445045.86348  20700865.6804                   20700867.2384
        51.0004         51.5004
   -331891.27347   -253436.00046  22533211.2664                   22533214.4024
        43.0004         37.2504
  -1285167.82446   -938385.82043  24515310.7584                   24515311.6884
        37.5004         21.5004
 05 12 22 19  1  0.0000000  0  9G18G10G24G23G28G27G32G08G02
   1036195.14847    795877.93044  22843408.4694                   22843411.2034
        42.2504         29.0004
    -28081.22348    -21306.17648  21024596.6484                   21024598.4614
        51.0004         50.0004
    306166.14846    234031.44545  23297912.3284                   23297915.8444
        37.7504         32.0004
    748705.25447    576166.21145  22033296.6174                   22033297.4454
        43.7504         32.5004
   -819942.77346   -618245.15642  24892776.2344                   24892786.4614
        37.0004         16.2504
    522939.83247    398986.55947  21761287.7504                   21761290.5204
        46.7504         44.0004
   -626509.40248   -475898.12548  20693330.9844                   20693333.1844
        50.7504         51.5004
   -353304.12147   -270121.35546  22529136.2034                   22529140.0394
        43.5004         37.7504
  -1379393.29746  -1011808.18743  24497379.3674                   24497380.9064
        38.0004         21.0004
 05 12 22 19  1 30.0000000  0  9G18G10G24G23G28G27G32G08G02
   1116734.66446    858635.84044  22858735.3754                   22858737.5944
        41.7504         28.5004
    -28763.78548    -21838.04748  21024467.0004                   21024468.1174
        50.0004         50.0004
    333594.61746    255404.23845  23303130.8834                   23303135.2384
        38.5004         32.0004
    801260.48447    617118.27345  22043298.1334                   22043298.9654
        44.5004         31.7504
   -923896.02345   -699247.36342  24872994.1174                   24873004.3054
        35.7504         17.2504
    562711.28147    429977.22347  21768855.7034                   21768858.6764
        47.5004         43.7504
   -665630.77048   -506382.29348  20685886.5394                   20685888.4304
        50.7504         51.5004
   -374173.76647   -286383.43046  22525164.7424                   22525168.6094
        43.2504         37.0004
  -1473597.77346  -1085214.17643  24479453.6334                   24479454.1454
        37.7504         22.0004
 05 12 22 19  2  0.0000000  0  9G18G10G24G23G28G27G32G08G02
   1197557.31647    921614.37544  22874115.0474                   22874117.9384
        42.0004         27.0004
    -29294.13348    -22251.32048  21024365.6954                   21024367.2854
        49.7504         50.0004
    361609.22746    277233.79745  23308461.5944                   23308466.1954
        38.2504         31.0004
    853909.53547    658143.44945  22053316.9694                   22053317.5514
        43.7504         32.0004
  -1027954.77346   -780331.76642  24853192.6954                   24853202.5274
        36.2504         17.7504
    602979.82047    461355.23847  21776518.9304                   21776522.0004
        47.0004         44.0004
   -704279.68448   -536498.30948  20678531.8364                   20678533.9534
        51.5004         51.5004
   -394500.16047   -302222.19146  22521296.5084                   22521300.6484
        43.5004         37.5004
  -1567779.80546  -1158602.63343  24461530.8914                   24461532.0084
        37.2504         20.7504
 05 12 22 19  2 30.0000000  0  9G18G10G24G23G28G27G32G08G02
   1278658.21946    984809.71544  22889548.2664                   22889551.2664
        41.0004         28.5004
    -29676.34848    -22549.15648  21024292.8674                   21024294.4774
        50.5004         50.0004
    390205.34846    299516.45745  23313903.6484                   23313908.0984
        38.7504         31.5004
    906648.27747    699238.51645  22063352.5944                   22063353.5944
        43.5004         31.5004
  -1132120.36746   -861499.43043  24833369.7664                   24833379.7974
        38.2504         18.5004
    643739.49247    493115.94547  21784275.0004                   21784277.9734
        47.2504         44.0004
   -742459.73048   -566248.98848  20671266.4224                   20671268.3484
        51.2504         51.5004
   -414287.00847   -317640.53146  22517531.4614                   22517535.4694
        43.7504         38.0004
  -1661941.62946  -1231975.37943  24443612.3054                   24443613.4304
        37.2504         20.7504
 05 12 22 19  3  0.0000000  0  9G18G10G24G23G28G27G32G08G02
   1360039.59446   1048223.60944  22905034.5084                   22905037.1884
        40.7504         27.7504
    -29907.48048    -22729.27048  21024248.9924                   21024250.7114
        50.0004         49.7504
    419385.49646    322254.20745  23319456.3984                   23319460.3674
        39.0004         31.7504
    959479.75447    740405.84045  22073406.5554                   22073406.8794
        43.7504         32.0004
  -1236386.79346   -942745.68043  24813529.4694                   24813538.0394
        40.5004         21.5004
    684991.45747    525260.25847  21792125.0234                   21792128.1294
        46.5004         44.0004
   -780167.46948   -595631.62948  20664090.9304                   20664092.8244
        51.0004         51.5004
   -433530.85247   -332635.74646  22513868.9064                   22513873.2384
        43.2504         38.0004
  -1756078.64546  -1305328.76643  24425699.0634                   24425699.4734
        38.2504         22.0004
 05 12 22 19  3 30.0000000  0  9G18G10G24G23G28G27G32G08G02
   1441703.00046   1111857.27344  22920574.6804                   22920577.5124
        40.2504         27.5004
    -29985.07048    -22789.73448  21024234.0474                   21024235.9494
        51.0004         49.7504
    449151.61746    345448.56345  23325120.8444                   23325125.0314
        39.7504         32.5004
   1012406.56347    781647.43845  22083476.8674                   22083478.9774
        43.5004         31.2504
  -1340748.78546  -1024066.38743  24793668.8984                   24793677.7774
        40.2504         21.5004
    726736.33247    557788.65647  21800068.7274                   21800071.9654
        47.0004         44.0004
   -817399.95748   -624643.94148  20657005.8364                   20657007.9304
        50.5004         51.5004
   -452228.93747   -347205.69946  22510310.3914                   22510315.3094
        43.5004         37.7504
  -1850186.42646  -1378659.38343  24407790.0554                   24407791.3364
        37.7504         21.5004
 05 12 22 19  4  0.0000000  0  9G18G10G24G23G28G27G32G08G02
   1523637.96946   1175702.54744  22936166.4924                   22936169.4264
        40.5004         28.0004
    -29918.83248    -22738.13748  21024246.5394                   21024248.5514
        51.0004         49.7504
    479493.48846    369091.55545  23330894.7814                   23330898.7854
        40.0004         32.7504
   1065419.00047    822955.77745  22093565.7114                   22093566.4454
        43.7504         30.7504
  -1445213.04346  -1105466.79743  24773789.8134                   24773798.7304
        39.5004         21.0004
    768962.54347    590692.12547  21808105.0164                   21808107.4774
        46.5004         44.0004
   -854166.44948   -653293.13748  20650009.4454                   20650011.5354
        50.5004         51.5004
   -470390.51247   -361357.57846  22506854.9224                   22506858.9224
        43.7504         37.2504
  -1944272.69146  -1451973.24243  24389886.6174                   24389887.3284
        38.0004         22.5004
 05 12 22 19  4 30.0000000  0  9G18G10G24G23G28G27G32G08G02
   1605843.60246   1239758.70744  22951809.5944                   22951812.7504
        40.5004         27.5004
    -29708.79348    -22574.48848  21024286.7344                   21024288.5514
        51.2504         49.7504
    510410.48446    393182.69945  23336778.1174                   23336781.8484
        38.2504         32.5004
   1118517.15647    864330.90645  22103670.4064                   22103670.5554
        44.2504         31.0004
  -1549776.79346  -1186944.76243  24753891.9144                   24753899.9144
        40.5004         21.0004
    811668.16847    623969.15647  21816231.0704                   21816233.9184
        46.5004         44.2504
   -890466.52048   -681578.89148  20643101.6954                   20643103.3204
        50.5004         51.5004
   -488015.28147   -375091.19946  22503501.4304                   22503505.1914
        43.5004         37.5004
  -2038335.63346  -1525268.92643  24371986.4454                   24371987.3484
        38.2504         22.0004
 05 12 22 19  5  0.0000000  0  9G18G10G24G23G28G27G32G08G02
   1688313.32446   1304020.69144  22967503.7274                   22967506.5434
        41.2504         27.5004
    -29360.76248    -22303.30948  21024352.8444                   21024354.4414
        51.0004         49.7504
    541896.20346    417717.00445  23342769.2034                   23342773.8054
        39.5004         31.7504
   1171695.26247    905768.34445  22113789.5634                   22113790.1804
        43.5004         30.5004
  -1654442.84446  -1268502.46143  24733974.5164                   24733982.3134
        39.0004         19.0004
    854845.49647    657613.75847  21824447.3754                   21824450.2384
        47.0004         44.2504
   -926305.62148   -709505.45348  20636281.6414                   20636283.0704
        50.7504         51.5004
   -505108.80547   -388410.87946  22500248.9224                   22500252.4844
        44.0004         37.7504
  -2132379.08646  -1598549.39543  24354090.9534                   24354091.0744
        37.5004         22.0004
 05 12 22 19  5 30.0000000  0  9G18G10G24G23G28G27G32G08G02
   1771043.87547   1368485.89844  22983246.5394                   22983249.5044
        42.0004         27.7504
    -28877.00048    -21926.36348  21024445.0704                   21024446.7384
        51.0004         49.7504
    573947.67246    442692.16045  23348868.3834                   23348872.8014
        39.0004         32.5004
   1224951.07047    947266.30945  22123923.8674                   22123924.6914
        42.5004         31.0004
  -1759210.60246  -1350139.41442  24714038.1254                   24714046.0234
        38.5004         17.2504
    898490.25847    691622.58247  21832752.9064                   21832755.9384
        47.2504         44.2504
   -961685.59048   -737074.23848  20629549.1564                   20629550.8484
        50.7504         51.5004
   -521672.85947   -401317.91046  22497096.1024                   22497100.1454
        43.2504         38.0004
  -2226403.69146  -1671815.20743  24336197.8134                   24336198.8594
        37.2504         22.5004
 05 12 22 19  6  0.0000000  0  9G18G10G24G23G28G27G32G08G02
   1854029.68847   1433150.00844  22999038.5164                   22999041.5124
        42.0004         27.2504
    -28262.20748    -21447.31648  21024562.1254                   21024563.7774
        50.5004         49.7504
    606559.53546    468103.99245  23355074.4224                   23355078.6054
        39.0004         32.5004
   1278280.01247    988821.27345  22134071.9774                   22134073.2114
        42.7504         30.7504
  -1864081.79746  -1431856.93442  24694080.8204                   24694090.3364
        37.7504         15.5004
    942595.83647    725990.48847  21841145.9064                   21841148.8554
        47.2504         44.2504
   -996610.83248   -764288.69548  20622902.9224                   20622904.6564
        51.0004         51.5004
   -537712.14147   -413816.06246  22494044.4774                   22494048.1994
        43.7504         37.5004
  -2320412.08246  -1745068.34443  24318308.4454                   24318309.5044
        37.7504         21.7504
 05 12 22 19  6 30.0000000  0  9G18G10G24G23G28G27G32G08G02
   1937271.50447   1498013.59844  23014879.6174                   23014881.8524
        42.0004         27.5004
    -27514.77348    -20864.90248  21024703.9694                   21024705.7504
        50.5004         50.0004
    639732.73846    493953.22345  23361387.0784                   23361391.2814
        39.2504         32.5004
   1331683.75047   1030434.50845  22144234.3054                   22144235.1254
        42.5004         31.0004
  -1969051.93746  -1513651.53942  24674105.7664                   24674115.1374
        36.2504         16.2504
    987161.84447    760717.17647  21849626.4614                   21849629.5514
        47.5004         44.2504
  -1031079.35548   -791147.27048  20616344.0004                   20616345.8754
        50.5004         51.5004
   -553224.69947   -425903.78946  22491092.4064                   22491096.2074
        44.5004         38.5004
  -2414400.73046  -1818306.12543  24300423.3594                   24300424.2664
        38.0004         20.5004
 05 12 22 19  7  0.0000000  0  9G18G10G24G23G28G27G32G08G02
   2020763.55547   1563072.19544  23030767.3834                   23030770.2154
        42.0004         27.5004
    -26639.55148    -20182.92648  21024870.9304                   21024872.5634
        50.2504         49.7504
    673461.66046    520235.50045  23367805.6024                   23367809.8874
        38.5004         33.0004
   1385157.46147   1072102.27745  22154410.4144                   22154410.9734
        43.0004         30.2504
  -2074122.87946  -1595524.68442  24654110.9614                   24654120.3714
        36.5004         16.7504
   1032181.42647    795797.28147  21858193.8364                   21858196.8674
        46.5004         44.2504
  -1065095.73048   -817653.52048  20609870.7424                   20609872.5434
        50.2504         51.5004
   -568215.21147   -437584.73446  22488239.7814                   22488243.6214
        44.2504         38.2504
  -2508372.71546  -1891530.90643  24282541.3284                   24282541.4614
        37.7504         22.0004
 05 12 22 19  7 30.0000000  0  9G18G10G24G23G28G27G32G08G02
   2104503.88747   1628324.23444  23046703.1884                   23046705.3984
        43.0004         27.0004
    -25637.55148    -19402.15248  21025061.5864                   21025063.7664
        50.2504         49.7504
    707744.56646    546949.42245  23374329.5474                   23374333.4064
        38.2504         32.0004
   1438700.24247   1113823.86745  22164599.1094                   22164599.7854
        44.2504         30.2504
  -2179292.69946  -1677474.83642  24634097.4614                   24634106.6094
        36.0004         16.7504
   1077651.56647    831228.48447  21866846.5554                   21866849.9534
        46.7504         44.2504
  -1098660.61748   -843807.96148  20603483.4534                   20603485.0784
        50.5004         51.5004
   -582684.51647   -448859.53546  22485486.5784                   22485490.3794
        44.5004         38.2504
  -2602326.99246  -1964741.88343  24264661.4694                   24264662.8054
        38.0004         22.2504
 05 12 22 19  8  0.0000000  0  9G18G10G24G23G28G27G32G08G02
   2188489.10547   1693767.09844  23062684.6254                   23062687.7544
        42.0004         27.2504
    -24511.18048    -18524.46948  21025276.0004                   21025277.8284
        50.2504         49.7504
    742578.14146    574092.45745  23380957.7424                   23380962.3554
        39.5004         32.0004
   1492309.65647   1155597.37945  22174800.8134                   22174801.4224
        43.7504         30.2504
  -2284560.97346  -1759501.71542  24614065.0164                   24614073.5744
        36.5004         17.7504
   1123567.67647    867007.19947  21875584.0164                   21875586.7624
        46.7504         44.0004
  -1131776.32848   -869612.39548  20597181.7664                   20597183.5234
        51.0004         51.5004
   -596634.96547   -459730.03946  22482831.5554                   22482835.5314
        43.7504         38.0004
  -2696264.32046  -2037939.64843  24246786.1174                   24246786.8484
        38.5004         22.2504
 05 12 22 19  8 30.0000000  0  9G18G10G24G23G28G27G32G08G02
   2272716.63347   1759398.78144  23078712.6414                   23078715.5744
        42.0004         27.0004
    -23262.09448    -17551.16848  21025513.5164                   21025515.6524
        50.5004         49.7504
    777960.00046    601662.71145  23387691.1334                   23387695.2664
        38.7504         33.5004
   1545984.25847   1197421.68445  22185014.9224                   22185015.3164
        43.2504         30.0004
  -2389926.34046  -1841604.18743  24594014.6254                   24594022.5474
        36.5004         19.5004
   1169926.16447    903130.61747  21884405.7424                   21884408.5634
        46.2504         44.0004
  -1164444.11748   -895067.79748  20590965.1334                   20590967.2814
        50.0004         51.7504
   -610068.00447   -470197.37546  22480276.0554                   22480279.5274
        44.0004         38.5004
  -2790184.12946  -2111123.81243  24228913.1414                   24228914.0904
        39.5004         21.7504
 05 12 22 19  9  0.0000000  0  9G18G10G24G23G28G27G32G08G02
   2357181.34047   1825215.27044  23094785.7114                   23094788.8324
        42.0004         27.5004
    -21894.37548    -16485.41848  21025773.9304                   21025775.3834
        50.0004         50.0004
    813885.10546    629656.28145  23394528.4224                   23394531.7424
        39.5004         32.5004
   1599719.87947   1239293.52744  22195240.3204                   22195241.3794
        43.5004         29.5004
  -2495390.05145  -1923783.32843  24573944.4924                   24573953.2854
        35.0004         18.2504
   1216720.69547    939593.80947  21893310.6724                   21893313.5044
        46.5004         44.0004
  -1196667.99648   -920177.29348  20584833.5234                   20584834.8094
        50.2504         51.7504
   -622987.73047   -480264.71146  22477817.1174                   22477820.7774
        43.5004         39.0004
  -2884089.07046  -2184296.36743  24211044.3054                   24211044.6214
        39.0004         22.0004
 05 12 22 19  9 30.0000000  0  9G18G10G24G23G28G27G32G08G02
   2441880.84046   1891214.70344  23110903.5704                   23110906.7774
        41.7504         27.0004
    -20409.47348    -15328.35948  21026056.6254                   21026058.4654
        49.0004         50.0004
    850351.16846    658071.37145  23401466.7274                   23401470.4104
        40.0004         32.7504
   1653515.23047   1281211.92645  22205477.2504                   22205478.6174
        43.5004         30.5004
  -2600950.59845  -2006037.91043  24553857.5944                   24553865.3914
        34.5004         18.5004
   1263947.78947    976394.05947  21902297.9224                   21902300.9024
        46.5004         44.0004
  -1228449.16048   -944941.82048  20578785.6884                   20578787.8014
        50.5004         51.7504
   -635395.51647   -489933.12946  22475456.1174                   22475459.9414
        44.0004         38.5004
  -2977978.26546  -2257456.66143  24193177.4694                   24193177.8834
        38.2504         22.2504
 05 12 22 19 10  0.0000000  0  9G18G10G24G23G28G27G32G08G02
   2526811.33646   1957394.14144  23127065.7274                   23127068.6094
        41.5004         26.2504
    -18810.18748    -14082.18048  21026360.4534                   21026362.4924
        49.0004         49.7504
    887354.49646    686905.11745  23408508.6564                   23408512.6134
        39.2504         32.5004
   1707367.54747   1323174.69145  22215725.1724                   22215725.5944
        44.0004         31.2504
  -2706607.71946  -2088367.74243  24533750.9844                   24533758.7074
        37.0004         18.5004
   1311602.54747   1013527.55547  21911365.9614                   21911369.1644
        46.7504         43.7504
  -1259790.22348   -969363.40248  20572821.4304                   20572822.9574
        50.0004         51.7504
   -647294.07047   -499204.75846  22473191.3984                   22473195.3364
        43.7504         37.7504
  -3071852.64846  -2330605.39843  24175313.8054                   24175314.3984
        38.5004         22.5004
 05 12 22 19 10 30.0000000  0  9G18G10G24G23G28G27G32G08G02
   2611971.97346   2023752.89544  23143271.4144                   23143274.1684
        41.2504         25.2504
    -17096.30948    -12746.69548  21026687.0004                   21026689.0744
        48.5004         49.7504
    924894.25046    716156.83645  23415651.4534                   23415655.8134
        39.0004         32.5004
   1761277.09047   1365182.07045  22225983.7974                   22225984.5744
        44.5004         30.0004
  -2812358.45746  -2170770.52743  24513627.1094                   24513634.8954
        38.2504         20.0004
   1359682.89547   1050992.67647  21920515.3834                   21920518.8014
        46.7504         44.0004
  -1290690.89848   -993441.83648  20566941.4304                   20566942.7974
        49.7504         51.7504
   -658683.35547   -508079.54346  22471024.7664                   22471028.3134
        44.0004         38.0004
  -3165710.19946  -2403741.01243  24157452.7274                   24157453.5664
        38.0004         22.5004
 05 12 22 19 11  0.0000000  0  9G18G10G24G23G28G27G32G08G02
   2697363.27046   2090291.38344  23159520.8984                   23159523.9774
        41.0004         26.2504
    -15266.20748    -11320.65248  21027035.1804                   21027037.0164
        48.7504         49.7504
    962971.11346    745827.10545  23422896.9064                   23422901.7974
        39.5004         32.7504
   1815245.42647   1407235.24644  22236253.5164                   22236254.6914
        44.7504         29.0004
  -2918198.13346  -2253242.65243  24493486.7114                   24493494.2074
        39.5004         21.0004
   1408188.30947   1088789.00847  21929745.9454                   21929748.8444
        46.7504         44.0004
  -1321149.43448  -1017175.74648  20561145.1254                   20561146.7974
        49.5004         52.0004
   -669561.67647   -516556.19146  22468954.2274                   22468958.1644
        43.7504         38.5004
  -3259547.45746  -2476860.82043  24139596.2344                   24139596.8204
        37.5004         21.5004
 05 12 22 19 11 30.0000000  0  9G18G10G24G23G28G27G32G08G02
   2782982.29346   2157007.31644  23175813.4304                   23175817.3524
        40.7504         25.5004
    -13321.89548     -9805.61748  21027405.1174                   21027406.7304
        48.0004         49.5004
   1001582.05146    775913.51645  23430245.1334                   23430249.2504
        40.2504         33.2504
   1869270.75447   1449332.82445  22246534.4454                   22246535.1414
        44.5004         31.0004
  -3024125.89146  -2335783.37943  24473329.0784                   24473335.9224
        39.2504         21.5004
   1457114.55947   1126913.27347  21939056.5314                   21939060.0124
        46.2504         43.5004
  -1351167.74248  -1040566.61348  20555432.7424                   20555434.6174
        49.5004         52.0004
   -679931.18047   -524636.35246  22466981.0164                   22466985.5704
        43.2504         38.2504
  -3353364.46546  -2549964.87143  24121742.8914                   24121743.8134
        37.5004         22.0004
 05 12 22 19 12  0.0000000  0  9G18G10G24G23G28G27G32G08G02
   2868825.12546   2223897.62144  23192149.3284                   23192152.6804
        39.7504         24.7504
    -11266.09048     -8203.69948  21027796.1954                   21027798.2854
        49.2504         49.7504
   1040723.29346    806413.15645  23437693.5084                   23437697.8634
        39.7504         33.2504
   1923350.31347   1491472.67645  22256825.7504                   22256826.1054
        44.0004         30.0004
  -3130141.51246  -2418392.60543  24453154.4144                   24453162.0274
        39.2504         22.0004
   1506456.69547   1165361.60947  21948445.8284                   21948449.3954
        46.5004         43.2504
  -1380748.48848  -1063616.53148  20549804.0084                   20549805.5984
        51.2504         52.0004
   -689794.67647   -532322.22346  22465103.8674                   22465107.9064
        43.5004         38.5004
  -3447162.13746  -2623053.84043  24103894.2034                   24103895.0474
        38.7504         22.2504
 05 12 22 19 12 30.0000000  0  9G18G10G24G23G28G27G32G08G02
   2954886.09046   2290957.90644  23208526.2814                   23208529.4694
        41.0004         25.7504
     -9103.41448     -6518.50848  21028207.7034                   21028209.8014
        49.0004         49.7504
   1080389.12546    837321.55945  23445241.9694                   23445246.1764
        39.5004         33.2504
   1977479.63747   1533651.30945  22267125.5704                   22267126.7274
        43.2504         30.2504
  -3236246.66846  -2501071.58243  24432962.9384                   24432970.0434
        38.7504         20.5004
   1556207.78147   1204128.60547  21957912.7034                   21957916.4304
        46.0004         43.5004
  -1409896.28148  -1086329.08248  20544257.5084                   20544259.0004
        51.2504         52.0004
   -699156.93447   -539617.52346  22463322.4534                   22463326.8014
        43.0004         38.7504
  -3540943.19146  -2696129.84443  24086048.2504                   24086048.8444
        39.5004         22.7504
 05 12 22 19 13  0.0000000  0  9G18G10G24G23G28G27G32G08G02
   3041164.95746   2358188.00844  23224944.7504                   23224947.9184
        40.7504         26.0004
     -6832.99248     -4749.35548  21028639.7114                   21028641.6174
        50.0004         49.5004
   1120579.34446    868638.57845  23452889.0944                   23452893.6914
        39.0004         33.0004
   2031659.59847   1575869.38345  22277435.8834                   22277437.1024
        44.0004         30.2504
  -3342437.49246  -2583817.29743  24412755.3134                   24412762.3794
        39.2504         21.5004
   1606366.51647   1243213.25047  21967458.2504                   21967461.4734
        46.0004         43.2504
  -1438610.16448  -1108703.52348  20538793.0394                   20538794.7774
        51.7504         52.0004
   -708017.24647   -546521.69146  22461636.7584                   22461639.9884
        43.5004         38.5004
  -3634704.63346  -2769190.61343  24068206.3364                   24068206.4734
        40.2504         22.7504
 05 12 22 19 13 30.0000000  0  9G18G10G24G23G28G27G32G08G02
   3127661.30946   2425587.57044  23241404.5084                   23241407.9454
        41.0004         26.2504
     -4454.08648     -2895.66448  21029092.5944                   21029094.3794
        50.7504         49.7504
   1161293.53146    900363.89145  23460637.3914                   23460642.0004
        38.7504         32.7504
   2085890.95747   1618127.51645  22287755.9694                   22287756.6214
        43.0004         30.2504
  -3448710.41446  -2666627.01243  24392531.8984                   24392538.5204
        39.7504         21.2504
   1656931.24647   1282614.25847  21977080.2734                   21977083.5784
        45.2504         43.0004
  -1466889.50048  -1130739.35948  20533411.7344                   20533413.4344
        51.5004         52.0004
   -716375.06246   -553034.31646  22460046.0554                   22460050.5514
        41.5004         38.0004
  -3728443.96546  -2842234.15643  24050368.2114                   24050367.7464
        40.0004         22.7504
 05 12 22 19 14  0.0000000  0  9G18G10G24G23G28G27G32G08G02
   3214369.53146   2493152.22744  23257904.0944                   23257907.9534
        41.2504         26.2504
     -1971.19948      -960.94948  21029565.0234                   21029566.4694
        51.0004         49.7504
   1202525.97746    932493.03945  23468483.6334                   23468487.6844
        38.2504         31.5004
   2140169.26247   1660422.23044  22298084.5234                   22298085.5904
        43.7504         29.5004
  -3555066.97346  -2749501.93443  24372292.9774                   24372299.3204
        40.7504         21.7504
   1707895.16047   1322326.30947  21986778.9844                   21986781.5944
        45.7504         42.7504
  -1494738.76648  -1152440.07448  20528112.2814                   20528113.8244
        52.0004         52.0004
   -724235.13747   -559159.08646  22458550.5234                   22458554.4574
        43.2504         38.0004
  -3822163.85946  -2915262.53543  24032533.7424                   24032533.8874
        40.5004         22.7504
 05 12 22 19 14 30.0000000  0  9G18G10G24G23G28G27G32G08G02
   3301283.40246   2560877.10244  23274444.0084                   23274447.2854
        41.0004         26.2504
       610.55548      1050.80148  21030056.1884                   21030058.3794
        50.2504         50.0004
   1244270.38346    965021.12545  23476427.0554                   23476431.6954
        38.5004         31.2504
   2194489.47347   1702749.60544  22308421.9694                   22308422.6134
        44.0004         29.5004
  -3661509.28546  -2832443.68743  24352037.4064                   24352043.8244
        41.0004         22.2504
   1759250.85947   1362343.64847  21996551.6414                   21996554.8014
        45.2504         43.0004
  -1522163.11748  -1173809.68748  20522893.3054                   20522895.2384
        52.7504         52.0004
   -731602.78147   -564900.15246  22457148.4224                   22457152.6414
        42.0004         38.5004
  -3915867.38346  -2988278.17243  24014701.9924                   24014702.0274
        40.0004         22.5004
 05 12 22 19 15  0.0000000  0  9G18G10G24G23G28G27G32G08G02
   3388407.98046   2628766.16444  23291023.1174                   23291026.7704
        40.7504         26.0004
      3297.54348      3144.55148  21030567.7424                   21030569.6214
        49.7504         50.0004
   1286531.90246    997952.12945  23484469.5554                   23484473.4614
        39.0004         32.0004
   2248857.97747   1745114.60245  22318767.7114                   22318768.6414
        44.0004         30.0004
  -3768028.12946  -2915445.04743  24331766.7034                   24331773.6884
        41.0004         21.7504
   1811002.23047   1402669.30547  22006399.5394                   22006402.6604
        45.7504         42.7504
  -1549156.36348  -1194843.37948  20517756.9774                   20517758.7504
        51.7504         52.0004
   -738471.99647   -570252.82446  22455841.5164                   22455845.8164
        43.5004         38.2504
  -4009546.43446  -3061274.72743  23996875.3444                   23996875.5634
        39.0004         22.5004
 05 12 22 19 15 30.0000000  0  9G18G10G24G23G28G27G32G08G02
   3475737.21546   2696814.71144  23307641.8984                   23307645.5704
        40.5004         27.2504
      6084.76248      5316.40648  21031098.0864                   21031099.6914
        50.5004         50.0004
   1329304.21546   1031281.16845  23492608.6954                   23492612.8674
        38.5004         31.7504
   2303269.81347   1787513.35944  22329122.2034                   22329123.3284
        43.7504         29.5004
  -3874625.53946  -2998507.71543  24311482.1174                   24311488.6414
        40.2504         21.2504
   1863141.99247   1443297.59447  22016321.1254                   22016324.4534
        45.0004         42.5004
  -1575723.53148  -1215545.05548  20512701.1334                   20512703.2424
        52.0004         52.0004
   -744848.09847   -575221.26646  22454628.0634                   22454632.1564
        43.0004         38.7504
  -4103203.91046  -3134254.49643  23979053.3834                   23979053.4574
        39.2504         22.5004
 05 12 22 19 16  0.0000000  0  9G18G10G24G23G28G27G32G08G02
   3563271.17646   2765022.79744  23324299.3364                   23324302.9774
        41.0004         25.2504
      8973.52048      7567.37548  21031647.8914                   21031649.5164
        50.0004         50.0004
   1372587.36346   1065008.25845  23500845.1094                   23500849.2304
        38.7504         31.7504
   2357726.35547   1829946.96944  22339484.2274                   22339486.1294
        43.7504         29.5004
  -3981297.23046  -3081628.22343  24291183.3054                   24291189.1134
        40.5004         22.0004
   1915668.98047   1484227.62147  22026316.9844                   22026320.3984
        45.5004         42.5004
  -1601863.46548  -1235913.82048  20507727.0394                   20507729.2464
        51.5004         52.0004
   -750730.06647   -579804.66046  22453508.9304                   22453512.7034
        42.0004         38.5004
  -4196836.61746  -3207214.94543  23961234.9924                   23961235.2384
        39.7504         22.2504
 05 12 22 19 16 30.0000000  0  9G18G10G24G23G28G27G32G08G02
   3651000.43046   2833383.03944  23340993.6564                   23340996.9184
        40.7504         26.5004
     11955.65248      9891.10948  21032215.4924                   21032217.1024
        50.0004         50.0004
   1416371.90646   1099126.05945  23509177.1954                   23509181.3714
        39.0004         31.2504
   2412219.45347   1872409.05544  22349854.1254                   22349855.6484
        43.5004         29.2504
  -4088048.37946  -3164810.62143  24270868.8444                   24270875.2034
        40.2504         21.2504
   1968572.64147   1525451.16047  22036384.1174                   22036387.6884
        44.5004         42.5004
  -1627584.45348  -1255956.14548  20502832.2274                   20502834.0904
        51.5004         52.0004
   -756126.46147   -584009.68446  22452481.9064                   22452485.7814
        42.7504         38.2504
  -4290450.73046  -3280160.90243  23943421.0864                   23943421.0944
        38.7504         22.7504
 05 12 22 19 17  0.0000000  0  9G18G10G24G23G28G27G32G08G02
   3738927.19546   2901897.18844  23357725.2114                   23357728.9384
        41.0004         26.0004
     15034.58648     12290.27048  21032801.1484                   21032803.3054
        50.0004         50.0004
   1460659.85946   1133636.11345  23517604.7814                   23517609.1454
        39.5004         31.7504
   2466752.59047   1914902.34044  22360231.9534                   22360233.0784
        43.5004         29.5004
  -4194872.74246  -3248050.12143  24250540.4844                   24250546.2774
        40.2504         19.5004
   2021853.96147   1566968.97747  22046523.2734                   22046526.8984
        45.5004         42.7504
  -1652883.28148  -1275669.50048  20498017.9224                   20498019.7854
        51.7504         52.0004
   -761034.28547   -587834.00046  22451548.3594                   22451552.0434
        42.2504         38.0004
  -4384040.94946  -3353088.26643  23925611.2814                   23925611.2034
        39.0004         22.5004
 05 12 22 19 17 30.0000000  0  9G18G10G24G23G28G27G32G08G02
   3827050.60946   2970564.58244  23374495.4534                   23374498.7774
        41.7504         26.0004
     18210.71948     14765.16448  21033406.0084                   21033407.5394
        49.5004         50.0004
   1505450.24646   1168537.68845  23526128.6564                   23526132.1954
        38.5004         31.2504
   2521326.15647   1957427.12544  22370616.6414                   22370618.2974
        43.7504         29.2504
  -4301766.90246  -3331344.02043  24230198.9614                   24230204.8404
        39.7504         19.5004
   2075510.81347   1608779.41847  22056734.0004                   22056737.4804
        44.5004         43.2504
  -1677759.80148  -1295053.78948  20493284.3674                   20493286.0314
        51.0004         52.0004
   -765453.61747   -591277.68446  22450707.3524                   22450711.3244
        43.5004         38.0004
  -4477605.16846  -3425995.35943  23907806.3834                   23907806.5084
        39.2504         22.5004
 05 12 22 19 18  0.0000000  0  9G18G10G24G23G28G27G32G08G02
   3915365.43846   3039381.10544  23391301.0554                   23391304.8324
        41.0004         26.5004
     21480.02748     17312.66848  21034027.7974                   21034029.7664
        49.0004         50.0004
   1550737.64146   1203826.53945  23534746.2344                   23534750.3054
        39.2504         31.2504
   2575936.23047   1999980.36744  22381008.5314                   22381010.0274
        43.2504         29.0004
  -4408731.88346  -3414693.08243  24209844.1564                   24209849.8014
        38.2504         18.2504
   2129536.75047   1650877.45747  22067014.6254                   22067018.1604
        45.0004         42.7504
  -1702218.16448  -1314112.24648  20488630.1024                   20488631.8094
        50.5004         52.0004
   -769388.85247   -594344.13346  22449958.5004                   22449962.4454
        43.2504         38.2504
  -4571145.55146  -3498883.86344  23890006.2274                   23890006.5234
        39.7504         24.5004
 05 12 22 19 18 30.0000000  0  9G18G10G24G23G28G27G32G08G02
   4003874.19146   3108348.74244  23408143.9064                   23408147.6024
        41.0004         24.7504
     24846.37148     19935.77748  21034668.2344                   21034670.2194
        49.2504         49.7504
   1596524.55946   1239504.62145  23543459.9224                   23543463.0904
        39.2504         31.0004
   2630586.65647   2042565.05145  22391408.3444                   22391410.0784
        43.5004         30.0004
  -4515761.00446  -3498092.21142  24189476.2974                   24189482.5824
        37.5004         17.7504
   2183933.11747   1693264.14147  22077366.1564                   22077369.7734
        44.7504         42.7504
  -1726254.82448  -1332842.09848  20484056.0314                   20484057.9804
        51.5004         52.5004
   -772836.68446   -597030.79346  22449302.3914                   22449306.3324
        41.7504         38.0004
  -4664655.91046  -3571749.00444  23872212.1254                   23872211.6094
        39.2504         24.5004
 05 12 22 19 19  0.0000000  0  9G18G10G24G23G28G27G32G08G02
   4092572.80946   3177464.32844  23425022.8524                   23425026.6414
        41.0004         24.7504
     28306.90248     22632.27348  21035326.8444                   21035328.6914
        49.2504         49.7504
   1642806.50446   1275568.44545  23552266.2894                   23552270.5474
        38.7504         30.5004
   2685274.64847   2085178.99645  22401815.3524                   22401816.8484
        43.2504         30.7504
  -4622854.11746  -3581541.09843  24169097.6644                   24169103.5124
        37.7504         18.2504
   2238694.50047   1735935.25447  22087786.7194                   22087790.5554
        45.0004         43.0004
  -1749872.89148  -1351245.77748  20479561.7584                   20479563.5314
        51.2504         52.0004
   -775800.50047   -599340.30146  22448737.9614                   22448742.4844
        43.2504         38.2504
  -4758137.73046  -3644591.91844  23854422.7114                   23854422.9104
        39.5004         24.2504
 05 12 22 19 19 30.0000000  0  9G18G10G24G23G28G27G32G08G02
   4181462.78546   3246729.02344  23441938.1024                   23441941.9144
        40.7504         25.5004
     31864.43048     25404.35548  21036003.7504                   21036006.0004
        49.2504         49.5004
   1689584.93446   1312019.14145  23561167.8524                   23561172.5314
        38.2504         31.0004
   2740003.00847   2127824.40644  22412229.8594                   22412231.2544
        43.5004         29.2504
  -4730005.41846  -3665035.39142  24148707.2974                   24148712.8284
        38.0004         17.2504
   2293821.21547   1778891.03547  22098277.3674                   22098280.9494
        45.5004         43.0004
  -1773069.84848  -1369321.31248  20475147.1564                   20475148.8404
        51.5004         52.2504
   -778277.99647   -601270.85946  22448266.9144                   22448270.7344
        42.5004         38.0004
  -4851586.01646  -3717408.68744  23836639.9614                   23836640.2114
        39.7504         25.0004
 05 12 22 19 20  0.0000000  0  9G18G10G24G23G28G27G32G08G02
   4270533.70347   3316134.69544  23458887.7584                   23458891.7034
        42.5004         25.5004
     35509.95748     28245.00848  21036697.8054                   21036699.8754
        48.7504         49.7504
   1736849.25846   1348848.44144  23570162.1334                   23570166.4494
        38.0004         29.5004
   2794762.78947   2170494.28944  22422650.1884                   22422651.6724
        43.7504         29.2504
  -4837221.10546  -3748579.85242  24128303.9064                   24128310.2624
        38.0004         17.7504
   2349301.65247   1822122.44547  22108834.8364                   22108838.7464
        45.2504         43.0004
  -1795855.00448  -1387075.96148  20470811.7504                   20470813.1484
        50.0004         52.0004
   -780278.84447   -602829.99246  22447886.3444                   22447890.1564
        43.5004         38.2504
  -4945007.69946  -3790204.73843  23818862.5864                   23818862.4964
        40.0004         22.0004
 05 12 22 19 20 30.0000000  0  9G18G10G24G23G28G27G32G08G02
   4359787.44146   3385682.85544  23475872.4384                   23475876.3094
        41.0004         24.5004
     39246.58248     31156.64848  21037408.7114                   21037410.3714
        50.5004         49.7504
   1784601.02746   1386057.57044  23579249.0944                   23579253.7154
        37.0004         29.0004
   2849557.06647   2213191.07844  22433077.5704                   22433078.7734
        44.0004         29.7504
  -4944494.98046  -3832169.66443  24107890.4454                   24107896.1024
        38.5004         18.2504
   2405136.35247   1865629.90247  22119460.2974                   22119463.9104
        45.0004         42.5004
  -1818225.63348  -1404507.60948  20466554.3984                   20466556.1374
        51.5004         52.2504
   -781800.51247   -604015.74646  22447596.8134                   22447600.7504
        44.0004         38.2504
  -5038397.55946  -3862975.98843  23801091.0164                   23801090.7774
        39.7504         23.2504
 05 12 22 19 21  0.0000000  0  9G18G10G24G23G28G27G32G08G02
   4449223.72346   3455373.21543  23492892.3914                   23492895.6684
        41.2504         23.2504
     43075.46148     34140.16848  21038137.3834                   21038139.3244
        50.5004         49.7504
   1832839.81346   1423646.19544  23588428.4614                   23588432.7274
        37.0004         28.5004
   2904387.09847   2255915.71144  22443511.3524                   22443512.4574
        44.0004         29.0004
  -5051823.07046  -3915801.75043  24087466.9304                   24087471.3094
        37.7504         19.0004
   2461323.86347   1909412.27747  22130152.0784                   22130155.7304
        44.7504         42.7504
  -1840180.89548  -1421615.59448  20462376.7814                   20462378.0044
        52.0004         52.2504
   -782842.50447   -604827.72346  22447398.6954                   22447402.6294
        43.5004         38.0004
  -5131752.86346  -3935720.31244  23783326.4384                   23783325.9534
        39.7504         24.5004
 05 12 22 19 21 30.0000000  0  9G18G10G24G23G28G27G32G08G02
   4538835.72746   3525200.52044  23509945.1484                   23509948.1954
        40.7504         24.0004
     46991.16048     37191.34448  21038882.4064                   21038884.2194
        50.0004         49.5004
   1881558.55146   1461608.80544  23597699.3834                   23597703.7774
        36.7504         28.2504
   2959247.41447   2298663.94944  22453951.3914                   22453952.0554
        44.0004         29.5004
  -5159207.79346  -3999477.94143  24067031.6884                   24067037.2034
        38.5004         21.2504
   2517856.16047   1953463.30947  22140910.3914                   22140913.9224
        43.5004         43.0004
  -1861726.73848  -1438404.55548  20458276.4144                   20458277.9654
        52.2504         52.2504
   -783410.94147   -605270.69946  22447290.3594                   22447294.5204
        42.7504         38.0004
  -5225077.25846  -4008440.49243  23765566.6954                   23765566.9844
        40.0004         23.5004
 05 12 22 19 22  0.0000000  0  9G18G10G24G23G28G27G32G08G02
   4628623.43046   3595164.73444  23527031.2664                   23527034.5864
        41.0004         24.5004
     50994.94548     40311.15248  21039644.3914                   21039645.8364
        50.2504         49.7504
   1930756.93046   1499945.16044  23607061.5084                   23607066.2274
        36.7504         29.0004
   3014139.32447   2341436.80944  22464397.1884                   22464397.9804
        43.7504         28.7504
  -5266644.88746  -4083194.94943  24046586.9534                   24046592.3984
        38.5004         21.5004
   2574731.78547   1997781.87147  22151733.3984                   22151737.1094
        45.2504         42.7504
  -1882862.19148  -1454873.72748  20454254.7734                   20454256.2194
        51.7504         52.2504
   -783505.25847   -605344.22746  22447271.9224                   22447276.1884
        43.0004         38.0004
  -5318367.50046  -4081134.10544  23747814.1954                   23747814.4494
        40.2504         25.0004
 05 12 22 19 22 30.0000000  0  9G18G10G24G23G28G27G32G08G02
   4718580.03146   3665260.54343  23544149.1644                   23544153.0124
        40.5004         22.2504
     55081.52048     43495.47748  21040421.9694                   21040424.0664
        50.2504         49.7504
   1980427.96546   1538649.83244  23616513.4454                   23616517.8554
        37.5004         28.0004
   3069057.48047   2384230.11744  22474847.3594                   22474848.6414
        43.0004         28.7504
  -5374136.75846  -4166954.62143  24026132.3984                   24026137.3594
        38.7504         22.2504
   2631942.90247   2042361.85547  22162620.1954                   22162623.8134
        44.2504         42.7504
  -1903593.02348  -1471027.60548  20450309.2814                   20450311.0474
        51.7504         52.2504
   -783131.46147   -605052.99646  22447343.3754                   22447347.3554
        43.5004         38.0004
  -5411626.89146  -4153803.65244  23730067.6954                   23730067.6684
        40.5004         26.5004
 05 12 22 19 23  0.0000000  0  9G18G10G24G23G28G27G32G08G02
   4808707.52046   3735489.50843  23561300.6644                   23561304.3984
        40.2504         22.5004
     59254.18448     46746.87548  21041216.2894                   21041218.1254
        50.5004         49.5004
   2030573.27346   1577724.07844  23626055.4454                   23626060.2664
        37.2504         27.5004
   3124005.28547   2427046.53144  22485303.4694                   22485304.5164
        43.7504         28.7504
  -5481677.16046  -4250752.11743  24005667.6884                   24005673.4104
        39.0004         21.7504
   2689490.09847   2087203.73047  22173571.4454                   22173574.8164
        45.0004         42.5004
  -1923916.39548  -1486863.98448  20446442.0704                   20446443.9064
        52.2504         52.2504
   -782287.01647   -604395.02346  22447503.9534                   22447508.2034
        42.7504         38.0004
  -5504849.78546  -4226444.77044  23712327.8834                   23712327.7114
        40.7504         25.2504
 05 12 22 19 23 30.0000000  0  9G18G10G24G23G28G27G32G08G02
   4899000.38346   3805847.30143  23578482.8134                   23578486.2234
        39.5004         22.2504
     63508.94948     50062.25848  21042025.7424                   21042027.4024
        51.0004         49.5004
   2081187.08646   1617163.38744  23635687.5084                   23635691.6484
        37.2504         29.5004
   3178978.71147   2469882.90244  22495764.7664                   22495766.2154
        43.5004         28.5004
  -5589267.16846  -4334588.26243  23985193.7194                   23985198.7704
        39.2504         22.5004
   2747366.64547   2132302.24247  22184584.6884                   22184588.7074
        44.7504         42.5004
  -1943836.82448  -1502386.38348  20442651.5704                   20442653.1334
        52.5004         52.2504
   -780976.77347   -603374.09046  22447753.4774                   22447757.6174
        43.0004         38.2504
  -5598039.01646  -4299059.65244  23694594.2344                   23694594.2114
        40.5004         25.7504
 05 12 22 19 24  0.0000000  0  9G18G10G24G23G28G27G32G08G02
   4989461.25846   3876336.05543  23595696.9224                   23595700.7974
        39.0004         20.5004
     67849.86348     53444.76648  21042851.8754                   21042853.9414
        51.0004         49.5004
   2132271.69546   1656969.55944  23645409.2194                   23645413.0124
        37.2504         29.2504
   3233981.77347   2512742.36744  22506231.2274                   22506232.4414
        42.0004         28.5004
  -5696899.82446  -4418457.64143  23964711.8134                   23964717.4064
        39.0004         22.7504
   2805573.91447   2177658.44947  22195661.1804                   22195665.1644
        44.5004         42.5004
  -1963350.75048  -1517592.02348  20438938.2344                   20438939.6954
        52.0004         52.2504
   -779197.48447   -601987.66846  22448092.3834                   22448096.1604
        43.0004         38.2504
  -5691188.41046  -4371643.48444  23676868.5164                   23676868.8284
        40.5004         26.0004
 05 12 22 19 24 30.0000000  0  9G18G10G24G23G28G27G32G08G02
   5080083.71146   3946950.68843  23612941.6954                   23612945.4924
        39.0004         20.2504
     72271.89148     56890.48448  21043693.4144                   21043695.4144
        51.2504         49.5004
   2183820.42646   1697137.37944  23655218.0784                   23655222.5824
        38.7504         28.7504
   3289009.48447   2555621.04344  22516702.9384                   22516704.2274
        43.0004         29.2504
  -5804577.10946  -4502361.80943  23944221.7664                   23944226.3954
        40.0004         22.2504
   2864104.15247   2223266.32047  22206799.3524                   22206803.6254
        45.2504         42.7504
  -1982463.67648  -1532485.20348  20435301.0554                   20435302.4344
        52.2504         52.2504
   -776954.99647   -600240.32446  22448519.0004                   22448522.9184
        44.5004         38.5004
  -5784300.96946  -4444198.62944  23659149.5394                   23659149.9184
        41.0004         26.5004
 05 12 22 19 25  0.0000000  0  9G18G10G24G23G28G27G32G08G02
   5170870.18846   4017693.10943  23630218.3914                   23630222.1644
        38.7504         21.0004
     76778.95748     60402.46148  21044551.0784                   21044552.8954
        50.5004         49.5004
   2235835.27346   1737668.39844  23665116.1724                   23665120.5984
        38.5004         29.0004
   3344065.79747   2598522.01244  22527180.0864                   22527181.0234
        42.7504         28.2504
  -5912292.25046  -4586295.45343  23923723.3284                   23923728.7464
        40.5004         22.5004
   2922958.54747   2269126.78947  22217999.0944                   22218002.9454
        46.0004         42.5004
  -2001172.29748  -1547063.33648  20431740.8054                   20431742.4694
        53.0004         52.5004
   -774246.33647   -598129.73046  22449034.3134                   22449038.7854
        43.2504         38.5004
  -5877370.80146  -4516720.46144  23641438.8914                   23641439.0984
        41.0004         25.5004
 05 12 22 19 25 30.0000000  0  9G18G10G24G23G28G27G32G08G02
   5261822.66846   4088564.85243  23647526.2894                   23647530.1914
        39.0004         22.5004
     81374.62548     63983.49248  21045425.3834                   21045427.5474
        49.5004         49.2504
   2288317.99146   1778563.99944  23675103.3204                   23675107.8284
        38.0004         28.7504
   3399154.26247   2641448.02044  22537662.5864                   22537664.3754
        43.0004         29.0004
  -6020038.66846  -4670253.48043  23903220.0394                   23903224.9654
        40.7504         22.2504
   2982137.89847   2315240.46547  22229260.6254                   22229264.2774
        46.0004         42.5004
  -2019473.54348  -1561324.03548  20428258.0084                   20428259.7384
        52.2504         52.2504
   -771068.73847   -595653.71546  22449639.3204                   22449643.2894
        42.0004         38.5004
  -5970392.23846  -4589204.60544  23623737.3984                   23623737.5594
        40.7504         26.0004
 05 12 22 19 26  0.0000000  0  9G18G10G24G23G28G27G32G08G02
   5352937.60946   4159563.19543  23664864.8134                   23664869.2934
        39.0004         21.7504
     86056.82848     67631.94148  21046316.2194                   21046318.0824
        50.2504         49.5004
   2341264.69946   1819821.14844  23685178.4064                   23685183.2234
        37.0004         29.0004
   3454272.77747   2684397.45344  22548151.0784                   22548152.8794
        42.2504         28.5004
  -6127815.65646  -4754235.31243  23882711.0164                   23882716.0044
        41.2504         23.5004
   3041637.33247   2361603.55547  22240582.6094                   22240586.8634
        44.7504         42.0004
  -2037370.19948  -1575269.47348  20424852.5314                   20424854.2734
        52.5004         52.5004
   -767425.32847   -592814.73846  22450332.2114                   22450336.8284
        44.5004         38.2504
  -6063365.85246  -4661651.48044  23606045.1174                   23606045.0864
        41.0004         26.0004
 05 12 22 19 26 30.0000000  0  9G18G10G24G23G28G27G32G08G02
   5444213.55146   4230687.09443  23682233.7424                   23682239.2504
        39.0004         22.5004
     90825.34848     71347.66048  21047223.9304                   21047225.7894
        51.0004         49.5004
   2394673.26646   1861438.17244  23695341.8054                   23695346.5904
        38.0004         29.0004
   3509421.12547   2727370.13344  22558645.8984                   22558647.3754
        42.5004         28.0004
  -6235620.37146  -4838238.74643  23862196.0234                   23862200.8954
        41.5004         23.5004
   3101453.83647   2408213.71147  22251966.0704                   22251969.6524
        44.7504         42.2504
  -2054863.06648  -1588900.26648  20421523.9144                   20421525.2854
        52.5004         52.5004
   -763317.30147   -589613.71546  22451113.6954                   22451118.0354
        44.5004         38.0004
  -6156289.89546  -4734059.73044  23588361.9614                   23588362.0664
        40.7504         25.7504
 05 12 22 19 27  0.0000000  0  9G18G10G24G23G28G27G32G08G02
   5535647.48446   4301934.08243  23699633.5084                   23699638.4734
        38.2504         23.7504
     95678.88348     75129.61748  21048147.6254                   21048149.5394
        50.7504         49.5004
   2448540.49646   1903412.61344  23705591.9304                   23705596.9064
        37.0004         28.5004
   3564598.07447   2770365.09444  22569145.8364                   22569147.6414
        42.0004         27.2504
  -6343451.21546  -4922262.57843  23841676.3134                   23841681.1914
        40.0004         22.5004
   3161583.32047   2455067.75046  22263408.0314                   22263411.9414
        45.5004         41.7504
  -2071954.05548  -1602217.90648  20418271.4144                   20418273.2894
        52.0004         52.5004
   -758746.87147   -586052.39146  22451984.1174                   22451987.9414
        44.2504         38.5004
  -6249163.52746  -4806428.71144  23570689.4614                   23570688.5164
        41.0004         25.5004
 05 12 22 19 27 30.0000000  0  9G18G10G24G23G28G27G32G08G02
   5627238.45346   4373303.40644  23717063.4064                   23717068.4064
        39.5004         25.5004
    100618.10248     78978.34048  21049087.3834                   21049089.4574
        50.7504         49.5004
   2502865.10946   1945743.43044  23715930.0864                   23715934.8324
        36.5004         28.7504
   3619804.19147   2813382.77744  22579651.1094                   22579652.5164
        42.5004         29.0004
  -6451304.59046  -5006303.93443  23821152.3054                   23821156.7894
        39.5004         22.5004
   3222023.59447   2502163.96546  22274909.5084                   22274913.8134
        45.0004         41.5004
  -2088643.18048  -1615222.41048  20415095.4614                   20415097.0124
        52.5004         52.5004
   -753714.45347   -582131.06646  22452941.4384                   22452945.4804
        44.2504         38.2504
  -6341984.26246  -4878756.45344  23553025.3834                   23553025.2114
        41.0004         25.5004
 05 12 22 19 28  0.0000000  0  9G18G10G24G23G28G27G32G08G02
   5718979.35946   4444789.56344  23734521.4694                   23734526.0664
        40.2504         25.7504
    105637.39548     82889.46948  21050042.8284                   21050044.5514
        50.0004         49.5004
   2557639.57446   1988424.78544  23726353.3754                   23726358.1254
        37.5004         28.7504
   3675033.91847   2856418.87144  22590161.0084                   22590162.8094
        42.2504         29.5004
  -6559183.10246  -5090364.89543  23800623.9534                   23800628.3164
        40.5004         22.7504
   3282766.31347   2549495.84447  22286468.6484                   22286473.0944
        44.7504         42.0004
  -2104936.71148  -1627918.66048  20411995.1024                   20411996.6174
        52.0004         52.2504
   -748226.68047   -577854.92646  22453985.9144                   22453990.0124
        43.5004         37.7504
  -6434755.78146  -4951045.85944  23535371.5084                   23535371.7504
        41.0004         25.5004
 05 12 22 19 28 30.0000000  0  9G18G10G24G23G28G27G32G08G02
   5810866.39846   4516389.57844  23752006.9844                   23752011.8914
        40.2504         24.7504
    110734.61748     86861.31648  21051012.7894                   21051014.3754
        50.0004         49.5004
   2612859.69946   2031453.41844  23736861.4844                   23736866.3674
        38.0004         29.5004
   3730284.99247   2899471.59844  22600675.1804                   22600676.6564
        43.0004         28.7504
  -6667086.11746  -5174444.92644  23780089.9384                   23780094.7034
        39.0004         24.5004
   3343806.34847   2597059.40246  22298084.1804                   22298088.5634
        44.7504         41.2504
  -2120837.57848  -1640308.93448  20408969.3134                   20408970.8834
        51.5004         52.2504
   -742286.84447   -573226.53546  22455116.7734                   22455120.5354
        44.0004         37.5004
  -6527478.26646  -5023297.06644  23517727.2034                   23517726.7974
        41.2504         25.5004
 05 12 22 19 29  0.0000000  0  9G18G10G24G23G28G27G32G08G02
   5902898.59846   4588102.71944  23769520.2114                   23769524.8754
        40.5004         25.5004
    115910.21148     90894.23448  21051997.5944                   21051998.9804
        49.0004         49.5004
   2668524.07846   2074828.22744  23747454.5704                   23747459.1414
        37.5004         29.5004
   3785557.95747   2942541.38344  22611193.2194                   22611195.0634
        43.0004         29.5004
  -6775010.13346  -5258541.34043  23759552.2504                   23759556.9734
        38.5004         22.5004
   3405141.35247   2644852.79346  22309755.4534                   22309760.0044
        44.2504         41.0004
  -2136345.98448  -1652393.39548  20406017.8984                   20406019.6724
        52.0004         52.0004
   -735895.52746   -568246.34046  22456332.6174                   22456337.0004
        41.7504         37.0004
  -6620149.29346  -5095508.17644  23500092.5164                   23500091.7624
        41.0004         26.2504
 05 12 22 19 29 30.0000000  0  9G18G10G24G23G28G27G32G08G02
   5995074.29346   4659927.65644  23787060.7734                   23787065.9064
        40.2504         24.7504
    121164.21148     94988.25048  21052997.2194                   21052999.2074
        50.5004         49.5004
   2724630.55546   2118547.52745  23758131.1024                   23758135.3634
        38.5004         30.5004
   3840852.76647   2985628.18444  22621715.6094                   22621717.0084
        43.0004         29.2504
  -6882952.24646  -5342651.84043  23739011.7034                   23739016.1054
        40.0004         21.7504
   3466768.43047   2692873.78546  22321482.9304                   22321487.1884
        44.2504         41.0004
  -2151462.68448  -1664172.63348  20403141.2734                   20403142.8014
        52.2504         52.0004
   -729053.90247   -562915.25846  22457634.1724                   22457638.5704
        44.2504         37.5004
  -6712767.15246  -5167677.85544  23482467.4844                   23482467.4224
        41.7504         25.5004
 05 12 22 19 30  0.0000000  0  9G18G10G24G23G28G27G32G08G02
   6087388.40646   4731860.45344  23804628.2034                   23804632.9104
        40.7504         26.0004
    126493.13748     99140.63748  21054011.5944                   21054013.2814
        50.5004         49.5004
   2781173.59846   2162607.00445  23768891.2814                   23768895.2384
        38.2504         30.0004
   3896165.93447   3028729.29744  22632241.4694                   22632243.1024
        42.2504         27.7504
  -6990913.01646  -5426776.88743  23718467.4924                   23718471.7854
        38.5004         22.0004
   3528681.21547   2741117.40646  22333265.3054                   22333269.3914
        43.0004         41.0004
  -2166191.97348  -1675649.99648  20400338.5704                   20400339.9024
        51.7504         52.0004
   -721766.57447   -557236.87946  22459021.2894                   22459025.2774
        44.5004         37.5004
  -6805333.28147  -5239807.25044  23464852.9534                   23464851.9414
        42.0004         24.2504
 05 12 22 19 30 30.0000000  0  9G18G10G24G23G28G27G32G08G02
   6179835.18846   4803896.64544  23822220.4224                   23822225.3914
        40.2504         24.7504
    131892.89848    103348.22348  21055038.7274                   21055041.0204
        50.0004         49.5004
   2838147.06646   2207001.89645  23779732.9454                   23779737.0394
        38.0004         30.0004
   3951493.29747   3071841.45744  22642769.9924                   22642771.3244
        42.5004         29.0004
  -7098893.58646  -5510917.38743  23697919.0704                   23697923.8094
        40.2504         22.7504
   3590872.67647   2789578.17246  22345099.4774                   22345103.7274
        43.7504         40.7504
  -2180538.71948  -1686829.27348  20397608.1804                   20397609.4654
        51.7504         52.2504
   -714038.94147   -551215.40246  22460491.6094                   22460495.9494
        44.0004         38.0004
  -6897850.23847  -5311898.31244  23447247.3284                   23447246.7584
        42.0004         24.5004
 05 12 22 19 31  0.0000000  0  9G18G10G24G23G28G27G32G08G02
   6272410.86346   4876033.24644  23839837.4224                   23839841.8984
        39.5004         25.2504
    137361.30148    107609.29748  21056079.3524                   21056081.3594
        49.5004         49.2504
   2895546.74246   2251728.87944  23790655.1724                   23790660.0704
        38.5004         29.5004
   4006832.73847   3114963.03144  22653301.1804                   22653302.5274
        42.0004         27.5004
  -7206893.18446  -5595072.68443  23677367.1024                   23677371.6804
        40.5004         22.7504
   3653337.72747   2838252.13346  22356986.0554                   22356990.4264
        43.0004         40.5004
  -2194505.88748  -1697712.77348  20394950.4844                   20394951.6054
        52.5004         52.2504
   -705874.29747   -544853.40646  22462045.4614                   22462049.9804
        42.0004         37.5004
  -6990317.78947  -5383950.88744  23429651.6094                   23429650.8634
        42.0004         26.2504
 05 12 22 19 31 30.0000000  0  9G18G10G24G23G28G27G32G08G02
   6365114.94946   4948269.89543  23857477.4534                   23857482.9884
        38.5004         23.7504
    142899.55148    111924.79748  21057133.4224                   21057135.2074
        50.5004         49.5004
   2953371.59846   2296787.16844  23801659.3984                   23801663.8054
        38.5004         28.5004
   4062185.30947   3158094.84444  22663834.1954                   22663835.5314
        42.7504         27.0004
  -7314907.78946  -5679239.69143  23656812.5944                   23656817.0354
        40.7504         22.0004
   3716074.59847   2887137.89546  22368925.0164                   22368929.0784
        43.0004         40.2504
  -2208093.20348  -1708300.28948  20392364.9774                   20392366.6724
        51.7504         52.0004
   -697272.74647   -538150.96546  22463682.1094                   22463686.8014
        44.0004         37.7504
  -7082733.03947  -5455962.69544  23412064.9774                   23412064.9774
        42.2504         27.0004
 05 12 22 19 32  0.0000000  0  9G18G10G24G23G28G27G32G08G02
   6457949.12146   5020607.93843  23875144.5704                   23875149.5664
        38.7504         22.5004
    148510.84048    116297.20348  21058201.2194                   21058203.2734
        49.0004         49.2504
   3011622.74646   2342177.63045  23812744.1804                   23812748.3754
        38.5004         31.0004
   4117554.19147   3201239.36744  22674370.4694                   22674371.9024
        42.7504         27.0004
  -7422931.22346  -5763413.57843  23636255.9224                   23636260.5394
        41.0004         22.2504
   3779083.50447   2936235.63346  22380915.2814                   22380919.0474
        42.7504         40.0004
  -2221298.25048  -1718589.93048  20389852.1254                   20389853.5634
        51.5004         52.0004
   -688232.37547   -531106.57846  22465402.8834                   22465406.8674
        42.0004         37.5004
  -7175090.77047  -5527929.67644  23394489.9774                   23394490.0864
        42.5004         27.5004
 05 12 22 19 32 30.0000000  0  9G18G10G24G23G28G27G32G08G02
   6550905.64146   5093041.24643  23892833.1334                   23892838.9924
        37.0004         21.7504
    154189.33248    120721.99248  21059281.7974                   21059283.3594
        49.5004         49.2504
   3070292.02746   2387893.93444  23823908.3134                   23823912.5864
        38.2504         29.0004
   4172933.59447   3244392.07444  22684909.0634                   22684910.2854
        42.5004         27.2504
  -7530966.42246  -5847596.64543  23615697.9384                   23615702.1484
        40.5004         22.0004
   3842355.66447   2985538.48446  22392955.0234                   22392959.5704
        42.7504         40.2504
  -2234127.76648  -1728586.95748  20387411.0004                   20387412.6294
        52.5004         52.2504
   -678760.32447   -523725.82446  22467204.9774                   22467209.3594
        43.2504         37.2504
  -7267394.87147  -5599854.87944  23376924.9844                   23376924.8554
        42.2504         26.7504
 05 12 22 19 33  0.0000000  0  9G18G10G24G23G28G27G32G08G02
   6643983.54346   5165569.19543  23910545.9614                   23910551.0044
        38.5004         20.5004
    159935.51248    125199.52048  21060375.1254                   21060377.1644
        50.2504         49.5004
   3129377.88746   2433934.82844  23835152.4224                   23835156.7034
        37.2504         28.5004
   4228323.89547   3287553.29344  22695449.1884                   22695450.7734
        42.2504         27.0004
  -7639009.94546  -5931786.20743  23595137.1884                   23595142.0704
        39.7504         22.7504
   3905888.54347   3035044.51246  22405045.5554                   22405049.7704
        43.0004         40.5004
  -2246582.19948  -1738291.70348  20385040.6884                   20385042.4064
        51.7504         52.2504
   -668857.44547   -516009.35946  22469089.4534                   22469093.9064
        43.7504         37.2504
  -7359643.00047  -5671736.44944  23359371.1254                   23359370.3094
        42.5004         27.0004
 05 12 22 19 33 30.0000000  0  9G18G10G24G23G28G27G32G08G02
   6737176.79746   5238187.02343  23928280.0944                   23928285.6644
        38.0004         21.5004
    165745.24648    129726.57048  21061480.8204                   21061482.6954
        50.5004         49.5004
   3188873.88346   2480295.30544  23846473.6174                   23846478.1054
        37.2504         28.7504
   4283720.89847   3330719.71144  22705990.8204                   22705992.3284
        42.2504         27.0004
  -7747063.09846  -6015983.27043  23574574.8524                   23574579.6214
        40.0004         22.7504
   3969675.01647   3084748.13346  22417183.7894                   22417188.3834
        43.7504         40.2504
  -2258666.59848  -1747708.11748  20382741.2814                   20382742.6374
        52.2504         52.2504
   -658529.27747   -507961.51246  22471055.2894                   22471059.4304
        44.2504         37.2504
  -7451837.52747  -5743576.27044  23341826.8754                   23341826.1374
        42.7504         26.5004
 05 12 22 19 34  0.0000000  0  9G18G10G24G23G28G27G32G08G02
   6830482.41846   5310892.37543  23946035.3834                   23946040.8834
        38.0004         19.2504
    171617.19548    134302.09848  21062598.1884                   21062599.9454
        50.7504         49.5004
   3248776.42246   2526972.56644  23857872.5704                   23857877.3444
        37.0004         28.2504
   4339123.23047   3373890.28544  22716533.6334                   22716535.0314
        42.5004         26.5004
  -7855124.27346  -6100186.57843  23554012.1254                   23554016.0204
        40.7504         22.7504
   4033710.71547   3134645.96546  22429369.8524                   22429373.2734
        44.0004         40.0004
  -2270383.26648  -1756837.98848  20380511.4924                   20380513.1604
        52.0004         52.2504
   -647778.49647   -499584.34046  22473100.9454                   22473105.4454
        43.7504         37.0004
  -7543977.75847  -5815373.77044  23324293.4304                   23324291.9384
        43.2504         27.0004
 05 12 22 19 34 30.0000000  0  9G18G10G24G23G28G27G32G08G02
   6923899.57446   5383684.82043  23963812.6724                   23963818.0864
        38.5004         20.0004
    177551.93848    138926.55948  21063727.8754                   21063729.6994
        50.0004         49.2504
   3309083.84446   2573965.31644  23869348.7194                   23869353.3754
        37.0004         28.5004
   4394531.39147   3417065.41444  22727077.2114                   22727078.8674
        42.0004         27.0004
  -7963189.98047  -6184393.39143  23533447.8134                   23533452.1884
        42.2504         23.5004
   4097993.20347   3184736.10546  22441601.8594                   22441606.2034
        43.0004         40.0004
  -2281732.59048  -1765681.61748  20378351.7734                   20378353.1454
        51.0004         52.2504
   -636605.98847   -490878.55546  22475227.8284                   22475231.5824
        44.0004         36.5004
  -7636061.21547  -5887127.03544  23306769.5704                   23306769.1684
        42.5004         27.0004
 05 12 22 19 35  0.0000000  0  9G18G10G24G23G28G27G32G08G02
   7017425.69946   5456561.97743  23981610.2034                   23981615.3524
        37.5004         19.7504
    183549.27748    143599.79348  21064869.1094                   21064870.7154
        50.2504         49.5004
   3369793.58246   2621271.55544  23880901.5084                   23880906.4924
        37.0004         28.2504
   4449945.21947   3460244.94944  22737622.7584                   22737623.6134
        42.5004         27.0004
  -8071257.48447  -6268601.64543  23512882.9844                   23512886.6884
        42.2504         22.7504
   4162519.23447   3235016.02346  22453881.2504                   22453885.3284
        44.0004         40.0004
  -2292715.76248  -1774239.94148  20376261.7424                   20376263.6684
        50.5004         52.2504
   -625013.41447   -481845.44946  22477433.4064                   22477437.2234
        43.5004         36.7504
  -7728086.45747  -5958834.92244  23289258.3594                   23289257.8594
        42.5004         28.0004
 05 12 22 19 35 30.0000000  0  9G18G10G24G23G28G27G32G08G02
   7111056.71946   5529520.95743  23999428.5004                   23999433.5824
        37.5004         20.2504
    189606.52048    148319.71148  21066021.5944                   21066023.3714
        50.5004         49.5004
   3430900.75046   2668887.48044  23892530.2814                   23892534.8444
        37.0004         28.5004
   4505361.90647   3503426.70744  22748168.0634                   22748169.5314
        43.0004         28.0004
  -8179326.62147  -6352811.17244  23492317.9774                   23492322.1254
        42.7504         24.7504
   4227283.05547   3285481.22746  22466205.7734                   22466210.0634
        44.5004         40.2504
  -2303336.47348  -1782515.82048  20374240.7734                   20374242.4574
        52.0004         52.2504
   -613004.85247   -472488.18746  22479718.2194                   22479722.4734
        43.2504         36.7504
  -7820053.88347  -6030497.78544  23271757.2734                   23271756.7384
        43.0004         27.5004
 05 12 22 19 36  0.0000000  0  9G18G10G24G23G28G27G32G08G02
   7204793.29446   5602562.17943  24017264.8984                   24017270.6214
        38.5004         19.5004
    195726.16448    153088.25048  21067186.2504                   21067188.3054
        50.5004         49.5004
   3492405.39546   2716813.11744  23904234.3914                   23904238.9414
        37.5004         29.2504
   4560783.87547   3546612.58644  22758714.9844                   22758715.6564
        42.2504         27.5004
  -8287391.97747  -6437017.76244  23471753.7424                   23471757.6644
        42.0004         24.7504
   4292284.06647   3336131.25046  22478575.2034                   22478579.0004
        44.0004         40.2504
  -2313593.25848  -1790508.12148  20372288.8984                   20372290.1724
        52.5004         52.0004
   -600579.43747   -462806.11746  22482082.8524                   22482087.2974
        44.0004         37.0004
  -7911959.48047  -6102112.43444  23254268.3204                   23254267.4064
        42.5004         28.2504
 05 12 22 19 36 30.0000000  0  9G18G10G24G23G28G27G32G08G02
   8874049.97346   6903281.40643  24334915.2344                   24334920.5904
        38.5004         19.2504
   1777327.34848   1385504.73848  21368154.7664                   21368156.8054
        50.5004         49.5004
   5129722.50046   3992644.58644  24215805.0164                   24215809.8634
        36.5004         28.7504
   6191628.60247   4817400.61344  23069054.3364                   23069055.3444
        42.2504         26.2504
  -6820027.63346  -5293616.78944  23750983.2894                   23750988.0234
        41.2504         26.2504
   5932936.43447   4614561.55946  22790780.7034                   22790784.7424
        44.5004         41.2504
   -748067.47348   -570617.89848  20670198.5704                   20670199.9264
        51.0004         52.0004
    987680.32847    774798.82846  22784319.0944                   22784322.9264
        43.5004         37.5004
  -6428378.63747  -4946075.32844  23536584.1414                   23536583.5824
        42.7504         27.2504
 05 12 22 19 37  0.0000000  0  9G18G10G24G23G28G27G32G08G02
   8967987.56346   6976479.25043  24352791.3914                   24352796.1684
        38.7504         20.0004
   1783567.00448   1390366.79748  21369342.2114                   21369343.9654
        49.7504         49.5004
   5192010.35946   4041180.51644  24227658.2734                   24227663.2384
        36.5004         28.5004
   6247056.20347   4860590.88344  23079602.0084                   23079603.2504
        42.5004         26.7504
  -6928081.43446  -5377814.36344  23730421.0004                   23730425.5314
        41.2504         24.5004
   5998397.84847   4665570.33246  22803237.6564                   22803242.0004
        43.7504         40.5004
   -757604.35248   -578049.23448  20668383.7504                   20668385.4494
        51.0004         52.0004
   1000930.20347    785123.33646  22786840.7894                   22786844.4494
        43.5004         37.5004
  -6520158.89547  -5017592.33244  23519118.9534                   23519118.5394
        42.7504         28.5004
 05 12 22 19 37 30.0000000  0  9G18G10G24G23G28G27G32G08G02
   9062021.74246   7049752.33243  24370684.9774                   24370690.1054
        38.2504         20.7504
   1789865.44148   1395274.65648  21370540.7814                   21370542.8674
        50.0004         49.5004
   5254684.94545   4090017.81644  24239584.0554                   24239589.3164
        35.5004         29.0004
   6302485.31347   4903782.32044  23090149.4924                   23090151.1644
        42.5004         26.0004
  -7036126.39146  -5462005.05944  23709861.0004                   23709864.7624
        41.0004         25.0004
   6064083.56347   4716753.90246  22815737.4454                   22815741.5824
        44.2504         40.2504
   -766784.16848   -585202.34448  20666636.8984                   20666638.2584
        51.2504         52.0004
   1014588.66047    795766.21546  22789439.0234                   22789443.8134
        43.5004         36.5004
  -6611874.86747  -5089059.21944  23501666.0864                   23501665.5204
        42.0004         27.0004
 05 12 22 19 38  0.0000000  0  9G18G10G24G23G28G27G32G08G02
   9156148.69946   7123097.70743  24388596.7194                   24388602.7274
        38.7504         19.7504
   1796220.69148   1400226.77748  21371750.4064                   21371752.0434
        50.0004         49.0004
   5317741.88745   4139153.03944  24251584.4844                   24251588.8094
        34.7504         28.5004
   6357913.86746   4946973.34044  23100697.4064                   23100699.0634
        41.5004         27.2504
  -7144161.59846  -5546188.14544  23689302.4534                   23689306.1804
        41.0004         25.2504
   6129988.47347   4768108.26246  22828278.8134                   22828283.6054
        44.2504         40.5004
   -775609.96148   -592079.58648  20664957.5004                   20664958.6914
        50.5004         52.0004
   1028652.24247    806724.78546  22792115.6804                   22792119.8244
        43.5004         36.7504
  -6703527.03547  -5160476.41444  23484225.0164                   23484224.2544
        42.5004         27.2504
 05 12 22 19 38 30.0000000  0  9G18G10G24G23G28G27G32G08G02
   9250362.66846   7196510.87543  24406525.9304                   24406531.1564
        38.5004         21.0004
   1802628.85548   1405220.13348  21372969.5084                   21372971.3284
        49.7504         49.0004
   5381174.77045   4188581.20344  24263655.2194                   24263659.8954
        34.5004         28.5004
   6413337.83246   4990160.76644  23111244.1724                   23111245.7384
        41.7504         27.7504
  -7252188.03146  -5630364.39844  23668744.9534                   23668749.1684
        41.5004         24.5004
   6196105.55947   4819627.96146  22840861.0234                   22840864.9264
        44.0004         40.7504
   -784086.77748   -598684.89848  20663344.5554                   20663345.9774
        51.0004         52.0004
   1043115.28947    817994.63346  22794867.4224                   22794871.9414
        43.0004         36.7504
  -6795117.28547  -5231845.34044  23466795.6254                   23466795.0824
        43.2504         25.7504
 05 12 22 19 39  0.0000000  0  9G18G10G24G23G28G27G32G08G02
   9344663.59846   7269991.84843  24424471.1174                   24424476.8984
        39.5004         21.0004
   1809091.55148   1410255.98448  21374199.4454                   21374201.4614
        50.0004         49.0004
   5444982.93445   4238301.78144  24275798.3524                   24275802.4534
        34.7504         28.0004
   6468758.81647   5033345.87144  23121790.3914                   23121792.3054
        42.2504         27.0004
  -7360201.15646  -5714530.25444  23648190.5554                   23648195.1724
        41.2504         25.5004
   6262433.35547   4871311.84046  22853482.2034                   22853486.7814
        44.2504         39.7504
   -792214.11748   -605017.89148  20661797.6564                   20661798.8244
        50.7504         52.2504
   1057977.82447    829575.76246  22797695.8364                   22797700.4304
        43.2504         37.0004
  -6886641.93047  -5303163.17244  23449379.4614                   23449378.7664
        43.0004         28.0004
 05 12 22 19 39 30.0000000  0  9G18G10G24G23G28G27G32G08G02
   9439047.39846   7343537.37543  24442431.5784                   24442437.7274
        39.5004         21.5004
   1815606.71548   1415332.71948  21375438.8134                   21375441.3404
        49.0004         49.0004
   5509161.66445   4288311.13344  24288009.8284                   24288015.4184
        33.7504         28.0004
   6524174.69146   5076526.97744  23132335.9774                   23132337.8134
        41.0004         27.0004
  -7468200.15247  -5798685.13344  23627639.5634                   23627643.3324
        42.0004         26.2504
   6328966.55947   4923155.78146  22866143.0084                   22866147.2234
        43.2504         39.7504
   -799995.25048   -611081.11348  20660317.3674                   20660318.5124
        51.2504         52.2504
   1073236.07847    841465.23846  22800599.9774                   22800604.1134
        43.5004         37.7504
  -6978101.14147  -5374430.00044  23431974.8834                   23431974.0824
        43.2504         28.5004
 05 12 22 19 40  0.0000000  0  9G18G10G24G23G28G27G32G08G02
   9533508.51246   7417143.11743  24460407.7114                   24460413.1914
        38.2504         21.5004
   1822170.61748   1420447.42648  21376688.1484                   21376690.2704
        50.0004         49.0004
   5573704.81345   4338604.42644  24300292.6644                   24300296.9264
        35.2504         28.5004
   6579581.54746   5119701.05944  23142879.6094                   23142881.4494
        41.0004         28.0004
  -7576185.92246  -5882829.69544  23607090.4534                   23607094.4344
        41.5004         25.2504
   6395698.30947   4975154.42646  22878842.1334                   22878846.7304
        43.5004         39.7504
   -807435.10548   -616878.40248  20658901.1644                   20658902.8094
        52.0004         52.2504
   1088884.59047    853658.82046  22803577.6094                   22803582.2344
        43.0004         37.2504
  -7069496.91047  -5445647.40244  23414583.3674                   23414582.1994
        43.2504         27.7504
 05 12 22 19 40 30.0000000  0  9G18G10G24G23G28G27G32G08G02
   9628051.18046   7490812.42643  24478398.7344                   24478404.5864
        38.0004         22.5004
   1828789.29748   1425604.82048  21377947.6564                   21377949.7154
        50.2504         49.0004
   5638615.85245   4389184.41044  24312645.0864                   24312649.7274
        33.2504         27.0004
   6634985.41846   5162872.80544  23153422.1414                   23153424.4064
        39.7504         26.7504
  -7684149.51647  -5966956.96544  23586545.4924                   23586549.4304
        42.5004         24.5004
   6462631.44947   5027310.00446  22891579.1644                   22891583.7664
        43.5004         39.7504
   -814528.84848   -622405.98448  20657551.4534                   20657553.1804
        52.2504         52.2504
   1104927.68447    866159.85546  22806630.6174                   22806634.9024
        43.2504         37.7504
  -7160821.00847  -5516808.95344  23397204.2344                   23397203.7304
        43.2504         29.2504
 05 12 22 19 41  0.0000000  0  9G18G10G24G23G28G27G32G08G02
   9722673.27746   7564543.61343  24496404.7424                   24496410.9414
        38.5004         22.5004
   1835462.62948   1430804.80148  21379217.4144                   21379219.5474
        50.0004         49.0004
   5703892.07445   4440048.94144  24325066.9844                   24325070.7734
        34.0004         26.0004
   6690386.08646   5206042.07044  23163964.8914                   23163966.9264
        40.0004         27.0004
  -7792088.21547  -6051064.85544  23566005.1484                   23566009.1174
        42.2504         26.5004
   6529762.67247   5079619.94546  22904353.5784                   22904358.3594
        43.7504         39.7504
   -821277.80148   -627664.91048  20656266.9224                   20656268.5274
        51.0004         52.2504
   1121363.44547    878966.87946  22809758.1484                   22809762.4264
        43.5004         37.0004
  -7252071.93047  -5587913.46944  23379840.0704                   23379839.4694
        43.2504         28.7504
 05 12 22 19 41 30.0000000  0  9G18G10G24G23G28G27G32G08G02
   9817372.68046   7638335.01243  24514426.2274                   24514432.4184
        38.0004         21.2504
   1842190.32448   1436047.14548  21380497.8444                   21380499.7704
        50.5004         49.0004
   5769530.65245   4491195.84044  24337557.4304                   24337561.5664
        33.5004         26.5004
   6745783.10246   5249208.48444  23174506.4694                   23174508.5394
        40.5004         26.5004
  -7899999.39847  -6135151.28544  23545470.3914                   23545473.6844
        42.5004         24.0004
   6597088.51247   5132081.53146  22917164.9224                   22917170.4454
        43.5004         40.0004
   -827683.54748   -632656.39548  20655047.9694                   20655049.8754
        51.7504         52.2504
   1138189.77747    892078.22746  22812960.5234                   22812964.7934
        43.2504         37.5004
  -7343248.03147  -5658959.71144  23362489.6414                   23362488.6454
        43.5004         28.5004
 05 12 22 19 42  0.0000000  0  9G18G10G24G23G28G27G32G08G02
   9912145.09846   7712183.33643  24532460.1644                   24532467.0784
        38.0004         21.2504
   1848969.98448   1441329.97348  21381787.9774                   21381790.0354
        49.7504         49.0004
   5835526.59845   4542621.18844  24350115.6804                   24350120.6094
        33.7504         25.5004
   6801173.98046   5292370.10944  23185047.3674                   23185049.4104
        40.5004         26.2504
  -8007882.67247  -6219215.98844  23524940.4304                   23524944.0824
        42.5004         25.0004
   6664603.27747   5184690.31646  22930013.0554                   22930017.7194
        42.5004         39.5004
   -833749.75848   -637383.31248  20653893.7894                   20653895.6884
        50.7504         52.2504
   1155402.46547    905490.63746  22816235.4224                   22816240.1844
        43.7504         37.7504
  -7434349.91847  -5729948.12144  23345153.2664                   23345152.7814
        42.5004         27.5004
 05 12 22 19 42 30.0000000  0  9G18G10G24G23G28G27G32G08G02
  10006991.65246   7786089.37143  24550509.2974                   24550516.1024
        37.5004         21.5004
   1855804.73848   1446655.73448  21383088.5784                   21383090.8634
        50.2504         49.0004
   5901880.39146   4594325.43444  24362742.7194                   24362747.3634
        36.7504         26.5004
   6856561.75846   5335529.34044  23195586.8914                   23195589.1024
        41.2504         26.0004
  -8115731.97747  -6303254.21144  23504417.2424                   23504420.7584
        42.5004         26.0004
   6732306.96947   5237446.33246  22942897.2664                   22942901.9184
        43.0004         39.7504
   -839474.56248   -641844.19548  20652804.2974                   20652805.4844
        51.0004         52.2504
   1173002.81347    919205.10946  22819584.6254                   22819589.5944
        43.2504         37.2504
  -7525372.46547  -5800874.69544  23327832.2504                   23327831.6174
        43.2504         28.2504
 05 12 22 19 43  0.0000000  0  9G18G10G24G23G28G27G32G08G02
  10101907.54346   7860049.47343  24568571.8984                   24568577.9454
        37.0004         22.0004
   1862691.56648   1452022.08248  21384399.2664                   21384401.0864
        50.5004         49.0004
   5968586.42246   4646304.09844  24375436.1954                   24375440.7704
        37.5004         26.7504
   6911943.30146   5378683.68444  23206126.1174                   23206128.4494
        41.0004         26.7504
  -8223547.48047  -6387266.12544  23483900.2894                   23483903.9064
        42.5004         25.5004
   6800193.29347   5290344.65646  22955815.0004                   22955819.9654
        43.5004         40.0004
   -844862.26248   -646042.39848  20651779.1174                   20651780.5474
        52.0004         52.2504
   1190985.98047    933217.88746  22823007.4064                   22823011.5394
        43.0004         37.7504
  -7616316.84847  -5871740.37144  23310526.3524                   23310525.2274
        43.5004         27.2504
 05 12 22 19 43 30.0000000  0  9G18G10G24G23G28G27G32G08G02
  10196893.55946   7934064.21943  24586646.9694                   24586653.8204
        36.5004         20.5004
   1869633.31648   1457431.21548  21385719.8834                   21385721.9964
        49.7504         49.0004
   6035644.83646   4698557.36344  24388197.4774                   24388201.5434
        37.0004         26.0004
   6967321.37146   5421835.34444  23216664.2034                   23216666.0314
        41.0004         27.5004
  -8331323.54347  -6471247.29744  23463390.9924                   23463395.0634
        42.2504         25.7504
   6868261.87547   5343384.99246  22968768.1564                   22968773.3984
        42.7504         39.5004
   -849911.37148   -649976.76648  20650818.2274                   20650819.6994
        52.7504         52.2504
   1209352.87147    947529.68446  22826502.6804                   22826506.8014
        43.2504         38.0004
  -7707178.11347  -5942541.27744  23293235.2664                   23293235.2624
        43.0004         29.7504
 05 12 22 19 44  0.0000000  0  9G18G10G24G23G28G27G32G08G02
  10291944.67646   8008129.66443  24604735.4534                   24604741.9144
        36.2504         21.0004
   1876626.91048   1462880.74248  21387050.8914                   21387052.9614
        50.2504         49.0004
   6103049.94546   4751080.79744  24401023.6884                   24401028.2894
        37.7504         25.0004
   7022692.68446   5464981.72744  23227201.3134                   23227203.3754
        41.7504         26.5004
  -8439060.32446  -6555197.84844  23442889.3914                   23442893.2154
        41.5004         25.5004
   6936506.34047   5396562.38346  22981754.5554                   22981759.3794
        43.0004         39.5004
   -854626.35248   -653650.77048  20649921.2584                   20649922.8204
        52.7504         52.2504
   1228098.44547    962136.55146  22830069.5474                   22830074.0004
        43.0004         38.2504
  -7797957.82447  -6013278.64844  23275961.0234                   23275959.5164
        43.2504         29.0004
 05 12 22 19 44 30.0000000  0 10G18G10G24G23G28G27G32G31G08G02
  10387056.16446   8082242.16843  24622834.1884                   24622841.1954
        36.5004         19.7504
   1883669.64148   1468368.57048  21388391.2734                   21388393.6094
        51.0004         49.0004
   6170796.35946   4803870.18444  24413915.9694                   24413920.0354
        38.7504         26.2504
   7078054.53946   5508120.73844  23237736.0234                   23237738.2544
        41.0004         25.7504
  -8546757.70746  -6639117.69944  23422395.0004                   23422398.8914
        40.7504         26.0004
   7004920.75047   5449872.19146  22994773.5784                   22994778.5204
        42.0004         39.7504
   -859011.21548   -657067.54748  20649086.5944                   20649088.0704
        51.0004         52.0004
   1378769.10255   1106320.15653  25367594.2194                   25367605.6914
        35.5004         22.5004
   1247218.13747    977034.93446  22833707.8594                   22833712.7664
        43.7504         38.2504
  -7888656.77747  -6083953.08244  23258701.6334                   23258700.8714
        43.2504         29.7504
 05 12 22 19 45  0.0000000  0 10G18G10G24G23G28G27G32G31G08G02
  10482213.18846   8156390.13743  24640942.0394                   24640949.3444
        36.0004         20.5004
   1890748.49248   1473884.53948  21389738.2734                   21389740.0554
        51.0004         49.0004
   6238868.34446   4856913.24244  24426869.4384                   24426874.0944
        37.7504         26.5004
   7133393.73046   5551242.08644  23248266.8364                   23248269.0514
        41.0004         27.7504
  -8654425.88746  -6723014.80144  23401906.3914                   23401909.8094
        41.5004         26.0004
   7073488.81347   5503301.72746  23007821.8834                   23007827.1054
        42.5004         39.5004
   -863080.34048   -660238.29748  20648312.3984                   20648313.8204
        51.7504         52.0004
   1258742.17245   1012792.91443  25344753.4454                   25344764.5514
        35.5004         21.0004
   1266696.93447    992213.14846  22837414.8834                   22837419.3204
        43.7504         38.0004
  -7979286.00847  -6154573.19144  23241455.2344                   23241454.6764
        43.2504         28.5004
 05 12 22 19 45 30.0000000  0 10G18G10G24G23G28G27G32G31G08G02
  10577402.62145   8230563.38743  24659056.1954                   24659063.2344
        35.5004         19.2504
   1897852.45748   1479420.06648  21391090.1024                   21391092.2154
        50.5004         49.0004
   6307252.17246   4910199.30544  24439882.1954                   24439886.7734
        38.2504         27.7504
   7188699.07847   5594337.07844  23258791.2344                   23258793.6174
        42.0004         26.7504
  -8762072.97346  -6806895.45744  23381421.3524                   23381425.2624
        41.2504         26.5004
   7142196.19147   5556839.81646  23020896.5944                   23020901.2854
        42.7504         38.7504
   -866846.19948   -663172.73848  20647595.4844                   20647597.2504
        52.0004         52.0004
   1138442.49245    919053.30543  25321861.4694                   25321871.9574
        33.0004         22.2504
   1286521.79347   1007661.02346  22841186.8444                   22841192.2774
        43.0004         38.7504
  -8069854.63347  -6225146.08644  23224220.4774                   23224219.2464
        43.7504         29.5004
 05 12 22 19 46  0.0000000  0 10G18G10G24G23G28G27G32G31G08G02
  10672628.87946   8304765.28143  24677178.0164                   24677184.3164
        37.5004         18.5004
   1904988.01248   1484980.22348  21392448.0394                   21392450.0234
        49.7504         49.0004
   6375951.53946   4963731.25044  24452955.3594                   24452960.1804
        37.0004         26.0004
   7243976.98446   5637410.68444  23269310.8524                   23269312.6684
        41.2504         27.7504
  -8869689.72346  -6890752.48844  23360943.2274                   23360946.2624
        41.0004         27.7504
   7211046.18046   5610489.03546  23033998.8204                   23034003.6914
        41.5004         38.7504
   -870303.71148   -665866.90248  20646937.7814                   20646939.1524
        50.5004         52.0004
   1017878.66045    825108.05143  25298918.0704                   25298929.8204
        34.7504         22.5004
   1306697.18447   1023382.03546  22845026.7194                   22845031.4844
        43.5004         38.7504
  -8160354.24647  -6295665.19544  23206999.0944                   23206998.1764
        43.5004         29.5004
 05 12 22 19 46 30.0000000  0 10G18G10G24G23G28G27G32G31G08G02
  10767893.68446   8378997.28943  24695306.3834                   24695313.1214
        37.7504         18.2504
   1912158.69948   1490567.74648  21393812.4144                   21393814.5594
        50.2504         48.7504
   6444967.32446   5017509.75844  24466088.9614                   24466093.1024
        38.2504         26.2504
   7299230.88347   5680465.57444  23279825.3524                   23279827.0594
        42.0004         27.0004
  -8977269.65647  -6974580.84044  23340471.1414                   23340474.5084
        42.0004         27.0004
   7280038.92647   5664249.49246  23047127.5234                   23047132.4344
        42.7504         38.5004
   -873450.70748   -668319.11748  20646339.0394                   20646340.6804
        52.0004         51.7504
    897056.26645    730961.18444  25275926.4534                   25275936.9734
        35.7504         24.5004
   1327224.67647   1039377.39846  22848932.9614                   22848938.0354
        42.5004         38.0004
  -8250779.67647  -6366126.53144  23189791.4304                   23189790.1414
        43.2504         29.2504
 05 12 22 19 47  0.0000000  0 10G18G10G24G23G28G27G32G31G08G02
  10863200.51646   8453261.99243  24713442.6644                   24713450.0984
        38.0004         19.0004
   1919370.11348   1496187.01648  21395184.6954                   21395186.7934
        49.7504         48.7504
   6514302.22746   5071536.93044  24479282.5704                   24479286.8954
        37.5004         26.7504
   7354466.16446   5723505.96944  23290335.6724                   23290337.6454
        41.5004         25.5004
  -9084804.48447  -7058374.05944  23320007.1884                   23320010.9924
        42.0004         27.7504
   7349176.76647   5718123.01246  23060283.9614                   23060288.9184
        42.2504         38.5004
   -876283.10548   -670526.18748  20645800.0164                   20645801.7384
        51.7504         52.2504
    775983.07846    636618.96943  25252886.5164                   25252896.2504
        37.5004         22.7504
   1348107.77047   1055649.85246  22852907.1024                   22852911.7234
        43.5004         38.5004
  -8341123.35547  -6436524.15644  23172599.8754                   23172598.8594
        43.7504         29.5004
 05 12 22 19 47 30.0000000  0 10G18G10G24G23G28G27G32G31G08G02
  10958549.51246   8527559.59843  24731587.2424                   24731594.2664
        39.7504         19.7504
   1926624.53148   1501839.79348  21396565.5314                   21396567.2624
        49.0004         48.5004
   6583955.85946   5125812.46544  24492537.1724                   24492541.6684
        38.5004         27.5004
   7409685.02046   5766533.55544  23300843.6724                   23300845.9574
        41.2504         25.0004
  -9192289.05547  -7142128.11344  23299553.8914                   23299556.9414
        42.5004         27.2504
   7418458.61747   5772108.75046  23073467.9304                   23073472.6374
        42.2504         38.2504
   -878800.03948   -672487.43448  20645321.2114                   20645322.4494
        51.0004         52.0004
    654663.97346    542085.12544  25229799.5944                   25229809.2624
        38.5004         26.2504
   1369346.60547   1072199.51646  22856948.6334                   22856953.7194
        43.5004         38.2504
  -8431381.02747  -6506854.76645  23155424.2664                   23155423.3484
        43.5004         30.0004
 05 12 22 19 48  0.0000000  0 10G18G10G24G23G28G27G32G31G08G02
  11053939.51646   8601889.12143  24749739.8054                   24749746.7814
        39.7504         19.7504
   1933922.68848   1507526.64148  21397954.1884                   21397956.3094
        50.0004         48.5004
   6653926.08646   5180334.69144  24505852.4534                   24505856.6134
        38.0004         28.0004
   7464888.00846   5809548.77344  23311348.7114                   23311350.6804
        41.0004         25.7504
  -9299719.75847  -7225840.21144  23279110.3984                   23279113.5594
        42.5004         25.7504
   7487881.92247   5826204.70346  23086679.1954                   23086684.0434
        43.0004         38.5004
   -881002.28948   -674203.48048  20644901.9224                   20644903.2464
        51.5004         52.0004
    533100.95746    447361.16444  25206666.5784                   25206677.1094
        37.0004         25.5004
   1390939.89147   1089025.37546  22861057.5634                   22861062.5634
        43.0004         38.2504
  -8521550.16847  -6577116.37945  23138265.4694                   23138264.3244
        43.7504         30.0004
 05 12 22 19 48 30.0000000  0 10G18G10G24G23G28G27G32G31G08G02
  11149371.12946   8676251.10942  24767899.3284                   24767906.9494
        39.5004         16.7504
   1941267.29348   1513249.68048  21399352.0554                   21399354.0004
        49.5004         48.7504
   6724212.77046   5235103.51644  24519228.0704                   24519231.7974
        37.0004         27.0004
   7520077.68846   5852553.62944  23321850.5314                   23321852.6454
        40.5004         25.2504
  -9407091.13747  -7309506.08644  23258678.1174                   23258681.0784
        43.2504         26.7504
   7557446.05947   5880410.39146  23099917.2344                   23099921.8834
        42.2504         38.7504
   -882888.65648   -675673.37548  20644542.7274                   20644544.6054
        51.5004         52.0004
    411300.08246    352451.93844  25183488.5394                   25183498.1644
        38.2504         28.2504
   1412888.10247   1106127.79746  22865234.3204                   22865239.0274
        42.2504         38.2504
  -8611626.24647  -6647305.47344  23121124.7974                   23121123.3714
        43.0004         29.7504
 05 12 22 19 49  0.0000000  0 10G18G10G24G23G28G27G32G31G08G02
  11244841.39546   8750643.17243  24786067.7114                   24786074.6954
        40.2504         18.2504
   1948657.41448   1519008.18848  21400757.9454                   21400760.0124
        49.5004         48.5004
   6794812.15246   5290115.98844  24532662.4454                   24532666.5394
        37.2504         26.5004
   7575252.97346   5895547.25044  23332350.4774                   23332352.8054
        41.7504         26.5004
  -9514401.30147  -7393124.24244  23238257.3134                   23238260.9144
        42.7504         27.5004
   7627146.74647   5934722.48446  23113180.7814                   23113185.4454
        42.5004         38.5004
   -884461.59448   -676899.03948  20644243.5944                   20644244.9694
        51.5004         52.0004
    289262.18446    257358.02344  25160264.3284                   25160274.4694
        37.7504         27.7504
   1435188.20347   1123504.42646  22869478.2114                   22869483.0704
        42.5004         38.0004
  -8701608.39547  -6717421.40244  23104001.0394                   23104000.3914
        42.7504         29.5004
 05 12 22 19 49 30.0000000  0 10G18G10G24G23G28G27G32G31G08G02
  11340347.32446   8825063.06342  24804242.4224                   24804249.4964
        38.5004         17.7504
   1956092.22748   1524801.51648  21402172.8134                   21402175.3874
        50.2504         48.7504
   6865720.60946   5345369.30944  24546155.3674                   24546159.9734
        37.5004         26.0004
   7630412.84046   5938528.87544  23342847.1884                   23342849.4534
        41.2504         27.0004
  -9621648.28947  -7476693.19944  23217848.9924                   23217852.1644
        43.0004         26.2504
   7696979.80546   5989137.71946  23126469.2274                   23126474.2424
        41.2504         38.0004
   -885723.44548   -677882.30548  20644003.5634                   20644004.9064
        51.7504         52.0004
    166988.78145    162080.60244  25136996.7344                   25137006.6214
        35.7504         27.7504
   1457837.16847   1141152.89146  22873787.8984                   22873793.1174
        42.5004         38.0004
  -8791495.50047  -6787463.25044  23086896.5234                   23086895.3834
        43.5004         29.2504
 05 12 22 19 50  0.0000000  0 10G18G10G24G23G28G27G32G31G08G02
  11435888.19546   8899510.18443  24822422.8594                   24822430.6684
        39.0004         19.2504
   1963573.05948   1530630.70748  21403596.5164                   21403598.3674
        50.0004         48.5004
   6936936.53546   5400862.23044  24559707.9694                   24559711.7814
        37.7504         28.0004
   7685558.54747   5981499.47344  23353340.9774                   23353343.2974
        42.0004         25.0004
  -9728827.89147  -7560209.63744  23197453.6644                   23197456.5434
        42.5004         27.0004
   7766943.19146   6043654.49246  23139783.0084                   23139788.0824
        41.7504         38.7504
   -886674.43048   -678623.32448  20643822.4774                   20643824.2894
        52.0004         52.0004
     44483.37945     66622.42244  25113684.8204                   25113693.3204
        33.0004         25.5004
   1480834.12147   1159072.50846  22878164.0704                   22878169.2584
        42.2504         37.7504
  -8881284.42647  -6857428.61744  23069810.4924                   23069809.0514
        43.0004         29.7504
 05 12 22 19 50 30.0000000  0 10G18G10G24G23G28G27G32G31G08G02
  11531460.83246   8973981.97343  24840610.2034                   24840618.0664
        39.7504         19.0004
   1971098.83248   1536494.91448  21405028.4844                   21405030.6564
        50.2504         48.7504
   7008455.94546   5456591.60944  24573317.8754                   24573321.5904
        36.7504         27.0004
   7740688.78947   6024458.00044  23363832.7894                   23363834.8444
        42.0004         26.2504
  -9835938.47747  -7643672.31244  23177070.7664                   23177073.5594
        43.0004         26.0004
   7837032.47346   6098269.37146  23153120.6724                   23153125.9654
        41.7504         37.7504
   -887317.23848   -679124.21948  20643700.1174                   20643701.5044
        52.0004         52.0004
    -78252.60545    -29015.41044  25090327.7274                   25090337.1524
        31.7504         24.5004
   1504175.83647   1177260.77746  22882606.1564                   22882611.3874
        42.0004         37.0004
  -8970974.45747  -6927316.92244  23052742.8204                   23052741.4184
        44.5004         29.7504
 05 12 22 19 51  0.0000000  0 10G18G10G24G23G28G27G32G31G08G02
  11627063.43846   9048477.15243  24858803.2274                   24858810.8014
        39.5004         19.7504
   1978669.80948   1542394.34848  21406469.5864                   21406471.5514
        50.0004         48.7504
   7080276.28145   5512555.46944  24586984.6804                   24586988.8284
        35.7504         28.0004
   7795803.64846   6067404.54744  23374320.7034                   23374322.4104
        41.7504         25.0004
  -9942976.96147  -7727078.81644  23156701.9924                   23156704.9024
        42.2504         26.5004
   7907244.54747   6152979.93046  23166481.6644                   23166486.8754
        42.5004         38.7504
   -887653.14148   -679385.95748  20643635.9774                   20643637.9414
        52.2504         52.0004
   -201216.75455   -124831.09054  25066928.6254                   25066937.5664
        31.0004         24.7504
   1527860.22747   1195716.07046  22887113.3834                   22887117.8954
        43.0004         37.5004
  -9060563.33647  -6997126.40245  23035694.7504                   23035693.5394
        44.5004         30.0004
 05 12 22 19 51 30.0000000  0 10G18G10G24G23G28G27G32G31G08G02
  11722697.92246   9122997.18043  24877001.8134                   24877009.7624
        38.0004         19.2504
   1986290.03548   1548332.15248  21407919.5634                   21407921.7344
        50.2504         48.7504
   7152398.52346   5568754.55144  24600708.2034                   24600713.4694
        36.0004         26.5004
   7850906.99247   6110342.11744  23384805.7814                   23384808.2704
        42.0004         24.2504
 -10049936.55547  -7810423.81644  23136347.7584                   23136350.9384
        42.5004         27.5004
   7977580.04347   6207786.67646  23179866.0704                   23179871.6374
        42.0004         37.5004
   -887679.74648   -679406.69548  20643631.3364                   20643632.7704
        52.5004         52.0004
   -324402.84045   -220819.70343  25043486.2344                   25043495.4024
        30.7504         23.0004
   1551889.07447   1214439.77746  22891685.5554                   22891690.4804
        42.5004         37.7504
  -9150045.46547  -7066852.70344  23018666.2274                   23018665.0784
        44.5004         29.7504
 05 12 22 19 52  0.0000000  0 10G18G10G24G23G28G27G32G31G08G02
  11818362.91846   9197540.94143  24895206.6884                   24895214.6134
        37.7504         19.7504
   1993960.27048   1554308.93048  21409379.1094                   21409381.1254
        49.5004         48.5004
   7224820.68445   5625187.36344  24614490.3914                   24614494.9454
        35.5004         26.2504
   7905999.46946   6153271.19944  23395290.2034                   23395291.9844
        41.5004         24.7504
 -10156813.62147  -7893704.51644  23116010.0234                   23116012.9924
        43.0004         27.2504
   8048036.39546   6262687.58246  23193273.7814                   23193278.3954
        41.2504         37.2504
   -887397.85948   -679187.04748  20643684.8134                   20643686.2934
        52.5004         52.2504
   -447807.71555   -316978.83254  25020003.6094                   25020012.3244
        30.5004         24.0004
   1576260.87547   1233430.71546  22896323.0784                   22896328.5864
        42.7504         37.7504
  -9239418.12947  -7136493.69945  23001659.7974                   23001658.6174
        45.0004         30.2504
 05 12 22 19 52 30.0000000  0 10G18G10G24G23G28G27G32G31G08G02
  11914049.59046   9272101.62143  24913415.6954                   24913423.8204
        36.7504         20.2504
   2001673.77348   1560319.42248  21410846.9614                   21410849.2274
        50.0004         48.5004
   7297532.90646   5681846.20744  24628327.3914                   24628332.1374
        36.5004         28.0004
   7961074.07046   6196186.37144  23405770.2274                   23405772.6174
        41.2504         24.7504
 -10263612.21147  -7976924.09044  23095686.9144                   23095690.1454
        42.7504         28.2504
   8118603.45347   6317674.77346  23206702.2274                   23206707.5234
        42.7504         37.5004
   -886815.88748   -678733.56248  20643795.2734                   20643796.8054
        52.5004         52.0004
   -571436.00855   -413312.07054  24996475.1724                   24996486.1054
        32.2504         26.7504
   1600966.57447   1252681.82046  22901024.7114                   22901030.2114
        43.0004         37.2504
  -9328686.04347  -7206053.07044  22984672.6174                   22984671.4224
        45.0004         29.7504
 05 12 22 19 53  0.0000000  0 10G18G10G24G23G28G27G32G31G08G02
  12009758.60245   9346679.64543  24931628.8914                   24931637.6134
        33.0004         18.2504
   2009433.52748   1566365.94548  21412323.8134                   21412325.7234
        50.0004         48.5004
   7370535.33245   5738731.18044  24642218.7664                   24642223.4184
        34.7504         26.5004
   8016133.60547   6239089.80544  23416248.4144                   23416250.3594
        42.0004         25.2504
 -10370326.51647  -8060077.98044  23075379.3754                   23075382.6134
        43.0004         27.0004
   8189280.77747   6372747.88346  23220151.7274                   23220156.6134
        43.0004         38.0004
   -885932.49648   -678045.21148  20643963.7424                   20643965.1954
        52.5004         52.0004
   -695282.02745   -509815.03544  24972909.1484                   24972918.5394
        35.7504         26.7504
   1626006.80147   1272193.60246  22905790.2344                   22905794.8874
        42.7504         37.0004
  -9417844.64147  -7275527.25845  22967706.0084                   22967705.0824
        44.7504         30.7504
 05 12 22 19 53 30.0000000  0 10G18G10G24G23G28G27G32G31G08G02
  12105490.52745   9421275.52742  24949846.3204                   24949855.0434
        33.5004         17.7504
   2017241.93848   1572450.39148  21413809.6094                   21413811.6454
        50.0004         48.7504
   7443827.29345   5795841.76244  24656165.7424                   24656170.4494
        33.5004         24.2504
   8071180.29747   6281983.22343  23426723.4384                   23426725.4024
        42.2504         22.7504
 -10476951.45347  -8143162.22744  23055089.3594                   23055092.7894
        43.0004         29.5004
   8260067.37546   6427906.13746  23233622.0314                   23233627.3594
        41.2504         37.5004
   -884746.90648   -677121.38348  20644189.4224                   20644190.7774
        52.2504         52.0004
   -819341.37146   -606484.22344  24949301.5474                   24949309.9264
        38.7504         29.2504
   1651381.60547   1291966.10546  22910618.6024                   22910623.9264
        42.7504         37.2504
  -9506889.53947  -7344912.85545  22950761.6024                   22950760.5904
        45.0004         30.5004
 05 12 22 19 54  0.0000000  0 11G18G10G24G23G28G27G32G31G08G01G02
  12201236.67244   9495882.53942  24968067.5394                   24968075.7154
        29.7504         17.2504
   2025092.76648   1578567.88348  21415303.4844                   21415305.8284
        50.0004         48.5004
   7517399.63355   5853170.80154  24670165.6804                   24670170.4964
        32.7504         24.2504
   8126207.76646   6324861.67644  23437195.1414                   23437197.1134
        41.5004         24.2504
 -10583490.41047  -8226179.49644  23034815.6174                   23034818.4734
        43.2504         28.5004
   8330953.61746   6483142.03146  23247111.4454                   23247116.6684
        41.2504         37.0004
   -883267.08248   -675968.27048  20644470.9064                   20644472.4414
        52.7504         52.0004
   -943617.96146   -703322.71944  24925652.2734                   24925660.5984
        40.5004         29.5004
   1677082.38747   1311992.60246  22915509.4694                   22915514.5314
        42.7504         36.5004
   1385180.25056   1124528.00452  25185522.2814                   25185527.0274
        36.2504         16.7504
  -9595825.17647  -7414213.30145  22933837.9614                   22933836.3794
        44.7504         30.7504
 05 12 22 19 54 30.0000000  0 11G18G10G24G23G28G27G32G31G08G01G02
  12296982.82045   9570489.46142  24986286.6644                   24986295.7384
        30.5004         17.2504
   2032973.62948   1584708.78548  21416803.0864                   21416805.1644
        50.0004         48.5004
   7591236.98045   5910706.35544  24684216.9924                   24684222.0594
        32.5004         24.0004
   8181203.40246   6367715.29744  23447660.2034                   23447662.6844
        41.2504         24.0004
 -10689952.98047  -8309137.25044  23014556.7584                   23014559.4264
        43.7504         29.0004
   8401923.74646   6538443.27746  23260616.3054                   23260622.0474
        41.5004         37.2504
   -881506.98448   -674596.76648  20644805.6884                   20644807.2774
        52.2504         52.0004
  -1068121.78546   -800338.27044  24901959.7034                   24901967.4844
        41.2504         28.7504
   1703094.40647   1332261.62546  22920459.1334                   22920464.5434
        43.0004         36.0004
   1269005.68846   1034002.46942  25163415.1954                   25163420.7894
        36.7504         17.2504
  -9684662.05547  -7483436.79345  22916932.2424                   22916931.1454
        44.2504         31.5004
 05 12 22 19 55  0.0000000  0 11G18G10G24G23G28G27G32G31G08G01G02
  12392717.99645   9645087.85942  25004504.3914                   25004514.3954
        32.2504         17.7504
   2040876.07048   1590866.49248  21418306.8204                   21418309.0124
        49.5004         48.7504
   7665327.72745   5968439.35944  24698314.9384                   24698320.8594
        32.0004         25.2504
   8236158.46546   6410537.33243  23458117.3054                   23458120.1414
        41.2504         22.5004
 -10796345.04747  -8392040.04744  22994311.2034                   22994313.7814
        43.0004         28.5004
   8472965.73446   6593800.52046  23274135.3284                   23274140.9614
        41.2504         37.2504
   -879476.96948   -673014.94148  20645191.8834                   20645193.6994
        51.5004         52.0004
  -1192859.10946   -897535.79744  24878222.5864                   24878230.7734
        41.2504         27.2504
   1729406.64547   1352764.59845  22925466.5864                   22925471.3594
        42.7504         35.7504
   1152687.44946    943364.95342  25141280.4384                   25141285.8404
        36.5004         17.7504
  -9773406.64547  -7552588.37145  22900044.6024                   22900043.6174
        44.5004         30.5004
 05 12 22 19 55 30.0000000  0 11G18G10G24G23G28G27G32G31G08G01G02
  12488443.30945   9719678.62143  25022721.0164                   25022730.1954
        35.2504         19.7504
   2048803.40248   1597043.60548  21419815.7194                   21419817.4964
        50.5004         48.5004
   7739672.28545   6026370.12944  24712462.6254                   24712468.2974
        32.0004         25.7504
   8291076.14146   6453330.19543  23468568.3524                   23468570.7774
        41.0004         23.0004
 -10902660.41047  -8474883.09044  22974079.2664                   22974082.0474
        43.5004         29.5004
   8544079.57046   6649213.75446  23287667.8594                   23287673.7344
        41.2504         37.2504
   -877175.33648   -671221.45748  20645630.0634                   20645631.7344
        52.2504         52.0004
  -1317824.35246   -994910.99244  24854442.1804                   24854449.6524
        41.7504         25.0004
   1756020.05547   1373502.24446  22930531.2504                   22930535.7304
        42.7504         36.5004
   1036230.49246    852619.33242  25119118.8364                   25119124.7034
        36.0004         17.2504
  -9862054.78547  -7621664.79745  22883175.7814                   22883174.2734
        43.7504         31.0004
 05 12 22 19 56  0.0000000  0 11G18G10G24G23G28G27G32G31G08G01G02
  12584161.64546   9794263.87943  25040935.6254                   25040944.5124
        36.0004         19.0004
   2056760.56648   1603243.96948  21421329.9614                   21421331.9844
        49.7504         48.7504
   7814272.37945   6084500.03544  24726659.0394                   24726664.0824
        32.2504         25.5004
   8345961.12146   6496097.60243  23479012.7504                   23479015.4384
        40.7504         22.7504
 -11008891.46947  -8557660.43744  22953864.8134                   22953866.7304
        42.7504         29.0004
   8615266.70346   6704684.10246  23301214.6414                   23301220.5904
        41.7504         37.2504
   -874598.94948   -669213.89148  20646120.1724                   20646122.1054
        52.0004         52.0004
  -1443009.91847  -1092457.91443  24830620.2894                   24830627.5234
        42.0004         22.5004
   1782937.10247   1394476.48046  22935653.3444                   22935658.5634
        42.5004         37.0004
    919641.18846    761770.62942  25096932.2584                   25096938.6724
        36.7504         17.7504
  -9950598.80547  -7690660.09445  22866326.3984                   22866324.9064
        44.5004         32.2504
 05 12 22 19 56 30.0000000  0 11G18G10G24G23G28G27G32G31G08G01G02
  12679876.99245   9868846.87143  25059149.1804                   25059158.8674
        35.2504         19.0004
   2064753.72348   1609472.37548  21422851.0704                   21422853.1804
        49.5004         48.5004
   7889131.26645   6142831.59044  24740905.0554                   24740909.0084
        33.0004         25.5004
   8400819.38346   6538844.18043  23489451.9844                   23489454.6334
        40.2504         22.2504
 -11115029.25047  -8640365.11344  22933667.3914                   22933669.3204
        43.5004         28.7504
   8686529.93846   6760213.73846  23314775.9144                   23314781.4264
        41.7504         38.0004
   -871743.31248   -666988.72348  20646663.6644                   20646665.2584
        51.2504         52.0004
  -1568407.59846  -1190170.16843  24806756.6174                   24806763.8404
        40.7504         22.5004
   1810161.44147   1415690.16046  22940833.2894                   22940838.8364
        43.0004         37.2504
    802927.30946    670824.82442  25074723.0864                   25074728.1844
        36.5004         17.2504
 -10039030.75847  -7759568.05545  22849498.2894                   22849496.7704
        43.5004         31.2504
 05 12 22 19 57  0.0000000  0 11G18G10G24G23G28G27G32G31G08G01G02
  12775584.70746   9943423.87543  25077362.7504                   25077371.6604
        36.0004         20.0004
   2072780.48848   1615726.97348  21424378.1884                   21424380.7624
        49.5004         48.5004
   7964243.43845   6201360.50843  24755198.4144                   24755202.9384
        32.0004         23.7504
   8455648.29346   6581567.90243  23499884.8984                   23499887.8954
        39.0004         22.5004
 -11221073.46947  -8722996.86744  22913487.4694                   22913490.1484
        42.7504         29.0004
   8757863.35947   6815798.07446  23328350.4224                   23328355.8794
        42.0004         38.7504
   -868612.66048   -664549.25848  20647259.4144                   20647261.1684
        51.5004         52.0004
  -1694017.40246  -1288047.71143  24782854.8594                   24782861.5274
        39.5004         23.2504
   1837688.23847   1437139.52046  22946072.5474                   22946077.3204
        43.0004         37.2504
    686087.85245    579781.21542  25052488.7584                   25052494.0904
        35.7504         17.7504
 -10127351.36347  -7828389.26645  22832691.2974                   22832689.6954
        43.7504         32.0004
 05 12 22 19 57 30.0000000  0 11G18G10G24G23G28G27G32G31G08G01G02
  12871287.41046  10017996.99643  25095575.3284                   25095583.7544
        37.0004         19.2504
   2080845.72348   1622011.54348  21425912.7114                   21425915.7344
        49.0004         48.5004
                                  24769538.6954                   24769544.5784
        31.7504         25.2504
   8510452.57046   6624272.39143  23510314.3594                   23510317.3794
        39.2504         22.2504
 -11327016.49647  -8805549.77344  22893326.8834                   22893329.7504
        42.7504         28.0004
   8829268.44946   6871438.25846  23341938.4844                   23341944.1454
        41.2504         38.0004
   -865203.84448   -661893.03548  20647908.2034                   20647909.8284
        52.0004         52.0004
  -1819832.09446  -1386084.83244  24758911.7734                   24758920.0234
        37.2504         24.5004
   1865519.78547   1458826.35546  22951368.3204                   22951373.5164
        43.2504         36.5004
    569129.13745    488644.62542  25030231.9384                   25030237.7934
        34.2504         17.7504
 -10215554.21947  -7897118.72745  22815906.3984                   22815905.9064
        44.2504         32.0004
 05 12 22 19 58  0.0000000  0 11G18G10G24G23G28G27G32G31G08G01G02
  12966988.48446  10092568.83643  25113786.9384                   25113795.9414
        37.5004         20.5004
   2088955.02348   1628330.45348  21427456.3134                   21427458.5704
        50.0004         48.5004
   8115235.50845   6319016.55944  24783932.0234                   24783935.5394
        32.5004         26.5004
   8565237.47746   6666961.83643  23520739.2424                   23520742.1954
        39.2504         22.5004
 -11432850.08647  -8888017.40644  22873187.3364                   22873189.7464
        42.2504         27.7504
   8900747.23847   6927135.87946  23355540.0164                   23355545.9144
        42.0004         37.5004
   -861513.10248   -659017.14848  20648610.4384                   20648612.1024
        52.0004         52.0004
  -1945843.93046  -1484275.55144  24734932.8054                   24734940.5824
        36.5004         24.5004
   1893659.12947   1480753.02346  22956723.3914                   22956728.8244
        42.7504         36.5004
    452058.31645    397420.73842  25007954.3444                   25007959.5514
        33.5004         16.2504
 -10303631.66047  -7965750.45745  22799145.9844                   22799144.6134
        45.0004         31.5004
 05 12 22 19 58 30.0000000  0 11G18G10G24G23G28G27G32G31G08G01G02
  13062680.61346  10167133.66443  25131996.6414                   25132005.5704
        37.2504         21.0004
   2097103.35948   1634679.78148  21429006.9144                   21429009.0944
        50.0004         48.5004
   8191109.73845   6378139.27744  24798369.7974                   24798373.9224
        33.2504         27.2504
   8619997.78546   6709632.10543  23531159.9304                   23531163.0234
        39.5004         22.7504
 -11538576.55547  -8970401.55544  22853068.2344                   22853070.4144
        43.0004         28.5004
   8972291.32446   6982884.37146  23369154.8134                   23369160.5124
        41.5004         37.2504
   -857547.24648   -655926.87148  20649365.2814                   20649366.8094
        51.7504         51.7504
  -2072055.30145  -1582621.75044  24710914.5164                   24710923.0664
        35.5004         25.0004
   1922098.65647   1502913.60246  22962135.2814                   22962140.0554
        43.5004         37.0004
    334871.82045    306106.68442  24985655.0944                   24985660.0354
        32.0004         17.7504
 -10391587.12947  -8034287.14845  22782408.7194                   22782407.3484
        44.0004         31.5004
 05 12 22 19 59  0.0000000  0 11G18G10G24G23G28G27G32G31G08G01G02
  13158368.73846  10241695.38343  25150206.0394                   25150214.7854
        37.0004         18.5004
   2105297.75448   1641064.99248  21430566.2344                   21430568.4884
        49.5004         48.2504
   8267237.35245   6437459.42644  24812855.6414                   24812860.8134
        33.5004         27.7504
   8674740.31346   6752288.49643  23541577.7814                   23541580.3914
        39.2504         22.0004
 -11644186.09847  -9052694.59844  22832971.5004                   22832973.6764
        43.7504         28.5004
   9043904.31646   7038686.54746  23382781.8364                   23382788.0704
        40.5004         36.0004
   -853301.02748   -652618.13348  20650172.8134                   20650174.9064
        52.0004         52.0004
  -2198456.84445  -1681116.14144  24686861.0234                   24686869.8714
        34.7504         25.2504
   1950842.93847   1525311.64546  22967605.0474                   22967610.2154
        43.0004         36.7504
    217578.34845    214709.31642  24963334.1174                   24963339.4344
        32.2504         17.7504
 -10479411.53547  -8102721.71945  22765696.3594                   22765694.7774
        44.5004         31.2504
 05 12 22 19 59 30.0000000  0 11G18G10G24G23G28G27G32G31G08G01G02
  13254047.33646  10316249.69143  25168413.0474                   25168422.0354
        37.5004         18.5004
   2113535.11348   1647483.68848  21432133.8134                   21432136.0664
        49.7504         48.0004
   8343612.11345   6496972.18844  24827389.1724                   24827394.4494
        35.2504         28.5004
   8729461.73446   6794928.45743  23551990.5004                   23551993.8954
        40.5004         22.5004
 -11749679.19947  -9134896.90644  22812896.3204                   22812899.2344
        43.0004         28.7504
   9115579.56346   7094537.21945  23396421.4924                   23396427.7774
        40.2504         35.2504
   -848779.44948   -649094.83648  20651033.7814                   20651035.1214
        51.5004         51.7504
  -2325049.41846  -1779759.39144  24662771.9064                   24662779.3404
        37.2504         27.2504
   1979886.16047   1547942.64146  22973131.6644                   22973136.7114
        43.5004         36.7504
    100176.20745    123227.24243  24940992.6564                   24940999.3954
        33.0004         18.2504
 -10567106.55947  -8171055.45745  22749008.7974                   22749007.2114
        44.0004         31.5004
 05 12 22 20  0  0.0000000  0 11G18G10G24G23G28G27G32G31G08G01G02
  13349713.70746  10390794.44943  25186617.4774                   25186627.8834
        37.0004         18.2504
   2121814.81648   1653935.37148  21433709.4144                   21433711.5314
        49.5004         48.2504
   8420230.19545   6556674.55944  24841969.3984                   24841974.5354
        35.0004         28.5004
   8784161.17646   6837551.28144  23562400.5234                   23562402.8954
        41.0004         24.5004
 -11855053.77347  -9217006.83644  22792844.5004                   22792846.8484
        43.5004         29.2504
   9187313.01246   7150433.24246  23410072.4304                   23410078.1214
        40.7504         36.5004
   -843984.95748   -645358.86748  20651945.8204                   20651947.5274
        51.5004         51.7504
  -2451831.29746  -1878550.16844  24638645.3134                   24638653.2934
        37.5004         29.0004
   2009225.09047   1570804.06346  22978715.4774                   22978719.9694
        42.7504         37.0004
    -17333.75845     31661.16042  24918630.9064                   24918637.5514
        33.0004         16.7504
 -10654670.69547  -8239287.21945  22732345.5474                   22732344.4344
        44.5004         31.5004
 05 12 22 20  0 30.0000000  0 11G18G10G24G23G28G27G32G31G08G01G02
  13445369.79346  10465331.25042  25204821.3524                   25204831.3444
        37.0004         16.2504
   2130141.25448   1660423.48448  21435293.5864                   21435295.9614
        48.2504         48.2504
   8497092.96145   6616567.59844  24856594.9304                   24856600.7814
        34.0004         27.5004
   8838842.67246   6880160.10943  23572805.5004                   23572808.5004
        41.0004         23.0004
 -11960302.75847  -9299018.92244  22772816.5704                   22772818.5274
        43.0004         29.5004
   9259105.51246   7206375.27346  23423734.0164                   23423740.1844
        40.2504         36.2504
   -838915.01648   -641408.26648  20652910.6334                   20652912.3754
        50.7504         51.7504
  -2578795.65246  -1977483.13745  24614484.8134                   24614492.3954
        39.7504         30.2504
   2038861.50047   1593897.27746  22984354.5474                   22984359.8954
        42.5004         36.5004
   -134945.46545    -59984.22743  24896251.1884                   24896255.9384
        35.0004         18.5004
 -10742097.95747  -8307412.32045  22715708.2274                   22715707.4344
        44.0004         31.7504
 05 12 22 20  1  0.0000000  0 11G18G10G24G23G28G27G32G31G08G01G02
  13541011.73046  10539856.93442  25223021.8754                   25223031.9964
        37.5004         16.7504
   2138512.75848   1666946.69548  21436886.9534                   21436889.0704
        49.2504         48.0004
   8574195.41045   6676647.41844  24871268.3284                   24871272.4494
        35.2504         28.2504
   8893504.44146   6922753.59044  23583207.2194                   23583210.1914
        40.5004         25.5004
 -12065425.18047  -9380932.39145  22752811.8444                   22752814.2704
        43.5004         30.5004
   9330951.97746   7262359.36346  23437406.0234                   23437411.9184
        40.5004         36.0004
   -833573.22748   -637245.84048  20653927.2114                   20653928.7274
        52.0004         51.7504
  -2705941.89146  -2076557.85545  24590289.2664                   24590297.2774
        40.5004         31.2504
   2068791.02347   1617218.89146  22990049.7894                   22990055.5824
        42.2504         37.0004
   -252659.17645   -151709.08243  24873850.5394                   24873855.9494
        35.2504         19.0004
 -10829388.30147  -8375430.73045  22699097.6174                   22699096.6644
        45.0004         32.2504
 05 12 22 20  1 30.0000000  0 11G18G10G24G23G28G27G32G31G08G01G02
  13636642.93445  10614374.37942  25241219.2194                   25241231.2854
        35.5004         15.5004
   2146934.98447   1673509.43448  21438489.3914                   21438491.8244
        47.7504         48.2504
   8651540.16445   6736916.04744  24885986.2344                   24885991.1644
        35.7504         26.7504
   8948151.81646   6965335.83644  23593606.6094                   23593609.4884
        40.5004         25.0004
 -12170412.64147  -9462740.69144  22732833.2114                   22732835.9264
        44.5004         29.5004
   9402854.61746   7318387.24246  23451088.7274                   23451095.0354
        41.5004         36.7504
   -827955.68748   -632868.54348  20654996.0704                   20654998.0554
        51.0004         51.7504
  -2833262.00446  -2175768.08244  24566061.2274                   24566068.4224
        40.0004         29.2504
   2099016.68847   1640771.26246  22995801.3984                   22995806.7114
        42.2504         36.0004
   -370467.64846   -243507.84843  24851432.8984                   24851437.5044
        37.0004         19.0004
 -10916534.00447  -8443336.42645  22682514.5784                   22682513.2424
        44.5004         32.2504
 05 12 22 20  2  0.0000000  0 11G18G10G24G23G28G27G32G31G08G01G02
  13732258.492 5                  25259414.398
        33.750
   2155405.40247   1680109.71948  21440101.7424                   21440103.7704
        47.5004         48.0004
   8729121.42246   6797368.95344  24900749.4534                   24900754.4144
        37.5004         28.5004
   9002781.97746   7007904.68044  23604002.5554                   23604005.1134
        41.0004         26.0004
 -12275265.08647  -9544443.78145  22712880.7274                   22712882.9694
        43.5004         30.0004
   9474807.32046   7374454.13346  23464781.4614                   23464787.1454
        41.5004         37.2504
   -822066.99648   -628279.95348  20656116.8364                   20656118.3674
        49.5004         51.5004
  -2960756.10946  -2275113.88344  24541799.5164                   24541806.8364
        39.7504         27.7504
   2129533.20747   1664550.27746  23001609.1484                   23001614.2464
        42.5004         36.0004
   -488371.84046   -335381.14542  24828995.5634                   24829001.4144
        36.2504         17.2504
 -11003536.17247  -8511130.29345  22665958.6954                   22665957.2344
        44.5004         32.2504
 05 12 22 20  2 30.0000000  0 11G18G10G24G23G28G27G32G31G08G01G02
  13827851.35946  10677456.09853  25277607.2274                   25277613.8674
        37.5004         21.5004
   2163919.18448   1686743.81348  21441721.7734                   21441724.1024
        49.0004         48.0004
   8806931.11746   6857999.87144  24915555.8594                   24915561.4144
        37.5004         28.0004
   9057389.87546   7050456.19144  23614394.2194                   23614396.6094
        41.5004         24.5004
 -12379984.71147  -9626043.39845  22692952.7504                   22692955.4104
        43.5004         30.5004
   9546801.69547   7430553.48846  23478481.8834                   23478487.4264
        42.2504         37.7504
   -815913.84048   -623485.29348  20657287.7424                   20657289.5274
        50.7504         51.5004
  -3088426.73446  -2374597.21944  24517504.8364                   24517511.6804
        37.5004         24.2504
   2160333.01647   1688550.03946  23007470.3364                   23007475.0634
        42.5004         36.5004
   -606375.08246   -427331.69943  24806541.1804                   24806545.5354
        37.7504         19.0004
 -11090397.78547  -8578814.62945  22649428.9064                   22649427.6914
        45.0004         32.0004
 05 12 22 20  3  0.0000000  0 11G18G10G24G23G28G27G32G31G08G01G02
  13923427.57845  10751930.62142  25295794.0784                   25295803.8014
        35.0004         14.7504
   2172484.71548   1693418.21548  21443351.7114                   21443353.7584
        49.5004         48.0004
   8884974.54346   6918812.91444  24930406.3134                   24930412.4804
        37.5004         26.7504
   9111983.64846   7092996.68444  23624783.3284                   23624786.1094
        41.7504         24.7504
 -12484560.41447  -9707530.85244  22673052.8134                   22673055.2114
        44.5004         29.5004
   9618842.78547   7486689.23446  23492190.8444                   23492196.6294
        42.5004         37.7504
   -809489.68048   -618479.46548  20658510.1644                   20658511.8834
        51.7504         51.7504
  -3216263.01645  -2474209.68443  24493177.3594                   24493184.4884
        34.7504         22.0004
   2191421.90247   1712775.06346  23013386.0084                   23013391.4774
        42.5004         36.2504
   -724467.41846   -519351.61343  24784068.2974                   24784073.0744
        37.7504         18.2504
 -11177108.64847  -8646381.49645  22632928.7344                   22632927.0744
        44.0004         32.0004
 05 12 22 20  3 30.0000000  0 10G10G24G23G28G27G32G31G08G01G02
   2181101.14548   1700132.28948  21444991.5084                   21444993.4924
        50.0004         48.0004
   8963247.66446   6979804.93444  24945302.8444                   24945307.0984
        37.5004         25.5004
   9166562.08246   7135525.20744  23635169.3364                   23635171.8244
        41.5004         27.0004
 -12588990.44947  -9788904.80544  22653179.9144                   22653182.6214
        43.7504         29.7504
   9690926.18446   7542857.92646  23505907.7584                   23505913.7664
        41.5004         37.0004
   -802797.36748   -613264.68448  20659783.8134                   20659785.2074
        51.7504         51.7504
  -3344263.46945  -2573949.96543  24468818.3444                   24468827.0204
        31.7504         20.0004
   2222796.14847   1737222.43846  23019356.9384                   23019362.0354
        42.2504         36.0004
   -842648.06646   -611440.31642  24761579.3364                   24761584.1414
        39.0004         17.2504
 -11263667.89847  -8713830.22745  22616457.0474                   22616455.3444
        45.0004         32.0004
 05 12 22 20  4  0.0000000  0 10G10G24G23G28G27G32G31G08G01G02
   2189771.96548   1706888.75448  21446641.2894                   21446643.3954
        49.2504         48.2504
   9041750.63746   7040976.09044  24960240.4384                   24960245.8954
        37.0004         25.5004
   9221128.45347   7178044.34044  23645552.6804                   23645555.5784
        42.0004         26.5004
 -12693268.74247  -9870160.51645  22633336.6254                   22633338.9884
        44.0004         30.0004
   9763051.89546   7599059.60546  23519632.6334                   23519638.9454
        40.5004         37.0004
   -795835.33248   -607839.71948  20661108.7734                   20661110.1724
        52.5004         51.5004
  -3472422.18745  -2673813.59043  24444430.5314                   24444438.9304
        33.0004         21.2504
   2254456.51647   1761892.76246  23025380.9694                   23025386.5904
        42.5004         36.5004
   -960912.02046   -703593.98842  24739073.8984                   24739079.3714
        38.5004         16.2504
 -11350070.34447  -8781156.77345  22600015.1724                   22600014.0354
        45.0004         33.0004
 05 12 22 20  4 30.0000000  0 10G10G24G23G28G27G32G31G08G01G02
   2198513.42648   1713700.26248  21448304.8754                   21448307.0204
        49.5004         48.2504
   9120496.46546   7102336.49243  24975225.0704                   24975230.8524
        37.5004         22.5004
   9275698.71547   7220566.49644  23655937.6804                   23655940.0474
        42.0004         26.7504
 -12797376.30947  -9951283.18745  22613525.8754                   22613527.8204
        43.5004         30.0004
   9835232.69946   7655304.21146  23533368.9304                   23533374.9024
        40.5004         36.5004
   -788589.28548   -602193.45348  20662487.7194                   20662488.8594
        51.5004         51.7504
  -3600720.73046  -2773786.14844  24420016.8054                   24420024.2814
        37.0004         27.0004
   2286416.46547   1786796.52746  23031463.2344                   23031468.4184
        42.0004         36.0004
  -1079241.39146   -795798.59042  24716557.1254                   24716562.1844
        39.0004         16.7504
 -11436297.70347  -8848346.89545  22583606.7584                   22583604.8554
        45.5004         32.5004
 05 12 22 20  5  0.0000000  0  9G10G23G28G27G32G31G08G01G02
   2207334.84448   1720574.04348  21449983.5784                   21449985.6644
        49.0004         48.0004
   9330281.92247   7263098.75044  23666324.6564                   23666327.5124
        42.5004         27.5004
 -12901301.20347 -10032263.52745  22593748.9144                   22593751.4494
        43.7504         30.2504
   9907474.43446   7711596.29345  23547116.2424                   23547122.1214
        40.0004         35.0004
   -781051.83648   -596320.13348  20663922.1174                   20663923.2234
        51.5004         51.7504
  -3729147.02346  -2873858.29345  24395578.1804                   24395585.6644
        39.2504         30.0004
   2318682.56346   1811938.83646  23037603.6484                   23037609.1094
        41.5004         36.0004
  -1197625.16846   -888045.64842  24694030.1564                   24694034.7584
        39.7504         17.2504
 -11522339.41047  -8915392.33645  22567233.4454                   22567231.6684
        45.5004         32.5004
 05 12 22 20  5 30.0000000  0  9G10G23G28G27G32G31G08G01G02
   2216233.53548   1727508.06348  21451676.6804                   21451679.2734
        49.0004         48.0004
   9384875.04347   7305638.72744  23676713.0394                   23676716.5394
        42.0004         26.0004
 -13005043.64147 -10113101.69544  22574007.9844                   22574009.5704
        44.2504         29.2504
   9979770.78946   7767930.93445  23560873.7584                   23560879.7424
        39.5004         34.5004
   -773227.73848   -590223.44148  20665410.7584                   20665412.4454
        51.7504         51.5004
  -3857701.46946  -2974030.29345  24371115.7274                   24371122.0044
        41.0004         32.2504
   2351249.22346   1837315.35546  23043800.7194                   23043806.4574
        41.5004         36.0004
  -1316064.66046   -980336.00842  24671490.7734                   24671496.0634
        39.5004         16.7504
 -11608196.14847  -8982293.64545  22550895.1804                   22550893.7504
        44.2504         32.7504
 05 12 22 20  6  0.0000000  0  9G10G23G28G27G32G31G08G01G02
   2225223.10948   1734512.88348  21453387.6094                   21453390.2854
        49.5004         48.0004
   9439491.41847   7348196.82444  23687106.4304                   23687109.5474
        42.0004         26.7504
 -13108587.32447 -10193784.98845  22554304.0164                   22554305.7344
        43.7504         30.2504
  10052131.91446   7824316.04345  23574643.1884                   23574649.5784
        38.5004         33.7504
   -765105.32448   -583894.28148  20666956.2734                   20666957.9304
        51.5004         51.5004
  -3986368.32446  -3074289.87545  24346630.1644                   24346637.0044
        41.5004         33.2504
   2384127.23446   1862934.48046  23050056.8204                   23050062.6094
        41.5004         36.5004
  -1434544.60246  -1072657.96142  24648944.7344                   24648949.8244
        39.7504         17.2504
 -11693852.57047  -9049038.87145  22534595.4454                   22534594.3484
        45.5004         32.2504
 05 12 22 20  6 30.0000000  0  9G10G23G28G27G32G31G08G01G02
   2234308.86748   1741592.66448  21455116.3674                   21455118.6604
        49.7504         48.0004
   9494136.07447   7390776.94944  23697505.0394                   23697508.1804
        42.0004         25.0004
 -13211924.39847 -10274307.28544  22534639.1024                   22534641.5704
        43.5004         29.5004
  10124559.59446   7880753.02745  23588426.0314                   23588432.6884
        39.7504         34.2504
   -756681.27348   -577330.09848  20668559.3524                   20668560.6024
        51.5004         51.5004
  -4115139.78146  -3174630.97745  24322125.5634                   24322132.8094
        41.5004         34.2504
   2417319.09447   1888798.16845  23056373.3754                   23056379.3714
        42.0004         35.7504
  -1553058.13746  -1165006.05942  24626392.2664                   24626397.0314
        39.7504         17.2504
 -11779301.84447  -9115622.68445  22518335.2194                   22518333.5124
        45.5004         32.5004
 05 12 22 20  7  0.0000000  0  9G10G23G28G27G32G31G08G01G02
   2243485.96948   1748743.61348  21456862.8524                   21456865.3634
        50.0004         48.0004
   9548803.82847   7433375.07444  23707908.1724                   23707911.1094
        42.0004         25.2504
 -13315057.14147 -10354670.37144  22515013.8594                   22515016.1724
        43.5004         29.7504
  10197045.48046   7937235.36345  23602220.2974                   23602225.8914
        40.2504         34.7504
   -747962.50848   -570536.25448  20670218.5704                   20670219.9024
        50.5004         51.5004
  -4244017.80146  -3275055.09845  24297601.2504                   24297607.2974
        41.7504         33.5004
   2450817.03146   1914900.34446  23062747.7194                   23062753.4844
        41.5004         37.0004
  -1671608.58646  -1257382.89843  24603832.5554                   24603837.0354
        39.2504         19.5004
 -11864546.96147  -9182047.41045  22502112.9454                   22502112.2384
        45.2504         34.0004
 05 12 22 20  7 30.0000000  0  9G10G23G28G27G32G31G08G01G02
   2252747.31348   1755960.21948  21458625.3754                   21458627.4614
        48.7504         48.0004
   9603487.21946   7475985.34844  23718313.9144                   23718317.4414
        41.5004         25.5004
 -13417990.05947 -10434877.75445  22495426.4144                   22495428.5594
        44.0004         30.5004
  10269578.90246   7993754.73445  23616023.2114                   23616029.1884
        40.7504         35.5004
   -738958.14148   -563519.87148  20671931.8984                   20671933.5204
        51.5004         51.5004
  -4373007.78946  -3375566.46145  24273054.6254                   24273061.0904
        40.2504         30.5004
   2484611.03547   1941233.23446  23069178.7814                   23069184.7344
        42.0004         36.7504
  -1790201.25846  -1349792.64543  24581265.2504                   24581270.1764
        38.2504         18.2504
 -11949593.03947  -9248317.03945  22485929.5784                   22485927.9844
        45.5004         31.7504
 05 12 22 20  8  0.0000000  0  9G10G23G28G27G32G31G08G01G02
   2262086.13748   1763237.20347  21460402.6804                   21460404.8914
        49.7504         47.7504
   9658179.27746   7518602.41444  23728721.8364                   23728724.8914
        41.5004         26.0004
 -13520727.34047 -10514932.68045  22475876.1024                   22475878.4024
        43.5004         30.0004
  10342149.64846   8050303.19546  23629832.4924                   23629839.2544
        40.2504         36.7504
   -729676.94548   -556287.77748  20673698.1884                   20673699.5594
        51.2504         51.5004
  -4502113.87146  -3476168.28544  24248485.6884                   24248492.8444
        38.7504         29.5004
   2518691.51247   1967789.34446  23075664.1804                   23075670.3204
        42.2504         36.5004
  -1908841.39546  -1442239.39543  24558688.5784                   24558693.3284
        37.7504         19.0004
 -12034445.46947  -9314435.77745  22469782.5084                   22469781.2934
        46.0004         33.2504
 05 12 22 20  8 30.0000000  0  9G10G23G28G27G32G31G08G01G02
   2271501.48448   1770573.80947  21462193.8674                   21462196.2234
        49.7504         47.7504
   9712878.67646   7561225.20343  23739130.7114                   23739133.8054
        41.0004         23.0004
 -13623267.38747 -10594833.92245  22456362.8364                   22456365.5204
        43.7504         30.7504
  10414753.29346   8106877.28946  23643648.7584                   23643655.5704
        40.0004         36.7504
   -720121.90648   -548842.29348  20675516.4774                   20675517.9804
        51.5004         51.5004
  -4631334.45346  -3576859.32844  24223896.2424                   24223902.0634
        39.2504         28.0004
   2553054.57447   1994565.64846  23082203.6564                   23082209.3014
        42.2504         36.7504
  -2027528.27346  -1534722.47743  24536102.6484                   24536107.6764
        36.5004         18.5004
 -12119103.51647  -9380403.04345  22453672.2424                   22453671.3984
        44.5004         33.2504
 05 12 22 20  9  0.0000000  0  9G10G23G28G27G32G31G08G01G02
   2280991.10948   1777968.28147  21463999.8204                   21464002.3874
        49.5004         47.5004
   9767582.89546   7603851.73044  23749540.0944                   23749544.0204
        41.0004         24.0004
 -13725609.87947 -10674581.22345  22436888.2114                   22436890.2934
        43.5004         30.5004
  10487383.94946   8163472.42646  23657470.1954                   23657476.3754
        39.5004         36.7504
   -710297.32448   -541186.78548  20677385.8914                   20677387.9104
        51.0004         51.5004
  -4760669.30946  -3677639.44144  24199284.7194                   24199290.5634
        39.0004         27.7504
   2587695.10247   2021558.15646  23088795.7194                   23088801.4694
        42.5004         36.7504
  -2146262.60246  -1627242.59843  24513509.5004                   24513513.4344
        37.0004         18.5004
 -12203567.58247  -9446219.15645  22437599.7344                   22437598.4224
        45.7504         34.0004
 05 12 22 20  9 30.0000000  0  9G10G23G28G27G32G31G08G01G02
   2290551.71148   1785418.05947  21465819.3054                   21465821.9654
        49.2504         47.7504
   9822288.23846   7646479.16043  23759949.9534                   23759953.5514
        40.5004         22.0004
 -13827755.60547 -10754175.19945  22417449.7664                   22417452.2504
        43.7504         30.2504
  10560034.93846   8220083.38345  23671294.4774                   23671301.7704
        38.5004         35.7504
   -700208.59848   -533325.44548  20679305.8834                   20679307.4264
        51.2504         51.5004
  -4890119.41846  -3778509.37944  24174650.1174                   24174656.4884
        39.0004         27.0004
   2622606.75447   2048761.93446  23095438.8984                   23095444.8524
        42.2504         36.7504
  -2265046.12946  -1719801.02342  24490904.7114                   24490909.2274
        36.7504         17.2504
 -12287839.37147  -9511885.44945  22421563.1644                   22421561.8094
        45.5004         33.5004
 05 12 22 20 10  0.0000000  0  9G10G23G28G27G32G31G08G01G02
   2300183.25448   1792923.12147  21467652.3284                   21467654.6914
        48.0004         47.5004
   9876994.37546   7689107.17643  23770360.3364                   23770364.1414
        39.0004         21.7504
 -13929702.07447 -10833613.91845  22398050.1024                   22398052.4654
        44.5004         31.0004
  10632702.57446   8276707.31645  23685123.3364                   23685130.7504
        37.7504         35.5004
   -689857.80948   -525259.89548  20681275.3444                   20681276.8324
        51.5004         51.5004
  -5019682.48046  -3879467.33244  24149995.7734                   24150001.1884
        40.0004         28.5004
   2657786.55146   2076174.64845  23102133.1644                   23102139.1414
        41.0004         35.7504
  -2383877.06646  -1812396.39543  24468291.6024                   24468296.9494
        37.2504         19.2504
 -12371917.12147  -9577400.52345  22405563.3444                   22405562.1644
        45.7504         33.5004
 05 12 22 20 10 30.0000000  0  9G10G23G28G27G32G31G08G01G02
   2309887.65648   1800484.96547  21469498.5704                   21469501.0434
        49.5004         47.5004
   9931702.91046   7731737.09043  23780771.7974                   23780775.1134
        39.5004         21.5004
 -14031444.74647 -10912893.82445  22378689.1724                   22378691.4024
        45.2504         31.0004
  10705385.36746   8333343.06345  23698954.4844                   23698961.5904
        36.7504         35.0004
   -679245.08248   -516990.25048  20683295.1644                   20683296.7074
        50.7504         51.5004
  -5149354.24246  -3980509.96144  24125319.2504                   24125325.3524
        39.2504         29.0004
   2693233.50447   2103795.54746  23108878.8134                   23108884.7344
        42.0004         36.0004
  -2502751.92646  -1905026.00443  24445670.1484                   24445675.0004
        38.2504         19.7504
 -12455797.41447  -9642761.75845  22389601.5704                   22389600.3484
        46.0004         33.0004
 05 12 22 20 11  0.0000000  0  9G10G23G28G27G32G31G08G01G02
   2319661.26248   1808100.72747  21471359.0944                   21471361.4304
        48.5004         47.5004
   9986409.80946   7774365.69543  23791181.2194                   23791185.8204
        38.7504         20.0004
 -14132984.96147 -10992015.98045  22359366.3134                   22359368.5274
        45.2504         31.7504
  10778076.04746   8389984.92645  23712787.4694                   23712795.0124
        37.0004         35.0004
   -668376.28948   -508521.06248  20685363.2504                   20685364.8594
        51.2504         51.5004
  -5279135.76646  -4081638.12144  24100622.2194                   24100628.3874
        39.0004         29.2504
   2728940.85546   2131619.35546  23115673.8984                   23115680.2664
        41.7504         36.0004
  -2621672.77746  -1997691.51643  24423040.3524                   24423045.1414
        39.0004         22.2504
 -12539482.23047  -9707970.66845  22373676.8754                   22373675.5634
        45.5004         33.7504
 05 12 22 20 11 30.0000000  0  9G10G23G28G27G32G31G08G01G02
   2329505.34047   1815771.40647  21473232.1484                   21473234.3054
        47.5004         47.5004
  10041115.98846   7816993.78143  23801591.9224                   23801596.0044
        38.5004         20.0004
 -14234318.78947 -11070977.30145  22340083.7194                   22340085.5704
        45.2504         31.5004
  10850772.33646   8446631.17245  23726621.2504                   23726628.5004
        38.2504         34.7504
   -657252.13348   -499852.90248  20687479.9144                   20687481.5394
        51.2504         51.5004
  -5409023.41446  -4182848.96544  24075905.7344                   24075911.5314
        38.5004         29.2504
   2764906.96147   2159644.78545  23122518.0944                   23122524.0944
        42.0004         35.7504
  -2740636.62546  -2090390.51643  24400402.9614                   24400407.4064
        40.0004         21.7504
 -12622968.41447  -9773024.79745  22357790.0314                   22357788.8954
        45.5004         33.2504
 05 12 22 20 12  0.0000000  0  9G10G23G28G27G32G31G08G01G02
   2339423.41448   1823499.76247  21475119.3204                   21475121.6914
        48.2504         47.2504
  10095824.61346   7859623.75043  23812002.6884                   23812006.1564
        38.7504         20.2504
 -14335440.33247 -11149773.21945  22320840.9144                   22320842.7974
        45.0004         31.5004
  10923474.31346   8503281.85545  23740455.8834                   23740463.0434
        38.7504         34.7504
   -645871.30548   -490984.72748  20689646.0474                   20689647.3244
        50.7504         51.5004
  -5539011.13746  -4284137.77745  24051169.4304                   24051175.2854
        39.0004         30.0004
   2801132.26646   2187872.19145  23129412.0394                   23129417.6334
        41.0004         35.5004
  -2859638.41446  -2183119.03943  24377757.2034                   24377761.5124
        40.5004         22.0004
 -12706250.98847  -9837920.27345  22341942.2344                   22341940.6334
        46.5004         33.5004
 05 12 22 20 12 30.0000000  0  9G10G23G28G27G32G31G08G01G02
   2349416.62148   1831286.65647  21477021.1644                   21477023.6334
        48.5004         47.2504
  10150536.55146   7902256.31343  23822414.3444                   23822418.2894
        38.2504         19.7504
 -14436345.80147 -11228400.75845  22301638.4534                   22301641.0944
        45.0004         32.2504
  10996179.58246   8559935.10945  23754291.1334                   23754298.8284
        39.5004         35.2504
   -634234.69948   -481917.26248  20691860.0394                   20691861.7274
        51.5004         51.5004
  -5669095.13346  -4385501.63345  24026413.9844                   24026420.4144
        39.2504         30.2504
   2837614.94146   2216300.14845  23136354.1334                   23136360.4224
        40.5004         34.7504
  -2978675.11746  -2275874.79343  24355105.6804                   24355109.0044
        40.7504         22.5004
 -12789327.14147  -9902654.90645  22326133.2894                   22326131.5044
        45.7504         33.2504
 05 12 22 20 13  0.0000000  0  9G10G23G28G27G32G31G08G01G02
   2359483.00447   1839130.56647  21478936.5634                   21478939.2624
        47.0004         47.2504
  10205249.39846   7944889.58243  23832825.9774                   23832830.0514
        39.0004         20.0004
 -14537034.78147 -11306859.60245  22282478.1724                   22282480.1334
        44.7504         31.7504
  11068882.61746   8616586.62545  23768127.3594                   23768133.9964
        39.7504         35.5004
   -622346.41448   -472653.67248  20694122.5554                   20694124.1054
        51.0004         51.5004
  -5799275.25446  -4486940.40245  24001642.1804                   24001647.8914
        39.7504         30.7504
   2874349.94546   2244924.72345  23143344.5164                   23143350.5204
        40.7504         34.5004
  -3097747.25046  -2368658.16843  24332446.6174                   24332451.1644
        40.7504         22.7504
 -12872197.03947  -9967228.81245  22310363.6024                   22310361.7974
        45.7504         33.5004
 05 12 22 20 13 30.0000000  0  9G10G23G28G27G32G31G08G01G02
   2369624.22747   1847032.78947  21480866.5394                   21480869.3834
        47.7504         47.2504
  10259964.50846   7987524.57843  23843238.7894                   23843241.8094
        38.7504         20.0004
 -14637503.15647 -11385146.55145  22263360.0864                   22263361.6454
        45.0004         31.2504
  11141581.57046   8673234.98445  23781961.1254                   23781968.1994
        40.5004         35.0004
   -610206.95348   -463194.35948  20696432.4304                   20696434.0514
        51.0004         51.5004
  -5929547.21946  -4588450.75445  23976852.2814                   23976858.2074
        40.2504         31.2504
   2911335.87946   2273744.82445  23150382.1724                   23150388.8674
        39.5004         35.2504
  -3216851.37546  -2461466.49643  24309781.5084                   24309785.8054
        41.0004         22.0004
 -12954857.59847 -10031639.60545  22294633.7114                   22294632.0394
        45.7504         33.5004
 05 12 22 20 14  0.0000000  0  9G10G23G28G27G32G31G08G01G02
   2379839.89847   1854993.02747  21482810.4454                   21482813.0354
        47.2504         47.5004
  10314681.05146   8030160.70343  23853651.0084                   23853653.8324
        39.5004         20.2504
 -14737748.80147 -11463259.94145  22244283.5234                   22244285.2814
        44.7504         30.0004
  11214272.52347   8729877.12945  23795793.9224                   23795801.1564
        42.0004         34.5004
   -597818.86748   -453541.32048  20698789.8984                   20698791.9844
        51.0004         51.5004
  -6059908.88746  -4690031.02745  23952045.0314                   23952050.8204
        41.0004         31.5004
   2948569.22346   2302757.70745  23157468.4454                   23157474.1994
        41.2504         35.2504
  -3335986.23446  -2554298.73043  24287110.3834                   24287115.5514
        40.2504         21.2504
 -13037307.32847 -10095886.12145  22278943.7734                   22278942.2544
        45.5004         32.5004
 05 12 22 20 14 30.0000000  0  9G10G23G28G27G32G31G08G01G02
   2390124.68447   1863007.12147  21484767.7344                   21484770.0234
        47.0004         47.5004
  10369393.45346   8072793.59043  23864062.5084                   23864065.8834
        39.7504         20.0004
 -14837774.63347 -11541202.04345  22225248.9694                   22225251.3554
        45.0004         31.2504
  11286946.64546   8786506.14145  23809624.0704                   23809630.4184
        41.5004         33.0004
   -585189.57848   -443700.34448  20701193.3284                   20701194.8204
        49.5004         51.5004
  -6190363.48446  -4791683.70345  23927219.7424                   23927225.4964
        40.7504         31.2504
   2986041.64146   2331956.89145  23164598.7034                   23164604.8164
        41.0004         35.2504
  -3455155.50846  -2647157.82443  24264432.9844                   24264437.9924
        39.5004         19.7504
 -13119549.92647 -10159971.23445  22263293.5704                   22263291.7384
        45.5004         33.5004
 05 12 22 20 15  0.0000000  0  9G10G23G28G27G32G31G08G01G02
   2400486.34848   1871081.11347  21486739.4924                   21486741.9144
        48.0004         47.0004
  10424109.08246   8115429.05143  23874474.2734                   23874477.9224
        39.5004         20.2504
 -14937570.43047 -11618964.89845  22206258.6174                   22206260.8954
        45.0004         32.0004
  11359608.30146   8843125.45345  23823450.8364                   23823457.2774
        41.5004         33.5004
   -572313.44948   -433667.01248  20703643.7584                   20703645.2504
        52.0004         51.2504
  -6320900.59446  -4893400.67645  23902379.3594                   23902385.4384
        40.2504         31.2504
   3023757.84046   2361346.02745  23171776.2664                   23171782.0634
        40.5004         35.5004
  -3574349.65246  -2740036.23843  24241751.8594                   24241755.7384
        40.0004         19.7504
 -13201576.12947 -10223887.73045  22247684.6024                   22247682.7344
        45.7504         33.5004
 05 12 22 20 15 30.0000000  0  9G10G23G28G27G32G31G08G01G02
   2410922.77047   1879213.37147  21488725.3754                   21488727.8284
        47.0004         47.0004
  10478825.33646   8158064.98843  23884886.8984                   23884889.7464
        39.7504         20.0004
 -15037136.00447 -11696548.36345  22187311.2664                   22187313.5474
        45.5004         31.2504
  11432251.53946   8899730.39145  23837274.3364                   23837281.2974
        40.2504         32.5004
   -559194.89548   -423444.78548  20706139.9224                   20706141.4104
        51.7504         51.2504
  -6451519.89146  -4995181.69145  23877523.5234                   23877528.7154
        39.0004         30.5004
   3061712.42646   2390920.92245  23178998.9144                   23179004.7934
        40.5004         35.7504
  -3693569.22346  -2832934.48443  24219064.0084                   24219068.8914
        39.0004         20.7504
 -13283386.60947 -10287636.13345  22232116.2504                   22232114.5904
        45.0004         33.5004
 05 12 22 20 16  0.0000000  0  9G10G23G28G27G32G31G08G01G02
   2421434.92647   1887404.64847  21490725.7344                   21490728.1914
        47.0004         47.2504
  10533542.89146   8200701.92643  23895299.3204                   23895302.8094
        40.0004         20.5004
 -15136467.82847 -11773949.67645  22168409.2664                   22168411.5514
        44.7504         31.7504
  11504874.12946   8956319.25845  23851094.3284                   23851101.0904
        38.5004         33.0004
   -545835.00448   -413034.50848  20708682.2664                   20708684.2234
        49.5004         51.5004
  -6582217.79346  -5097023.95345  23852651.5234                   23852657.8404
        39.0004         30.7504
   3099903.33247   2420679.96545  23186265.7274                   23186272.7034
        42.0004         35.5004
  -3812811.44546  -2925850.40643  24196373.8284                   24196377.4844
        39.5004         20.2504
 -13364978.50447 -10351214.20345  22216590.0704                   22216588.2274
        45.7504         33.5004
 05 12 22 20 16 30.0000000  0  9G10G23G28G27G32G31G08G01G02
   2432025.73848   1895657.21147  21492741.1414                   21492743.4144
        48.0004         47.2504
  10588264.21546   8243341.81343  23905712.7194                   23905715.4574
        41.0004         21.2504
 -15235560.57847 -11851164.71945  22149552.5474                   22149554.5984
        45.5004         32.2504
  11577475.37146   9012891.47345  23864909.7894                   23864916.6914
        38.2504         32.5004
   -532233.05548   -402435.60948  20711270.7274                   20711272.4064
        51.0004         51.5004
  -6712988.89546  -5198923.28145  23827766.8984                   23827772.5864
        39.7504         30.7504
   3138330.34446   2450622.98445  23193578.5634                   23193584.6994
        40.7504         35.2504
  -3932071.66846  -3018780.30943  24173679.6724                   24173683.3634
        39.0004         20.0004
 -13446347.34847 -10414618.45745  22201106.4614                   22201104.4304
        46.0004         33.7504
 05 12 22 20 17  0.0000000  0  9G10G23G28G27G32G31G08G01G02
   2442689.72748   1903966.78547  21494770.6174                   21494772.8324
        48.5004         47.5004
  10642983.47346   8285980.05543  23916125.3914                   23916128.3984
        41.0004         22.0004
 -15334417.43047 -11928195.94545  22130740.7424                   22130742.8634
        45.5004         32.2504
  11650046.17246   9069439.92245  23878718.6644                   23878726.9614
        36.2504         31.0004
   -518396.79348   -391654.14148  20713903.6094                   20713905.0704
        51.5004         51.2504
  -6843836.44546  -5300882.18745  23802867.4534                   23802873.4184
        39.7504         30.2504
   3176984.86746   2480743.27346  23200934.3444                   23200940.8444
        40.5004         36.0004
  -4051353.75446  -3111727.27043  24150980.7424                   24150984.4614
        39.7504         21.0004
 -13527497.03147 -10477851.95345  22185663.7664                   22185661.8914
        46.5004         33.5004
 05 12 22 20 17 30.0000000  0  9G10G23G28G27G32G31G08G01G02
   2453428.98448   1912335.02747  21496814.1564                   21496815.9774
        48.0004         47.2504
  10697702.37546   8328618.04743  23926538.1414                   23926541.3874
        40.5004         22.7504
 -15433033.79747 -12005039.78145  22111974.4534                   22111976.8484
        45.5004         32.2504
  11722585.25845   9125963.66845  23892523.6414                   23892530.9264
        35.0004         31.5004
   -504326.17248   -380690.04748  20716581.0634                   20716582.5784
        50.0004         51.2504
  -6974755.85546  -5402897.09445  23777953.8284                   23777959.2664
        40.0004         30.0004
   3215865.80946   2511040.00046  23208333.8674                   23208340.1254
        41.2504         36.5004
  -4170653.86746  -3204688.28943  24128277.6564                   24128281.7624
        39.7504         20.5004
 -13608423.91047 -10540911.81645  22170263.8204                   22170262.2384
        45.5004         33.7504
 05 12 22 20 18  0.0000000  0  9G10G23G28G27G32G31G08G01G02
   2464247.04747   1920764.67647  21498872.4304                   21498875.0634
        47.7504         47.0004
  10752423.98446   8371258.10243  23936951.7504                   23936954.7424
        40.2504         21.5004
 -15531403.86347 -12081691.67645  22093255.3524                   22093257.1684
        45.7504         31.7504
  11795092.64845   9182462.72345  23906320.6804                   23906329.5124
        35.0004         32.2504
   -490019.99648   -369542.39148  20719303.4694                   20719305.2814
        50.5004         51.2504
  -7105740.87946  -5504963.14144  23753028.2734                   23753033.5474
        39.7504         29.5004
   3254973.51246   2541513.41846  23215775.5004                   23215781.9574
        40.7504         36.2504
  -4289966.83646  -3297659.31243  24105573.3914                   24105577.2704
        40.0004         21.0004
 -13689122.69947 -10603793.95745  22154907.2034                   22154905.7774
        46.0004         33.7504
 05 12 22 20 18 30.0000000  0  9G10G23G28G27G32G31G08G01G02
   2475145.19547   1929256.72347  21500946.6254                   21500949.1174
        47.7504         47.2504
  10807149.40246   8413901.17643  23947365.2584                   23947368.8714
        40.0004         22.0004
 -15629523.89147 -12158148.75845  22074583.5314                   22074585.4184
        45.5004         31.5004
  11867565.99646   9238935.21945  23920112.5784                   23920120.1484
        36.7504         33.5004
   -475479.03548   -358211.79748  20722070.6484                   20722072.4184
        51.0004         51.5004
  -7236787.69946  -5607077.31244  23728090.5864                   23728096.2114
        39.5004         29.7504
   3294306.14546   2572162.10945  23223260.5704                   23223266.9224
        40.5004         35.7504
  -4409289.46946  -3390637.86743  24082867.5234                   24082870.7624
        40.0004         22.0004
 -13769590.79347 -10666496.32845  22139595.0634                   22139593.1884
        45.5004         33.5004
 05 12 22 20 19  0.0000000  0  9G10G23G28G27G32G31G08G01G02
   2486121.12948   1937809.37947  21503035.4454                   21503037.5434
        48.0004         47.2504
  10861875.75846   8456545.02043  23957780.1094                   23957783.2934
        40.5004         22.0004
 -15727393.88747 -12234411.00445  22055959.5394                   22055961.1414
        46.0004         31.7504
  11939999.52746   9295376.72745  23933896.6174                   23933904.0354
        38.0004         35.7504
   -460707.91048   -346701.85548  20724881.6094                   20724883.2624
        51.0004         51.2504
  -7367896.31646  -5709239.64845  23703140.8444                   23703146.5824
        39.5004         31.5004
   3333858.14146   2602981.72345  23230787.5314                   23230793.6764
        41.0004         35.5004
  -4528622.48846  -3483624.49643  24060158.7584                   24060162.8014
        39.5004         22.5004
 -13849828.82447 -10729019.42645  22124326.0394                   22124324.2854
        45.7504         34.0004
 05 12 22 20 19 30.0000000  0  9G10G23G28G27G32G31G08G01G02
   2497175.73448   1946423.33247  21505138.5314                   21505141.3014
        48.0004         47.0004
  10916603.51646   8499189.91443  23968193.5164                   23968197.9024
        41.0004         22.5004
 -15825010.60547 -12310475.88745  22037383.8674                   22037385.7304
        45.7504         32.5004
  12012390.62146   9351785.16046  23947672.1644                   23947680.4574
        39.0004         36.2504
   -445707.91448   -335013.55948  20727736.0634                   20727737.7974
        50.5004         51.5004
  -7499063.46546  -5811447.59845  23678180.4924                   23678186.5044
        40.5004         31.7504
   3373627.26246   2633970.52045  23238355.0084                   23238361.4264
        40.0004         35.0004
  -4647963.16446  -3576617.12543  24037449.2504                   24037452.9384
        39.5004         22.0004
 -13929834.29347 -10791361.31645  22109101.6484                   22109099.7814
        45.5004         34.5004
 05 12 22 20 20  0.0000000  0  9G10G23G28G27G32G31G08G01G02
   2508312.39548   1955101.22747  21507258.0474                   21507260.5784
        48.2504         47.0004
  10971335.59446   8541838.14543  23978609.5554                   23978612.7584
        41.0004         22.5004
 -15922368.32047 -12386338.95745  22018856.8914                   22018858.8094
        46.2504         32.2504
  12084739.18446   9408160.45746  23961439.4774                   23961448.2704
        39.2504         37.0004
   -430477.89548   -323146.02748  20730633.9844                   20730635.8444
        51.0004         51.2504
  -7630282.98846  -5913696.36745  23653210.4064                   23653215.5984
        40.5004         33.5004
   3413613.63046   2665128.59845  23245964.5234                   23245970.7114
        39.7504         34.0004
  -4767306.44946  -3669611.81243  24014739.0234                   24014742.3554
        40.0004         22.2504
 -14009602.40247 -10853518.23845  22093921.7894                   22093920.2194
        45.7504         34.7504
 05 12 22 20 20 30.0000000  0  9G10G23G28G27G32G31G08G01G02
   2519526.19147   1963839.23447  21509391.9774                   21509394.4964
        47.5004         46.7504
  11026066.75846   8584485.65644  23989024.0164                   23989027.7274
        41.2504         24.5004
 -16019469.60247 -12462002.21145  22000379.1644                   22000380.9654
        45.7504         32.5004
  12157036.82846   9464496.07846  23975198.2894                   23975205.9144
        40.7504         37.0004
   -415024.96948   -311104.81248  20733574.6724                   20733576.5984
        50.0004         51.2504
  -7761557.45746  -6015987.96545  23628229.4534                   23628234.8094
        40.0004         33.5004
   3453809.03546   2696449.56645  23253613.8364                   23253619.7704
        40.0004         33.7504
  -4886655.53946  -3762611.00043  23992026.6884                   23992030.7074
        39.5004         22.0004
 -14089136.14847 -10915492.54745  22078787.1414                   22078785.8484
        46.2504         34.2504
 05 12 22 20 21  0.0000000  0  9G10G23G28G27G32G31G08G01G02
   2530821.14548   1972640.48447  21511541.1804                   21511544.1454
        48.7504         47.0004
  11080800.53146   8627135.21144  23999439.9384                   23999444.0784
        41.0004         24.2504
 -16116308.19947 -12537460.77345  21981951.5084                   21981952.8554
        45.7504         33.0004
  12229283.97346   9520792.36346  23988946.3594                   23988954.1884
        40.5004         36.5004
   -399347.44548   -298888.58648  20736558.2974                   20736559.4104
        51.5004         51.2504
  -7892880.18746  -6118317.17245  23603239.6484                   23603244.6914
        40.2504         32.7504
   3494214.36346   2727934.12145  23261302.6644                   23261308.7384
        39.7504         33.5004
  -5006004.60146  -3855610.15343  23969315.2504                   23969319.2504
        39.2504         22.0004
 -14168430.28147 -10977280.13745  22063698.1884                   22063696.5124
        45.0004         34.0004
 05 12 22 20 21 30.0000000  0  9G10G23G28G27G32G31G08G01G02
   2542197.44948   1981505.12147  21513706.4534                   21513708.7814
        48.0004         47.0004
  11135536.69946   8669786.64544  24009855.8284                   24009859.8674
        40.7504         24.5004
 -16212881.56247 -12612712.66845  21963573.9384                   21963575.5664
        45.7504         32.0004
  12301477.37946   9577046.75445  24002683.9774                   24002692.0664
        40.7504         35.5004
   -383447.32048   -286498.91848  20739583.9844                   20739585.7814
        50.5004         51.0004
  -8024248.58646  -6220681.96945  23578240.4534                   23578245.7774
        39.7504         31.7504
   3534826.53946   2759579.85545  23269031.0554                   23269036.7034
        40.2504         33.5004
  -5125351.67646  -3948607.77743  23946604.6804                   23946608.1414
        40.2504         21.5004
 -14247482.84847 -11038879.49645  22048655.3054                   22048653.2274
        46.5004         34.5004
 05 12 22 20 22  0.0000000  0  9G10G23G28G27G32G31G08G01G02
   2553658.52748   1990435.80547  21515887.2814                   21515889.6414
        49.0004         46.7504
  11190278.27746   8712442.27344  24020273.5394                   24020277.2894
        40.0004         24.2504
 -16309184.02347 -12687753.46545  21945248.5004                   21945249.5704
        46.0004         33.0004
  12373616.90246   9633259.16845  24016412.0474                   24016420.0084
        40.7504         33.7504
   -367323.33248   -273934.78948  20742652.1564                   20742653.7074
        50.7504         51.2504
  -8155656.80546  -6323077.80545  23553234.4774                   23553239.2384
        39.7504         32.2504
   3575645.69146   2791386.86345  23276798.3444                   23276804.6254
        40.5004         34.0004
  -5244691.66846  -4041599.86343  23923894.3674                   23923898.6174
        39.7504         22.2504
 -14326289.13347 -11100286.94945  22033658.3984                   22033656.5124
        46.0004         34.5004
 05 12 22 20 22 30.0000000  0  9G10G23G28G27G32G31G08G01G02
   2565203.43848   1999431.82447  21518084.2424                   21518086.0704
        48.5004         46.7504
  11245023.94546   8755101.10544  24030691.1884                   24030694.6804
        39.5004         24.2504
 -16405214.20747 -12762582.10245  21926973.9384                   21926975.8834
        46.2504         33.0004
  12445698.18446   9689426.20345  24030128.9224                   24030136.6564
        40.7504         33.2504
   -350978.77348   -261198.80948  20745762.1254                   20745763.8054
        51.5004         51.2504
  -8287103.25846  -6425503.44145  23528220.7344                   23528225.7934
        39.5004         33.0004
   3616667.66046   2823351.91445  23284603.9924                   23284611.1884
        41.2504         34.7504
  -5364023.59846  -4134585.69143  23901186.8834                   23901190.1604
        40.5004         22.0004
 -14404848.40647 -11161501.93445  22018708.6804                   22018707.7154
        46.5004         34.0004
 05 12 22 20 23  0.0000000  0  9G10G23G28G27G32G31G08G01G02
   2576832.27748   2008493.23847  21520297.1564                   21520299.3284
        49.5004         46.5004
  11299773.31646   8797762.82043  24041109.2194                   24041113.8874
        39.2504         22.7504
 -16500969.74247 -12837196.72745  21908752.1564                   21908753.9144
        46.0004         33.5004
  12517717.87946   9745545.23445  24043834.2504                   24043842.1914
        40.0004         32.5004
   -334415.73448   -248292.57048  20748914.2894                   20748916.0634
        51.2504         51.0004
  -8418585.21946  -6527956.74245  23503200.5394                   23503205.1994
        39.7504         33.5004
   3657889.23846   2855472.49645  23292449.3594                   23292455.4614
        41.5004         35.2504
  -5483345.66446  -4227563.80943  23878478.9844                   23878483.7234
        40.7504         21.0004
 -14483159.33247 -11222523.37945  22003807.0394                   22003804.8984
        46.5004         34.5004
 05 12 22 20 23 30.0000000  0  9G10G23G28G27G32G31G08G01G02
   2588544.22748   2017619.40247  21522525.7504                   21522528.2704
        48.5004         46.5004
  11354525.14146   8840426.43443  24051528.2814                   24051532.3444
        40.0004         22.7504
 -16596449.18747 -12911596.21145  21890583.0004                   21890584.3674
        46.5004         33.0004
  12589671.60246   9801612.87945  24057526.1414                   24057534.3914
        39.5004         30.5004
   -317637.19548   -235218.37548  20752107.1094                   20752108.8984
        51.2504         51.0004
  -8550100.85946  -6630436.28945  23478173.2814                   23478179.0554
        40.7504         33.5004
   3699306.41446   2887745.48845  23300330.9144                   23300337.3054
        41.2504         35.5004
  -5602656.90646  -4320533.53543  23855776.1804                   23855779.8524
        41.7504         22.5004
 -14561220.88747 -11283350.52745  21988952.2194                   21988950.3754
        46.2504         35.0004
 05 12 22 20 24  0.0000000  0  9G10G23G28G27G32G31G08G01G02
   2600339.43448   2026810.45347  21524770.3284                   21524772.8554
        48.5004         46.5004
  11409278.98446   8883091.62943  24061948.1884                   24061951.9654
        39.5004         22.0004
 -16691650.20747 -12985778.75045  21872467.2584                   21872468.6604
        46.2504         34.2504
  12661556.05946   9857626.53144  24071205.5864                   24071213.7894
        38.2504         29.7504
   -300645.47748   -221978.08248  20755340.3984                   20755342.0434
        51.5004         51.2504
  -8681647.80546  -6732940.23045  23453140.9144                   23453145.3164
        40.2504         32.2504
   3740915.89546   2920168.33245  23308249.0474                   23308255.2114
        40.7504         34.7504
  -5721955.41846  -4413493.30943  23833074.5864                   23833078.1294
        40.7504         22.5004
 -14639031.47347 -11343982.11345  21974144.9774                   21974143.5004
        46.5004         34.5004
 05 12 22 20 24 30.0000000  0  9G10G23G28G27G32G31G08G01G02
   2612219.06648   2036067.28947  21527030.9534                   21527033.3204
        48.5004         46.5004
  11464035.75046   8925759.08643  24072367.9694                   24072372.2814
        39.0004         22.2504
 -16786569.31647 -13059741.61745  21854404.2194                   21854406.2194
        47.0004         32.5004
  12733368.95746   9913584.40244  24084871.4224                   24084879.0554
        37.2504         29.0004
   -283441.51648   -208572.41848  20758614.3444                   20758616.0634
        51.5004         51.2504
  -8813222.21546  -6835465.57845  23428103.4454                   23428108.0704
        40.7504         32.5004
   3782715.73446   2952739.51245  23316203.1174                   23316209.1564
        40.5004         35.5004
  -5841238.14146  -4506440.78144  23810375.2584                   23810379.1214
        41.5004         24.2504
 -14716588.37947 -11404416.02045  21959386.9454                   21959385.0164
        47.0004         35.0004
 05 12 22 20 25  0.0000000  0  9G10G23G28G27G32G31G08G01G02
   2624185.69547   2045391.90647  21529308.2894                   21529310.3794
        47.5004         46.5004
  11518797.39546   8968430.33643  24082788.9384                   24082792.9804
        38.7504         22.5004
 -16881201.78547 -13133481.12945  21836396.0864                   21836397.6914
        46.5004         33.2504
  12805109.37546   9969485.80144  24098522.5944                   24098531.6334
        37.2504         28.7504
   -266025.10248   -195001.18748  20761928.5004                   20761930.0594
        51.7504         51.5004
  -8944819.12146  -6938008.44545  23403060.9614                   23403066.0164
        40.7504         32.7504
   3824704.97746   2985458.27345  23324193.7584                   23324199.7934
        39.7504         34.7504
  -5960500.73446  -4599372.57043  23787680.9844                   23787684.3484
        41.0004         22.7504
 -14793887.77047 -11464649.27745  21944677.0004                   21944675.2664
        45.0004         34.7504
 05 12 22 20 25 30.0000000  0  9G10G23G28G27G32G31G08G01G02
   2636235.17648   2054781.08647  21531601.3364                   21531603.3324
        48.0004         46.5004
  11573559.39146   9011101.87543  24093209.8134                   24093214.2074
        39.2504         22.5004
 -16975549.42247 -13206998.69945  21818442.7974                   21818444.2464
        46.5004         33.5004
  12876769.71146  10025324.78144  24112159.7814                   24112168.6644
        36.0004         29.5004
   -248402.64148   -181269.41048  20765282.0314                   20765283.8324
        51.5004         51.2504
  -9076439.85947  -7040569.88745  23378014.4384                   23378018.7464
        42.0004         32.7504
   3866876.27346   3018318.89145  23332218.4454                   23332225.2074
        39.2504         35.5004
  -6079745.70346  -4692290.62943  23764988.4844                   23764992.0314
        40.7504         22.0004
 -14870932.04747 -11524683.74245  21930015.8914                   21930014.2894
        46.7504         34.5004
 05 12 22 20 26  0.0000000  0  9G10G23G28G27G32G31G08G01G02
   2648366.62547   2064234.14147  21533909.9304                   21533912.5744
        47.7504         46.5004
  11628320.42646   9053772.63743  24103630.0864                   24103635.1294
        37.7504         21.2504
 -17069611.19547 -13280293.51245  21800543.2974                   21800544.8164
        46.5004         33.0004
  12948345.50846  10081097.86345  24125781.0084                   24125789.2854
        37.0004         31.2504
   -230577.27348   -167379.53948  20768673.8524                   20768675.6134
        51.5004         51.0004
  -9208082.89846  -7143148.70345  23352963.5474                   23352968.4184
        41.5004         33.5004
   3909225.44946   3051318.12145  23340277.3984                   23340284.1684
        39.0004         35.5004
  -6198971.96146  -4785194.07443  23742300.9614                   23742303.5944
        40.0004         22.5004
 -14947720.68447 -11584519.01245  21915403.9224                   21915401.9454
        46.5004         34.7504
 05 12 22 20 26 30.0000000  0  9G10G23G28G27G32G31G08G01G02
   2660584.02048   2073754.15647  21536234.8754                   21536237.2774
        48.2504         46.7504
  11683083.97346   9096445.36743  24114051.4694                   24114056.4384
        36.2504         20.0004
 -17163380.83647 -13353360.69145  21782699.0164                   21782700.9384
        46.5004         33.7504
  13019837.44146  10136805.66045  24139385.4614                   24139393.8984
        38.7504         33.0004
   -212547.31248   -153330.22748  20772104.9304                   20772106.9804
        52.0004         51.0004
  -9339741.77047  -7245739.84045  23327909.7114                   23327913.7734
        42.0004         33.0004
   3951753.08246   3084456.39146  23348369.9844                   23348377.4694
        39.0004         36.0004
  -6318173.77346  -4878078.45743  23719617.0784                   23719620.4614
        39.5004         21.7504
 -15024248.44147 -11644150.99245  21900841.0394                   21900838.9964
        45.5004         35.2504
 05 12 22 20 27  0.0000000  0  9G10G23G28G27G32G31G08G01G02
   2672890.98847   2083343.97747  21538576.5634                   21538579.0124
        47.7504         46.5004
  11737853.15246   9139122.53143  24124473.6334                   24124479.0944
        36.0004         19.5004
 -17256852.48847 -13426195.68045  21764911.8914                   21764914.1294
        46.7504         33.0004
  13091245.52746  10192448.08645  24152974.1954                   24152982.5554
        38.7504         33.7504
   -194311.36348   -139120.40648  20775575.1724                   20775577.1374
        51.7504         50.7504
  -9471410.25846  -7348338.46145  23302853.6724                   23302857.9224
        41.0004         33.0004
   3994459.52046   3117733.98845  23356496.7974                   23356503.7344
        38.7504         34.7504
  -6437345.68446  -4970939.55543  23696939.4384                   23696943.0594
        40.0004         22.7504
 -15100510.18447 -11703575.70345  21886329.0004                   21886327.1024
        46.0004         34.2504
 05 12 22 20 27 30.0000000  0  9G10G23G28G27G32G31G08G01G02
   2685292.49247   2093007.45747  21540936.8054                   21540938.9844
        47.5004         46.7504
  11792632.50845   9181807.57842  24134897.9924                   24134903.1804
        35.5004         17.7504
 -17350019.07047 -13498792.93745  21747183.4924                   21747184.7464
        46.0004         32.7504
  13162571.39846  10248026.45745  24166547.0704                   24166556.0124
        39.2504         34.5004
   -175866.82048   -124748.03948  20779085.1254                   20779086.7974
        51.5004         51.0004
  -9603080.77747  -7450938.67245  23277796.7974                   23277801.8674
        42.0004         32.0004
   4037346.34046   3151152.12545  23364658.4064                   23364665.0744
        39.0004         34.5004
  -6556480.89846  -5063772.06643  23674269.3834                   23674272.1254
        40.5004         22.0004
 -15176499.36747 -11762788.02045  21871868.4614                   21871866.2344
        45.7504         35.2504
 05 12 22 20 28  0.0000000  0  9G10G23G28G27G32G31G08G01G02
   2697784.18047   2102741.21547  21543313.8834                   21543316.5474
        47.2504         46.7504
  11847417.24645   9224496.82843  24145323.7194                   24145328.0394
        35.5004         18.2504
 -17442882.73047 -13571154.16445  21729511.6954                   21729513.0984
        46.5004         33.0004
  13233807.25446  10303534.66845  24180103.0084                   24180111.9064
        39.7504         35.5004
   -157220.25848   -110218.27048  20782633.1954                   20782635.0044
        51.2504         50.5004
  -9734755.15246  -7553541.87545  23252740.6804                   23252744.9344
        41.5004         33.5004
   4080405.83646   3184704.84045  23372851.9144                   23372859.2074
        38.2504         34.7504
  -6675581.89846  -5156577.93043  23651604.6724                   23651607.3634
        41.5004         22.5004
 -15252218.79347 -11821790.14145  21857459.3984                   21857457.7664
        46.7504         35.5004
 05 12 22 20 28 30.0000000  0  9G10G23G28G27G32G31G08G01G02
   2710370.82447   2112548.96147  21545708.9924                   21545711.6024
        47.7504         46.5004
  11902211.50046   9267193.49243  24155750.8524                   24155755.7304
        36.2504         19.2504
 -17535436.67247 -13643274.04745  21711899.0944                   21711900.7734
        45.5004         34.0004
  13304954.29346  10358973.68845  24193642.3674                   24193651.3364
        40.2504         35.7504
   -138369.23448    -95529.16848  20786220.6724                   20786222.4344
        51.2504         51.0004
  -9866426.05146  -7656142.38345  23227684.4614                   23227688.4494
        41.5004         33.0004
   4123639.50046   3218393.27345  23381079.3594                   23381086.5744
        39.0004         34.5004
  -6794642.18746  -5249352.07043  23628948.1334                   23628951.0004
        41.0004         22.2504
 -15327662.55947 -11880577.45345  21843103.0634                   21843101.0204
        46.0004         34.2504
 05 12 22 20 29  0.0000000  0  9G10G23G28G27G32G31G08G01G02
   2723046.83248   2122426.34447  21548121.1414                   21548123.5354
        48.0004         46.7504
  11957009.26246   9309892.90643  24166179.3204                   24166183.2704
        38.0004         19.5004
 -17627684.31247 -13715155.25845  21694344.8134                   21694346.5634
        45.7504         33.2504
  13376003.60546  10414336.54745  24207162.5234                   24207171.0314
        40.0004         34.7504
   -119321.68048    -80686.94948  20789845.4924                   20789847.0944
        51.7504         50.7504
  -9998096.43446  -7758742.46945  23202627.4144                   23202632.3014
        41.0004         33.0004
   4167038.18446   3252210.28145  23389337.5784                   23389345.4614
        39.5004         35.0004
  -6913665.39547  -5342097.31643  23606299.0234                   23606301.8754
        42.0004         22.7504
 -15402834.77747 -11939153.18045  21828797.8984                   21828796.3364
        46.0004         34.7504
 05 12 22 20 29 30.0000000  0  9G10G23G28G27G32G31G08G01G02
   2735815.85247   2132376.19947  21550551.3204                   21550553.4534
        47.2504         46.5004
  12011813.72346   9352597.55143  24176607.3594                   24176612.5204
        39.0004         19.7504
 -17719619.88747 -13786793.30145  21676849.8754                   21676851.7344
        46.0004         33.0004
  13446955.35546  10469623.37945  24220663.6804                   24220673.3444
        38.7504         33.5004
   -100076.09448    -65690.39848  20793507.8524                   20793509.6914
        51.2504         50.5004
 -10129760.35546  -7861337.53145  23177572.6174                   23177576.8794
        41.0004         33.0004
   4210602.30546   3286156.18445  23397628.2814                   23397635.1134
        39.0004         35.2504
  -7032646.09446  -5434809.43743  23583657.0944                   23583660.4924
        41.7504         22.7504
 -15477730.27047 -11997513.26245  21814545.9064                   21814544.3164
        46.0004         35.2504
 05 12 22 20 30  0.0000000  0  9G10G23G28G27G32G31G08G01G02
   2748675.03947   2142396.31647  21552998.1024                   21553000.5434
        47.7504         46.2504
  12066621.55946   9395304.78143  24187037.3524                   24187041.5164
        39.2504         19.0004
 -17811244.10947 -13858188.72745  21659414.9844                   21659416.1564
        46.0004         33.7504
  13517803.31646  10524829.32045  24234146.6644                   24234155.2274
        37.5004         33.2504
    -80637.70748    -50543.61748  20797206.3134                   20797208.4224
        50.7504         50.5004
 -10261417.98446  -7963927.66445  23152519.0704                   23152523.5784
        41.2504         33.5004
   4254325.66446   3320226.18445  23405948.6884                   23405955.7704
        40.7504         35.7504
  -7151585.25046  -5527489.20743  23561022.8984                   23561026.9804
        40.5004         22.5004
 -15552350.41447 -12055658.79345  21800346.1954                   21800344.6804
        45.0004         35.0004
 05 12 22 20 30 30.0000000  0  9G10G23G28G27G32G31G08G01G02
   2761622.74247   2152485.41447  21555462.0164                   21555464.6214
        47.7504         46.2504
  12121430.61346   9438013.00443  24197467.5394                   24197471.6804
        39.7504         19.5004
 -17902556.60547 -13929341.26245  21642038.3914                   21642039.6884
        46.0004         33.5004
  13588542.37946  10579950.42645  24247607.8204                   24247616.3054
        37.7504         32.2504
    -61010.44548    -35249.67248  20800941.7504                   20800943.4694
        51.0004         50.5004
 -10393068.26246  -8066512.07045  23127467.0394                   23127471.3364
        41.2504         34.0004
   4298203.15246   3354416.31645  23414298.3054                   23414305.1054
        41.5004         35.0004
  -7270482.68746  -5620136.45343  23538398.3984                   23538401.1174
        40.7504         22.7504
 -15626695.59847 -12113590.07445  21786199.0474                   21786196.8834
        45.7504         34.5004
 05 12 22 20 31  0.0000000  0  9G10G23G28G27G32G31G08G01G02
   2774670.08647   2162652.14147  21557944.4144                   21557947.0634
        47.5004         46.0004
  12176251.45346   9480730.39843  24207899.7344                   24207903.7424
        40.7504         19.5004
 -17993544.20347 -14000240.61745  21624724.3364                   21624725.0594
        46.5004         33.5004
  13659180.23846  10634992.65245  24261050.3834                   24261058.6334
        38.0004         31.0004
    -41185.48048    -19801.66048  20804713.9694                   20804715.9654
        50.7504         50.5004
 -10524697.41846  -8169080.02045  23102418.3984                   23102422.3634
        40.5004         34.2504
   4342242.52747   3388732.58645  23422678.9064                   23422685.6174
        42.0004         34.0004
  -7389325.38346  -5712741.02043  23515782.6414                   23515786.5664
        40.7504         22.7504
 -15700753.34047 -12171297.36745  21772106.1884                   21772104.3094
        45.2504         35.2504
 05 12 22 20 31 30.0000000  0  9G10G23G28G27G32G31G08G01G02
   4363236.92248   3400496.39847  21860239.0164                   21860241.1884
        48.5004         46.2504
  13806502.03946  10751055.41843  24518125.6724                   24518130.5824
        41.0004         19.0004
 -16508781.55147 -12843282.63745  21907264.8834                   21907266.3524
        46.2504         33.7504
  15305131.37546  11917551.71145  24574263.7584                   24574272.9344
        36.2504         30.2504
   1554254.46548   1223398.26648  21108316.6804                   21108318.3444
        51.5004         50.5004
  -9080878.65246  -7044026.20745  23377167.8674                   23377171.7194
        41.0004         35.0004
   5961859.12946   4650771.36345  23730882.0944                   23730887.9804
        41.7504         33.5004
  -5932687.27046  -4577698.21544  23792971.8754                   23792975.0204
        40.0004         24.5004
 -14199099.51647 -11001177.47345  22057861.2894                   22057859.4804
        46.0004         35.2504
 05 12 22 20 32  0.0000000  0  9G10G23G28G27G32G31G08G01G02
   4376485.87547   3410820.23047  21862760.1024                   21862762.5944
        47.5004         46.0004
  13861347.32046  10793791.87543  24528562.7814                   24528567.4104
        41.5004         19.7504
 -16599110.90247 -12913669.08245  21890075.8364                   21890076.9104
        47.0004         34.5004
  15375558.99646  11972430.13344  24587665.9924                   24587675.5044
        36.0004         28.7504
   1574470.21148   1239150.76648  21112163.3594                   21112165.2114
        51.2504         50.5004
  -9212456.34446  -7146554.05545  23352129.5944                   23352133.2344
        41.2504         34.7504
   6006214.32846   4685333.71145  23739322.3134                   23739328.5354
        41.5004         33.5004
  -6051412.62146  -4670211.35543  23770378.9614                   23770382.6564
        40.5004         22.7504
 -14272575.53147 -11058431.48045  22043878.9844                   22043877.2854
        45.2504         35.5004
 05 12 22 20 32 30.0000000  0  9G10G23G28G27G32G31G08G01G02
   4389841.53547   3421227.19547  21865301.8134                   21865304.2344
        47.5004         46.0004
  13916210.01646  10836541.91843  24539002.9304                   24539007.4144
        40.5004         20.5004
 -16689102.17247 -12983792.08245  21872950.6564                   21872952.4344
        47.0004         34.0004
  15445882.28146  12027227.25044  24601048.7344                   24601057.0904
        37.7504         28.0004
   1594883.85248   1255057.47348  21116047.8054                   21116050.3754
        51.0004         50.5004
  -9343998.06646  -7249053.87545  23327097.7734                   23327101.3634
        40.7504         34.7504
   6050728.37147   4720019.88745  23747793.3054                   23747799.8164
        42.5004         34.0004
  -6170070.56646  -4762671.98443  23747798.9144                   23747802.2814
        41.5004         23.5004
 -14345752.86347 -11115452.74645  22029953.9924                   22029951.8874
        45.5004         35.0004
 05 12 22 20 33  0.0000000  0  9G10G23G28G27G32G31G08G01G02
   4403300.23448   3431714.47747  21867862.7114                   21867865.4924
        48.0004         45.7504
  13971085.84046  10879302.16443  24549445.1644                   24549449.8594
        41.0004         20.0004
 -16778757.05947 -13053652.96545  21855889.7894                   21855891.3794
        47.2504         34.5004
  15516094.05146  12081937.48044  24614409.6804                   24614418.4414
        36.5004         27.0004
   1615489.32448   1271113.67648  21119969.0084                   21119970.7544
        50.0004         50.5004
  -9475505.07046  -7351526.64545  23302072.7894                   23302076.4494
        40.5004         35.7504
   6095393.91446   4754824.07445  23756292.9694                   23756299.0824
        41.5004         31.5004
  -6288662.91446  -4855081.48444  23725231.6644                   23725234.5784
        40.5004         25.0004
 -14418634.12547 -11172243.30145  22016085.0084                   22016083.3794
        46.0004         34.7504
 05 12 22 20 33 30.0000000  0  9G10G23G28G27G32G31G08G01G02
   4416866.07848   3442285.23047  21870444.1024                   21870446.6564
        48.2504         46.0004
  14025978.42646  10922075.48043  24559891.4454                   24559895.9964
        40.7504         20.2504
 -16868069.35247 -13123246.89845  21838894.3204                   21838895.5784
        47.0004         34.5004
  15586195.18446  12136561.48844  24627749.1724                   24627758.5984
        36.0004         26.7504
   1636288.50048   1287320.79748  21123927.1724                   21123928.6174
        50.7504         50.2504
  -9606970.67246  -7453967.14545  23277055.0394                   23277059.2464
        40.7504         34.0004
   6140211.93846   4789747.12545  23764821.6644                   23764828.2074
        41.5004         32.2504
  -6407183.65246  -4947435.21144  23702678.4614                   23702681.1094
        41.7504         25.7504
 -14491213.54347 -11228798.66045  22002273.8914                   22002271.9574
        45.7504         35.5004
 05 12 22 20 34  0.0000000  0  9G10G23G28G27G32G31G08G01G02
   4430533.19148   3452934.88747  21873045.0634                   21873047.6134
        48.0004         46.0004
  14080881.35546  10964856.85543  24570339.0634                   24570343.6454
        40.0004         18.5004
 -16957043.02047 -13192576.97345  21821963.4534                   21821964.7034
        47.0004         34.5004
  15656176.37946  12191092.02044  24641066.2664                   24641075.0354
        36.5004         26.5004
   1657273.19148   1303672.48448  21127919.9844                   21127921.8014
        51.0004         50.2504
  -9738398.32046  -7556378.09445  23252044.6884                   23252048.9384
        40.7504         35.2504
   6185172.92646   4824781.52045  23773377.4534                   23773383.5004
        40.7504         32.5004
  -6525636.73046  -5039736.22744  23680137.6334                   23680139.9804
        41.5004         25.7504
 -14563495.75847 -11285122.44546  21988518.5704                   21988516.8794
        46.2504         36.2504
 05 12 22 20 34 30.0000000  0  9G10G23G28G27G32G31G08G01G02
   4444305.27748   3463666.34847  21875665.6414                   21875668.4104
        48.2504         45.7504
  14135797.78946  11007648.69143  24580789.1024                   24580794.3164
        39.7504         19.5004
 -17045672.41847 -13261638.78945  21805097.9064                   21805098.9184
        47.5004         35.0004
  15726037.93846  12245529.34844  24654361.0634                   24654370.3954
        37.5004         28.5004
   1678444.78148   1320169.79748  21131948.9224                   21131950.8834
        51.0004         50.2504
  -9869781.78146  -7658754.61745  23227043.6484                   23227047.3364
        41.0004         35.5004
   6230277.25046   4859927.59045  23781960.2344                   23781966.8444
        39.7504         31.5004
  -6644016.59046  -5131980.20344  23657609.8524                   23657612.7624
        41.5004         25.5004
 -14635475.55547 -11341210.57845  21974821.6414                   21974819.6214
        46.2504         35.5004
 05 12 22 20 35  0.0000000  0  9G10G23G28G27G32G31G08G01G02
   4458183.09448   3474480.19947  21878306.7734                   21878309.2894
        48.0004         46.0004
  14190727.98046  11050451.32443  24591242.5704                   24591247.3914
        39.0004         19.2504
 -17133954.81247 -13330430.20745  21788298.2734                   21788299.2034
        47.0004         34.5004
  15795777.21146  12299871.40644  24667632.4844                   24667641.6804
        39.0004         28.0004
   1699801.76648   1336811.59448  21136013.0314                   21136014.4304
        51.0004         50.2504
 -10001117.46947  -7761093.90646  23202051.0944                   23202054.9774
        42.0004         36.0004
   6275522.22746   4895183.27045  23790570.2344                   23790577.3984
        39.5004         31.7504
  -6762320.58646  -5224165.02344  23635097.2814                   23635100.4184
        41.7504         25.2504
 -14707150.84847 -11397061.43045  21961182.1724                   21961180.1374
        46.0004         35.7504
 05 12 22 20 35 30.0000000  0  9G10G23G28G27G32G31G08G01G02
   4472165.69948   3485375.71147  21880967.3984                   21880970.1804
        49.0004         46.0004
  14245670.57046  11093263.57443  24601697.1954                   24601703.5084
        37.7504         19.0004
 -17221889.17247 -13398950.43045  21771564.7274                   21771565.7854
        46.0004         34.5004
  15865390.00846  12354114.88745  24680879.2974                   24680888.9264
        39.0004         31.5004
   1721340.89148   1353595.30948  21140112.1884                   21140113.6024
        50.5004         50.2504
 -10132403.57446  -7863394.54746  23177068.2814                   23177071.9024
        41.5004         36.0004
   6320903.53146   4930545.18845  23799205.9384                   23799213.7974
        37.5004         30.5004
  -6880547.64546  -5316289.90243  23612599.5394                   23612602.8054
        41.5004         23.7504
 -14778521.22747 -11452674.67645  21947600.8914                   21947598.9924
        46.5004         35.2504
 05 12 22 20 36  0.0000000  0  9G10G23G28G27G32G31G08G01G02
   4486255.02048   3496354.37147  21883648.9144                   21883651.2704
        48.7504         46.0004
  14300626.77346  11136086.45343  24612155.4304                   24612160.9774
        38.0004         18.2504
 -17309471.72747 -13467196.51245  21754898.3284                   21754899.4414
        47.0004         34.2504
  15934874.77746  12408258.59045  24694102.1484                   24694111.7034
        39.2504         31.0004
   1743061.71548   1370520.60548  21144245.3914                   21144247.0204
        51.0004         50.0004
 -10263636.02347  -7965653.39846  23152095.0234                   23152099.2154
        42.5004         36.5004
   6366419.53946   4966012.03945  23807867.1724                   23807875.5634
        36.7504         30.7504
  -6998694.04746  -5408351.91844  23590117.1414                   23590119.8444
        41.0004         24.2504
 -14849583.88747 -11508048.14545  21934077.7274                   21934076.1054
        46.5004         35.5004
 05 12 22 20 36 30.0000000  0  9G10G23G28G27G32G31G08G01G02
   4500451.00848   3507416.15247  21886350.1954                   21886352.8094
        48.7504         46.0004
  14355596.02345  11178919.50043  24622616.0784                   24622620.9494
        35.5004         18.2504
 -17396700.59047 -13535167.00045  21738299.4224                   21738300.0514
        47.0004         34.7504
  16004228.11346  12462299.88345  24707299.7194                   24707308.9494
        39.5004         31.5004
   1764961.92648   1387585.68448  21148412.7894                   21148414.6804
        49.7504         50.2504
 -10394812.02747  -8067868.25846  23127133.3204                   23127136.7274
        42.2504         37.0004
   6412066.83646   5001581.19945  23816554.1804                   23816561.8914
        36.5004         30.2504
  -7116757.87546  -5500349.63344  23567649.8524                   23567653.1844
        41.0004         24.7504
 -14920337.03547 -11563180.44946  21920614.0314                   21920612.0314
        46.0004         36.0004
 05 12 22 20 37  0.0000000  0  9G10G23G28G27G32G31G08G01G02
   4514756.12948   3518562.97747  21889072.2664                   21889075.0944
        48.5004         46.0004
  14410580.33646  11221764.27043  24633079.3054                   24633083.7704
        38.2504         19.2504
 -17483571.35247 -13602858.44145  21721768.1724                   21721768.9924
        46.2504         34.2504
  16073449.30946  12516238.20745  24720472.3364                   24720482.1174
        40.0004         32.5004
   1787041.73048   1404790.70748  21152614.5554                   21152616.3204
        50.5004         50.0004
 -10525926.58247  -8170035.24646  23102182.3674                   23102186.5394
        42.0004         36.0004
   6457844.45346   5037251.89545  23825264.9384                   23825273.5744
        36.0004         30.2504
  -7234734.68746  -5592279.51644  23545199.4844                   23545202.8014
        41.0004         24.0004
 -14990777.23447 -11618068.89846  21907209.5864                   21907207.6644
        46.2504         36.0004
 05 12 22 20 37 30.0000000  0  9G10G23G28G27G32G31G08G01G02
   4529171.50048   3529795.70747  21891815.8054                   21891818.0704
        48.5004         46.0004
  14465580.10546  11264621.09443  24643545.1414                   24643550.6054
        38.2504         19.2504
 -17570081.04347 -13670268.53945  21705305.7114                   21705306.9774
        47.2504         34.5004
  16142536.00446  12570071.73845  24733619.2814                   24733628.9454
        40.0004         33.2504
   1809299.92248   1422134.73448  21156850.0314                   21156851.8634
        50.2504         50.0004
 -10656975.98447  -8272151.45746  23077244.2114                   23077248.1174
        42.2504         36.5004
   6503750.02046   5073022.25045  23834000.5164                   23834008.9104
        36.2504         30.0004
  -7352621.43746  -5684139.23044  23522766.1414                   23522768.9494
        41.0004         25.0004
 -15060902.25447 -11672711.74245  21893865.1334                   21893863.5164
        46.0004         35.2504
 05 12 22 20 38  0.0000000  0  9G10G23G28G27G32G31G08G01G02
   4543695.71948   3541113.27047  21894579.5704                   21894582.0044
        48.7504         45.5004
  14520593.48446  11307488.48843  24654014.5784                   24654019.7504
        36.7504         19.2504
 -17656229.23847 -13737396.94945  21688912.6334                   21688913.5704
        46.7504         34.7504
  16211483.44146  12623796.73445  24746739.7734                   24746749.5864
        39.5004         33.0004
   1831732.79748   1439614.88748  21161118.7424                   21161120.3554
        51.2504         50.0004
 -10787958.81246  -8374215.80146  23052319.6564                   23052322.3164
        41.5004         36.7504
   6549778.73846   5108888.63345  23842760.1334                   23842767.8834
        36.5004         31.5004
  -7470417.69946  -5775928.41044  23500350.6954                   23500353.5704
        41.2504         26.7504
 -15130712.38347 -11727109.23046  21880580.8284                   21880578.7894
        46.5004         36.0004
 05 12 22 20 38 30.0000000  0  9G10G23G28G27G32G31G08G01G02
   4558332.32848   3552518.37547  21897364.6334                   21897367.2814
        48.7504         45.5004
  14575623.49645  11350368.87143  24664487.0004                   24664491.7154
        35.7504         19.7504
 -17742010.48847 -13804239.43045  21672588.3984                   21672589.6134
        47.0004         35.2504
  16280291.95346  12677413.45345  24759833.3134                   24759843.8484
        39.0004         33.2504
   1854341.57048   1457232.08248  21165421.3754                   21165423.0904
        50.7504         50.0004
 -10918869.02346  -8476223.56646  23027407.9774                   23027411.2774
        41.5004         36.0004
   6595930.63346   5144850.96945  23851543.0164                   23851550.3204
        38.7504         32.5004
  -7588117.85547  -5867642.74644  23477953.1334                   23477955.8284
        42.2504         26.0004
 -15200202.04747 -11781257.00445  21867357.5314                   21867355.3164
        45.7504         35.2504
 05 12 22 20 39  0.0000000  0  9G10G23G28G27G32G31G08G01G02
   4573081.98848   3564011.58247  21900171.8594                   21900174.2304
        48.7504         45.7504
  14630670.26646  11393262.27043  24674961.6724                   24674966.6884
        36.2504         20.5004
 -17827422.30947 -13870794.04745  21656335.5234                   21656336.5944
        46.0004         35.0004
  16348958.82446  12730919.80945  24772901.1884                   24772910.9804
        38.7504         33.5004
   1877124.66048   1474985.12548  21169756.6024                   21169758.3404
        50.0004         50.0004
 -11049703.37547  -8578172.22746  23002510.5004                   23002513.5354
        42.5004         36.5004
   6642202.89846   5180907.11345  23860348.2974                   23860356.2304
        39.2504         33.0004
  -7705719.33647  -5959280.17244  23455573.6174                   23455576.6724
        42.2504         25.2504
 -15269369.90647 -11835154.01645  21854194.8834                   21854193.3554
        46.5004         35.0004
 05 12 22 20 39 30.0000000  0  9G10G23G28G27G32G31G08G01G02
   4587942.54348   3575591.20747  21902999.6644                   21903001.9064
        49.0004         45.5004
  14685731.03145  11436166.61343  24685438.5234                   24685444.5824
        35.5004         20.0004
 -17912465.02747 -13937061.05545  21640152.0944                   21640152.8164
        46.0004         35.0004
  16417478.67246  12784311.62545  24785940.6254                   24785950.3244
        37.7504         33.2504
   1900077.63348   1492870.54748  21174124.4924                   21174126.2974
        50.7504         50.0004
 -11180461.38747  -8680061.39546  22977628.1414                   22977631.0164
        42.0004         36.0004
   6688590.03146   5217052.75845  23869175.7034                   23869183.6254
        41.0004         34.0004
  -7823222.32446  -6050840.84444  23433213.8054                   23433216.5904
        41.5004         27.0004
 -15338216.51247 -11888800.69945  21841093.9454                   21841092.0824
        46.7504         35.7504
 05 12 22 20 40  0.0000000  0  9G10G23G28G27G32G31G08G01G02
   4602918.28548   3587260.57847  21905849.3364                   21905851.8094
        48.5004         45.5004
  14740809.58245  11479084.81643  24695919.6644                   24695925.4924
        34.7504         19.0004
 -17997132.56647 -14003035.69945  21624040.8524                   21624041.5664
        46.0004         34.7504
  16485852.37946  12837589.55545  24798951.3204                   24798961.5084
        37.2504         32.0004
   1923202.44948   1510889.87548  21178525.0004                   21178527.0594
        50.5004         50.0004
 -11311136.17647  -8781885.73446  22952761.1644                   22952764.3834
        43.0004         36.2504
   6735092.78946   5253288.53145  23878025.1094                   23878033.0784
        39.7504         34.2504
  -7940620.60247  -6142319.91844  23410873.1884                   23410876.5594
        42.2504         24.7504
 -15406736.74247 -11942193.07045  21828054.7114                   21828053.5164
        46.5004         35.5004
 05 12 22 20 40 30.0000000  0  9G10G23G28G27G32G31G08G01G02
   4618002.07848   3599014.15247  21908719.9454                   21908721.9844
        48.5004         45.5004
  14795898.09845  11522010.78543  24706403.4384                   24706409.2774
        33.7504         18.5004
 -18081430.30947 -14068722.19545  21607998.9224                   21608000.1954
        47.0004         34.7504
  16554069.60945  12890745.54345  24811932.2584                   24811943.2384
        35.7504         30.2504
   1946489.63348   1529035.71948  21182956.4694                   21182958.1454
        50.5004         50.0004
 -11441732.31247  -8883648.77346  22927909.5314                   22927912.5704
        43.5004         36.0004
   6781700.59046   5289606.15645  23886893.8914                   23886901.9304
        41.7504         33.5004
  -8057919.37146  -6233721.44544  23388552.0864                   23388554.7934
        41.7504         26.5004
 -15474936.33647 -11995335.58645  21815076.9534                   21815075.3054
        47.0004         35.7504
 05 12 22 20 41  0.0000000  0  9G10G23G28G27G32G31G08G01G02
   4633198.04348   3610855.12547  21911611.3284                   21911613.7424
        48.5004         45.2504
  14851000.19145  11564947.35243  24716889.4144                   24716894.5164
        33.0004         18.2504
 -18165352.33247 -14134115.93045  21592029.1564                   21592030.3554
        46.2504         35.0004
  16622131.14146  12943780.21545  24824885.1564                   24824895.0044
        36.0004         30.5004
   1969941.07848   1547309.56648  21187419.2194                   21187421.1214
        51.0004         50.0004
 -11572242.97347  -8985345.20746  22903073.8834                   22903077.2234
        42.7504         36.7504
   6828414.07846   5326006.14545  23895783.8364                   23895790.9844
        40.7504         33.5004
  -8175112.48447  -6325040.64844  23366251.2504                   23366253.8714
        42.0004         26.2504
 -15542810.27347 -12048224.34045  21802160.9384                   21802159.1764
        47.0004         35.7504
 05 12 22 20 41 30.0000000  0  9G10G23G28G27G32G31G08G01G02
   4648513.04348   3622788.86347  21914525.9224                   21914528.1604
        49.0004         45.2504
  14906122.07045  11607899.31643  24727377.8524                   24727384.0044
        33.0004         18.2504
 -18248890.08247 -14199210.21545  21576132.1174                   21576133.5514
        47.0004         35.0004
  16690040.52346  12996696.35244  24837807.4694                   24837818.2504
        36.2504         29.7504
   1993561.27748   1565714.89848  21191913.9844                   21191915.5354
        51.0004         49.7504
 -11702658.54347  -9086967.55546  22878256.7194                   22878259.5434
        43.0004         36.5004
   6875236.53146   5362491.00845  23904693.7814                   23904701.2194
        40.2504         33.0004
  -8292191.17646  -6416270.68444  23343971.9064                   23343974.4494
        41.2504         26.7504
 -15610350.24647 -12100852.87945  21789308.6724                   21789306.6174
        46.7504         35.0004
 05 12 22 20 42  0.0000000  0  9G10G23G28G27G32G31G08G01G02
   4663942.13348   3634811.49647  21917461.9224                   21917464.5434
        48.0004         45.2504
  14961258.43045  11650862.56643  24737871.2974                   24737876.7704
        33.2504         19.0004
 -18332046.63347 -14264007.46945  21560308.1024                   21560309.2424
        47.0004         35.5004
  16757789.65246  13049487.58645  24850699.8834                   24850710.4964
        37.2504         30.7504
   2017343.11748   1584246.19148  21196439.2734                   21196441.0514
        51.2504         50.0004
 -11832981.21547  -9188517.52046  22853457.6414                   22853460.3674
        43.0004         37.2504
   6922159.76646   5399054.43445  23913623.1174                   23913630.6134
        40.7504         32.5004
  -8409158.35246  -6507413.82044  23321713.6024                   23321716.4224
        41.2504         24.5004
 -15677559.86747 -12153223.98045  21776518.6174                   21776517.2384
        46.7504         35.2504
 05 12 22 20 42 30.0000000  0  9G10G23G28G27G32G31G08G01G02
   4679487.67248   3646924.86747  21920420.3134                   21920422.7034
        48.2504         45.2504
  15016410.78145  11693838.25043  24748366.3834                   24748371.8204
        34.2504         18.2504
 -18414817.98047 -14328504.55945  21544557.3134                   21544558.7384
        47.5004         35.2504
  16825377.55946  13102153.21545  24863561.5784                   24863572.7304
        36.5004         30.5004
   2041286.60548   1602903.44548  21200995.6804                   21200997.6214
        51.2504         49.7504
 -11963206.39147  -9289991.50446  22828676.1334                   22828678.7344
        43.5004         37.0004
   6969182.59046   5435695.48045  23922571.2114                   23922579.1024
        40.0004         30.5004
  -8526009.72346  -6598466.72744  23299476.9144                   23299480.0634
        41.7504         25.5004
 -15744435.77047 -12205335.05545  21763793.0864                   21763791.1994
        47.5004         35.5004
 05 12 22 20 43  0.0000000  0  9G10G23G28G27G32G31G08G01G02
   4695146.94947   3659126.85247  21923399.8054                   21923402.3484
        47.7504         45.0004
  15071575.90245  11736823.87943  24758863.2974                   24758869.8524
        34.5004         19.5004
 -18497205.14847 -14392702.29345  21528879.5394                   21528880.7774
        46.5004         34.7504
  16892798.26646  13154688.55944  24876392.3834                   24876402.4654
        37.7504         29.2504
   2065386.77748   1621682.78948  21205581.6954                   21205583.4534
        50.7504         49.7504
 -12093334.17247  -9391389.60246  22803913.0164                   22803915.9574
        43.0004         37.2504
   7016298.75046   5472409.23045  23931537.4614                   23931544.9734
        39.0004         31.0004
  -8642745.95746  -6689429.91844  23277262.7034                   23277265.7814
        41.5004         26.5004
 -15810979.65247 -12257187.41845  21751130.2114                   21751128.2154
        47.5004         35.7504
 05 12 22 20 43 30.0000000  0  9G10G23G28G27G32G31G08G01G02
   4710922.44148   3671419.39547  21926401.7894                   21926404.7274
        48.0004         45.2504
  15126755.96945  11779821.18043  24769365.2274                   24769370.5784
        34.7504         19.2504
 -18579203.87547 -14456597.34445  21513275.1724                   21513276.5474
        46.5004         35.2504
  16960051.08646  13207093.07044  24889189.5944                   24889200.3714
        36.5004         28.0004
   2089643.93048   1640584.46548  21210197.6724                   21210199.6954
        51.0004         49.5004
 -12223359.20347  -9492707.63746  22779170.3444                   22779173.1454
        43.7504         36.5004
   7063507.39546   5509195.04745  23940521.3984                   23940528.6414
        39.5004         30.0004
  -8759362.51647  -6780299.84444  23255071.6644                   23255074.6134
        42.5004         27.5004
 -15877187.60547 -12308778.01646  21738531.4064                   21738529.1414
        47.0004         36.0004
 05 12 22 20 44  0.0000000  0  9G10G23G28G27G32G31G08G01G02
   4726816.81348   3683804.60247  21929426.5634                   21929429.2664
        48.7504         45.0004
  15181952.55146  11822831.31643  24779868.2814                   24779873.4964
        36.0004         21.0004
 -18660809.98847 -14520186.45745  21497746.4534                   21497747.7074
        46.0004         35.5004
  17027135.28946  13259366.16844  24901955.0704                   24901966.5204
        36.0004         27.5004
   2114058.26248   1659608.62148  21214843.6564                   21214845.6024
        51.0004         49.5004
 -12353276.35547  -9593941.61346  22754447.9224                   22754450.0084
        44.2504         37.2504
   7110807.58646   5546052.18445  23949521.8364                   23949529.9304
        39.0004         30.5004
  -8875854.96147  -6871073.07444  23232903.5084                   23232906.3324
        42.0004         25.0004
 -15943056.00448 -12360104.02046  21725997.0234                   21725994.4804
        48.0004         36.0004
 05 12 22 20 44 30.0000000  0  9G10G23G28G27G32G31G08G01G02
   4742830.25448   3696282.55947  21932473.9224                   21932476.5394
        48.2504         45.0004
  15237165.60246  11865854.29343  24790375.4384                   24790380.3484
        37.0004         20.7504
 -18742021.51647 -14583468.11345  21482291.9534                   21482293.1884
        45.5004         35.7504
  17094047.96146  13311505.62944  24914688.9064                   24914699.7934
        36.5004         27.2504
   2138627.79348   1678753.69948  21219519.1254                   21219520.8714
        51.2504         49.5004
 -12483082.78947  -9695089.32046  22729746.0474                   22729748.9924
        44.2504         37.2504
   7158196.09846   5582978.14544  23958540.1644                   23958547.7154
        37.7504         28.5004
  -8992220.95347  -6961747.77044  23210759.8364                   23210762.6604
        42.0004         26.0004
 -16008583.53547 -12411164.41446  21713527.5314                   21713526.0394
        47.7504         36.5004
 05 12 22 20 45  0.0000000  0  9G10G23G28G27G32G31G08G01G02
   4758969.10248   3708858.24247  21935545.0004                   21935547.8914
        48.5004         44.7504
  15292400.75446  11908894.48043  24800886.0084                   24800891.2034
        37.5004         21.2504
 -18822830.46147 -14646436.05945  21466914.8284                   21466915.8054
        46.0004         35.0004
  17160792.19546  13363513.83244  24927390.4844                   24927401.2384
        36.5004         28.0004
   2163356.58648   1698022.88348  21224224.7734                   21224226.6484
        51.2504         49.5004
 -12612769.39147  -9796143.65646  22705067.2504                   22705069.9304
        44.5004         37.0004
   7205675.78546   5619975.15644  23967574.8524                   23967582.8634
        37.0004         28.2504
  -9108452.15247  -7052317.44544  23188642.1804                   23188644.4264
        42.0004         25.0004
 -16073762.55547 -12461953.23446  21701124.2814                   21701122.3284
        47.7504         36.7504
 05 12 22 20 45 30.0000000  0  9G10G23G28G27G32G31G08G01G02
   4775225.09048   3721525.20347  21938638.4384                   21938641.0634
        48.7504         45.0004
  15347649.14146  11951944.98443  24811399.3134                   24811405.4024
        38.0004         21.2504
 -18903243.52047 -14709095.52345  21451612.7504                   21451613.5594
        46.7504         34.7504
  17227356.53545  13415381.85944  24940057.2274                   24940068.0044
        35.7504         26.5004
   2188234.12548   1717407.96148  21228959.0084                   21228961.0084
        50.2504         49.2504
 -12742341.81647  -9897109.02346  22680410.3914                   22680412.9654
        44.5004         37.5004
   7253235.00046   5657034.10944  23976624.8364                   23976633.5394
        36.7504         29.0004
  -9224554.85247  -7142787.00044  23166548.2344                   23166550.7154
        42.2504         26.0004
 -16138600.33248 -12512476.15246  21688785.9454                   21688784.0594
        48.0004         37.0004
 05 12 22 20 46  0.0000000  0  9G10G23G28G27G32G31G08G01G02
   4791600.68848   3734285.37147  21941754.9924                   21941757.3134
        48.2504         45.0004
  15402912.62946  11995007.26643  24821916.4774                   24821921.7734
        40.0004         21.5004
 -18983256.60547 -14771443.31645  21436386.5944                   21436387.8094
        46.0004         35.2504
  17293740.38346  13467109.23044  24952689.8754                   24952700.2154
        36.7504         27.0004
   2213260.60948   1736909.10548  21233721.4224                   21233723.2774
        51.0004         49.2504
 -12871794.89147  -9997981.38346  22655776.4774                   22655778.8554
        43.7504         37.5004
   7300872.62546   5694154.18045  23985691.4224                   23985698.8284
        38.2504         31.2504
  -9340524.52047  -7233152.87944  23144480.0234                   23144482.4734
        42.2504         25.2504
 -16203093.42247 -12562730.49646  21676513.0864                   21676511.4774
        47.7504         37.0004
 05 12 22 20 46 30.0000000  0  9G10G23G28G27G32G31G08G01G02
   4808105.22348   3747146.00847  21944895.1884                   21944898.2034
        48.5004         45.0004
  15458199.98046  12038088.10943  24832436.6484                   24832442.5704
        40.2504         22.0004
 -19062858.81647 -14833470.95345  21421238.6724                   21421239.6684
        46.2504         35.5004
  17359949.67646  13518700.62944  24965289.2034                   24965300.3914
        36.5004         27.0004
   2238443.06348   1756531.78148  21238513.4614                   21238515.4964
        50.7504         49.2504
 -13001116.80547 -10098751.55146  22631166.9144                   22631169.5314
        43.7504         37.0004
   7348594.53146   5731339.90245  23994772.0164                   23994780.5274
        38.0004         31.5004
  -9456349.87147  -7323406.31244  23122438.8284                   23122441.2624
        42.5004         26.2504
 -16267231.25847 -12612708.00045  21664307.9774                   21664306.0594
        47.2504         35.7504
 05 12 22 20 47  0.0000000  0  9G10G23G28G27G32G31G08G01G02
   4824732.72747   3760102.46147  21948059.6414                   21948062.3484
        47.7504         44.7504
  15513504.53546  12081182.37943  24842961.1334                   24842966.6684
        40.5004         21.5004
 -19142054.52747 -14895181.83645  21406168.5314                   21406169.6414
        47.5004         35.2504
  17425975.34046  13570148.93044  24977853.5864                   24977864.8014
        36.2504         28.0004
   2263773.31648   1776269.62948  21243333.6884                   21243335.5124
        50.7504         49.2504
 -13130310.75847 -10199422.01646  22606582.1414                   22606584.5864
        44.0004         36.5004
   7396391.32046   5768583.99245  24003868.1804                   24003876.0004
        38.7504         32.2504
  -9572034.82447  -7413550.33644  23100424.8594                   23100427.3054
        42.7504         26.0004
 -16331018.94947 -12662412.67646  21652170.1094                   21652167.6294
        47.2504         36.2504
 05 12 22 20 47 30.0000000  0 10G03G10G23G28G27G32G31G08G01G02
   2974046.36755   2340997.45753  24862660.2974                   24862669.2194
        34.5004         21.7504
   4841482.58647   3773154.26247  21951246.9454                   21951249.7544
        47.7504         44.5004
  15568825.16046  12124289.15643  24853488.0004                   24853493.8094
        40.0004         20.5004
 -19220842.74647 -14956575.18445  21391175.6414                   21391176.2154
        47.5004         35.5004
  17491813.62946  13621451.18844  24990382.0944                   24990392.8674
        37.7504         28.0004
   2289248.54348   1796120.44948  21248181.6254                   21248183.1414
        50.5004         49.2504
 -13259374.98847 -10299991.39146  22582022.3204                   22582024.6454
        44.0004         37.2504
   7444258.95346   5805883.29745  24012977.0084                   24012984.4304
        38.7504         33.0004
  -9687577.94147  -7503583.84444  23078437.3594                   23078439.6254
        42.0004         26.5004
 -16394455.81247 -12711843.96946  21640098.2504                   21640095.9774
        47.7504         36.5004
 05 12 22 20 48  0.0000000  0 10G03G10G23G28G27G32G31G08G01G02
   2865100.09046   2256104.35943  24841928.4304                   24841936.2544
        37.0004         20.7504
   4858334.35548   3786285.46947  21954453.4534                   21954456.3914
        48.0004         44.5004
  15624140.79746  12167392.04743  24864015.5784                   24864020.3244
        39.0004         20.5004
 -19299242.44947 -15017665.80146  21376256.5634                   21376257.6914
        47.5004         36.2504
  17557440.86746  13672589.00444  25002870.9924                   25002882.4344
        37.2504         27.7504
   2314845.99248   1816066.50448  21253052.4064                   21253054.2194
        50.2504         49.2504
 -13388327.02347 -10400473.34446  22557483.0234                   22557485.5004
        44.7504         37.7504
   7492173.42246   5843219.08645  24022094.6804                   24022102.9184
        40.0004         34.2504
  -9802997.66047  -7593521.20344  23056473.9774                   23056476.5204
        42.2504         26.2504
 -16457561.37147 -12761017.10546  21628089.8524                   21628087.7464
        46.2504         36.0004
 05 12 22 20 48 30.0000000  0 10G03G10G23G28G27G32G31G08G01G02
   2755988.56646   2171082.53543  24821164.0314                   24821172.6994
        36.5004         21.0004
   4875280.00847   3799489.83647  21957678.6484                   21957681.5274
        47.7504         44.5004
  15679442.79346  12210484.30543  24874537.7424                   24874544.4144
        38.5004         19.5004
 -19377260.11747 -15078458.72746  21361410.1804                   21361410.7854
        46.7504         36.0004
  17622845.91446  13723553.68044  25015316.8594                   25015329.1604
        36.0004         28.2504
   2340555.43048   1836099.82048  21257944.7814                   21257946.4304
        50.0004         49.0004
 -13517171.96947 -10500871.85946  22532964.2974                   22532967.0394
        44.2504         38.0004
   7540123.20346   5880582.37945  24031219.2034                   24031227.3014
        40.7504         34.0004
  -9918299.98447  -7683367.09044  23034532.7504                   23034535.2384
        42.0004         25.7504
 -16520342.59047 -12809937.51246  21616142.4064                   21616140.6954
        46.5004         36.5004
 05 12 22 20 49  0.0000000  0 10G03G10G23G28G27G32G31G08G01G02
   2646722.88346   2085940.53944  24800372.1724                   24800380.4264
        38.2504         25.5004
   4892330.80148   3812776.13347  21960923.2664                   21960926.0124
        48.0004         44.5004
  15734741.80146  12253574.23443  24885062.3594                   24885066.9804
        38.7504         18.5004
 -19454883.02347 -15138944.03545  21346639.1724                   21346639.5164
        47.0004         35.7504
  17688036.79745  13774351.47744  25027723.8134                   25027734.6484
        35.5004         27.2504
   2366385.82848   1856227.39548  21262859.9064                   21262861.8714
        49.7504         49.0004
 -13645896.21547 -10601176.32046  22508468.6334                   22508471.3594
        45.0004         38.0004
   7588116.18846   5917979.34445  24040352.3834                   24040360.2384
        41.0004         34.5004
 -10033471.60947  -7773111.12944  23012615.7974                   23012618.3444
        42.2504         28.5004
 -16582787.39547 -12858595.77345  21604260.0004                   21604257.6414
        45.7504         35.5004
 05 12 22 20 49 30.0000000  0 10G03G10G23G28G27G32G31G08G01G02
   2537309.66046   2000683.59444  24779551.4614                   24779560.0394
        37.5004         26.2504
   4909493.71947   3826149.79347  21964188.9224                   21964191.7814
        47.7504         44.5004
  15790044.19946  12296666.81642  24895586.0474                   24895591.8524
        39.7504         17.2504
 -19532102.62147 -15199115.09046  21331944.7734                   21331945.4304
        46.7504         36.0004
  17753017.54345  13824985.47344  25040089.6334                   25040099.6804
        34.7504         27.2504
   2392342.04748   1876453.00448  21267799.5394                   21267801.4144
        49.5004         49.0004
 -13774490.30147 -10701379.36346  22483998.1564                   22484000.7734
        44.7504         37.5004
   7636155.94546   5955412.75845  24049493.6724                   24049502.4964
        41.7504         35.2504
 -10148503.43447  -7862746.23844  22990726.0864                   22990728.6214
        43.0004         28.2504
 -16644887.42647 -12906985.38746  21592442.8594                   21592440.5904
        46.0004         36.5004
 05 12 22 20 50  0.0000000  0 10G03G10G23G28G27G32G31G08G01G02
   2427751.80946   1915313.96544  24758703.4144                   24758711.7704
        38.5004         26.0004
   4926771.81347   3839613.21147  21967477.0704                   21967480.0664
        47.5004         44.5004
  15845352.46946  12339763.98042  24906110.3054                   24906117.4734
        39.0004         17.2504
 -19608914.46547 -15258968.41445  21317328.0554                   21317328.3914
        46.5004         35.5004
  17817787.95345  13875455.63744  25052413.5394                   25052425.9144
        34.2504         28.2504
   2418424.82048   1896777.22748  21272762.9534                   21272765.1564
        49.7504         49.0004
 -13902948.42647 -10801476.46546  22459553.4144                   22459555.8284
        44.2504         38.0004
   7684241.94546   5992882.20345  24058644.7894                   24058652.6174
        41.2504         35.2504
 -10263390.44547  -7952268.48444  22968863.6094                   22968866.2704
        43.0004         28.2504
 -16706638.80147 -12955103.31246  21580691.4924                   21580689.3444
        46.5004         36.5004
 05 12 22 20 50 30.0000000  0 10G03G10G23G28G27G32G31G08G01G02
   2318052.74246   1829834.34044  24737828.3054                   24737835.6644
        37.2504         25.2504
   4944168.71947   3853169.22747  21970787.5784                   21970790.3594
        47.0004         44.0004
  15900669.51646  12382867.96142  24916637.1884                   24916644.7584
        38.5004         15.5004
 -19685313.34047 -15318499.93746  21302789.2584                   21302790.0634
        46.7504         36.0004
  17882348.71945  13925762.44144  25064699.9774                   25064711.7274
        34.7504         26.2504
   2444635.65648   1917201.23448  21277750.9534                   21277752.5824
        50.0004         49.0004
 -14031264.32447 -10901462.75446  22435135.6724                   22435137.4804
        44.5004         38.5004
   7732374.48846   6030387.91445  24067803.9774                   24067812.6094
        41.0004         34.7504
 -10378126.77747  -8041673.35544  22947030.1254                   22947032.8164
        42.7504         28.0004
 -16768036.82847 -13002945.90246  21569007.6804                   21569005.8984
        46.0004         36.0004
 05 12 22 20 51  0.0000000  0  9G03G10G28G27G32G31G08G01G02
   2208217.02046   1744248.23844  24716926.1644                   24716934.7854
        38.7504         29.5004
   4961689.21547   3866821.53547  21974121.4844                   21974124.4614
        46.7504         44.0004
 -19761293.14547 -15377704.91845  21288330.7894                   21288331.4804
        47.0004         35.5004
  17946701.25845  13975906.95344  25076945.6334                   25076957.4774
        35.5004         27.5004
   2470977.07448   1937726.99648  21282763.3444                   21282765.2074
        50.0004         49.0004
 -14159430.53147 -11001332.37946  22410746.0474                   22410748.1724
        45.0004         38.7504
   7780554.77746   6067930.82045  24076972.6954                   24076981.3404
        40.5004         34.7504
 -10492705.83247  -8130955.63744  22925226.3914                   22925228.6054
        43.2504         27.5004
 -16829075.73047 -13050508.66446  21557392.7664                   21557390.8094
        46.5004         36.5004
 05 12 22 20 51 30.0000000  0  9G03G10G28G27G32G31G08G01G02
   2098259.10546   1658566.87545  24696001.7734                   24696010.5864
        39.0004         30.0004
   4979347.91447   3880581.53547  21977481.7194                   21977484.4454
        46.5004         44.0004
 -19836837.80147 -15436570.82445  21273955.4144                   21273956.1524
        47.2504         35.5004
  18010857.32045  14025898.39844  25089155.2974                   25089166.5554
        35.7504         25.7504
   2497461.43048   1958364.13748  21287803.1564                   21287805.0434
        49.7504         49.0004
 -14287429.53547 -11101071.71946  22386388.7734                   22386391.3134
        44.5004         39.0004
   7828794.09046   6105519.71545  24086151.8914                   24086160.9614
        40.0004         34.2504
 -10607110.77047  -8220102.27744  22903455.8364                   22903457.9344
        43.0004         27.7504
 -16889739.86347 -13097779.39846  21545848.5394                   21545846.6334
        47.0004         36.7504
 05 12 22 20 52  0.0000000  0  9G03G10G28G27G32G31G08G01G02
   1988193.15246   1572801.34444  24675056.6334                   24675065.3364
        37.5004         29.7504
   4997159.23047   3894460.46547  21980871.4384                   21980874.3244
        47.0004         43.7504
 -19911931.51247 -15495085.34846  21259665.1564                   21259665.8714
        46.0004         36.0004
  18074828.10546  14075745.46144  25101328.7584                   25101340.7664
        36.0004         28.7504
   2524101.01248   1979122.23448  21292872.4844                   21292874.3444
        50.0004         49.0004
 -14415244.39847 -11200667.57846  22362065.9144                   22362068.2894
        45.2504         38.7504
   7877103.28546   6143163.04745  24095344.9534                   24095354.3244
        39.2504         33.0004
 -10721325.21947  -8309100.47744  22881721.5784                   22881723.9304
        43.0004         27.5004
 -16950014.14147 -13144746.35546  21534378.9844                   21534376.6214
        47.0004         36.5004
 05 12 22 20 52 30.0000000  0  9G03G10G28G27G32G31G08G01G02
   1878027.38746   1486958.02745  24654093.5004                   24654100.8794
        37.5004         30.0004
   5015131.52747   3908464.81647  21984291.5864                   21984294.2424
        47.5004         44.0004
 -19986564.54347 -15553240.89845  21245462.8914                   21245463.6954
        46.2504         35.7504
  18138619.02045  14125452.39144  25113467.7734                   25113479.0784
        35.5004         27.5004
   2550901.96148   2000006.07048  21297972.6884                   21297974.3674
        50.2504         49.0004
 -14542864.31647 -11300111.52046  22337780.9384                   22337782.9144
        45.7504         39.0004
   7925487.33246   6180864.70345  24104552.3594                   24104561.2274
        38.5004         31.2504
 -10835338.69547  -8397942.05544  22860025.5234                   22860027.5744
        42.5004         28.2504
 -17009889.25047 -13191402.27746  21522984.5704                   21522983.0744
        47.5004         37.0004
 05 12 22 20 53  0.0000000  0  9G03G10G28G27G32G31G08G01G02
   1767760.72346   1401036.12944  24633110.4844                   24633118.3244
        36.7504         29.5004
   5033263.84847   3922593.87947  21987741.8984                   21987744.7074
        47.5004         44.0004
 -20060736.39547 -15611037.09445  21231348.0394                   21231348.9884
        47.0004         35.5004
  18202226.01646  14175015.98845  25125571.8594                   25125584.1024
        37.2504         30.0004
   2577861.15648   2021013.22748  21303102.8054                   21303104.4414
        50.0004         49.0004
 -14670287.14547 -11399401.89546  22313533.6484                   22313535.3714
        45.5004         39.0004
   7973941.88746   6218621.32045  24113772.9844                   24113781.8954
        38.2504         31.0004
 -10949149.98447  -8486626.10244  22838367.6094                   22838369.9184
        43.2504         27.5004
 -17069364.86747 -13237746.89846  21511666.9384                   21511665.1564
        47.0004         36.7504
 05 12 22 20 53 30.0000000  0  9G03G10G28G27G32G31G08G01G02
   1657389.91045   1315033.02745  24612106.9844                   24612115.3914
        35.0004         30.2504
   5051553.03947   3936845.17247  21991222.1254                   21991225.0394
        47.5004         43.7504
 -20134448.98047 -15668475.41846  21217321.4454                   21217321.9104
        47.0004         36.2504
  18265642.82846  14224431.43444  25137640.2114                   25137652.3554
        37.5004         29.5004
   2604973.23448   2042139.49648  21308262.0944                   21308263.9304
        50.0004         49.0004
 -14797513.76647 -11498539.36746  22289322.7114                   22289324.3364
        45.0004         39.0004
   8022460.23846   6256427.62945  24123006.4924                   24123014.8594
        38.0004         31.0004
 -11062760.30947  -8575153.54744  22816748.3594                   22816750.3634
        42.2504         27.7504
 -17128443.27747 -13283782.00846  21500424.7114                   21500422.7704
        46.7504         36.7504
 05 12 22 20 54  0.0000000  0  9G03G10G28G27G32G31G08G01G02
   1546910.71545   1228945.50444  24591082.8054                   24591091.2774
        33.7504         27.2504
   5069995.10947   3951215.59447  21994731.7584                   21994734.4884
        47.0004         43.7504
 -20207704.92247 -15725557.91446  21203381.2974                   21203381.9184
        46.5004         36.2504
  18328862.53546  14273693.23044  25149670.2194                   25149682.8404
        36.5004         28.5004
   2632232.05948   2063380.12548  21313449.0944                   21313450.8794
        50.2504         49.0004
 -14924545.22347 -11597524.77746  22265149.1174                   22265150.9654
        45.7504         39.0004
   8071035.14846   6294278.02344  24132249.5164                   24132258.4104
        37.5004         29.7504
 -11176171.46547  -8663525.80944  22795165.8054                   22795168.7344
        42.0004         27.2504
 -17187127.59047 -13329510.03146  21489257.6884                   21489255.4414
        47.0004         36.7504
 05 12 22 20 54 30.0000000  0  9G03G10G28G27G32G31G08G01G02
   1436317.53945   1142769.14544  24570038.1954                   24570046.0354
        32.7504         24.7504
   5088584.58247   3965700.86747  21998268.9304                   21998272.0394
        47.5004         43.5004
 -20280508.35547 -15782287.81646  21189526.9844                   21189527.8324
        47.0004         36.0004
  18391876.44546  14322794.67244  25161662.7584                   25161673.9924
        36.5004         27.0004
   2659629.97748   2084729.13748  21318663.0554                   21318664.8714
        50.5004         48.7504
 -15051384.50047 -11696360.44146  22241012.2814                   22241013.9064
        45.7504         39.0004
   8119657.53946   6332165.40644  24141501.3754                   24141510.7734
        36.7504         27.5004
 -11289386.88347  -8751745.53544  22773622.4454                   22773624.9264
        42.2504         27.5004
 -17245422.64547 -13374934.74646  21478164.2664                   21478162.6294
        46.7504         37.2504
 05 12 22 20 55  0.0000000  0  9G03G10G28G27G32G31G08G01G02
                                  24548972.2194                   24548978.8794
        31.0004         25.0004
   5107321.31647   3980300.89147  22001834.8134                   22001837.2274
        47.5004         43.5004
 -20352858.12547 -15838664.20746  21175759.3914                   21175760.4264
        46.7504         36.5004
  18454681.76246  14371733.64844  25173613.4224                   25173625.8164
        37.7504         28.7504
   2687164.69948   2106184.74648  21323902.3594                   21323904.0594
        50.5004         48.7504
 -15178029.24247 -11795044.52346  22216912.6414                   22216914.2854
        45.5004         39.2504
   8168323.99646   6370087.11744  24150763.6724                   24150772.0594
        37.5004         27.2504
 -11402404.60247  -8839811.19944  22752115.9144                   22752118.4494
        42.5004         28.7504
 -17303327.56247 -13420055.44946  21467145.2734                   21467143.2894
        47.2504         36.2504
 05 12 22 20 55 30.0000000  0  9G03G10G28G27G32G31G08G01G02
   1214789.54744    970150.24644  24527883.3444                   24527890.2384
        29.7504         24.2504
   5126206.66847   3995016.71947  22005428.6804                   22005431.2154
        46.5004         43.5004
 -20424751.67247 -15894685.09846  21162078.2664                   21162079.1724
        47.7504         36.2504
  18517276.52046  14420508.52044  25185525.2974                   25185538.1484
        37.5004         28.2504
   2714835.39148   2127746.30948  21329168.0704                   21329170.0514
        49.7504         48.7504
 -15304475.25847 -11893573.75446  22192850.5164                   22192852.3324
        46.2504         39.0004
   8217032.27346   6408041.42644  24160032.4144                   24160041.0164
        36.5004         25.0004
 -11515221.23047  -8927720.17644  22730648.0784                   22730649.7734
        43.0004         28.5004
 -17360839.93447 -13464870.27046  21456201.2194                   21456199.2504
        46.5004         37.2504
 05 12 22 20 56  0.0000000  0  9G03G10G28G27G32G31G08G01G02
                                  24506773.0864                   24506781.2114
        30.0004         24.5004
   5145243.39147   4009850.50847  22009050.7974                   22009053.8094
        47.5004         43.5004
 -20496184.93747 -15950347.32846  21148485.0084                   21148485.9414
        47.5004         36.2504
  18579660.58246  14469119.18044  25197396.6414                   25197408.7974
        36.2504         26.2504
   2742642.68448   2149414.32048  21334459.4694                   21334461.4224
        50.7504         48.7504
 -15430717.14147 -11991943.91046  22168827.6564                   22168829.1764
        45.5004         40.0004
   8265781.79746   6446027.89144  24169309.1174                   24169318.2114
        37.2504         26.5004
 -11627831.80147  -9015468.57844  22709218.4774                   22709220.6174
        42.7504         29.2504
 -17417956.42647 -13509376.61746  21445332.2894                   21445330.2624
        46.0004         36.7504
 05 12 22 20 56 30.0000000  0  9G03G10G28G27G32G31G08G01G02
    992816.00855    797184.19554  24485642.9614                   24485650.0704
        33.5004         26.5004
   5164429.91847   4024801.01247  22012701.9924                   22012704.9384
        47.7504         43.5004
 -20567158.21547 -16005651.12946  21134979.0554                   21134979.9414
        47.7504         36.5004
  18641829.45345  14517562.14544  25209226.6954                   25209239.6024
        35.5004         27.5004
   2770582.87548   2171185.88348  21339776.3674                   21339778.5744
        50.0004         48.5004
 -15556753.85247 -12090154.19946  22144843.4064                   22144845.3164
        45.2504         39.2504
   8314567.49246   6484042.51244  24178593.0004                   24178601.7114
        38.2504         26.0004
 -11740235.83247  -9103056.05944  22687828.5864                   22687830.4304
        43.2504         28.5004
 -17474677.42647 -13553574.79346  21434538.7584                   21434536.8054
        47.0004         36.0004
 05 12 22 20 57  0.0000000  0  9G03G10G28G27G32G31G08G01G02
    881663.58245    710572.09044  24464489.6644                   24464498.6374
        33.5004         26.7504
   5183768.64847   4039870.12947  22016382.1644                   22016384.9264
        46.7504         43.2504
 -20637667.91047 -16060593.70346  21121561.5084                   21121562.4804
        47.2504         36.0004
  18703782.44145  14565836.96144  25221016.0784                   25221029.3594
        34.0004         26.0004
   2798656.19948   2193061.17648  21345118.9064                   21345120.5664
        50.0004         48.5004
 -15682580.19947 -12188200.56646  22120898.6254                   22120901.1054
        45.5004         39.2504
   8363388.55546   6522084.71944  24187883.7814                   24187892.2154
        37.5004         25.2504
 -11852428.85947  -9190479.12144  22666478.6884                   22666481.0904
        43.7504         28.5004
 -17530999.99647 -13597462.50046  21423820.4774                   21423818.6684
        47.5004         36.7504
 05 12 22 20 57 30.0000000  0  9G03G10G28G27G32G31G08G01G02
    770396.05945    623870.28544  24443316.9304                   24443324.9844
        35.0004         28.2504
   5203254.26647   4055053.68847  22020090.4144                   22020092.9844
        47.2504         43.5004
 -20707718.13747 -16115178.23845  21108231.7894                   21108232.2854
        47.5004         35.5004
  18765511.28946  14613937.04344  25232764.0554                   25232775.7624
        36.2504         26.7504
   2826855.25848   2215034.45748  21350484.8754                   21350486.9494
        50.5004         48.5004
 -15808198.97747 -12286085.18446  22096994.3834                   22096996.3554
        45.5004         39.7504
   8412236.10246   6560147.54344  24197178.6644                   24197187.8244
        38.2504         25.5004
 -11964414.02047  -9277740.21544  22645168.6644                   22645171.2504
        43.2504         29.0004
 -17586928.60948 -13641043.22746  21413177.8364                   21413175.8874
        48.0004         36.5004
 05 12 22 20 58  0.0000000  0  9G03G10G28G27G32G31G08G01G02
    659019.79746    537083.71945  24422122.4064                   24422130.6804
        37.5004         30.5004
   5222893.09047   4070356.63347  22023827.1954                   22023830.0474
        47.2504         43.2504
 -20777301.40647 -16169398.91846  21094990.1884                   21094990.9264
        46.7504         36.0004
  18827019.62145  14661865.35944  25244467.5634                   25244480.9734
        33.5004         25.5004
   2855184.19548   2237108.93448  21355875.8984                   21355877.6054
        50.2504         48.5004
 -15933600.77747 -12383800.73846  22073131.3674                   22073133.5394
        45.2504         39.7504
   8461113.04746   6598233.27044  24206480.0314                   24206489.4774
        37.2504         26.5004
 -12076182.98047  -9364832.81644  22623899.5234                   22623902.3134
        43.7504         29.5004
 -17642455.78947 -13684311.14546  21402611.4694                   21402609.4104
        47.2504         36.7504
 05 12 22 20 58 30.0000000  0  9G03G10G28G27G32G31G08G01G02
    547532.11346    450210.34845  24400907.4064                   24400914.7854
        38.7504         30.5004
   5242682.67647   4085777.04747  22027593.4924                   22027596.2934
        47.0004         43.2504
 -20846419.03947 -16223256.76646  21081837.1484                   21081838.1334
        47.0004         36.2504
  18888301.70345  14709617.34044  25256129.5704                   25256143.2894
        34.2504         25.5004
   2883638.46548   2259281.07448  21361290.2344                   21361292.3634
        50.0004         48.2504
 -16058786.03147 -12481347.55946  22049309.5474                   22049310.9804
        45.5004         39.5004
   8510013.60546   6636337.38744  24215786.3054                   24215794.9264
        38.2504         27.0004
 -12187735.98447  -9451757.14844  22602672.0634                   22602673.9264
        43.2504         29.0004
 -17697583.59047 -13727267.85546  21392120.8524                   21392118.7154
        47.7504         37.0004
 05 12 22 20 59  0.0000000  0  9G03G10G28G27G32G31G08G01G02
    435937.32046    363253.48044  24379671.5474                   24379678.9694
        39.2504         29.5004
   5262627.30147   4101318.28547  22031388.5634                   22031391.2894
        47.2504         43.2504
 -20915065.51647 -16276747.47346  21068774.6884                   21068774.9964
        46.5004         36.5004
  18949359.11745  14757194.30944  25267749.9844                   25267762.1994
        35.2504         26.0004
   2912220.28948   2281552.61748  21366729.0394                   21366731.0164
        50.7504         48.2504
 -16183747.54747 -12578720.03546  22025529.5234                   22025531.1414
        45.5004         39.7504
   8558938.63746   6674460.57444  24225096.1334                   24225105.6254
        38.2504         28.5004
 -12299066.65647  -9538508.23844  22581486.1644                   22581487.9494
        43.0004         29.0004
 -17752306.86347 -13769909.35546  21381707.2034                   21381705.2544
        47.0004         37.2504
 05 12 22 20 59 30.0000000  0  9G03G10G28G27G32G31G08G01G02
    324236.97346    276214.37544  24358415.5634                   24358423.1094
        39.5004         28.5004
   5282728.48847   4116981.51247  22035213.7974                   22035216.5634
        46.5004         43.0004
 -20983238.26247 -16329869.03946  21055801.4924                   21055802.0944
        46.2504         36.7504
  19010190.32445  14804594.98444  25279326.0554                   25279338.0554
        33.5004         25.7504
   2940929.10948   2303923.10948  21372192.3834                   21372194.4104
        49.5004         48.0004
 -16308480.91447 -12675914.72746  22001793.6884                   22001795.1334
        44.0004         40.0004
   8607886.27046   6712601.36344  24234411.1484                   24234420.5274
        38.5004         29.2504
 -12410171.33647  -9625083.23444  22560343.7114                   22560345.6724
        44.2504         28.7504
 -17806623.18747 -13812233.74646  21371371.1094                   21371369.4414
        47.0004         37.0004
 05 12 22 21  0  0.0000000  0  9G03G10G28G27G32G31G08G01G02
    212437.77746    189098.22344  24337140.5164                   24337148.1914
        40.0004         28.2504
   5302993.06347   4132772.05547  22039070.2194                   22039073.1884
        46.5004         43.2504
 -21050929.31647 -16382615.27046  21042920.8444                   21042921.0984
        46.5004         36.0004
  19070799.45745  14851822.58244  25290859.2424                   25290871.9384
        34.0004         24.7504
   2969769.57848   2326396.19948  21377680.6644                   21377682.6214
        49.5004         48.0004
 -16432976.92247 -12772924.46146  21978102.7734                   21978104.3794
        45.0004         40.0004
   8656859.93846   6750762.44545  24243731.0164                   24243739.6994
        39.0004         30.2504
 -12521041.10547  -9711475.17644  22539245.9694                   22539247.7664
        43.2504         29.2504
 -17860525.17647 -13854235.27746  21361114.0634                   21361112.1844
        47.0004         36.7504
 05 12 22 21  0 30.0000000  0  9G03G10G28G27G32G31G08G01G02
    100538.75946    101904.28044  24315846.1954                   24315854.3244
        38.2504         27.5004
   5323419.94547   4148689.06347  22042957.2274                   22042959.8484
        46.7504         43.2504
 -21118138.69147 -16434986.16046  21030130.5164                   21030131.4734
        46.0004         36.7504
  19131182.39545  14898873.91444  25302349.4614                   25302362.8634
        32.5004         24.0004
   2998738.56648   2348969.42648  21383193.3284                   21383194.9184
        49.2504         48.0004
 -16557234.00447 -12869748.03146  21954457.4224                   21954458.6884
        45.5004         39.7504
   8705855.24246   6788940.39144  24253053.9844                   24253063.2664
        37.5004         27.7504
 -12631674.98447  -9797683.31644  22518192.8524                   22518195.0824
        43.7504         28.7504
 -17914013.10547 -13895914.16446  21350935.7344                   21350933.9454
        47.0004         37.0004
 05 12 22 21  1  0.0000000  0  9G03G10G28G27G32G31G08G01G02
    -11460.29746     14632.38344  24294534.3444                   24294541.2734
        40.0004         27.7504
   5344008.93047   4164732.38347  22046875.0634                   22046877.8364
        46.2504         43.0004
 -21184865.42647 -16486980.96946  21017433.3364                   21017433.3714
        46.7504         36.5004
  19191336.18845  14945746.69943  25313796.1644                   25313809.0594
        31.7504         22.0004
   3027833.85948   2371641.06347  21388729.6724                   21388731.5514
        49.5004         47.7504
 -16681249.40247 -12966383.27746  21930858.1884                   21930859.4844
        45.0004         40.2504
   8754868.55146   6827132.32444  24262381.5634                   24262390.2974
        37.7504         28.5004
 -12742070.92247  -9883706.04744  22497184.9774                   22497186.8404
        43.0004         28.2504
 -17967086.28147 -13937269.87146  21340836.4224                   21340834.2114
        46.7504         37.0004
 05 12 22 21  1 30.0000000  0  9G03G10G28G27G32G31G08G01G02
   -123557.12146    -72715.70744  24273202.6334                   24273210.0164
        38.5004         26.7504
   5364762.44947   4180903.91847  22050824.5704                   22050827.4104
        47.0004         43.0004
 -21251106.16847 -16538597.08246  21004827.9304                   21004828.7114
        46.5004         36.7504
  19251260.33245  14992440.53543  25325198.9614                   25325213.2034
        31.5004         23.0004
   3057055.73448   2394411.34047  21394290.3054                   21394292.3554
        49.0004         47.7504
 -16805018.34847 -13062826.48046  21907305.2974                   21907306.9104
        44.5004         40.5004
   8803898.96546   6865337.61745  24271711.5634                   24271721.0434
        37.7504         30.5004
 -12852224.40247  -9969539.84444  22476223.4614                   22476225.5434
        43.0004         29.5004
 -18019741.52747 -13978299.91446  21330816.0944                   21330814.3284
        47.5004         36.5004
 05 12 22 21  2  0.0000000  0  9G03G10G28G27G32G31G08G01G02
   -235750.39546   -160138.92644  24251853.2344                   24251859.6484
        39.7504         25.0004
   5385681.63747   4197204.54347  22054805.2974                   22054808.0004
        46.7504         43.0004
 -21316858.68447 -16589832.75846  20992315.6174                   20992316.2344
        46.2504         36.0004
  19310953.13355  15038954.07053  25336559.2894                   25336573.0084
        31.0004         22.7504
   3086403.39148   2417279.63347  21399875.4614                   21399877.5204
        49.7504         47.7504
 -16928536.98847 -13159074.63746  21883800.3444                   21883802.2774
        45.0004         40.5004
   8852944.32846   6903554.54744  24281044.8834                   24281054.0124
        38.7504         29.5004
 -12962132.07447 -10055182.09844  22455308.8834                   22455310.7114
        44.0004         29.0004
 -18071977.04347 -14019002.89846  21320875.9304                   21320874.2154
        47.5004         37.0004
 05 12 22 21  2 30.0000000  0  9G03G10G28G27G32G31G08G01G02
   -348038.86346   -247636.34844  24230485.3984                   24230491.9494
        39.0004         26.0004
   5406767.71947   4213635.21547  22058817.9924                   22058820.8484
        47.0004         43.0004
 -21382120.76647 -16640686.28546  20979896.7034                   20979896.9694
        46.7504         36.0004
  19370412.92245  15085286.05143  25347874.0234                   25347887.9344
        32.7504         22.7504
   3115875.87948   2440245.19947  21405483.7114                   21405485.5084
        48.7504         47.7504
 -17051801.35547 -13255124.66046  21860344.2114                   21860345.5354
        44.2504         41.2504
   8902002.34446   6941781.30544  24290380.4064                   24290389.8714
        39.0004         29.7504
 -13071790.74247 -10140630.32844  22434441.2584                   22434442.5744
        44.2504         29.5004
 -18123791.04747 -14059377.43446  21311016.2734                   21311014.0634
        47.5004         36.5004
 05 12 22 21  3  0.0000000  0  9G03G10G28G27G32G31G08G01G02
   -460420.28546   -335206.18744  24209099.5944                   24209106.2664
        37.7504         26.0004
   5428022.96947   4230197.71147  22062862.4384                   22062865.2704
        46.5004         43.0004
 -21446889.12547 -16691155.09046  20967571.1644                   20967571.9614
        45.7504         36.5004
  19429639.26645  15131436.15644  25359145.0704                   25359158.9414
        31.2504         25.7504
   3145473.48448   2463308.25447  21411115.8674                   21411118.0474
        48.7504         47.5004
 -17174806.49647 -13350972.68746  21836936.4064                   21836938.2424
        44.5004         41.0004
   8951072.07846   6980017.22745  24299718.2584                   24299727.7584
        38.0004         30.2504
 -13181195.87547 -10225881.00044  22413622.2894                   22413623.7854
        45.0004         29.7504
 -18175180.47747 -14099421.12146  21301237.4384                   21301235.5434
        47.5004         37.5004
 05 12 22 21  3 30.0000000  0  9G03G10G28G27G32G31G08G01G02
   -572892.93446   -422847.06644  24187696.3204                   24187703.6254
        36.7504         27.7504
   5449449.00047   4246893.27347  22066939.4144                   22066943.0084
        47.5004         43.2504
 -21511161.19147 -16741237.17646  20955340.8284                   20955341.5704
        46.7504         36.7504
  19488630.79745  15177403.25844  25370369.7664                   25370384.6334
        31.2504         26.2504
   3175195.82848   2486468.49647  21416771.8134                   21416773.6844
        49.5004         47.7504
 -17297548.24647 -13446615.46946  21813579.9304                   21813581.0004
        45.0004         40.5004
   9000151.82846   7018260.93844  24309057.6644                   24309067.7424
        37.7504         29.2504
 -13290343.73447 -10310931.20745  22392852.4304                   22392853.8594
        44.0004         30.0004
 -18226143.03547 -14139132.20346  21291538.9304                   21291537.2894
        47.0004         37.5004
 05 12 22 21  4  0.0000000  0  9G03G10G28G27G32G31G08G01G02
   -685456.49246   -510558.75044  24166276.6484                   24166283.2734
        36.5004         27.5004
   5471046.00847   4263722.07447  22071049.5944                   22071052.7304
        46.5004         43.0004
 -21574935.83647 -16790931.65646  20943205.3134                   20943205.0044
        46.2504         37.0004
  19547385.13745  15223185.56344  25381552.5704                   25381565.1804
        31.7504         24.5004
   3205041.06348   2509724.51247  21422451.2114                   21422453.1764
        48.5004         47.5004
 -17420023.77747 -13542050.81246  21790273.2584                   21790274.3634
        45.2504         41.2504
   9049238.33246   7056509.91044  24318399.4534                   24318408.9844
        37.5004         29.5004
 -13399232.01247 -10395779.12945  22372131.2894                   22372132.5394
        45.0004         30.0004
 -18276677.85947 -14178509.97346  21281922.9774                   21281920.8204
        47.5004         36.5004
 05 12 22 21  4 30.0000000  0  9G03G10G28G27G32G31G08G01G02
   -798113.41046   -598343.17644  24144838.2274                   24144845.3554
        36.5004         27.0004
   5492811.57048   4280682.19947  22075191.6644                   22075194.8054
        48.0004         43.0004
 -21638214.44547 -16840239.61746  20931163.6804                   20931163.8594
        46.2504         37.0004
  19605896.89845  15268778.79744  25392685.2504                   25392699.7154
        33.0004         25.0004
   3235004.78948   2533072.85247  21428153.0004                   21428155.1804
        48.5004         47.5004
 -17542232.73047 -13637278.43746  21767017.8834                   21767019.2424
        45.0004         41.0004
   9098326.06646   7094759.83644  24327740.3754                   24327750.1214
        37.2504         28.5004
 -13507860.88747 -10480424.94545  22351459.8674                   22351461.4534
        44.5004         30.2504
 -18326786.84847 -14217555.92646  21272387.0474                   21272385.3484
        47.5004         36.5004
 05 12 22 21  5  0.0000000  0  9G03G10G28G27G32G31G08G01G02
    664560.08245    541402.57044  24423175.5314                   24423183.0664
        35.7504         28.0004
   7090164.77347   5525372.95747  22379157.8524                   22379160.9924
        47.0004         43.5004
 -20125574.31247 -15661558.94946  21219009.2974                   21219009.8164
        46.2504         36.5004
  21239581.25845  16541779.29344  25703566.9774                   25703580.0044
        35.5004         25.5004
   4840503.77748   3784111.00847  21733669.3834                   21733671.1724
        48.0004         47.5004
 -16088748.50847 -12504693.19546  22043606.3834                   22043607.2624
        44.7504         41.0004
  10722829.69546   8360606.56344  24636872.6724                   24636883.2234
        37.7504         29.7504
 -12040804.92647  -9337264.38344  22630631.4064                   22630632.7304
        44.2504         29.7504
 -16801047.90648 -13028668.43746  21562725.6644                   21562723.4534
        48.2504         37.0004
 05 12 22 21  5 30.0000000  0  9G03G10G28G27G32G31G08G01G02
    551714.42246    453471.05544  24401701.6804                   24401708.3954
        37.2504         29.2504
   7112265.01647   5542593.88747  22383363.4304                   22383366.8014
        47.0004         43.0004
 -20187860.74247 -15710093.78946  21207156.6334                   21207156.9024
        45.7504         36.7504
  21297597.37546  16586986.38344  25714608.0234                   25714620.3284
        37.2504         26.5004
   4870696.02048   3807637.41047  21739414.6954                   21739416.6094
        48.2504         47.5004
 -16210418.80547 -12599501.08646  22020453.2974                   22020454.2584
        45.5004         41.0004
  10771907.16446   8398848.50844  24646212.3054                   24646222.5514
        38.2504         29.5004
 -12148911.12547  -9421502.90644  22610059.3524                   22610060.9024
        44.5004         29.2504
 -16850305.69147 -13067051.12146  21553352.4454                   21553350.2384
        47.7504         36.7504
 05 12 22 21  6  0.0000000  0  9G03G10G28G27G32G31G08G01G02
    438783.12546    365472.82444  24380211.6954                   24380218.5044
        38.5004         29.2504
   7134541.16047   5559951.87947  22387602.5864                   22387605.7544
        47.0004         43.0004
 -20249641.15247 -15758234.33246  21195399.8364                   21195400.4384
        46.0004         36.5004
  21355369.16455  16632002.86354  25725600.7894                   25725615.6954
        34.2504         27.0004
   4901008.09448   3831257.19547  21745183.0004                   21745185.1484
        48.5004         47.2504
 -16331807.48447 -12694089.53546  21997353.6804                   21997354.1644
        45.0004         41.0004
  10820983.22346   8437089.33645  24655551.6094                   24655562.2114
        38.0004         30.0004
 -12256744.24247  -9505528.64844  22589539.1644                   22589540.6524
        44.5004         29.5004
 -16899128.51648 -13105094.88346  21544061.9694                   21544059.5474
        48.0004         37.0004
 05 12 22 21  6 30.0000000  0  8G03G10G28G32G31G08G01G02
    325765.51046    277407.34045  24358704.7974                   24358711.6804
        38.5004         30.0004
   7156992.45747   5577446.34847  22391874.8674                   22391877.9734
        47.2504         43.2504
 -20310915.44947 -15805980.48846  21183739.8914                   21183740.6524
        46.2504         36.5004
   4931437.34048   3854968.27747  21750973.3834                   21750975.3794
        48.0004         47.2504
 -16452912.37147 -12788456.84846  21974308.0634                   21974309.1914
        45.2504         41.5004
  10870053.69546   8475325.82845  24664889.8754                   24664899.7814
        38.7504         30.2504
 -12364302.81247  -9589340.44144  22569071.6954                   22569073.0784
        44.2504         29.5004
 -16947516.23448 -13142799.59046  21534853.7664                   21534851.3834
        48.0004         36.7504
 05 12 22 21  7  0.0000000  0  8G03G10G28G32G31G08G01G02
    212669.41846    189280.69944  24337183.3834                   24337190.2464
        38.7504         29.0004
   7179626.44547   5595083.17647  22396181.6954                   22396184.9654
        47.0004         43.0004
 -20371675.24647 -15853325.75046  21172177.3204                   21172178.1914
        46.5004         36.5004
   4961989.29348   3878774.96947  21756787.8674                   21756789.3524
        48.5004         47.2504
 -16573723.26247 -12882595.08246  21951318.3284                   21951319.2734
        45.7504         41.2504
  10919122.85546   8513561.26644  24674227.2814                   24674237.9924
        38.0004         29.0004
 -12471577.11747  -9672930.75444  22548658.0474                   22548658.9924
        43.7504         29.7504
 -16995461.11747 -13180159.23446  21525729.9694                   21525727.9304
        47.7504         37.0004
 05 12 22 21  7 30.0000000  0  8G03G10G28G32G31G08G01G02
     99519.00446    101111.71944  24315651.1254                   24315658.5274
        38.5004         29.5004
   7202467.20347   5612881.12147  22400528.4384                   22400531.3484
        47.0004         42.7504
 -20431895.63347 -15900250.69146  21160718.1884                   21160718.6094
        47.0004         36.7504
   4992686.08248   3902694.53147  21762628.9224                   21762631.1684
        48.5004         47.0004
 -16694213.53147 -12976483.47346  21928389.9064                   21928390.7424
        46.0004         41.2504
  10968211.60546   8551812.00044  24683568.3054                   24683578.9734
        38.0004         28.7504
 -12578540.93047  -9756279.11744  22528303.2814                   22528304.5164
        43.7504         29.5004
 -17042938.19947 -13217154.35946  21516695.1564                   21516693.5784
        47.5004         36.7504
 05 12 22 21  8  0.0000000  0  8G03G10G28G32G31G08G01G02
    -13678.82046     12905.80144  24294109.4064                   24294116.9694
        39.0004         28.7504
   7225521.57047   5630845.52047  22404915.6094                   22404918.6294
        46.0004         42.5004
 -20491569.07447 -15946749.44146  21149362.4384                   21149362.9494
        46.5004         37.0004
   5023532.57048   3926730.73047  21768498.9844                   21768501.2544
        48.2504         47.2504
 -16814373.91047 -13070114.81246  21905523.7504                   21905524.9534
        44.7504         41.2504
  11017323.30946   8590080.57844  24692914.7274                   24692925.0784
        38.2504         29.2504
 -12685185.32447  -9839378.57044  22508009.2034                   22508010.5314
        45.0004         29.7504
 -17089940.13347 -13253779.23446  21507751.5394                   21507749.2974
        47.7504         37.2504
 05 12 22 21  8 30.0000000  0  8G03G10G28G32G31G08G01G02
   -126924.91046    -75337.73844  24272559.6484                   24272566.4964
        38.5004         29.0004
   7248788.40247   5648975.47347  22409343.2194                   22409346.2384
        46.5004         42.2504
 -20550695.84847 -15992822.21546  21138110.8204                   21138111.3794
        46.0004         36.7504
   5054525.76647   3950881.25447  21774396.3284                   21774398.6454
        47.7504         47.0004
 -16934202.57847 -13163487.66446  21882720.9774                   21882721.8984
        44.5004         41.0004
  11066453.80946   8628363.85244  24702263.8524                   24702274.3634
        37.0004         27.5004
 -12791509.14547  -9922228.24645  22487776.5084                   22487778.1604
        44.7504         30.2504
 -17136467.32048 -13290034.18046  21498897.3594                   21498895.4304
        48.0004         37.0004
 05 12 22 21  9  0.0000000  0  9G03G10G25G28G32G31G08G01G02
   -240237.46146   -163633.03944  24250997.5474                   24251004.1334
        37.2504         27.0004
   7272249.45347   5667256.76247  22413807.8204                   22413810.6994
        47.0004         42.0004
   4607329.86756   3605615.16453  24925262.7504                   24925268.9924
        37.7504         22.0004
 -20609293.41447 -16038482.62946  21126960.4224                   21126960.6914
        46.5004         36.5004
   5085645.49248   3975130.37147  21780318.3284                   21780320.5164
        49.0004         47.0004
 -17053715.29347 -13256614.33246  21859978.7734                   21859979.5594
        46.0004         41.2504
  11115581.58246   8666644.98844  24711612.6884                   24711623.0744
        38.2504         27.0004
 -12897528.55147 -10004840.71145  22467601.2894                   22467603.2114
        45.0004         30.2504
 -17182537.80148 -13325933.25446  21490130.6254                   21490128.6094
        48.2504         37.0004
 05 12 22 21  9 30.0000000  0  9G03G10G25G28G32G31G08G01G02
   -353639.55145   -251998.14544  24229417.6644                   24229424.2504
        35.5004         26.5004
   7295881.28947   5685671.13747  22418304.2894                   22418307.7504
        46.0004         42.2504
   4535163.78946   3549381.92643  24911530.1334                   24911535.7934
        37.0004         22.2504
 -20667384.50847 -16083748.37946  21115905.8754                   21115906.6214
        46.5004         36.7504
   5116866.39148   3999458.32447  21786259.6174                   21786261.7974
        48.2504         47.0004
 -17172932.80547 -13349510.96146  21837291.9224                   21837293.1954
        46.5004         41.2504
  11164679.91446   8704903.20744  24720956.4144                   24720966.5474
        38.0004         27.5004
 -13003264.78147 -10087232.50445  22447480.6564                   22447482.1134
        45.5004         31.5004
 -17228174.63748 -13361494.42246  21481446.2114                   21481444.0474
        48.0004         37.0004
 05 12 22 21 10  0.0000000  0  9G03G10G25G28G32G31G08G01G02
   -467141.74246   -340441.24644  24207818.8754                   24207824.5044
        36.5004         26.5004
   7319673.20747   5704210.25447  22422831.9614                   22422835.3284
        46.5004         42.0004
   4463277.15646   3493366.42643  24897850.9844                   24897856.3244
        36.7504         22.7504
 -20724979.07847 -16128627.23046  21104946.2344                   21104946.4264
        46.5004         36.0004
   5148175.85248   4023855.28147  21792217.7424                   21792220.0204
        48.5004         47.0004
 -17291863.22347 -13442183.88746  21814660.1884                   21814660.8674
        46.2504         41.5004
  11213734.72746   8743127.47344  24730291.7894                   24730301.8244
        38.2504         27.2504
 -13108726.39547 -10169410.31245  22427412.0004                   22427413.4964
        45.2504         31.5004
 -17273387.85948 -13396725.50446  21472842.3984                   21472840.1454
        48.2504         37.2504
 05 12 22 21 10 30.0000000  0  9G03G10G25G28G32G31G08G01G02
   -580738.20745   -428957.78544  24186201.3444                   24186208.1644
        34.7504         27.0004
   7343630.87547   5722878.52747  22427391.4224                   22427394.2304
        46.5004         42.2504
   4391677.86346   3437574.80544  24884225.5084                   24884230.8984
        38.0004         25.0004
 -20782070.81647 -16173114.27346  21094081.8594                   21094082.1374
        46.5004         36.7504
   5179577.66048   4048324.18847  21798193.6644                   21798195.4454
        48.7504         47.0004
 -17410498.35247 -13534626.71147  21792084.4534                   21792085.6644
        46.5004         42.0004
  11262748.59846   8781319.86744  24739618.2664                   24739629.0204
        38.2504         27.7504
 -13213905.56647 -10251368.04745  22407396.7344                   22407398.5594
        45.0004         31.0004
 -17318171.32048 -13431621.69946  21464320.3054                   21464318.4024
        48.2504         37.0004
