     2.11           OBSERVATION DATA    G (GPS)             RINEX VERSION / TYPE
teqc  2019Feb25     K Rivera            20250820 04:59:04UTCPGM / RUN BY / DATE
Linux 2.6.32-573.12.1.x86_64|x86_64|gcc -static|Linux 64|=+ COMMENT
teqc  2019Feb25                         20250820 04:58:19UTCCOMMENT
BIT 2 OF LLI FLAGS DATA COLLECTED UNDER A/S CONDITION       COMMENT
0634                                                        MARKER NAME
                                                            MARKER NUMBER
K Baraggiotta       University of California, Riverside     OBSERVER / AGENCY
0220413532          TRIMBLE R7          2.32                REC # / TYPE / VERS
12118428            TRM41249.00                             ANT # / TYPE
 -2414917.4485 -4545227.4077  3756112.1787                  APPROX POSITION XYZ
        1.2371        0.0000        0.0000                  ANTENNA: DELTA H/E/N
     1     1                                                WAVELENGTH FACT L1/2
     7    L1    L2    C1    P1    P2    S1    S2            # / TYPES OF OBSERV
    18                                                      LEAP SECONDS
 SNR is mapped to RINEX snr flag value [0-9]                COMMENT
  L1 & L2: min(max(int(snr_dBHz/6), 0), 9)                  COMMENT
  2025     8     6     0     0   30.0000000     GPS         TIME OF FIRST OBS
                                                            END OF HEADER
 25  8  6  0  0 30.0000000  0 10G26G02G03G06G09G16G04G31G01G28
 -85743007.99657 -67836131.76256  21459414.2114                   21459417.5904
        47.2504         41.5004
-119323700.16056 -92882266.64153  24508560.1094                   24508565.9884
        40.7504         19.5004
-113185772.62158 -88123557.81258  19857230.2114                   19857231.7734
        49.2504         49.5004
  -2122077.18056  -5556708.84055  25010228.5704                   25010233.8164
        39.2504         30.5004
 -11887520.30556  -9084032.93054  23834889.8364                   23834895.8984
        37.0004         29.7504
 -47707217.64157 -32235748.20754  22530031.3674                   22530034.0354
        42.5004         24.5004
 -85402855.96157 -66308510.76655  21179099.1954                   21179100.0984
        45.7504         34.5004
-146578447.70357-114216965.43757  21285703.1334                   21285701.8164
        46.7504         43.0004
-133896999.59057-104127819.30954  22503701.5004                   22503705.0394
        44.0004         28.7504
-123445366.23056 -96101153.93053  23969133.7894                   23969134.9844
        40.2504         23.7504
 25  8  6  0  1  0.0000000  0 10G26G02G03G06G09G16G04G31G01G28
 -84447282.23847 -66826475.26646  21705982.3914                   21705985.5394
        46.7504         41.5004
-117919801.99646 -91788320.28943  24775712.9844                   24775719.2074
        39.7504         21.5004
-111882732.75848 -87108202.07048  20105190.5784                   20105192.1564
        49.5004         49.5004
   -866163.41446  -4578074.73444  25249221.5864                   25249226.1844
        39.7504         28.0004
 -10650582.10246  -8120184.81244  24070271.5004                   24070277.0744
        38.0004         29.2504
 -46486327.23047 -31284404.84844  22762359.2814                   22762360.7774
        42.7504         26.0004
 -84131959.76247 -65318201.97745  21420942.2504                   21420943.2624
        45.7504         34.0004
-145185477.15247-113131533.85247  21550776.8914                   21550775.8164
        47.2504         43.0004
-132498417.90647-103038015.53144  22769843.2344                   22769846.2544
        43.7504         29.7504
-122031319.96546 -94999299.73844  24238217.9694                   24238218.7154
        40.0004         24.5004
 25  8  6  0  1 30.0000000  0 10G26G02G03G06G09G16G04G31G01G28
 -84726393.11347 -67043964.20746  21652869.5084                   21652872.5784
        46.7504         41.7504
-118091390.64546 -91922026.03143  24743061.1644                   24743067.7974
        40.0004         20.5004
-112154590.78148 -87320039.48448  20053457.6884                   20053459.0824
        49.7504         49.5004
  -1185236.34446  -4826703.01244  25188503.6334                   25188507.9224
        39.5004         28.0004
 -10989056.06646  -8383930.59845  24005862.3134                   24005867.5514
        39.0004         30.7504
 -46840617.28147 -31560474.85244  22694940.4614                   22694941.6724
        43.0004         27.2504
 -84436349.56647 -65555388.77345  21363019.3834                   21363020.1294
        46.2504         34.5004
-145367617.98847-113273461.79347  21516116.7034                   21516115.6724
        47.0004         43.5004
-132675003.52347-103175614.85244  22736239.3834                   22736243.0744
        43.5004         28.7504
-122192642.79346 -95125005.89543  24207518.9694                   24207520.0274
        40.0004         22.7504
 25  8  6  0  2  0.0000000  0 10G26G02G03G06G09G16G04G31G01G28
 -85004914.12147 -67260993.50046  21599868.6724                   21599871.5004
        47.0004         41.7504
-118263046.63746 -92055784.27043  24710396.2664                   24710402.7854
        39.2504         21.2504
-112425920.38748 -87531465.14548  20001825.4844                   20001826.6254
        49.0004         49.5004
  -1503867.50446  -5074987.05544  25127870.1884                   25127874.8014
        39.5004         26.7504
 -11327514.78946  -8647664.53145  23941455.0704                   23941460.5634
        39.0004         30.0004
 -47194656.06647 -31836349.05144  22627568.7344                   22627570.1724
        43.2504         27.0004
 -84740598.93447 -65792466.14145  21305121.9694                   21305123.1644
        45.7504         34.2504
-145549450.77747-113415149.69947  21481514.9064                   21481514.0004
        46.7504         42.7504
-132851337.61747-103313018.17244  22702684.8914                   22702688.0124
        43.7504         29.0004
-122353915.37546 -95250672.91443  24176829.6334                   24176831.2034
        40.0004         22.5004
 25  8  6  0  2 30.0000000  0 10G26G02G03G06G09G16G04G31G01G28
 -85282844.22347 -67477562.35546  21546980.1644                   21546983.1294
        47.2504         41.7504
-118434772.82846 -92189597.20343  24677718.6884                   24677725.1914
        36.7504         21.0004
-112696720.42248 -87742478.15248  19950293.8364                   19950295.0664
        49.5004         49.7504
  -1822055.21546  -5322925.54344  25067321.5314                   25067325.8404
        38.0004         25.2504
 -11665958.13746  -8911386.48045  23877051.9064                   23877056.6954
        39.7504         30.5004
 -47548440.65247 -32112025.18444  22560245.3134                   22560246.6054
        42.7504         25.5004
 -85044707.73447 -66029433.97745  21247252.6024                   21247253.2034
        45.7504         34.5004
-145730977.89147-113556599.41847  21446971.4454                   21446970.3594
        45.7504         43.0004
-133027423.40247-103450228.00044  22669176.7114                   22669180.1954
        44.0004         28.5004
-122515139.56646 -95376302.22743  24146149.1094                   24146150.9264
        38.5004         22.5004
 25  8  6  0  3  0.0000000  0 10G26G02G03G06G09G16G04G31G01G28
 -85560178.80147 -67693667.16847  21494205.5634                   21494208.2624
        47.0004         42.2504
-118606568.38746 -92323464.16443  24645027.1724                   24645033.3094
        36.0004         20.2504
-112966986.25448 -87953074.89548  19898863.7584                   19898865.1724
        49.0004         49.5004
  -2139794.13346  -5570514.32844  25006857.5944                   25006861.8874
        39.0004         24.5004
 -12004382.50046  -9175093.63745  23812651.4144                   23812656.3914
        39.0004         31.0004
 -47901963.94547 -32387497.70344  22492972.2734                   22492973.3984
        42.5004         27.2504
 -85348672.15247 -66266289.30545  21189409.7504                   21189410.3984
        46.2504         34.5004
-145912198.46147-113697810.27747  21412486.3914                   21412485.4224
        46.2504         42.7504
-133203260.43447-103587244.00844  22635716.6334                   22635719.9414
        43.0004         28.7504
-122676313.86346 -95501892.63343  24115479.5004                   24115480.8524
        38.5004         21.0004
 25  8  6  0  3 30.0000000  0 10G26G02G03G06G09G16G04G31G01G28
 -85836917.18447 -67909307.40247  21441543.4534                   21441546.2344
        47.0004         42.0004
-118778436.08245 -92457387.38343  24612321.1644                   24612328.5984
        34.2504         18.2504
-113236717.05948 -88163254.73048  19847535.8524                   19847537.2624
        50.2504         49.7504
  -2457083.08646  -5817752.48444  24946479.8284                   24946483.5044
        39.0004         24.0004
 -12342788.07446  -9438786.15245  23748255.5394                   23748259.9454
        39.2504         30.7504
 -48255222.75447 -32662764.14144  22425749.1954                   22425750.2274
        42.7504         27.0004
 -85652492.32447 -66503032.23045  21131594.7274                   21131595.7544
        45.0004         34.5004
-146093115.51247-113838784.63347  21378058.9694                   21378057.8364
        45.7504         42.2504
-133378852.22747-103724068.89844  22602302.7504                   22602305.9614
        43.5004         28.7504
-122837440.60946 -95627446.01643  24084818.5634                   24084819.6764
        38.7504         20.5004
 25  8  6  0  4  0.0000000  0 10G26G02G03G06G09G16G04G31G01G28
 -84537624.60247 -66896871.58647  21688790.6954                   21688793.4024
        46.5004         42.0004
-117374948.43445 -91363760.98043  24879396.7114                   24879403.5164
        32.5004         18.5004
-111930478.22348 -87145406.27748  20096104.7814                   20096106.2974
        49.7504         49.5004
  -1198485.18446  -4837026.83644  25185982.7424                   25185987.1214
        38.2504         25.7504
 -11105738.90246  -8474851.57445  23983657.3364                   23983662.3984
        37.7504         31.5004
 -47032777.15647 -31710208.94144  22658372.4844                   22658373.9064
        43.2504         25.7504
 -84380733.27747 -65512051.09845  21373602.4774                   21373603.2624
        45.5004         34.7504
-144698301.14847-112751916.31647  21643483.5234                   21643482.4264
        46.0004         42.0004
-131978771.44947-102633097.00044  22868729.8364                   22868732.4414
        43.5004         28.2504
-121423091.62946 -94525355.98443  24353959.7424                   24353960.8914
        37.5004         19.5004
 25  8  6  0  4 30.0000000  0 10G26G02G03G06G09G16G04G31G01G28
 -84813159.39847 -67111573.96946  21636358.1254                   21636361.0044
        47.0004         41.7504
-117546960.14845 -91497796.39142  24846664.5704                   24846670.9064
        33.5004         16.7504
-112199127.49648 -87354743.36348  20044982.5474                   20044983.9574
        49.5004         49.7504
  -1514860.68446  -5083553.21543  25125778.0704                   25125782.6484
        37.7504         22.5004
 -11444098.23846  -8738508.03145  23919269.8204                   23919275.0784
        37.7504         30.2504
 -47385488.42247 -31985048.73444  22591253.3134                   22591255.0664
        43.2504         26.7504
 -84684255.94947 -65748562.20745  21315844.0004                   21315844.7424
        46.2504         34.7504
-144878610.93747-112892417.47747  21609171.7274                   21609170.6844
        46.0004         42.5004
-132153873.89147-102769540.57044  22835408.5314                   22835411.6804
        43.0004         28.7504
-121584120.62546 -94650833.16043  24323316.8364                   24323318.4024
        39.0004         19.2504
 25  8  6  0  5  0.0000000  0 10G26G02G03G06G09G16G04G31G01G28
 -85088090.40647 -67325805.87147  21584040.3444                   21584043.1644
        47.2504         42.0004
-117719046.85545 -91631890.27743  24813917.2814                   24813924.0824
        34.7504         18.2504
-112467233.87148 -87563657.41848  19993963.4224                   19993965.0704
        49.2504         49.7504
  -1830776.43446  -5329721.32844  25065661.4924                   25065666.5704
        37.5004         24.5004
 -11782433.73846  -9002145.90245  23854885.7664                   23854891.3404
        37.5004         30.5004
 -47737920.24647 -32259670.77344  22524188.1564                   22524189.4884
        43.0004         27.2504
 -84987628.99247 -65984956.71945  21258113.8284                   21258114.4844
        47.2504         34.5004
-145058620.77347-113032684.90247  21574916.7504                   21574915.9144
        46.7504         42.2504
-132328735.90247-102905796.80544  22802133.6484                   22802136.8204
        43.0004         27.5004
-121745103.15646 -94776274.16843  24292682.6564                   24292684.0204
        39.2504         18.5004
 25  8  6  0  5 30.0000000  0 10G26G02G03G06G09G16G04G31G01G28
 -85362416.00847 -67539566.03147  21531838.2584                   21531841.1134
        47.5004         42.0004
-117891210.74245 -91766044.26642  24781155.1644                   24781163.0434
        34.7504         17.7504
-112734795.55948 -87772147.03548  19943048.3914                   19943049.7584
        49.7504         49.5004
  -2146230.15246  -5575529.39144  25005632.9614                   25005636.9534
        38.0004         26.7504
 -12120744.52746  -9265764.52345  23790507.8284                   23790512.9694
        38.5004         31.2504
 -48090068.51647 -32534071.85544  22457175.9144                   22457177.4734
        43.5004         26.2504
 -85290851.43047 -66221233.89545  21200412.5864                   21200412.8984
        46.5004         35.0004
-145238332.55547-113172720.07447  21540718.8364                   21540717.8244
        47.0004         42.5004
-132503359.77047-103041867.48444  22768903.8284                   22768907.0744
        43.2504         28.0004
-121906040.35546 -94901679.85543  24262057.9924                   24262059.0434
        39.0004         19.2504
 25  8  6  0  6  0.0000000  0 10G26G02G03G06G09G16G04G31G01G28
 -85636134.75847 -67752853.30947  21479750.6484                   21479753.6524
        47.0004         42.0004
-118063453.84446 -91900259.96943  24748378.5234                   24748386.7274
        36.0004         19.0004
-113001811.01648 -87980211.01248  19892237.2194                   19892238.4534
        49.2504         49.5004
  -2461219.66446  -5820975.76244  24945692.1094                   24945696.7894
        38.2504         27.0004
 -12459029.82446  -9529363.28145  23726134.7664                   23726138.7974
        39.5004         32.2504
 -48441929.36747 -32808248.98044  22390219.3674                   22390220.6454
        43.0004         26.7504
 -85593922.43047 -66457393.06245  21142739.8914                   21142740.5864
        47.2504         34.7504
-145417748.38347-113312524.63347  21506577.0784                   21506576.3204
        47.2504         42.2504
-132677748.30547-103177754.78944  22735718.9384                   22735722.0554
        42.2504         27.7504
-122066933.54346 -95027051.21143  24231440.6954                   24231441.8594
        39.5004         19.0004
 25  8  6  0  6 30.0000000  0 10G26G02G03G06G09G16G04G31G01G28
 -85909247.96547 -67965668.74647  21427779.3284                   21427781.9064
        47.0004         42.2504
-118235780.93746 -92034541.08643  24715586.7664                   24715594.0744
        36.0004         19.0004
-113268281.35248 -88187850.22748  19841529.1174                   19841530.8634
        49.5004         49.7504
  -2775745.35946  -6066060.69544  24885839.6024                   24885844.7544
        38.2504         25.5004
 -12797291.71946  -9792943.79345  23661764.4224                   23661769.7584
        40.0004         31.5004
 -48793501.35247 -33082200.99644  22323317.4064                   22323318.8714
        42.5004         28.0004
 -85896843.89147 -66693435.70345  21085095.7504                   21085096.7464
        46.7504         35.0004
-145596872.71547-113452102.05147  21472491.1804                   21472490.1454
        46.7504         42.0004
-132851906.71547-103313462.76244  22702577.7344                   22702580.8284
        42.7504         27.7504
-122227786.85246 -95152391.50043  24200831.7344                   24200833.2194
        39.2504         19.5004
 25  8  6  0  7  0.0000000  0 10G26G02G03G06G09G16G04G31G01G28
 -86181753.10947 -68178010.37547  21375923.2504                   21375925.9184
        47.2504         42.0004
-118408192.71545 -92168888.24243  24682778.3054                   24682785.3404
        35.2504         20.2504
-113534203.96148 -88395062.64148  19790926.1724                   19790927.3014
        49.2504         49.5004
  -3089804.20346  -6310781.84444  24826076.4454                   24826081.3674
        38.5004         28.0004
 -13135528.30146 -10056504.61345  23597400.5314                   23597405.6954
        39.2504         32.2504
 -49144779.22347 -33355923.84844  22256470.8984                   22256472.3244
        43.0004         26.5004
 -86199613.87947 -66929360.31645  21027480.8444                   21027480.8594
        47.7504         34.7504
-145775706.95747-113591453.41447  21438460.1644                   21438458.8444
        46.5004         42.5004
-133025836.52747-103448992.60944  22669479.5394                   22669482.9064
        42.2504         27.5004
-122388600.44146 -95277700.84843  24170230.0474                   24170231.5554
        40.0004         20.0004
 25  8  6  0  7 30.0000000  0 10G26G02G03G06G09G16G04G31G01G28
 -84878220.05147 -67162270.28547  21623977.3914                   21623980.2424
        47.0004         42.5004
-117005265.83646 -91075698.77343  24949746.4774                   24949753.8014
        37.0004         19.7504
-112224148.77048 -87374240.39848  20040220.9694                   20040222.7584
        48.7504         49.5004
  -1827963.86746  -5327529.61344  25066196.9924                   25066201.6994
        38.0004         28.5004
 -11898307.96946  -9092436.65245  23832835.0004                   23832840.3594
        40.0004         32.5004
 -47920328.02047 -32401805.86744  22489476.2274                   22489477.4144
        42.5004         27.5004
 -84926801.78947 -65937558.64545  21269688.6884                   21269689.2854
        47.2504         34.5004
-144378827.32847-112502975.80147  21704277.1094                   21704276.2194
        46.5004         42.5004
-131624114.81247-102356742.05544  22936219.0634                   22936222.4064
        43.0004         27.5004
-120973950.58246 -94175376.33643  24439428.7274                   24439430.4774
        40.5004         20.2504
 25  8  6  0  8  0.0000000  0 10G26G02G03G06G09G16G04G31G01G28
 -85149505.85547 -67373661.78147  21572353.2664                   21572356.1454
        46.5004         42.5004
-117177853.87546 -91210183.27743  24916904.0704                   24916912.1954
        36.5004         21.5004
-112488972.18748 -87580596.29748  19989826.9534                   19989828.0354
        48.7504         49.5004
  -2141083.28146  -5571518.73844  25006612.6094                   25006616.8164
        39.5004         28.7504
 -12236492.76646  -9355957.10545  23768481.2034                   23768486.1174
        40.2504         32.5004
 -48271007.34847 -32675062.30944  22422744.1644                   22422745.2854
        42.5004         26.7504
 -85229267.18047 -66173245.91445  21212131.4454                   21212131.9064
        47.0004         35.2504
-144557088.07447-112641880.28547  21670355.4924                   21670354.4884
        46.5004         42.0004
-131797596.03147-102491922.34044  22903206.5234                   22903210.2774
        42.0004         26.2504
-121134689.50846 -94300627.48843  24408841.5704                   24408842.5904
        40.7504         21.5004
 25  8  6  0  8 30.0000000  0 10G26G02G03G06G09G16G04G31G01G28
 -85420181.28547 -67584577.65647  21520845.6884                   21520848.2384
        46.5004         42.7504
-117350534.28546 -91344739.74643  24884044.6724                   24884051.5904
        37.2504         21.5004
-112753245.04348 -87786523.18748  19939537.3524                   19939538.8284
        49.5004         49.7504
  -2453731.18446  -5815140.46145  24947117.3054                   24947121.9924
        40.0004         30.0004
 -12574651.79346  -9619457.47745  23704130.8984                   23704136.3754
        39.5004         32.7504
 -48621382.30147 -32948081.60244  22356069.8594                   22356071.3484
        42.2504         28.0004
 -85531580.28147 -66408814.50445  21154603.1334                   21154603.8914
        45.7504         34.7504
-144735066.46547-112780564.75446  21636487.4924                   21636486.2584
        46.5004         41.7504
-131970858.14147-102626931.91044  22870236.1024                   22870239.0314
        42.5004         27.0004
-121295394.38746 -94425852.11343  24378260.3054                   24378262.1604
        41.2504         22.0004
 25  8  6  0  9  0.0000000  0 10G26G02G03G06G09G16G04G31G01G28
 -85690243.55147 -67795015.74247  21469454.1724                   21469457.2464
        45.7504         42.5004
-117523307.65646 -91479368.68743  24851167.6724                   24851174.6804
        37.7504         21.5004
-113016964.39848 -87992018.77748  19889353.5164                   19889354.7424
        48.0004         49.5004
  -2765903.92646  -6058391.93445  24887712.7424                   24887717.3244
        40.0004         30.2504
 -12912782.83246  -9882936.02745  23639786.8524                   23639791.5984
        40.2504         32.7504
 -48971447.86747 -33220859.79344  22289454.1094                   22289455.4264
        42.0004         27.7504
 -85833738.71147 -66644262.58245  21097103.9384                   21097104.3364
        46.2504         35.2504
-144912763.53947-112919030.01647  21602672.6954                   21602671.6764
        46.7504         42.0004
-132143902.28147-102761771.62544  22837306.6254                   22837310.6764
        42.5004         27.5004
-121456064.87146 -94551049.94143  24347685.2894                   24347687.2774
        41.5004         22.7504
 25  8  6  0  9 30.0000000  0 10G26G02G03G06G09G16G04G31G01G28
 -85959690.83247 -68004974.61747  21418180.3284                   21418182.8484
        45.7504         42.5004
-117696175.16246 -91614070.94243  24818272.1724                   24818279.3204
        38.5004         20.7504
-113280128.17648 -88197081.44548  19839275.0554                   19839276.0664
        48.7504         49.5004
  -3077598.89846  -6301271.10545  24828399.6334                   24828403.4844
        41.0004         31.5004
 -13250884.55546 -10146391.72745  23575448.0864                   23575453.2384
        40.7504         33.5004
 -49321199.18747 -33493393.13344  22222899.2034                   22222900.0314
        43.0004         28.0004
 -86135741.06647 -66879589.03945  21039635.4844                   21039635.7304
        47.0004         34.5004
-145090180.43747-113057276.95347  21568911.7814                   21568910.5204
        46.2504         42.2504
-132316730.49247-102896443.09444  22804418.7664                   22804422.0904
        43.0004         25.7504
-121616701.76646 -94676221.60243  24317117.6094                   24317119.1644
        41.5004         22.5004
 25  8  6  0 10  0.0000000  0 10G26G02G03G06G09G16G04G31G01G28
 -86228525.86747 -68214456.42247  21367023.0004                   21367025.7304
        46.0004         42.7504
-117869142.95346 -91748851.30943  24785357.0864                   24785365.1174
        38.0004         22.0004
-113542739.00048 -88401713.24248  19789301.5634                   19789302.7304
        49.0004         49.5004
  -3388818.05146  -6543779.52045  24769176.0004                   24769180.5274
        41.0004         30.7504
 -13588960.24246 -10409827.15245  23511114.4924                   23511119.3164
        40.5004         34.0004
 -49670636.49247 -33765681.77744  22156402.9384                   22156404.0124
        42.0004         27.7504
 -86437590.52047 -67114796.35545  20982195.0084                   20982195.6294
        47.2504         34.7504
-145267323.16047-113195310.25447  21535202.3364                   21535201.4304
        46.5004         42.2504
-132489349.34046-103030951.41844  22771570.6564                   22771574.5044
        41.0004         27.0004
-121777310.29347 -94801371.13743  24286554.5944                   24286556.6564
        42.0004         22.0004
 25  8  6  0 10 30.0000000  0 10G26G02G03G06G09G16G04G31G01G28
 -84921317.11747 -67195852.16047  21615776.2974                   21615778.7464
        46.2504         42.5004
-116466785.59846 -90656105.60243  25052216.3204                   25052224.7774
        38.2504         21.2504
-112229365.32048 -87378305.16448  20039228.3284                   20039229.4384
        50.0004         49.5004
  -2124127.71546  -5558306.52044  25009839.0314                   25009842.9384
        41.2504         29.7504
 -12351576.40646  -9445631.77045  23746580.6804                   23746585.1914
        41.0004         35.5004
 -48444322.46547 -32810112.24644  22389762.6644                   22389763.8634
        42.5004         27.5004
 -85163854.64547 -66122274.82445  21224578.5314                   21224579.0904
        47.0004         35.0004
-143868766.33647-112105525.72747  21801338.7974                   21801337.9964
        47.2504         42.2504
-131086334.28547-101937693.07044  23038555.4694                   23038559.2344
        42.2504         27.2504
-120362464.94546 -93698894.29743  24555791.1024                   24555792.6294
        41.2504         22.5004
 25  8  6  0 11  0.0000000  0 10G26G02G03G06G09G16G04G31G01G28
 -85188922.35247 -67404375.67647  21564852.0554                   21564855.4184
        46.0004         42.5004
-116639957.88346 -90791045.30143  25019263.5314                   25019271.8364
        39.7504         23.0004
-112490864.30148 -87582070.59448  19989466.8284                   19989468.3444
        48.2504         49.5004
  -2434387.52046  -5800067.38745  24950798.4694                   24950802.6804
        40.7504         30.0004
 -12689596.00446  -9709023.47345  23682257.2664                   23682262.5474
        41.0004         35.5004
 -48793117.94547 -33081900.77044  22323388.6804                   22323389.8874
        42.5004         28.2504
 -85465393.80947 -66357240.34445  21167197.7274                   21167198.2974
        47.5004         34.7504
-144045365.17247-112243135.22747  21767733.2734                   21767732.2464
        46.7504         42.0004
-131258540.57046-102071879.92644  23005785.7034                   23005789.9344
        41.7504         26.7504
-120523018.75846 -93824001.20343  24525239.0394                   24525240.1024
        41.5004         22.2504
 25  8  6  0 11 30.0000000  0 10G26G02G03G06G09G16G04G31G01G28
 -85455908.12147 -67612416.48447  21514046.7034                   21514049.7344
        46.0004         42.7504
-116813232.50446 -90926064.74643  24986290.6954                   24986298.9534
        39.0004         22.2504
-112751802.40248 -87785398.97348  19939811.7974                   19939812.9614
        48.5004         49.5004
  -2744161.73846  -6041449.88344  24891850.3444                   24891854.1884
        40.7504         29.0004
 -13027583.50446  -9972390.17245  23617940.8134                   23617945.5514
        41.5004         35.5004
 -49141583.70347 -33353432.37144  22257078.3674                   22257078.8714
        42.5004         28.5004
 -85766773.66047 -66592081.72745  21109847.2664                   21109847.4024
        47.5004         35.2504
-144221692.47347-112380533.13346  21734179.2504                   21734178.2854
        47.2504         41.7504
-131430541.61346-102205906.84444  22973055.1024                   22973058.9064
        41.7504         26.7504
-120683544.16046 -93949086.01643  24494691.4694                   24494693.1954
        40.2504         22.7504
 25  8  6  0 12  0.0000000  0 10G26G02G03G06G09G16G04G31G01G28
 -85722265.02047 -67819967.27347  21463360.5864                   21463363.4694
        46.2504         43.0004
-116986602.80546 -91061158.76243  24953299.8674                   24953307.3404
        39.7504         21.2504
-113012170.01248 -87988282.81248  19890265.4454                   19890267.0434
        48.5004         49.5004
  -3053440.21946  -6282446.09044  24832996.7344                   24833000.8714
        40.5004         29.5004
 -13365529.89146 -10235724.83645  23553631.2424                   23553636.2274
        41.0004         35.7504
 -49489707.35247 -33624697.39844  22190832.1414                   22190833.2424
        42.7504         27.5004
 -86067985.04347 -66826791.82845  21052528.0394                   21052528.7034
        47.5004         34.7504
-144397741.80147-112517714.44146  21700678.0474                   21700677.1024
        47.5004         41.7504
-131602331.73046-102339769.41444  22940364.5394                   22940368.5124
        41.2504         26.5004
-120844034.18046 -94074143.23043  24464151.6564                   24464153.0204
        40.0004         22.7504
 25  8  6  0 12 30.0000000  0 10G26G02G03G06G09G16G04G31G01G28
 -85987996.44547 -68027030.67647  21412793.5704                   21412796.4024
        46.2504         42.5004
-117160075.64846 -91196332.65643  24920289.1414                   24920296.9844
        40.0004         20.7504
-113271970.41048 -88190724.66448  19840827.3444                   19840828.4264
        49.0004         49.5004
  -3362225.51646  -6523058.00844  24774236.2894                   24774241.3094
        40.5004         28.2504
 -13703438.97746 -10499030.43745  23489329.6484                   23489333.7154
        41.0004         34.0004
 -49837489.75847 -33895696.52344  22124651.0474                   22124652.2154
        43.2504         28.2504
 -86369031.62947 -67061373.52745  20995240.9844                   20995241.3054
        47.5004         35.5004
-144573520.19547-112654684.63746  21667228.6564                   21667227.5664
        47.2504         41.5004
-131773918.13346-102473473.24644  22907713.3444                   22907717.2234
        40.7504         26.0004
-121004494.53546 -94199177.34843  24433616.8674                   24433618.0984
        39.5004         22.7504
 25  8  6  0 13  0.0000000  0 10G26G02G03G06G09G16G04G31G01G28
 -86253101.84047 -68233606.26247  21362345.8054                   21362348.4694
        47.5004         42.5004
-117333653.22746 -91331588.16643  24887258.5704                   24887266.5864
        39.5004         19.7504
-113531202.70748 -88392723.84848  19791496.8284                   19791498.1604
        48.2504         49.5004
  -3670516.09446  -6763284.41844  24715570.7034                   24715574.6054
        39.5004         27.0004
 -14041310.39847 -10762306.69945  23425033.9924                   23425038.8284
        42.0004         34.7504
 -50184927.68747 -34166427.21944  22058536.3364                   22058537.0204
        42.7504         28.5004
 -86669912.94147 -67295826.44145  20937985.2734                   20937985.6564
        47.7504         34.7504
-144749029.76647-112791445.35946  21633830.3834                   21633829.1174
        45.7504         41.5004
-131945303.81246-102607020.66444  22875099.8524                   22875103.3204
        41.2504         25.7504
-121164926.87146 -94324189.63743  24403087.4454                   24403088.9804
        38.2504         21.5004
 25  8  6  0 13 30.0000000  0 10G26G02G03G06G09G16G04G31G01G28
 -84942155.91447 -67212089.91047  21611810.8054                   21611813.7504
        46.2504         42.7504
-115931916.26646 -90239325.82043  25154000.4534                   25154009.3984
        41.2504         19.0004
-112214441.51648 -87366676.15648  20042068.2734                   20042069.8364
        48.0004         49.7504
  -2402884.41446  -5775519.46944  24956792.7894                   24956796.8874
        38.7504         27.2504
 -12803716.63346  -9797947.76645  23660540.3054                   23660544.8914
        41.2504         34.2504
 -48956589.65647 -33209280.56644  22292280.5474                   22292281.7664
        43.5004         28.5004
 -85395202.62147 -66302545.61745  21180554.2974                   21180555.1254
        47.5004         35.2504
-143348851.16847-111700397.11746  21900275.3524                   21900274.2304
        46.5004         41.5004
-130541070.30946-101512812.88744  23142316.7424                   23142320.3674
        41.2504         26.0004
-119749911.52746 -93221580.34843  24672356.2974                   24672358.2774
        37.2504         20.2504
 25  8  6  0 14  0.0000000  0 10G26G02G03G06G09G16G04G31G01G28
 -85206016.22747 -67417695.30147  21561599.1564                   21561601.7624
        47.0004         42.5004
-116105719.23046 -90374756.93443  25120927.2424                   25120935.6134
        41.2504         19.5004
-112472543.89148 -87567794.88348  19992953.1644                   19992954.4804
        49.7504         49.5004
  -2710190.03546  -6014978.38344  24898314.2894                   24898319.3984
        37.0004         25.2504
 -13141520.48046 -10061171.39545  23596258.3444                   23596262.2344
        40.7504         33.7504
 -49303336.05147 -33479472.41044  22226296.7274                   22226298.0044
        44.0004         29.2504
 -85695760.77747 -66536746.72745  21123360.3444                   21123360.6724
        47.7504         35.5004
-143523839.01647-111836751.30546  21866976.4064                   21866975.2704
        46.0004         41.5004
-130712072.56646-101646061.52744  23109776.6024                   23109779.5234
        41.0004         26.2504
-119910301.48446 -93346559.60243  24641835.1174                   24641836.8834
        37.0004         20.5004
 25  8  6  0 14 30.0000000  0 10G26G02G03G06G09G16G04G31G01G28
 -85469254.87947 -67622816.28147  21511506.4924                   21511509.6024
        45.2504         42.7504
-116279640.02746 -90510279.78942  25087831.0704                   25087839.7774
        40.0004         17.2504
-112730081.76248 -87768473.73448  19943945.3284                   19943946.5314
        50.0004         49.5004
  -3017002.77046  -6254053.20744  24839929.5634                   24839934.1024
        36.5004         26.0004
 -13479291.64546 -10324369.55545  23531982.0164                   23531986.8054
        41.5004         34.2504
 -49649733.30547 -33749392.20344  22160379.8674                   22160380.7934
        44.0004         29.2504
 -85996158.34047 -66770822.69545  21066196.6024                   21066196.5664
        47.5004         35.0004
-143698571.80547-111972906.73446  21833725.9774                   21833724.7464
        46.0004         41.0004
-130882889.39846-101779165.68044  23077271.1174                   23077274.8364
        41.7504         27.5004
-120070674.37946 -93471525.58643  24611316.6174                   24611318.4144
        36.2504         20.2504
 25  8  6  0 15  0.0000000  0 10G26G02G03G06G09G16G04G31G01G28
 -85731870.53547 -67827451.81247  21461532.4144                   21461535.2624
        45.7504         42.5004
-116453680.09846 -90645895.61742  25054712.4064                   25054721.5084
        39.0004         15.5004
-112987053.56648 -87968711.50048  19895045.1564                   19895046.3244
        48.2504         49.7504
  -3323320.27745  -6492742.16444  24781639.8674                   24781644.1644
        35.2504         24.2504
 -13817028.98046 -10587541.35545  23467713.2894                   23467717.3874
        41.5004         34.7504
 -49995776.91047 -34019036.42244  22094529.4614                   22094530.2734
        44.2504         28.2504
 -86296394.00447 -67004772.52045  21009063.2034                   21009063.8834
        47.2504         35.5004
-143873051.18747-112108864.72346  21800523.4924                   21800522.9884
        46.5004         41.5004
-131053523.02746-101912127.09044  23044800.5004                   23044804.1134
        41.2504         27.0004
-120231030.95745 -93596478.87943  24580802.2584                   24580804.3054
        35.7504         19.0004
 25  8  6  0 15 30.0000000  0 10G26G02G03G06G09G16G04G31G01G28
 -85993863.68447 -68031602.27747  21411677.0704                   21411679.4064
        46.0004         42.7504
-116627842.859 6                  25021570.586
        38.500
-113243459.46948 -88168508.30148  19846252.3364                   19846253.8754
        48.7504         49.5004
  -3629142.16045  -6731044.89543  24723443.3754                   24723447.8634
        34.0004         22.5004
 -14154733.07446 -10850687.26245  23403450.4064                   23403454.2774
        41.7504         34.5004
 -50341464.08247 -34288402.91044  22028747.0554                   22028747.9844
        44.5004         28.0004
 -86596468.24647 -67238596.55945  20951961.2194                   20951961.6604
        47.5004         35.2504
-144047280.53547-112244627.87546  21767368.5864                   21767367.7894
        46.5004         41.0004
-131223977.45747-102044948.86344  23012363.9304                   23012367.8714
        42.0004         28.0004
-120391373.86345 -93721421.45743  24550290.3524                   24550292.3794
        35.0004         19.0004
 25  8  6  0 16  0.0000000  0 10G26G02G03G06G09G16G04G31G01G28
 -86255234.60947 -68235267.88347  21361939.5234                   21361941.7774
        45.5004         42.5004
-116802131.301 6                  24988404.828
        37.500
-113499299.55948 -88367864.21148  19797567.6484                   19797569.1564
        49.5004         49.5004
  -3934467.91045  -6968961.02744  24665341.5944                   24665346.5474
        33.7504         24.5004
 -14492404.37946 -11113807.60545  23339193.4774                   23339197.9414
        40.7504         34.2504
 -50686792.87547 -34557490.14544  21963033.1564                   21963034.0204
        44.5004         29.0004
 -86896381.34047 -67472295.02745  20894889.4384                   20894889.5354
        47.5004         35.0004
-144221263.14147-112380198.74646  21734261.0944                   21734259.9804
        45.5004         40.7504
-131394256.52746-102177633.98444  22979961.2274                   22979965.3164
        41.7504         27.5004
-120551705.30946 -93846355.16043  24519779.9304                   24519782.3524
        36.2504         18.5004
 25  8  6  0 16 30.0000000  0 10G26G02G03G06G09G16G04G31G01G28
 -84940553.70747 -67210841.15647  21612114.8364                   21612117.6954
        46.2504         42.7504
-115401121.434 6                  25255008.672
        37.000
-112179144.09848 -87339171.64148  20048784.9304                   20048786.3284
        49.5004         49.5004
  -2663865.39545  -5978881.09044  24907129.0084                   24907134.1954
        32.5004         24.5004
 -13254610.66046 -10149292.86345  23574737.1094                   23574741.5704
        40.7504         35.5004
 -49456327.60547 -33598685.89844  22197182.7974                   22197183.5314
        45.0004         28.7504
 -85620702.30947 -66478259.37945  21137643.3054                   21137643.5044
        47.7504         35.0004
-142819574.80147-111287974.09046  22000993.0944                   22000992.1334
        45.2504         40.5004
-129988937.13346-101082580.05144  23247384.9534                   23247388.4844
        41.2504         26.7504
-119136601.18446 -92743676.70743  24789065.1724                   24789067.4184
        37.5004         19.0004
 25  8  6  0 17  0.0000000  0 10G26G02G03G06G09G16G04G31G01G28
 -85200676.08247 -67413533.86747  21562615.3364                   21562618.1994
        46.0004         43.0004
-115575665.160 6                  25221794.148
        36.000
-112433847.46148 -87537641.78148  20000316.9534                   20000318.0984
        50.2504         49.5004
  -2968191.71945  -6216018.41844  24849216.9924                   24849223.0434
        33.2504         24.5004
 -13592212.14146 -10412358.78145  23510493.7664                   23510498.0744
        40.7504         35.0004
 -49800925.68047 -33867203.73044  22131608.3834                   22131608.5514
        44.7504         29.2504
 -85920288.62948 -66711703.22745  21080633.9224                   21080634.1764
        48.0004         35.5004
-142993067.71547-111423163.39846  21967978.8054                   21967978.1024
        45.7504         40.5004
-130158871.68446-101214996.73844  23215047.1564                   23215051.6024
        41.7504         25.5004
-119296911.69946 -92868594.03543  24758559.8984                   24758561.0904
        38.5004         19.7504
 25  8  6  0 17 30.0000000  0 10G26G02G03G06G09G16G04G31G01G28
 -85460172.39547 -67615738.73847  21513235.1254                   21513237.8284
        47.0004         43.0004
-115750338.922 5                  25188555.367
        31.750
-112687980.30948 -87735667.36748  19951956.6954                   19951958.3984
        50.7504         49.5004
  -3272015.24645  -6452763.98844  24791402.4304                   24791407.4654
        34.2504         26.5004
 -13929777.02046 -10675396.18445  23446257.5234                   23446261.3164
        40.5004         34.2504
 -50145151.92647 -34135431.84444  22066104.3754                   22066104.2424
        45.2504         29.2504
 -86219709.71147 -66945018.31245  21023655.7274                   21023655.9734
        47.7504         35.0004
-143166318.47747-111558164.01646  21935010.1644                   21935009.3134
        46.0004         40.7504
-130328637.40246-101347281.85544  23182741.9614                   23182746.1334
        41.7504         26.7504
-119457212.90246 -92993504.11743  24728055.3984                   24728057.1724
        38.0004         18.5004
 25  8  6  0 18  0.0000000  0 10G26G02G03G06G09G16G04G31G01G28
 -85719047.72347 -67817459.72747  21463972.1094                   21463975.1954
        46.2504         42.7504
-115925150.195 5                  25155290.570
        30.250
-112941547.30948 -87933252.03948  19903704.7734                   19903706.0784
        50.2504         49.5004
  -3575339.93445  -6689120.82844  24733681.8444                   24733686.5594
        35.0004         27.5004
 -14267310.22346 -10938408.88745  23382026.4924                   23382030.7194
        40.5004         34.0004
 -50489008.42647 -34403371.84444  22000669.9144                   22000670.6914
        45.7504         28.7504
 -86518970.30947 -67178208.35546  20966708.7194                   20966708.7074
        47.2504         36.0004
-143339334.82847-111692981.97746  21902086.5634                   21902085.1524
        46.0004         41.0004
-130498242.73446-101479441.99644  23150466.9534                   23150471.0634
        41.5004         25.0004
-119617511.73846 -93118412.36343  24697551.1174                   24697553.0784
        38.0004         19.7504
 25  8  6  0 18 30.0000000  0  9G26G03G06G09G16G04G31G01G28
 -85977296.78547 -68018692.72347  21414829.0474                   21414832.2814
        45.7504         42.7504
-113194542.93748 -88130391.48848  19855561.1334                   19855562.6024
        50.5004         49.5004
  -3878159.53546  -6925084.13344  24676057.6414                   24676062.4304
        36.5004         28.7504
 -14604806.39146 -11201392.73845  23317803.5704                   23317807.2234
        40.5004         33.2504
 -50832486.45747 -34671016.92644  21935308.3834                   21935308.9344
        44.5004         28.5004
 -86818064.97747 -67411269.09845  20909792.7504                   20909792.6764
        47.5004         35.5004
-143512114.11347-111827615.19946  21869207.9694                   21869207.0044
        46.7504         41.0004
-130667685.71147-101611475.63344  23118223.5314                   23118227.7194
        42.0004         25.2504
-119777804.75846 -93243316.05543  24667049.0634                   24667050.2384
        39.0004         18.2504
 25  8  6  0 19  0.0000000  0  9G26G03G06G09G16G04G31G01G28
 -86234920.38347 -68219438.32847  21365805.1094                   21365807.9264
        47.0004         42.7504
-113446967.70348 -88327086.10248  19807526.3594                   19807527.7114
        49.2504         49.5004
  -4180474.01246  -7160653.83244  24618528.2034                   24618533.2384
        36.5004         29.0004
 -14942266.27346 -11464348.31245  23253586.0234                   23253590.6994
        40.0004         33.5004
 -51175584.14147 -34938365.64544  21870019.0474                   21870019.2344
        44.0004         29.5004
 -87116994.34048 -67644201.02045  20852907.8914                   20852908.2274
        48.0004         35.5004
-143684660.27347-111962066.77746  21836373.1564                   21836372.4304
        45.7504         41.0004
-130836970.50846-101743386.02744  23086009.7194                   23086013.6374
        41.5004         26.5004
-119938094.59446 -93368217.25042  24636546.6254                   24636548.1604
        39.2504         17.7504
 25  8  6  0 19 30.0000000  0  9G26G03G06G09G16G04G31G01G28
 -84916490.33647 -67192090.19947  21616693.7894                   21616696.6644
        47.0004         42.7504
-112123393.16048 -87295729.31648  20059394.0234                   20059395.4064
        50.0004         49.5004
  -2906852.57445  -6168221.49645  24860890.3834                   24860895.2504
        35.5004         31.0004
 -13704258.77346 -10499666.95745  23489171.9064                   23489175.2704
        39.7504         33.2504
 -49942867.27747 -33977806.91444  22104596.9534                   22104597.0864
        44.2504         29.0004
 -85840328.40647 -66649396.34845  21095849.0944                   21095849.3364
        47.7504         35.5004
-142281550.28147-110868734.34046  22103376.0004                   22103375.2734
        45.5004         40.0004
-129430675.14546-100647571.62544  23353618.9614                   23353623.1294
        40.5004         24.5004
-118522958.00846 -92265513.43743  24905838.7814                   24905840.2074
        39.5004         18.5004
 25  8  6  0 20  0.0000000  0  9G26G03G06G09G16G04G31G01G28
 -85172862.72747 -67391860.85247  21567907.9844                   21567910.3634
        46.7504         42.5004
-112374674.84448 -87491533.21548  20011576.7584                   20011578.0044
        49.7504         49.5004
  -3208153.51245  -6403001.43045  24803554.9454                   24803559.5204
        35.0004         30.2504
 -14041645.15246 -10762565.26645  23424968.7894                   23424972.8594
        39.5004         34.0004
 -50285194.24647 -34244555.07844  22039454.1174                   22039454.4184
        44.2504         29.2504
 -86138925.82847 -66882069.60945  21039027.8444                   21039028.3444
        47.0004         35.5004
-142453637.32847-111002828.16846  22070629.4064                   22070628.1254
        46.0004         41.5004
-129599653.17246-100779242.96544  23321464.1334                   23321468.0204
        40.7504         25.7504
-118683246.43746 -92390413.50442  24875336.0314                   24875338.0744
        40.0004         16.7504
 25  8  6  0 20 30.0000000  0  9G26G03G06G09G16G04G31G01G28
 -85428610.51647 -67591144.80547  21519240.8674                   21519243.1884
        46.0004         42.7504
-112625385.44548 -87686892.11348  19963868.0634                   19963869.6134
        50.0004         49.5004
  -3508946.99246  -6637385.94145  24746315.7034                   24746320.7304
        38.2504         32.7504
 -14378995.46146 -11025435.47345  23360773.2894                   23360776.6954
        39.7504         34.5004
 -50627131.75847 -34510999.75845  21974385.4144                   21974385.9654
        43.7504         30.2504
 -86437357.73847 -67114613.90246  20982238.6484                   20982238.6564
        47.0004         36.0004
-142625499.79747-111136747.00446  22037925.0164                   22037923.8244
        46.5004         41.0004
-129768483.63747-100910799.33244  23289336.6644                   23289340.3594
        42.0004         24.7504
-118843537.71146 -92515315.82042  24844833.7274                   24844835.4344
        40.2504         17.7504
 25  8  6  0 21  0.0000000  0  9G26G03G06G09G16G04G31G01G28
 -85683730.68047 -67789939.69947  21470693.0554                   21470695.8714
        46.7504         42.5004
-112875521.66448 -87881803.44548  19916268.8984                   19916270.2704
        50.2504         49.5004
  -3809229.23046  -6871372.08245  24689173.5474                   24689178.7584
        38.0004         33.5004
 -14716306.48846 -11288275.06245  23296584.3914                   23296588.6564
        40.0004         34.7504
 -50968674.10547 -34777136.52344  21909392.3204                   21909392.4024
        43.7504         29.5004
 -86735620.88347 -67347026.68746  20925480.8754                   20925481.0234
        47.5004         36.0004
-142797137.12947-111270490.41046  22005263.2114                   22005262.5904
        46.7504         40.7504
-129937166.82846-101042240.94944  23257237.1884                   23257241.6994
        41.0004         24.0004
-119003830.55146 -92640219.36343  24814331.6414                   24814333.3094
        40.0004         19.2504
 25  8  6  0 21 30.0000000  0  9G26G03G06G09G16G04G31G01G28
 -85938224.57447 -67988246.59047  21422264.1174                   21422266.9774
        47.2504         42.5004
-113125084.46148 -88076267.94548  19868778.3134                   19868779.7664
        50.2504         49.5004
  -4109000.45346  -7104960.02745  24632128.6804                   24632134.5204
        38.5004         32.7504
 -15053579.25446 -11551084.82445  23232403.0944                   23232407.6414
        40.0004         34.7504
 -51309818.93047 -35042963.53944  21844474.4454                   21844474.7544
        43.7504         29.5004
 -87033716.06247 -67579308.58245  20868755.1254                   20868755.2544
        47.5004         35.5004
-142968553.31647-111404061.49246  21972644.2584                   21972643.4184
        46.5004         40.2504
-130105707.18446-101173571.25444  23225164.9844                   23225169.5514
        41.7504         25.0004
-119164127.82046 -92765126.39143  24783827.6804                   24783830.1644
        39.7504         19.2504
 25  8  6  0 22  0.0000000  0  9G26G03G06G09G16G04G31G01G28
 -86192091.67647 -68186065.08247  21373954.4614                   21373957.2234
        46.7504         42.7504
-113374073.00448 -88270284.98848  19821397.7974                   19821398.8524
        50.5004         49.5004
  -4408259.14846  -7338148.59845  24575182.3204                   24575187.2814
        36.5004         33.7504
 -15390812.93046 -11813864.12545  23168229.8284                   23168234.1644
        39.5004         33.5004
 -51650562.51647 -35308477.90644  21779632.6174                   21779633.1334
        43.2504         29.2504
 -87331642.37547 -67811458.88745  20812061.5634                   20812061.6954
        46.7504         35.2504
-143139750.26647-111537461.73846  21940066.3674                   21940065.1374
        46.5004         41.2504
-130274107.38746-101304792.36343  23193119.6174                   23193124.0434
        41.5004         23.5004
-119324430.65246 -92890037.71943  24753323.5944                   24753324.9924
        39.0004         20.0004
 25  8  6  0 22 30.0000000  0  9G26G03G06G09G16G04G31G01G28
 -84869905.71947 -67155790.27347  21625558.8134                   21625561.1954
        46.5004         42.5004
-112047060.79748 -87236249.49248  20073919.7034                   20073921.1644
        49.5004         49.5004
  -3131576.52746  -6343330.94945  24818127.2664                   24818131.7504
        38.5004         33.7504
 -14152578.09446 -10849005.63345  23403858.4064                   23403862.1374
        40.0004         34.5004
 -50415472.48847 -34346069.96944  22014662.5004                   22014663.0904
        44.2504         29.2504
 -86053971.56247 -66815871.17645  21055194.1254                   21055194.4414
        47.0004         34.7504
-141735306.87947-110443090.29746  22207322.9924                   22207322.4024
        46.5004         41.0004
-128866947.15646-100208304.03944  23460893.5314                   23460897.7584
        41.0004         25.5004
-117909317.42246 -91787352.13743  25022611.2344                   25022612.4224
        38.5004         19.5004
 25  8  6  0 23  0.0000000  0  9G26G03G06G09G16G04G31G01G28
 -85122522.65247 -67352634.60247  21577486.9454                   21577489.6724
        46.2504         43.0004
-112294903.13748 -87429373.38348  20026756.8054                   20026757.9264
        50.0004         49.5004
  -3429810.57846  -6575721.08645  24761374.9844                   24761380.1484
        38.2504         33.0004
 -14489735.81246 -11111725.76245  23339699.2734                   23339702.8954
        41.7504         35.2504
 -50755407.23447 -34610954.04744  21949974.5864                   21949975.5594
        44.0004         29.5004
 -86351562.04347 -67047759.79746  20998564.6414                   20998564.9144
        47.7504         36.0004
-141906076.37547-110576157.46546  22174826.8754                   22174825.7584
        46.5004         41.0004
-129035079.79346-100339316.67244  23428898.7814                   23428903.4774
        41.0004         25.0004
-118069639.33646 -91912278.34843  24992102.1954                   24992104.0234
        37.2504         19.7504
 25  8  6  0 23 30.0000000  0  9G26G03G06G09G16G04G31G01G28
 -85374511.39547 -67548989.42647  21529535.4304                   21529537.4064
        47.0004         42.5004
-112542168.72748 -87622047.85948  19979703.6414                   19979704.8914
        49.0004         49.5004
  -3727527.56246  -6807708.32845  24704721.7734                   24704726.2544
        38.5004         33.2504
 -14826851.90647 -11374413.46945  23275547.9064                   23275551.6644
        42.0004         34.7504
 -51094929.39547 -34875516.64145  21885365.9614                   21885366.2894
        43.5004         30.0004
 -86648980.65247 -67279514.49245  20941967.7114                   20941967.9734
        46.7504         35.2504
-142076632.44147-110709058.32446  22142371.2274                   22142370.2624
        45.0004         40.5004
-129203080.15246-100470226.20743  23396930.1094                   23396934.5514
        39.5004         23.5004
-118229969.97746 -92037211.39543  24961592.3834                   24961594.3524
        36.5004         19.2504
 25  8  6  0 24  0.0000000  0  9G26G03G06G09G16G04G31G01G28
 -85625874.35247 -67744856.62547  21481702.5634                   21481705.0084
        46.5004         42.7504
-112788859.58648 -87814274.49248  19932760.1414                   19932761.3244
        50.0004         49.5004
  -4024728.80946  -7039293.69145  24648165.9224                   24648170.8204
        38.2504         32.7504
 -15163928.18447 -11637070.16046  23211404.0864                   23211407.8204
        42.5004         36.0004
 -51434038.28547 -35139757.21145  21820836.1254                   21820836.3914
        43.0004         30.2504
 -86946229.25447 -67511136.71946  20885403.2274                   20885403.3634
        47.2504         36.0004
-142246980.03547-110841796.73446  22109955.0314                   22109953.9414
        46.0004         41.0004
-129370953.66046-100601036.91443  23364984.5944                   23364988.9104
        41.2504         23.0004
-118390313.01646 -92162154.10542  24931080.3444                   24931082.3054
        36.0004         17.7504
 25  8  6  0 24 30.0000000  0  9G26G03G06G09G16G04G31G01G28
 -85876612.48847 -67940236.95747  21433988.1174                   21433990.8554
        47.2504         42.5004
-113034976.32048 -88006053.76248  19885925.8204                   19885926.8984
        49.5004         49.5004
  -4321414.44146  -7270477.27745  24591708.0394                   24591713.2704
        38.5004         31.7504
 -15500965.23046 -11899696.28145  23147269.0004                   23147271.8324
        41.7504         35.5004
 -51772731.36347 -35403673.78145  21756384.4534                   21756384.4774
        44.0004         31.0004
 -87243308.24647 -67742626.79345  20828870.8134                   20828871.2774
        47.7504         35.5004
-142417122.44947-110974375.27046  22077578.0474                   22077576.6914
        45.2504         39.7504
-129538704.36746-100731751.92644  23333063.0394                   23333067.1764
        40.0004         24.0004
-118550670.95746 -92287108.41443  24900565.5394                   24900566.5634
        36.0004         18.2504
 25  8  6  0 25  0.0000000  0  9G26G03G06G09G16G04G31G01G28
 -86126727.71947 -68135131.90647  21386393.2974                   21386395.7974
        46.7504         42.5004
-113280520.41048 -88197386.81248  19839199.7894                   19839201.4884
        49.7504         49.5004
  -4617585.08646  -7501259.57445  24535349.4064                   24535353.8634
        37.7504         32.5004
 -15837964.31246 -12162292.83245  23083139.4774                   23083142.9454
        41.0004         35.7504
 -52111007.20747 -35667265.23045  21692012.7894                   21692012.6094
        44.7504         30.5004
 -87540218.79747 -67973985.61345  20772370.3284                   20772370.5554
        47.0004         35.2504
-142587063.73847-111106797.07846  22045238.9534                   22045238.2074
        45.7504         40.0004
-129706337.03946-100862374.96944  23301163.6414                   23301168.1334
        41.2504         24.0004
-118711047.05145 -92412076.89842  24870046.0784                   24870048.7194
        35.0004         17.7504
 25  8  6  0 25 30.0000000  0  9G26G03G06G09G16G04G31G01G28
 -84800789.24647 -67101933.05947  21638710.8054                   21638713.3364
        46.7504         42.5004
-111950060.85948 -87160665.08648  20092378.2734                   20092379.2974
        50.2504         49.5004
  -3337807.41846  -6504030.21545  24778882.6174                   24778887.3554
        37.0004         32.0004
 -14599491.24646 -11197248.74245  23318812.7584                   23318816.3284
        41.0004         35.7504
 -50873428.38747 -34702917.96945  21927516.1954                   21927516.1644
        45.0004         30.5004
 -86261527.90647 -66977603.05545  21015697.4924                   21015697.9384
        47.2504         35.5004
-141181378.20347-110011457.72346  22312732.3524                   22312731.5044
        44.7504         39.7504
-128298426.60546 -99765302.09443  23569080.4144                   23569084.4414
        40.0004         23.0004
-117296014.76645 -91309454.43043  25139317.9924                   25139320.6294
        34.0004         19.2504
 25  8  6  0 26  0.0000000  0  9G26G03G06G09G16G04G31G01G28
 -85049653.04747 -67295852.86747  21591353.3364                   21591356.0904
        46.0004         42.2504
-112194452.92648 -87351100.45748  20045871.8914                   20045873.2234
        49.2504         49.2504
  -3632939.41046  -6734003.15645  24722720.2974                   24722725.6844
        37.7504         31.7504
 -14936407.18446 -11459780.50446  23254700.1724                   23254703.0664
        40.7504         36.5004
 -51210853.55147 -34965846.55145  21863305.9224                   21863306.3204
        44.2504         30.7504
 -86558093.94147 -67208693.42645  20959262.5704                   20959262.7704
        47.7504         35.2504
-141350918.53147-110143567.10546  22280469.4064                   22280468.5864
        46.0004         39.5004
-128465826.46146 -99895743.72743  23537225.1334                   23537229.8134
        41.0004         23.0004
-117456425.32045 -91434449.77343  25108793.5164                   25108795.8164
        32.7504         18.2504
 25  8  6  0 26 30.0000000  0  9G26G03G06G09G16G04G31G01G28
 -85297891.22747 -67489285.18047  21544115.6024                   21544117.8554
        46.5004         42.5004
-112438268.51648 -87541086.63348  19999475.0944                   19999476.5474
        49.7504         49.2504
  -3927550.57046  -6963570.26645  24666658.1334                   24666662.4964
        38.2504         30.7504
 -15273280.73846 -11722279.23046  23190594.8594                   23190598.2664
        41.0004         36.7504
 -51547848.21947 -35228439.66445  21799178.0084                   21799177.8634
        45.2504         30.7504
 -86854486.71547 -67439648.79345  20902861.1254                   20902861.0904
        47.5004         34.7504
-141520261.88347-110275522.99646  22248244.6724                   22248244.0004
        45.5004         39.5004
-128633114.33246-100026098.10244  23505391.6024                   23505396.2424
        41.7504         25.0004
-117616855.16045 -91559460.10942  25078265.0704                   25078267.2234
        33.5004         17.2504
 25  8  6  0 27  0.0000000  0  9G26G03G06G09G16G04G31G01G28
 -85545505.41447 -67682231.26247  21496995.5784                   21496998.3324
        46.0004         42.0004
-112681508.85948 -87730624.56248  19953188.4304                   19953189.6914
        50.0004         49.2504
  -4221641.47746  -7192731.99645  24610693.7504                   24610699.3094
        37.7504         31.2504
 -15610112.80947 -11984745.63746  23126497.3204                   23126501.2074
        42.5004         37.7504
 -51884411.27047 -35490696.46145  21735132.4304                   21735132.1604
        46.0004         31.2504
 -87150707.09847 -67670469.84046  20846492.1484                   20846492.3014
        47.5004         36.0004
-141689412.23847-110407328.49646  22216057.0234                   22216055.7424
        45.7504         39.2504
-128800294.72347-100156368.72744  23473578.3674                   23473583.1254
        42.0004         24.5004
-117777307.10945 -91684487.68742  25047731.0554                   25047733.8794
        34.2504         16.7504
 25  8  6  0 27 30.0000000  0  9G26G03G06G09G16G04G31G01G28
 -85792494.86347 -67874690.53147  21449995.0084                   21449997.6724
        47.5004         42.0004
-112924172.68048 -87919713.26248  19907010.4304                   19907011.8364
        50.0004         49.5004
  -4515210.13346  -7421486.77045  24554829.9844                   24554834.6484
        36.2504         31.0004
 -15946901.95347 -12247178.60946  23062408.5084                   23062412.1524
        42.5004         37.5004
 -52220537.96947 -35752613.23445  21671168.8914                   21671169.1994
        45.0004         30.5004
 -87446753.38747 -67901155.23045  20790156.5864                   20790156.3954
        47.7504         35.5004
-141858370.72747-110538984.49246  22183905.0394                   22183903.9494
        45.5004         39.5004
-128967369.62546-100286557.14143  23441784.8984                   23441790.0864
        41.5004         23.5004
-117937781.53545 -91809532.77743  25017194.7894                   25017196.7664
        34.0004         18.2504
 25  8  6  0 28  0.0000000  0 10G26G03G06G09G16G04G31G01G07G28
 -86038860.65647 -68066663.83246  21403113.0864                   21403115.8324
        47.5004         41.7504
-113166260.77748 -88108353.34048  19860942.6564                   19860944.2304
        50.0004         49.5004
  -4808256.68446  -7649834.70345  24499065.6094                   24499069.9574
        36.2504         31.2504
 -16283648.55147 -12509578.42246  22998328.3674                   22998331.3164
        42.2504         37.2504
 -52556226.05547 -36014188.24645  21607290.2194                   21607289.3914
        45.7504         30.7504
 -87742625.93047 -68131705.23846  20733853.8284                   20733853.9064
        46.7504         36.0004
-142027140.47747-110670493.41846  22151789.3284                   22151788.1374
        45.7504         39.7504
-129134343.00846-100416666.47344  23410011.1484                   23410016.2304
        41.0004         25.5004
  13594100.69155  10712577.02354  24816424.5864                   24816433.2154
        35.7504         26.7504
-118098280.73845 -91934597.21543  24986652.7814                   24986654.5394
        35.5004         18.5004
 25  8  6  0 28 30.0000000  0 10G26G03G06G09G16G04G31G01G07G28
 -84709172.43447 -67030543.09446  21656144.7344                   21656147.2854
        47.0004         41.7504
-111832342.41048 -87068936.43448  20114779.1254                   20114780.2074
        50.0004         49.2504
  -3525348.00446  -6650165.58245  24743194.5944                   24743199.2544
        38.2504         31.5004
 -15044918.35947 -11544333.98046  23234050.0944                   23234053.6374
        42.5004         37.2504
 -51316038.41047 -35047808.13345  21843289.4774                   21843289.6174
        46.5004         31.2504
 -86462891.75847 -67134509.74646  20977378.8754                   20977379.0314
        47.2504         36.5004
-140620295.64547-109574250.71546  22419502.8284                   22419501.9884
        46.0004         39.2504
-127725789.80546 -99319092.73443  23678050.6884                   23678055.1174
        41.0004         22.5004
  14825817.10945  11672356.50844  25050812.7584                   25050820.6524
        35.2504         25.0004
-116683378.15646 -90832075.82043  25255899.8594                   25255902.1484
        36.5004         19.2504
 25  8  6  0 29  0.0000000  0 10G26G03G06G09G16G04G31G01G07G28
 -84954288.19947 -67221542.35546  21609500.5944                   21609503.2034
        47.0004         41.7504
-112073274.94948 -87256676.08248  20068931.1884                   20068932.5084
        50.0004         49.2504
  -3817344.12146  -6877695.00045  24687629.8204                   24687634.6024
        36.5004         31.2504
 -15381574.67647 -11806663.44946  23169986.5944                   23169990.3284
        42.5004         37.2504
 -51650835.79347 -35308689.09445  21779579.4144                   21779579.2814
        45.7504         31.0004
 -86758411.28547 -67364784.68046  20921143.3674                   20921143.3914
        47.2504         36.0004
-140788691.18447-109705468.04746  22387458.5784                   22387457.5824
        45.5004         39.5004
-127892565.46547 -99449047.98444  23646314.2114                   23646318.7114
        42.0004         24.7504
  14482258.68446  11404649.08244  24985435.8134                   24985443.4224
        37.0004         28.0004
-116843927.26646 -90957179.12143  25225348.2424                   25225350.8164
        38.2504         19.5004
 25  8  6  0 29 30.0000000  0 10G26G03G06G09G16G04G31G01G07G28
 -85198778.46947 -67412054.21146  21562975.5004                   21562978.2734
        46.2504         41.5004
-112313628.58248 -87443964.64148  20023193.4924                   20023194.7424
        49.5004         49.2504
  -4108812.86746  -7104813.48845  24632165.2424                   24632169.4024
        38.2504         31.7504
 -15718184.11346 -12068956.39146  23105931.5164                   23105935.3404
        41.7504         37.2504
 -51985181.90247 -35569218.41445  21715955.9844                   21715955.1484
        45.7504         30.0004
 -87053752.38747 -67594920.57045  20864941.9064                   20864942.2194
        47.7504         35.7504
-140956902.19147-109836541.59446  22355448.7424                   22355447.8674
        44.2504         39.5004
-128059245.91446 -99578929.04343  23614595.9774                   23614601.1134
        41.2504         23.5004
  14138859.43446  11137065.68844  24920087.7584                   24920096.2624
        37.5004         25.7504
-117004502.30546 -91082302.60943  25194791.7584                   25194794.3754
        38.0004         19.5004
 25  8  6  0 30  0.0000000  0 10G26G03G06G09G16G04G31G01G07G28
 -85442645.80147 -67602080.66846  21516569.3134                   21516571.4804
        46.2504         41.5004
-112553405.44948 -87630803.76248  19977565.5084                   19977566.5514
        50.2504         49.2504
  -4399755.75446  -7331522.19945  24576799.5164                   24576805.1214
        38.0004         30.7504
 -16054748.49646 -12331214.21946  23041885.6094                   23041889.3054
        41.2504         37.2504
 -52319075.78547 -35829395.34445  21652417.5944                   21652417.5634
        46.0004         30.5004
 -87348916.68747 -67824918.69945  20808773.8674                   20808774.0164
        46.7504         35.5004
-141124932.92247-109967474.66046  22323473.8284                   22323473.0824
        45.5004         39.2504
-128225836.36346 -99708739.96544  23582895.4454                   23582900.1954
        41.0004         24.7504
  13795618.20746  10869605.44944  24854771.8674                   24854779.5354
        37.7504         26.0004
-117165107.04346 -91207449.22343  25164230.3914                   25164231.8984
        39.0004         19.5004
 25  8  6  0 30 30.0000000  0 10G26G03G06G09G16G04G31G01G07G28
 -85685888.10247 -67791620.07846  21470281.7734                   21470284.2624
        45.7504         41.5004
-112792602.98848 -87817191.46548  19932047.7894                   19932049.3634
        49.0004         49.2504
  -4690169.41846  -7557818.52044  24521536.0314                   24521540.7304
        37.0004         29.7504
 -16391264.65247 -12593434.47746  22977848.6414                   22977852.2814
        42.2504         37.5004
 -52652512.09847 -36089215.73445  21588966.6254                   21588966.6564
        46.5004         31.0004
 -87643900.98047 -68054776.55545  20752640.1024                   20752640.2074
        46.5004         35.5004
-141292783.46147-110098267.30946  22291532.2664                   22291532.0354
        45.2504         39.0004
-128392337.24646 -99838481.10543  23551211.0704                   23551216.1294
        40.5004         23.5004
  13452538.46546  10602271.09444  24789485.2344                   24789492.7464
        39.0004         26.5004
-117325740.08646 -91332617.93743  25133661.5474                   25133664.4024
        39.7504         20.5004
 25  8  6  0 31  0.0000000  0 10G26G03G06G09G16G04G31G01G07G28
 -85928506.41447 -67980673.27346  21424112.7114                   21424115.1294
        47.2504         41.5004
-113031221.85248 -88003128.24248  19886640.1564                   19886641.3164
        50.0004         49.2504
  -4980053.85546  -7783702.46945  24466372.9774                   24466377.3364
        38.0004         31.0004
 -16727732.72747 -12855617.27346  22913821.1724                   22913823.7894
        42.2504         37.0004
 -52985488.14547 -36348677.47345  21525603.2974                   21525603.2424
        46.7504         31.2504
 -87938705.30947 -68284494.18446  20696540.9774                   20696540.7734
        46.7504         36.7504
-141460456.87947-110228921.96146  22259625.6954                   22259624.6024
        45.0004         39.5004
-128558752.29346 -99968155.35244  23519543.5474                   23519548.6454
        40.2504         24.0004
  13109619.90646  10335062.32044  24724229.7734                   24724236.9414
        39.2504         28.0004
-117486403.56246 -91457810.36743  25103089.5784                   25103091.3324
        39.5004         20.2504
 25  8  6  0 31 30.0000000  0 10G26G03G06G09G16G04G31G01G07G28
 -84595074.84047 -66941635.64146  21677856.5314                   21677858.8834
        46.5004         41.5004
-111693835.78148 -86961009.23848  20141135.9924                   20141137.6994
        49.7504         49.0004
  -3693980.43446  -6781567.31645  24711104.8754                   24711108.7234
        37.7504         30.5004
 -15488722.74246 -11890154.83246  23149596.6644                   23149599.8914
        41.5004         36.5004
 -51742571.43447 -35380170.82445  21762122.9144                   21762122.4024
        47.0004         31.0004
 -86657900.88747 -67286464.72346  20940270.0474                   20940269.8714
        46.7504         36.0004
-140052531.35547-109131837.16446  22527545.2424                   22527544.2544
        44.2504         39.0004
-127149660.61746 -98870162.03943  23787684.7034                   23787689.9804
        39.2504         22.5004
  14342293.13746  11295587.37544  24958799.2584                   24958806.3524
        40.7504         28.0004
-116071674.90246 -90355424.52743  25372303.5314                   25372305.4804
        40.7504         19.5004
 25  8  6  0 32  0.0000000  0 10G26G03G06G09G16G04G31G01G07G28
 -84836449.60947 -67129719.83646  21631924.0084                   21631926.6054
        47.5004         41.5004
-111931300.32448 -87146046.55548  20095948.3594                   20095949.4304
        49.5004         49.0004
  -3982807.41846  -7006627.26245  24656142.5944                   24656147.0314
        38.0004         31.0004
 -15825096.18446 -12152263.87946  23085586.5474                   23085589.9614
        41.5004         36.0004
 -52074620.59047 -35638910.31645  21698935.3834                   21698935.3634
        46.2504         31.5004
 -86952346.34847 -67515902.71146  20884238.7584                   20884238.6334
        47.0004         36.5004
-140219859.89847-109262223.07446  22495703.2504                   22495702.6604
        44.7504         39.5004
-127315916.09046 -98999711.94544  23756047.8834                   23756053.0784
        40.0004         24.2504
  13999696.49646  11028629.41444  24893604.3674                   24893611.5744
        40.7504         27.0004
-116232405.97346 -90480669.58643  25341717.5234                   25341719.1094
        39.5004         19.2504
 25  8  6  0 32 30.0000000  0 10G26G03G06G09G16G04G31G01G07G28
 -85077204.44947 -67317320.97346  21586110.0704                   21586112.8634
        45.0004         41.7504
-112168188.88748 -87330635.05148  20050869.7974                   20050871.2424
        48.7504         49.0004
  -4271105.76246  -7231275.26245  24601281.4224                   24601286.2114
        37.7504         31.0004
 -16161422.56647 -12414336.25846  23021585.5084                   23021589.0474
        42.2504         37.2504
 -52406202.48847 -35897285.71145  21635837.8834                   21635837.4694
        46.0004         30.5004
 -87246612.54747 -67745201.00846  20828241.5234                   20828241.6174
        47.2504         36.5004
-140387020.84847-109392478.39146  22463894.0634                   22463892.6254
        46.2504         39.7504
-127482097.32446 -99129204.02343  23724424.6884                   23724429.9344
        39.7504         22.2504
  13657261.04346  10761797.05144  24828440.5394                   24828447.8284
        40.5004         26.5004
-116393173.86746 -90605943.33243  25311124.0634                   25311126.2814
        39.7504         19.7504
 25  8  6  0 33  0.0000000  0 10G26G03G06G09G16G04G31G01G07G28
 -85317338.29747 -67504438.22346  21540414.1644                   21540416.8754
        47.2504         41.2504
-112404499.91048 -87514773.52048  20005901.2034                   20005902.6054
        49.5004         49.0004
  -4558873.29346  -7455509.66045  24546520.9614                   24546525.4654
        38.0004         31.0004
 -16497699.70347 -12676370.27046  22957594.2734                   22957597.4614
        42.0004         38.0004
 -52737312.71147 -36155293.55945  21572829.1954                   21572829.0274
        46.0004         31.0004
 -87540697.16047 -67974357.80146  20772279.0234                   20772279.1844
        46.0004         36.0004
-140554014.45347-109522603.30546  22432115.9534                   22432115.3554
        45.2504         39.5004
-127648205.73446 -99258639.37143  23692815.2424                   23692820.3674
        40.2504         22.5004
  13314989.28146  10495092.25444  24763308.4384                   24763315.6134
        39.2504         27.0004
-116553978.24646 -90731245.50442  25280524.1094                   25280526.5394
        39.7504         16.7504
 25  8  6  0 33 30.0000000  0 10G26G03G06G09G16G04G31G01G07G28
 -85556852.59447 -67691072.69946  21494835.8984                   21494838.7154
        46.7504         41.5004
-112640234.43448 -87698462.76248  19961042.8444                   19961043.9414
        49.7504         49.2504
  -4846110.30946  -7679330.66845  24491861.9304                   24491865.7774
        38.7504         30.2504
 -16833928.00847 -12938366.23846  22893612.2424                   22893615.4104
        42.5004         37.5004
 -53067949.09047 -36412932.18445  21509911.2344                   21509910.9844
        46.2504         31.7504
 -87834600.48047 -68203373.34045  20716350.9844                   20716350.7854
        46.5004         35.7504
-140720844.07847-109652600.45746  22400369.8444                   22400368.4064
        44.5004         39.7504
-127814245.22746 -99388020.98843  23661219.1174                   23661225.2034
        40.0004         22.5004
  12972881.04346  10228514.85544  24698207.0554                   24698214.0744
        40.7504         25.7504
-116714821.42246 -90856577.91842  25249916.8054                   25249919.6024
        39.7504         17.2504
 25  8  6  0 34  0.0000000  0 10G26G03G06G09G16G04G31G01G07G28
 -85795745.90647 -67877223.29746  21449376.3054                   21449378.6524
        46.0004         41.2504
-112875390.46948 -87881701.23448  19916293.6334                   19916295.1604
        50.0004         49.2504
  -5132814.12946  -7902736.20345  24437303.2194                   24437307.8954
        39.0004         30.7504
 -17170104.84447 -13200322.09846  22829639.1094                   22829642.6644
        42.5004         37.5004
 -53398106.20347 -36670197.35945  21447084.5634                   21447083.7194
        45.5004         31.5004
 -88128319.73847 -68432245.45346  20660458.0944                   20660458.2234
        46.2504         36.0004
-140887509.77047-109782469.85246  22368653.8284                   22368653.2814
        44.7504         39.5004
-127980216.80546 -99517349.69943  23629635.9454                   23629641.5084
        40.7504         22.7504
  12630939.03146   9962066.96544  24633137.4924                   24633144.0664
        40.5004         25.7504
-116875702.49246 -90981939.85242  25219302.0314                   25219305.1414
        39.0004         14.7504
 25  8  6  0 34 30.0000000  0 10G26G03G06G09G16G04G31G01G07G28
 -84458591.93047 -66835285.10246  21703828.0474                   21703830.4884
        44.5004         41.5004
-111534541.48048 -86836883.84848  20171449.0084                   20171450.2234
        48.7504         49.2504
  -3843555.77746  -6898119.25445  24682641.5234                   24682645.8914
        39.2504         31.7504
 -15930799.47347 -12234629.46946  23065471.1484                   23065474.6414
        42.0004         37.5004
 -52152351.26647 -35699479.12145  21684143.9224                   21684143.0744
        46.5004         31.2504
 -86846425.58647 -67433366.85546  20904394.4454                   20904394.6414
        46.2504         36.7504
-139478589.46547-108684609.91046  22636762.5864                   22636762.3204
        45.2504         39.2504
-126570698.91446 -98419024.27743  23897858.5634                   23897864.5554
        41.0004         22.0004
  13864594.24246  10923357.17244  24867893.8834                   24867900.2504
        41.2504         27.7504
-115461198.41046 -89879728.91442  25488473.2664                   25488476.8794
        38.5004         15.5004
 25  8  6  0 35  0.0000000  0 10G26G03G06G09G16G04G31G01G07G28
 -84696247.81247 -67020471.47746  21658604.0084                   21658605.9964
        45.5004         41.0004
-111768543.82048 -87019223.34048  20126919.7034                   20126920.8714
        50.0004         49.2504
  -4129194.40246  -7120694.77745  24628286.0864                   24628290.5124
        39.0004         32.0004
 -16266874.35547 -12496505.87146  23001518.7504                   23001521.7194
        42.5004         37.5004
 -52481543.66047 -35955992.57045  21621500.0944                   21621499.4024
        46.2504         31.5004
 -87139777.49247 -67661952.72746  20848571.4454                   20848571.4924
        46.7504         36.2504
-139644936.96547-108814231.38346  22605107.6334                   22605107.0514
        44.0004         39.0004
-126736546.27346 -98548256.19943  23866298.7814                   23866304.5474
        40.0004         22.0004
  13522984.21546  10657167.94544  24802887.6094                   24802893.6914
        41.5004         26.7504
-115622161.71546 -90005154.91842  25457842.8834                   25457847.1564
        38.5004         13.7504
 25  8  6  0 35 30.0000000  0 10G26G03G06G09G16G04G31G01G07G28
 -84933286.64847 -67205177.03546  21613496.6414                   21613498.8874
        46.0004         41.5004
-112001970.27348 -87201114.08648  20082500.2664                   20082501.4264
        49.7504         49.2504
  -4414300.30546  -7342855.18745  24574032.2274                   24574036.0514
        39.0004         30.2504
 -16602898.08247 -12758342.41846  22937574.8134                   22937578.2814
        42.5004         37.2504
 -52810250.03947 -36212127.29745  21558949.6334                   21558948.7734
        46.5004         31.0004
 -87432945.33647 -67890395.17246  20792783.4144                   20792783.4144
        45.7504         36.2504
-139811129.20747-108943731.87146  22573482.7974                   22573481.8244
        44.7504         39.5004
-126902336.66446 -98677443.72343  23834750.2664                   23834755.8754
        39.7504         21.5004
  13181540.63746  10391108.40244  24737912.2504                   24737918.6884
        41.0004         27.5004
-115783168.67246 -90130614.84842  25427203.9454                   25427209.2734
        37.5004         14.7504
 25  8  6  0 36  0.0000000  0 10G26G03G06G09G16G04G31G01G07G28
 -85169709.78547 -67389402.83246  21568506.9694                   21568509.4844
        44.0004         41.5004
-112234821.71148 -87382556.77348  20038190.0634                   20038191.4384
        48.2504         49.2504
  -4698873.71146  -7564600.66445  24519878.9534                   24519884.1724
        39.0004         32.7504
 -16938870.70747 -13020139.13746  22873641.7274                   22873644.6884
        42.7504         37.0004
 -53138467.80947 -36467881.30545  21496491.2894                   21496491.3914
        46.0004         32.0004
 -87725929.10247 -68118694.18046  20737030.4694                   20737030.7194
        47.0004         36.2504
-139977169.04347-109073113.60246  22541886.1884                   22541885.1454
        44.5004         38.7504
-127068073.70346 -98806589.69543  23803211.7274                   23803217.1134
        40.0004         22.0004
  12840263.73846  10125178.75044  24672969.5234                   24672975.8094
        40.5004         27.0004
-115944221.22746 -90256110.23842  25396557.6724                   25396561.4804
        36.5004         16.2504
 25  8  6  0 36 30.0000000  0 10G26G03G06G09G16G04G31G01G07G28
 -85405516.33647 -67573148.15646  21523634.1414                   21523636.6374
        45.2504         41.0004
-112467096.71148 -87563550.28948  19993989.5394                   19993990.6604
        49.0004         49.2504
  -4982912.43746  -7785929.51645  24465829.1564                   24465833.0704
        40.0004         32.5004
 -17274790.00847 -13281894.31246  22809718.8134                   22809720.9064
        43.2504         37.0004
 -53466192.31247 -36723250.94945  21434127.6094                   21434127.3134
        46.0004         32.5004
 -88018726.43747 -68346847.91846  20681312.6724                   20681312.8984
        46.0004         36.7504
-140143057.37147-109202377.27346  22510318.6174                   22510318.3634
        43.7504         38.7504
-127233758.78546 -98935695.16843  23771683.5704                   23771688.8674
        39.7504         21.5004
  12499155.81646   9859380.76644  24608057.9694                   24608064.5354
        40.0004         27.7504
-116105318.980 5                  25365901.641
        34.250
 25  8  6  0 37  0.0000000  0 10G26G03G06G09G16G04G31G01G07G28
 -85640708.08647 -67756414.43046  21478878.9144                   21478881.1484
        46.0004         41.2504
-112698796.65248 -87744095.71548  19949898.2974                   19949899.7774
        49.2504         49.2504
  -5266417.17246  -8006842.26645  24411879.5084                   24411883.7584
        39.2504         32.5004
 -17610656.47747 -13543608.32846  22745805.2424                   22745807.4344
        43.5004         37.7504
 -53793421.68747 -36978234.78145  21371857.5314                   21371856.8594
        46.2504         31.7504
 -88311337.75447 -68574856.71546  20625630.8364                   20625630.3954
        46.5004         37.0004
-140308797.43047-109331525.43446  22478779.4224                   22478778.8054
        44.0004         38.5004
-127399395.87146 -99064763.21943  23740163.7974                   23740169.2974
        40.2504         22.2504
  12158216.31646   9593714.02044  24543179.1414                   24543185.3404
        39.2504         27.2504
-116266464.172 5                  25335236.930
        33.000
 25  8  6  0 37 30.0000000  0  9G26G03G06G09G16G04G31G01G07
 -84299858.31647 -66711596.41046  21734033.8284                   21734036.4104
        44.5004         41.0004
-111354494.38348 -86696587.46548  20205710.5004                   20205712.0904
        49.5004         49.0004
  -3973958.39546  -6999731.50845  24657825.6884                   24657830.6334
        38.7504         31.0004
 -16371038.55147 -12577672.16046  22981696.5554                   22981698.8244
        43.5004         37.7504
 -52544722.39847 -36005222.26245  21609477.4614                   21609476.7624
        46.0004         33.0004
 -87028332.85247 -67575112.60546  20869778.7424                   20869778.5234
        45.5004         36.5004
-138898965.88747-108232955.44946  22747061.4454                   22747061.0354
        44.5004         38.7504
-125989562.71946 -97966192.13743  24008446.0704                   24008452.3014
        40.2504         22.0004
  13392877.63346  10555788.16044  24778127.5554                   24778133.4304
        40.0004         27.2504
 25  8  6  0 38  0.0000000  0  9G26G03G06G09G16G04G31G01G07
 -84533820.18447 -66893904.34046  21689512.2664                   21689515.0704
        43.7504         41.2504
-111585042.34848 -86876235.23448  20161838.6884                   20161840.3484
        48.5004         49.0004
  -4256391.27346  -7219809.05945  24604081.2584                   24604085.4024
        39.0004         31.2504
 -16706794.74647 -12839300.23046  22917804.0784                   22917807.0784
        42.7504         37.5004
 -52870949.97347 -36259425.47345  21547398.2974                   21547397.4734
        46.0004         33.0004
 -87320567.23847 -67802827.69146  20814168.0704                   20814168.4384
        45.2504         36.5004
-139064412.65247-108361875.06246  22715577.9224                   22715577.3914
        44.0004         38.2504
-126155110.06246 -98095190.31643  23976943.3134                   23976949.5824
        40.0004         21.5004
  13052280.55146  10290388.21144  24713313.6094                   24713319.4344
        39.2504         26.2504
 25  8  6  0 38 30.0000000  0  9G26G03G06G09G16G04G31G01G07
 -84767163.64147 -67075730.38746  21645108.8834                   21645111.1844
        45.0004         40.7504
-111815010.16848 -87055430.95348  20118077.4774                   20118078.8634
        48.7504         49.2504
  -4538282.93746  -7439464.88745  24550439.1564                   24550443.1844
        38.7504         30.7504
 -17042490.26247 -13100881.01246  22853922.7344                   22853925.6684
        42.7504         38.0004
 -53196667.44147 -36513231.19945  21485416.7194                   21485415.4574
        46.2504         32.7504
 -87612607.43047 -68030391.43746  20758595.1564                   20758594.6804
        45.0004         36.5004
-139229711.41447-108490679.34446  22684122.5164                   22684121.9884
        43.7504         38.0004
-126320612.34446 -98224153.35943  23945449.8524                   23945455.6684
        40.7504         22.0004
  12711860.14546  10025125.94944  24648533.3914                   24648539.1804
        38.2504         27.0004
 25  8  6  0 39  0.0000000  0  9G26G03G06G09G16G04G31G01G07
 -84999884.03147 -67257070.94146  21600823.6414                   21600825.7114
        44.0004         41.2504
-112044392.63348 -87234170.54748  20074427.4144                   20074428.7274
        48.5004         49.0004
  -4819627.54346  -7658694.44145  24496900.5314                   24496905.0864
        39.5004         31.2504
 -17378118.87147 -13362409.66446  22790055.2424                   22790058.0354
        43.7504         38.0004
 -53521866.70747 -36766633.12545  21423532.6564                   21423532.0234
        46.0004         32.0004
 -87904447.13347 -68257798.98446  20703059.5704                   20703059.3594
        45.7504         36.0004
-139394858.73047-108619365.62946  22652696.1414                   22652695.8554
        43.5004         37.7504
-126486066.97346 -98353079.23443  23913965.0314                   23913971.0234
        39.5004         22.0004
  12371622.78146   9760006.32044  24583787.9224                   24583793.9414
        37.5004         26.5004
 25  8  6  0 39 30.0000000  0  9G26G03G06G09G16G04G31G01G07
 -85231983.54347 -67437927.69146  21556656.2034                   21556658.6054
        44.0004         40.7504
-112273191.44548 -87412455.34848  20030888.8834                   20030889.6134
        48.7504         49.0004
  -5100426.07846  -7877498.46545  24443466.7504                   24443471.1484
        39.7504         32.0004
 -17713681.30547 -13623886.76246  22726199.8204                   22726201.7544
        44.0004         38.2504
 -53846545.76647 -37019629.70745  21361748.4614                   21361747.3984
        45.0004         34.0004
 -88196086.97747 -68485050.77346  20647562.6094                   20647562.3164
        45.5004         37.0004
-139559858.17247-108747936.66846  22621297.9924                   22621297.1764
        43.7504         37.5004
-126651478.16446 -98481971.32443  23882488.4144                   23882494.6454
        38.7504         22.0004
  12031567.99646   9495028.96144  24519077.5864                   24519083.1994
        37.7504         26.5004
 25  8  6  0 40  0.0000000  0  9G26G03G06G09G16G04G31G01G07
 -85463466.21947 -67618303.78946  21512606.6884                   21512608.9964
        44.0004         40.7504
-112501410.19948 -87590288.15248  19987459.9534                   19987461.1724
        48.7504         49.0004
  -5380681.40646  -8095879.21545  24390135.7584                   24390140.2934
        39.5004         32.0004
 -18049180.06647 -13885314.25446  22662356.6644                   22662359.0274
        44.5004         38.0004
 -54170705.03947 -37272221.26245  21300062.8914                   21300062.2344
        46.0004         33.5004
 -88487529.35247 -68712148.69946  20592102.6024                   20592102.4144
        46.2504         36.5004
-139724715.34847-108876396.84846  22589926.6724                   22589925.9184
        44.0004         37.5004
-126816852.02046 -98610834.27343  23851019.1484                   23851024.9694
        39.0004         22.7504
  11691692.96546   9230191.66444  24454401.3524                   24454406.8094
        37.0004         28.2504
 25  8  6  0 40 30.0000000  0  9G26G03G06G09G16G04G31G01G07
 -84118908.40647 -66570596.39146  21768467.5634                   21768470.0744
        45.5004         41.0004
-111153624.79748 -86540065.77748  20243934.9384                   20243936.0204
        48.5004         49.0004
  -4084967.00046  -7086231.60545  24636701.8054                   24636706.6054
        39.5004         30.7504
 -16809186.39547 -12919085.31246  22898319.0004                   22898321.1604
        43.5004         36.5004
 -52918914.12547 -36296799.68045  21538270.8444                   21538270.0234
        46.2504         33.5004
 -87203346.87947 -67711487.00046  20836474.6094                   20836474.3754
        45.2504         36.5004
-138314009.85547-107777145.86746  22858375.4534                   22858374.4534
        43.7504         37.5004
-125406769.05146 -97512068.55543  24119349.0704                   24119354.5514
        40.7504         22.0004
  12927427.05946  10193101.73044  24689553.3674                   24689558.8794
        38.0004         26.7504
 25  8  6  0 41  0.0000000  0  9G26G03G06G09G16G04G31G01G07
 -84349167.02747 -66750018.67646  21724650.7584                   21724653.0824
        43.7504         41.0004
-111380691.45747 -86717000.85248  20200725.8444                   20200726.8984
        47.7504         49.2504
  -4364141.91446  -7303770.48845  24583576.9614                   24583581.1914
        40.0004         31.0004
 -17144562.55147 -13180417.26246  22834498.8754                   22834501.2384
        42.5004         37.0004
 -53242032.03947 -36548579.78145  21476783.3914                   21476782.4774
        45.7504         33.2504
 -87494398.81247 -67938280.68446  20781088.8054                   20781088.9574
        46.0004         36.2504
-138478595.13747-107905394.17246  22827055.8594                   22827055.1914
        43.7504         36.7504
-125572083.79346 -97640885.45343  24087890.5474                   24087897.0824
        41.0004         23.0004
  12587907.41846   9928541.35244  24624945.1174                   24624950.1724
        38.0004         29.0004
 25  8  6  0 41 30.0000000  0  9G26G03G06G09G16G04G31G01G07
 -84578815.73047 -66928965.70746  21680950.1804                   21680952.3754
        44.5004         40.7504
-111607183.44548 -86893488.13348  20157625.7974                   20157627.2814
        49.0004         49.0004
  -4642776.80946  -7520888.56645  24530554.4144                   24530559.1024
        40.2504         32.0004
 -17479877.12547 -13441701.23446  22770690.6414                   22770692.8284
        42.2504         37.0004
 -53564625.71947 -36799951.39145  21415395.5554                   21415394.7624
        46.0004         33.0004
 -87785255.14147 -68164921.94546  20725741.1564                   20725740.8984
        47.0004         36.7504
-138643048.33247-108033539.56246  22795762.0004                   22795760.6134
        44.0004         37.7504
-125737374.02746 -97769683.27343  24056437.5704                   24056443.4304
        40.5004         22.5004
  12248565.59446   9664119.51644  24560369.3524                   24560375.3834
        37.0004         26.7504
 25  8  6  0 42  0.0000000  0  9G26G03G06G09G16G04G31G01G07
 -84807856.69147 -67107439.16446  21637364.9614                   21637367.4304
        44.5004         41.0004
-111833102.38748 -87069528.87948  20114634.6484                   20114635.7664
        49.2504         49.0004
  -4920872.80946  -7737586.73045  24477634.5474                   24477638.9844
        40.5004         32.0004
 -17815130.55547 -13702937.55546  22706894.0864                   22706896.5274
        43.5004         38.7504
 -53886693.04347 -37050912.85945  21354108.3134                   21354107.6764
        46.0004         33.2504
 -88075916.19547 -68391411.04346  20670429.7734                   20670429.4964
        46.2504         36.5004
-138807372.21947-108161584.18746  22764491.4844                   22764491.1024
        44.2504         37.7504
-125902643.82846 -97898465.16843  24024988.0784                   24024994.2274
        40.0004         22.7504
  11909401.43046   9399836.11344  24495828.1564                   24495833.8134
        38.2504         27.7504
 25  8  6  0 42 30.0000000  0  9G26G03G06G09G16G04G31G01G07
 -85036288.72347 -67285438.13746  21593895.6484                   21593897.9804
        44.0004         40.7504
-112058446.62948 -87245121.81248  20071753.2734                   20071754.3754
        50.0004         49.0004
  -5198427.39846  -7953863.01645  24424817.8054                   24424822.0354
        40.0004         31.7504
 -18150319.96147 -13964123.98446  22643109.7734                   22643112.1914
        44.0004         39.7504
 -54208229.60247 -37301460.73845  21292921.6334                   21292920.9384
        45.7504         33.0004
 -88366378.95747 -68617745.62946  20615156.5784                   20615156.3524
        47.0004         36.7504
-138971567.41047-108289528.52046  22733246.5634                   22733245.6684
        45.0004         37.5004
-126067893.87546 -98027231.66443  23993541.9304                   23993548.1684
        40.0004         22.5004
  11570417.27046   9135692.95344  24431321.9454                   24431327.1884
        39.0004         29.2504
 25  8  6  0 43  0.0000000  0  9G26G03G06G09G16G04G31G01G07
 -85264115.04747 -67462965.13346  21550541.8674                   21550544.2704
        45.0004         41.0004
-112283218.85248 -87420269.01648  20028980.3984                   20028981.6414
        49.7504         48.7504
  -5475442.60546  -8169719.00845  24372103.1954                   24372107.6884
        39.5004         31.5004
 -18485446.78147 -14225261.65646  22579336.9614                   22579339.6884
        44.0004         39.2504
 -54529234.57047 -37551594.39845  21231836.2274                   21231835.6564
        45.0004         33.0004
 -88656644.86747 -68843926.81246  20559921.1564                   20559920.5944
        46.5004         36.2504
-139135637.91447-108417375.69546  22702024.7424                   22702023.6454
        45.5004         36.7504
-126233129.22546 -98155986.70143  23962098.3914                   23962105.6524
        38.7504         22.0004
  11231611.83246   8871689.03944  24366849.1484                   24366854.2974
        40.0004         28.7504
 25  8  6  0 43 30.0000000  0  9G26G03G06G09G16G04G31G01G07
 -83915911.53947 -66412416.93746  21807096.9304                   21807098.8244
        44.2504         41.2504
-110931994.55948 -86367366.99248  20286109.5474                   20286111.1564
        49.7504         48.7504
  -4176491.55146  -7157549.33645  24619285.6804                   24619289.7584
        39.7504         31.7504
 -17245081.60247 -13258743.22346  22815369.7814                   22815373.0234
        43.0004         39.0004
 -53274276.87947 -36573705.19545  21470647.0234                   21470645.9454
        47.0004         33.0004
 -87371285.89147 -67842348.35546  20804516.3914                   20804516.4344
        46.5004         36.2504
-137724162.52747-107317524.76246  22970620.2274                   22970619.0354
        45.0004         37.0004
-124822929.71546 -97057130.16843  24230451.4064                   24230457.5164
        39.5004         23.0004
  12468414.92646   9835432.03945  24602204.8134                   24602209.5824
        40.2504         30.5004
 25  8  6  0 44  0.0000000  0  9G26G03G06G09G16G04G31G01G07
 -84142530.56247 -66589003.17646  21763972.1334                   21763975.1724
        44.2504         41.0004
-111155625.37148 -86541624.78548  20243554.2114                   20243556.0004
        49.2504         48.7504
  -4452428.57846  -7372565.19545  24566776.5164                   24566780.5164
        40.5004         30.7504
 -17580082.04747 -13519782.43046  22751621.0314                   22751623.7544
        42.5004         37.5004
 -53594211.31647 -36823004.67645  21409765.1724                   21409764.5744
        46.7504         33.5004
 -87661156.63347 -68068221.62546  20749355.9064                   20749355.9224
        47.2504         36.5004
-137887990.56647-107445182.99646  22939444.1644                   22939443.3714
        44.0004         36.5004
-124988145.18446 -97185869.75044  24199012.0234                   24199018.0984
        38.2504         24.5004
  12129968.20346   9571707.65245  24537800.5394                   24537805.3094
        41.0004         31.5004
 25  8  6  0 44 30.0000000  0  9G26G03G06G09G16G04G31G01G07
 -84368547.89847 -66765120.57446  21720962.5234                   21720965.2934
        45.0004         41.0004
-111378686.65248 -86715438.79348  20201107.2424                   20201108.7074
        49.5004         48.5004
  -4727826.64146  -7587161.07845  24514369.5314                   24514374.2814
        40.2504         31.0004
 -17915018.62147 -13780771.86746  22687885.5004                   22687887.4734
        43.0004         37.5004
 -53913606.44947 -37071883.91045  21348986.6024                   21348985.4694
        46.5004         33.5004
 -87950828.87547 -68293940.22346  20694233.3594                   20694232.7704
        47.2504         36.2504
-138051700.78947-107572749.43046  22908290.8054                   22908290.5664
        43.7504         37.0004
-125153355.43046 -97314605.24243  24167573.5784                   24167580.0434
        38.7504         22.2504
  11791701.25446   9308123.32445  24473430.1644                   24473435.0594
        40.2504         31.0004
 25  8  6  0 45  0.0000000  0  9G26G03G06G09G16G04G31G01G07
 -84593965.04347 -66940770.28546  21678067.0554                   21678069.4024
        45.0004         41.2504
-111601179.38348 -86888809.77748  20158768.2584                   20158769.5554
        49.0004         48.5004
  -5002686.01246  -7801337.21545  24462065.6254                   24462070.4144
        40.7504         31.0004
 -18249890.81647 -14041711.14546  22624161.5474                   22624163.9264
        44.2504         39.2504
 -54232460.00047 -37320341.13345  21288310.1954                   21288309.5204
        46.5004         33.5004
 -88240302.19147 -68519503.81646  20639147.8054                   20639147.7424
        47.5004         37.0004
-138215295.29747-107700225.68746  22877159.9924                   22877159.3834
        43.7504         36.0004
-125318563.52346 -97443339.04343  24136135.7584                   24136142.4924
        38.0004         22.5004
  11453614.50846   9044679.42245  24409093.5784                   24409098.5164
        41.5004         31.0004
 25  8  6  0 45 30.0000000  0  9G26G03G06G09G16G04G31G01G07
 -84818783.52047 -67115953.50846  21635285.3594                   21635287.8954
        45.0004         41.0004
-111823104.57048 -87061738.50848  20116537.7274                   20116538.9534
        49.2504         48.5004
  -5277006.96546  -8015093.77745  24409864.4144                   24409868.5704
        41.0004         31.7504
 -18584698.25847 -14302599.96546  22560449.8054                   22560452.0554
        44.5004         40.0004
 -54550769.76647 -37568374.64145  21227737.9224                   21227737.4414
        45.5004         33.5004
 -88529576.09047 -68744912.01246  20584101.0234                   20584101.2974
        46.2504         36.7504
-138378776.70747-107827613.82046  22846051.0314                   22846050.0044
        42.7504         36.5004
-125483772.71546 -97572073.71943  24104697.8914                   24104704.1604
        37.0004         22.2504
  11115708.28146   8781376.18045  24344792.4304                   24344796.8674
        41.5004         32.0004
 25  8  6  0 46  0.0000000  0  9G26G03G06G09G16G04G31G01G07
 -85043004.19147 -67290670.90646  21592617.8134                   21592620.0204
        44.5004         41.0004
-112044462.53148 -87234225.25448  20074414.5394                   20074415.8594
        49.0004         48.5004
  -5550789.11346  -8228430.50845  24357765.0944                   24357769.7114
        40.5004         32.2504
 -18919439.91847 -14563437.52046  22496750.3834                   22496752.8594
        43.0004         40.2504
 -54868532.59047 -37815981.94545  21167269.9384                   21167268.8674
        45.5004         34.0004
 -88818649.42647 -68970163.93046  20529092.7894                   20529091.8554
        46.5004         36.7504
-138542146.82847-107954915.24246  22814962.3754                   22814961.9774
        43.5004         36.5004
-125648985.57846 -97700811.27743  24073258.2344                   24073265.9964
        36.2504         22.5004
  10777983.51646   8518214.34045  24280525.1954                   24280529.5554
        41.0004         32.5004
 25  8  6  0 46 30.0000000  0  9G26G03G06G09G16G04G31G01G07
 -83691201.35247 -66237318.03546  21849857.1334                   21849859.4144
        44.0004         41.5004
-110689827.16848 -86178665.24248  20332192.9454                   20332194.3484
        48.0004         48.5004
  -4248603.93046  -7213740.73045  24605563.9144                   24605567.0434
        40.7504         31.5004
 -17678684.39847 -13596614.92246  22732858.0554                   22732860.3014
        43.0004         39.7504
 -53610315.66847 -36835553.09045  21406700.4304                   21406699.4964
        45.5004         33.7504
 -87532092.30147 -67967651.85246  20773915.9144                   20773915.6134
        46.5004         36.2504
-137129982.59846-106854527.55546  23083687.9304                   23083687.7034
        41.5004         36.2504
-124238779.94946 -96601950.02043  24341611.8914                   24341619.0744
        36.5004         20.5004
  12015871.42247   9482802.61745  24516087.2034                   24516091.7584
        42.0004         31.5004
 25  8  6  0 47  0.0000000  0  9G26G03G06G09G16G04G31G01G07
 -83914231.14547 -66411107.48046  21807416.2194                   21807418.6454
        43.7504         41.0004
-110910053.91848 -86350270.51248  20290285.2034                   20290286.4494
        48.5004         48.5004
  -4521309.66446  -7426238.68445  24553668.4614                   24553672.9024
        40.7504         31.0004
 -18013293.27347 -13857348.99646  22669184.0084                   22669186.3244
        42.2504         38.7504
 -53926977.64847 -37082302.60545  21346441.7344                   21346440.7814
        45.0004         33.0004
 -87820763.18747 -68192590.17246  20718983.5474                   20718983.2664
        46.2504         37.0004
-137293136.59047-106981660.57445  23052640.8364                   23052640.3324
        42.5004         35.7504
-124404009.74246 -96730700.75443  24310169.6174                   24310177.0744
        36.7504         20.2504
  11678510.08246   9219923.94545  24451889.3594                   24451893.7854
        41.0004         32.0004
 25  8  6  0 47 30.0000000  0  9G26G03G06G09G16G04G31G01G07
 -84136667.09047 -66584434.18746  21765088.0864                   21765090.5004
        45.7504         41.0004
-111129715.79348 -86521435.62148  20248484.7114                   20248486.1804
        49.7504         48.5004
  -4793476.90646  -7638317.03145  24501877.1644                   24501881.5704
        40.0004         30.7504
 -18347834.28547 -14118030.21546  22605522.5554                   22605525.3444
        43.0004         39.0004
 -54243085.25447 -37328620.13345  21286288.3674                   21286287.5124
        45.5004         33.5004
 -88109231.24647 -68417370.45746  20664090.0634                   20664089.6294
        46.2504         36.5004
-137456185.60546-107108711.78546  23021614.1414                   23021613.2974
        41.2504         36.0004
-124569251.87145 -96859461.11743  24278725.4774                   24278732.6054
        35.5004         20.5004
  11341331.64546   8957187.82045  24387726.3444                   24387730.4844
        40.7504         31.7504
 25  8  6  0 48  0.0000000  0  9G26G03G06G09G16G04G31G01G07
 -84358509.87547 -66757298.68046  21722872.8674                   21722875.0274
        44.2504         40.7504
-111348813.00048 -86692160.73048  20206792.3594                   20206793.3794
        50.0004         48.5004
  -5065105.12946  -7849975.35545  24450187.4064                   24450191.7774
        40.7504         31.5004
 -18682306.04347 -14378657.46146  22541874.7734                   22541877.2504
        43.0004         39.0004
 -54558635.10947 -37574503.05945  21226241.0944                   21226239.9884
        45.7504         34.0004
 -88397495.10247 -68641991.62546  20609235.0234                   20609234.9104
        47.0004         37.2504
-137619130.86347-107235682.16445  22990606.1024                   22990605.8794
        42.0004         35.7504
-124734508.60246 -96988232.88343  24247278.7894                   24247285.5944
        36.2504         19.5004
  11004337.32046   8694595.15645  24323598.3674                   24323602.3554
        40.7504         31.0004
 25  8  6  0 48 30.0000000  0  9G26G03G06G09G16G04G31G01G07
 -84579763.46547 -66929704.06246  21680769.7114                   21680772.0084
        46.0004         41.5004
-111567349.05548 -86862448.57448  20165206.0394                   20165207.5394
        50.2504         48.5004
  -5336197.15646  -8061215.86345  24398600.9614                   24398604.8484
        40.2504         32.2504
 -19016710.50447 -14639232.26646  22478239.3284                   22478242.2074
        43.0004         40.2504
 -54873627.38747 -37819951.50845  21166300.4224                   21166299.0124
        47.0004         34.0004
 -88685556.59447 -68866455.10246  20554418.6564                   20554418.7934
        47.0004         37.0004
-137781976.98447-107362575.30145  22959617.7114                   22959617.6174
        42.2504         35.5004
-124899785.48846 -97117020.35543  24215826.9224                   24215834.7974
        36.0004         19.0004
  10667524.86346   8432144.21144  24259504.8284                   24259508.5394
        40.2504         29.7504
 25  8  6  0 49  0.0000000  0  9G26G03G06G09G16G04G31G01G07
 -84800425.93747 -67101648.84446  21638778.5864                   21638781.4494
        43.7504         41.5004
-111785321.42248 -87032297.19148  20123727.2734                   20123728.7194
        48.2504         48.2504
  -5606749.80546  -8272036.08245  24347116.6564                   24347120.3284
        40.7504         31.2504
 -19351043.54347 -14899751.41046  22414618.0474                   22414620.8324
        42.5004         39.7504
 -55188056.02047 -38064960.76245  21106465.9304                   21106465.0554
        46.2504         33.7504
 -88973411.55547 -69090757.64546  20499642.2814                   20499641.6214
        46.7504         37.0004
-137944722.57046-107489390.09846  22928648.7734                   22928648.1914
        41.7504         36.5004
-125065082.09845 -97245823.15243  24184373.1334                   24184380.2344
        35.5004         19.2504
  10330898.40246   8169838.17644  24195446.0864                   24195450.4024
        40.0004         29.2504
 25  8  6  0 49 30.0000000  0  9G26G03G06G09G16G04G31G01G07
 -83445073.75047 -66045530.24646  21896694.0474                   21896696.7154
        44.0004         41.0004
-110427306.18748 -85974103.52348  20382148.9534                   20382150.7194
        49.0004         48.5004
  -4301336.64146  -7254830.99645  24595527.9144                   24595532.0164
        40.2504         31.7504
 -18109875.67247 -13932607.48846  22650804.5164                   22650807.1484
        42.2504         39.7504
 -53926490.53147 -37081922.64845  21346534.0394                   21346532.9494
        46.2504         34.0004
 -87685631.97747 -68087293.02046  20744698.3204                   20744697.8284
        46.2504         36.7504
-136531946.73047-106388525.86346  23197491.5004                   23197490.6454
        43.0004         36.2504
-123654978.05146 -96147041.08643  24452707.3284                   24452714.2034
        36.2504         20.2504
  11569886.76646   9135283.94944  24431216.8754                   24431221.4534
        41.0004         28.0004
 25  8  6  0 50  0.0000000  0  9G26G03G06G09G16G04G31G01G07
 -83664561.47747 -66216559.62946  21854926.8524                   21854929.0434
        45.2504         41.7504
-110644157.15648 -86143078.32048  20340883.6724                   20340884.8284
        49.7504         48.2504
  -4570814.33246  -7464813.58645  24544247.9534                   24544251.8984
        41.2504         32.0004
 -18444066.89547 -14193016.11346  22587210.3444                   22587212.4344
        43.5004         39.5004
 -54239787.91447 -37326050.41045  21286915.0164                   21286913.8674
        46.5004         33.5004
 -87973074.77347 -68311274.41046  20689999.8754                   20689999.1414
        46.7504         37.0004
-136694500.64147-106515191.30146  23166557.8834                   23166557.4884
        43.0004         36.0004
-123820325.80946 -96275883.80943  24421242.4694                   24421250.0744
        38.0004         20.0004
  11233630.09046   8873266.07844  24367230.2274                   24367233.8094
        40.0004         27.5004
 25  8  6  0 50 30.0000000  0  9G26G03G06G09G16G04G31G01G07
 -83883464.31647 -66387133.25446  21813271.3364                   21813273.5204
        45.7504         41.0004
-110860449.15248 -86311617.55948  20299724.5314                   20299725.7774
        50.2504         48.0004
  -4839755.28946  -7674377.93045  24493070.2194                   24493074.4104
        40.2504         31.0004
 -18778186.35947 -14453368.84846  22523629.2344                   22523631.0394
        42.5004         39.5004
 -54552516.23047 -37569734.75445  21227405.2424                   21227403.5824
        47.0004         33.5004
 -88260310.56647 -68535094.49246  20635340.2584                   20635340.0784
        46.7504         36.7504
-136856961.65647-106641784.35546  23135642.8914                   23135642.5984
        43.2504         36.7504
-123985703.67646 -96404749.94543  24389771.8444                   24389779.9884
        38.7504         19.5004
  10897558.73446   8611392.58644  24303277.5864                   24303281.0004
        39.7504         28.2504
 25  8  6  0 51  0.0000000  0  9G26G03G06G09G16G04G31G01G07
 -84101783.16047 -66557251.81246  21771726.1804                   21771728.4104
        45.5004         41.2504
-111076182.48448 -86479721.48048  20258671.9774                   20258673.3054
        49.7504         48.0004
  -5108159.03946  -7883523.69945  24441994.6484                   24441998.8524
        41.5004         31.2504
 -19112232.77347 -14713664.65646  22460062.0004                   22460064.0704
        43.0004         38.7504
 -54864672.41047 -37812973.27045  21168003.5234                   21168002.5204
        47.0004         33.2504
 -88547337.95347 -68758752.17246  20580720.7894                   20580720.8714
        46.7504         36.5004
-137019331.67647-106768306.50846  23104744.9614                   23104744.7384
        43.7504         36.5004
-124151113.93746 -96533641.36743  24358295.8364                   24358303.9884
        39.0004         20.0004
  10561673.62946   8349664.22344  24239359.4614                   24239363.9224
        38.0004         25.7504
 25  8  6  0 51 30.0000000  0  9G26G03G06G09G16G04G31G01G07
 -84319520.06247 -66726916.91446  21730291.6484                   21730294.4884
        46.5004         41.0004
-111291358.71548 -86647391.29748  20217725.3834                   20217726.6644
        50.5004         48.0004
  -5376026.51646  -8092251.57045  24391021.3834                   24391025.4184
        40.7504         32.2504
 -19446205.86347 -14973903.30946  22396508.6484                   22396511.1764
        43.2504         39.0004
 -55176254.75447 -38055764.64145  21108711.5784                   21108710.0514
        47.5004         33.2504
 -88834156.69547 -68982247.28146  20526141.5164                   20526141.2304
        47.5004         36.5004
-137181612.89847-106894759.47746  23073864.2664                   23073863.4414
        44.0004         37.0004
-124316560.00046 -96662560.66043  24326813.1724                   24326820.6024
        39.2504         19.5004
  10225974.64146   8088080.89144  24175477.6724                   24175482.0634
        36.5004         25.5004
 25  8  6  0 52  0.0000000  0  9G26G03G06G09G16G04G31G01G07
 -84536676.29347 -66896129.55146  21688968.9454                   21688971.4304
        43.7504         41.2504
-111505978.53148 -86814627.53548  20176884.5314                   20176886.0664
        48.5004         48.0004
  -5643357.74246  -8300561.59045  24340149.6484                   24340154.0124
        40.2504         32.0004
 -19780104.59447 -15234084.01646  22332970.1644                   22332972.9344
        43.0004         40.2504
 -55487260.82047 -38298106.96945  21049528.7424                   21049527.6994
        46.7504         34.0004
 -89120765.68047 -69205578.93746  20471601.4534                   20471601.0704
        47.5004         37.5004
-137343806.68447-107021144.30146  23042999.6414                   23042998.8674
        43.5004         36.5004
-124482044.43046 -96791509.88343  24295322.6484                   24295330.0784
        39.5004         18.2504
   9890462.82846   7826643.43044  24111632.0394                   24111636.2544
        36.5004         26.5004
 25  8  6  0 52 30.0000000  0  9G26G03G06G09G16G04G31G01G07
 -84753254.39147 -67064891.68446  21647755.0944                   21647757.5984
        46.2504         41.2504
-111720044.00848 -86981431.81648  20136149.2114                   20136150.9844
        49.5004         48.0004
  -5910154.12946  -8508454.85945  24289380.3834                   24289384.1804
        40.5004         32.2504
 -20113929.23847 -15494206.98446  22269445.5084                   22269447.7154
        44.2504         41.0004
 -55797689.05947 -38539999.04345  20990456.4924                   20990455.0354
        46.5004         33.7504
 -89407165.12147 -69428747.31246  20417101.3914                   20417100.7344
        47.7504         37.2504
-137505916.82847-107147463.94946  23012151.0234                   23012150.4534
        42.2504         36.7504
-124647570.98446 -96920491.87943  24263824.3914                   24263832.0084
        40.7504         18.2504
   9555137.41046   7565351.17644  24047822.3444                   24047826.0164
        37.5004         27.2504
 25  8  6  0 53  0.0000000  0  9G26G03G06G09G16G04G31G01G07
 -83393824.64547 -66005595.76246  21906446.2814                   21906448.5634
        45.7504         41.0004
-110358124.95748 -85920196.21548  20395314.0944                   20395315.1724
        50.0004         48.0004
  -4600982.95346  -7488321.44945  24538507.0314                   24538511.1174
        40.2504         31.7504
 -18872243.70347 -14526659.70346  22505730.0944                   22505732.3634
        43.7504         40.2504
 -54532102.51247 -37553827.64545  21231289.2504                   21231288.2114
        47.0004         34.0004
 -88117920.53947 -68424141.11746  20662435.9924                   20662435.8164
        47.0004         37.0004
-136092515.43747-106046112.27745  23281112.5164                   23281111.9804
        42.5004         35.7504
-123237712.92246 -95821901.44542  24532111.7894                   24532119.1254
        41.2504         17.2504
  10795434.20746   8531816.47344  24283842.2114                   24283846.3284
        39.0004         29.5004
 25  8  6  0 53 30.0000000  0  9G26G03G06G09G16G04G31G01G07
 -83609245.35547 -66173456.03546  21865453.3134                   21865455.5274
        43.7504         41.0004
-110571078.99248 -86086134.44548  20354790.0554                   20354791.6134
        48.0004         48.0004
  -4866704.70346  -7695377.35245  24487941.5004                   24487946.1094
        40.0004         30.5004
 -19205911.77747 -14786660.68746  22442235.1024                   22442237.3714
        43.0004         39.5004
 -54841361.96947 -37794808.97345  21172439.4384                   21172437.9414
        47.2504         34.0004
 -88403892.42647 -68646976.33246  20608017.6484                   20608017.4774
        46.7504         37.2504
-136254457.35247-106172300.84446  23250295.4304                   23250295.1174
        43.5004         36.2504
-123403326.23046 -95950950.99643  24500597.0474                   24500604.3134
        40.5004         19.0004
  10460489.01646   8270820.49244  24220104.4304                   24220107.3874
        39.2504         29.5004
 25  8  6  0 54  0.0000000  0  9G26G03G06G09G16G04G31G01G07
 -83824093.09447 -66340869.84046  21824568.7424                   21824571.1334
        46.0004         41.0004
-110783482.29348 -86251643.53548  20314371.4224                   20314372.9144
        50.0004         48.0004
  -5131893.10946  -7902017.64145  24437477.9224                   24437482.3794
        39.7504         30.7504
 -19539503.70747 -15046602.35946  22378754.6804                   22378756.1134
        43.5004         39.5004
 -55150036.80547 -38035334.76645  21113700.4694                   21113699.1914
        47.5004         34.0004
 -88689652.62547 -68869646.58646  20553639.3134                   20553638.9924
        47.5004         36.7504
-136416321.41847-106298428.73846  23219494.0944                   23219493.8834
        43.0004         36.0004
-123568990.59846 -96080040.40643  24469072.0164                   24469079.3404
        41.2504         19.5004
  10125731.03546   8009970.37944  24156401.5634                   24156405.0664
        38.5004         29.2504
 25  8  6  0 54 30.0000000  0  9G26G03G06G09G16G04G31G01G07
 -84038369.73847 -66507838.64546  21783793.4454                   21783795.7894
        46.0004         41.0004
-110995336.12148 -86416724.46548  20274056.6024                   20274058.0474
        49.7504         48.0004
  -5396548.84446  -8108242.87945  24387116.0394                   24387120.5704
        39.5004         31.7504
 -19873018.87547 -15306484.20346  22315288.4064                   22315290.3324
        43.2504         39.5004
 -55458125.46947 -38275403.80145  21055072.9774                   21055071.8484
        47.2504         34.0004
 -88975200.54347 -69092151.42246  20499301.1254                   20499300.8014
        47.7504         37.5004
-136578109.32847-106424497.30545  23188707.1564                   23188706.3244
        43.2504         35.5004
-123734708.87146 -96209171.76243  24437536.8984                   24437544.2734
        41.5004         20.0004
   9791160.78546   7749266.53945  24092734.3204                   24092738.7304
        40.0004         30.5004
 25  8  6  0 55  0.0000000  0  9G26G03G06G09G16G04G31G01G07
 -84252075.12547 -66674362.30146  21743126.5314                   21743128.9414
        46.2504         40.7504
-111206639.82448 -86581376.73047  20233847.0234                   20233848.4024
        49.7504         47.7504
  -5660670.52346  -8314051.97345  24336855.1644                   24336859.3324
        39.0004         31.2504
 -20206454.65247 -15566304.19146  22251837.9064                   22251839.5824
        43.5004         39.7504
 -55765623.76247 -38515012.80945  20996558.0784                   20996557.3204
        47.2504         34.0004
 -89260533.47347 -69314488.73846  20445004.5704                   20445004.1024
        47.5004         37.0004
-136739821.53547-106550506.87546  23157934.3914                   23157933.6844
        43.5004         36.0004
-123900482.12546 -96338345.98043  24405991.5864                   24405999.6884
        41.0004         20.5004
   9456780.35946   7488710.61345  24029104.1174                   24029107.7934
        39.7504         31.7504
 25  8  6  0 55 30.0000000  0  9G26G03G06G09G16G04G31G01G07
 -84465208.80147 -66840440.48846  21702568.5164                   21702570.8404
        46.0004         40.5004
-111417392.37948 -86745599.52348  20193742.3594                   20193743.7034
        50.0004         48.0004
  -5924256.45346  -8519443.59845  24286696.9694                   24286700.5704
        39.2504         31.2504
 -20539808.03147 -15826059.96546  22188402.9534                   22188404.8674
        42.7504         40.5004
 -56072527.38347 -38754158.43045  20938156.1954                   20938155.1454
        47.0004         34.2504
 -89545648.41047 -69536656.18046  20390749.0704                   20390748.2274
        47.0004         36.7504
-136901457.80147-106676457.27045  23127175.6724                   23127175.5044
        42.7504         34.7504
-124066310.98446 -96467563.55543  24374435.2664                   24374443.4494
        40.2504         20.5004
   9122592.02046   7228304.35545  23965510.4774                   23965513.3954
        40.2504         31.7504
 25  8  6  0 56  0.0000000  0  9G26G03G06G09G16G04G31G01G07
 -83102348.11347 -65778471.10946  21961912.3444                   21961914.7194
        45.5004         40.5004
-110052170.78948 -85681790.51647  20453535.3444                   20453536.2774
        50.5004         47.7504
  -4611881.18046  -7496813.51245  24536433.4454                   24536437.4064
        39.0004         32.2504
 -19297649.82847 -14858144.39146  22424777.7814                   22424779.6024
        43.0004         40.7504
 -54803406.27347 -37765232.82845  21179661.8754                   21179660.7424
        46.5004         34.5004
 -88255117.76647 -68531047.84846  20636328.3134                   20636328.1804
        46.7504         36.5004
-135487597.30947-105574747.86345  23396224.9454                   23396224.1884
        42.5004         34.5004
-122656775.39846 -95369224.43743  24642661.5314                   24642669.7854
        40.0004         21.2504
  10364024.78146   8195654.78145  24201747.2344                   24201750.1724
        40.5004         33.5004
 25  8  6  0 56 30.0000000  0  9G26G03G06G09G16G04G31G01G07
 -83314347.83647 -65943665.68746  21921569.9454                   21921572.4024
        45.7504         40.7504
-110261829.07848 -85845160.63747  20413638.6024                   20413639.6454
        50.0004         47.7504
  -4874401.63246  -7701374.89345  24486476.8914                   24486481.2304
        40.5004         31.7504
 -19630840.37147 -15117773.29746  22361373.6484                   22361375.3404
        43.2504         40.5004
 -55109117.88747 -38003449.61745  21121487.1334                   21121485.8714
        47.0004         34.5004
 -88539798.60947 -68752877.03946  20582155.3524                   20582154.6804
        47.5004         37.2504
-135649091.64147-105700587.66045  23365493.3984                   23365492.7114
        43.0004         34.2504
-122822728.07846 -95498538.46143  24611082.1724                   24611090.5084
        39.2504         21.5004
  10030217.74246   7935545.64145  24138225.5084                   24138228.9144
        41.0004         33.7504
 25  8  6  0 57  0.0000000  0  9G26G03G06G09G16G04G31G01G07
 -83525783.68447 -66108420.89146  21881335.3984                   21881337.6174
        45.5004         40.7504
-110470942.57048 -86008106.24247  20373845.5784                   20373847.0984
        49.7504         47.7504
  -5136390.58246  -7905522.11745  24436622.7034                   24436626.4144
        40.2504         31.2504
 -19963948.60547 -15377338.06646  22297984.8914                   22297986.6684
        43.0004         39.2504
 -55414230.93447 -38241199.98445  21063425.8364                   21063424.4574
        47.0004         34.5004
 -88824261.55947 -68974536.44946  20528023.8204                   20528023.3554
        47.5004         37.5004
-135810518.30547-105826374.73845  23334774.3204                   23334774.1374
        43.0004         33.5004
-122988747.27046 -95627904.37543  24579490.0634                   24579498.3554
        38.7504         21.2504
   9696601.54347   7675585.22345  24074740.4924                   24074743.9494
        42.0004         34.0004
 25  8  6  0 57 30.0000000  0  9G26G03G06G09G16G04G31G01G07
 -83736658.16847 -66272738.66846  21841207.2814                   21841209.4184
        44.5004         40.2504
-110679513.17248 -86170628.82047  20334155.8284                   20334157.5744
        49.5004         47.7504
  -5397849.39546  -8109256.26245  24386867.8984                   24386872.9344
        39.2504         31.5004
 -20296974.52347 -15636838.70746  22234612.1564                   22234613.6994
        43.7504         40.0004
 -55718743.76647 -38478482.64545  21005478.6174                   21005477.5864
        47.5004         33.7504
 -89108506.52747 -69196025.99646  20473933.8754                   20473933.7624
        47.5004         37.5004
-135971879.85947-105952111.07845  23304068.5864                   23304068.5164
        42.2504         33.5004
-123154836.47746 -95757324.81243  24547884.0944                   24547892.5474
        37.5004         20.5004
   9363175.81346   7415773.22345  24011290.7274                   24011294.4884
        41.5004         34.0004
 25  8  6  0 58  0.0000000  0  9G26G03G06G09G16G04G31G01G07
 -83946971.21147 -66436618.95346  21801185.6024                   21801188.0744
        44.2504         40.5004
-110887540.32048 -86332727.92647  20294569.9224                   20294571.0554
        49.7504         47.5004
  -5658776.81646  -8312576.32845  24337215.9064                   24337219.9694
        40.2504         32.0004
 -20629915.30547 -15896273.00446  22171255.6564                   22171257.1054
        43.7504         39.7504
 -56022652.52747 -38715294.60945  20947646.7034                   20947645.6684
        47.7504         34.5004
 -89392530.73047 -69417343.52046  20419885.7424                   20419885.4104
        47.7504         37.2504
-136133176.14547-106077796.55945  23273375.3444                   23273374.7154
        42.0004         33.7504
-123320996.64846 -95886800.55143  24516265.3524                   24516273.6724
        37.0004         19.7504
   9029942.66447   7156111.27345  23947879.1804                   23947882.0004
        43.0004         34.5004
 25  8  6  0 58 30.0000000  0  9G26G03G06G09G16G04G31G01G07
 -84156724.34047 -66600062.94546  21761271.1954                   21761273.8054
        45.0004         40.2504
-111095025.01248 -86494404.33647  20255086.6174                   20255088.5864
        50.0004         47.7504
  -5919173.18446  -8515482.57845  24287664.1024                   24287667.8714
        40.0004         31.5004
 -20962769.80547 -16155640.08246  22107915.3524                   22107917.1024
        43.7504         40.2504
 -56325954.96947 -38951634.11745  20889930.1484                   20889928.9064
        47.7504         34.0004
 -89676333.04747 -69638488.15646  20365880.0554                   20365879.5084
        47.5004         37.2504
-136294408.64847-106203432.34045  23242693.6644                   23242693.3484
        42.2504         33.0004
-123487230.10245 -96016333.41043  24484632.8914                   24484640.7274
        35.0004         19.0004
   8696902.68047   6896599.82445  23884503.5634                   23884506.2154
        43.0004         33.7504
 25  8  6  0 59  0.0000000  0  9G26G03G06G09G16G04G31G01G07
 -82790494.22747 -65535468.03946  22021255.9694                   22021258.7664
        45.2504         40.0004
-109726543.53948 -85428055.16048  20515500.1954                   20515501.6724
        50.5004         48.0004
  -4603612.32446  -7490370.22345  24538006.2194                   24538010.4924
        40.0004         31.2504
 -19720107.94547 -15187332.06246  22344386.4614                   22344388.0984
        44.0004         39.7504
 -55053220.94147 -37959893.25045  21132123.5554                   21132122.2704
        47.7504         34.5004
 -88384484.98848 -68631853.27046  20611710.5164                   20611710.2034
        48.0004         37.2504
-134880155.77747-105101417.18045  23511817.5784                   23511816.8754
        42.0004         33.0004
-122078115.92245 -94918322.64142  24752778.1564                   24752786.7464
        33.5004         17.7504
   9939485.59447   7864846.48445  24120958.6564                   24120961.8134
        43.2504         34.2504
 25  8  6  0 59 30.0000000  0  9G26G03G06G09G16G04G31G01G07
 -82999135.05547 -65698045.31246  21981553.0164                   21981555.4024
        45.5004         40.0004
-109932949.34048 -85588890.87547  20476222.4384                   20476223.8954
        50.5004         47.5004
  -4862950.57846  -7692451.99245  24488656.8284                   24488660.2814
        39.5004         31.7504
 -20052789.33247 -15446564.21946  22281078.5634                   22281080.6524
        44.0004         39.5004
 -55355307.02047 -38195284.94145  21074638.3284                   21074637.3094
        47.7504         34.2504
 -88667842.89847 -68852651.60546  20557788.9844                   20557788.9144
        47.7504         37.5004
-135041268.60546-105226959.70345  23481158.7894                   23481158.5124
        41.5004         34.2504
-122244506.25445 -95047977.76242  24721115.3984                   24721124.1764
        32.7504         16.2504
   9606831.17647   7605635.48445  24057656.8054                   24057659.5634
        42.0004         33.7504
 25  8  6  1  0  0.0000000  0  9G26G03G06G09G16G04G31G01G07
 -83207220.08647 -65860189.48446  21941955.2814                   21941957.7384
        44.5004         40.5004
-110138815.30148 -85749305.93047  20437047.2894                   20437048.6884
        50.0004         47.7504
  -5121758.42246  -7894120.44145  24439406.6884                   24439411.3204
        40.5004         31.0004
 -20385380.39147 -15705726.00446  22217788.9924                   22217790.3484
        45.0004         40.0004
 -55656779.28547 -38430198.33245  21017269.6254                   21017268.5084
        47.5004         34.5004
 -88950974.90648 -69073273.91846  20503911.3914                   20503910.7584
        48.0004         38.2504
-135202321.85546-105352455.80945  23450511.0784                   23450510.5864
        41.5004         33.7504
-122410976.73045 -95177695.32442  24689436.7504                   24689446.1604
        33.2504         17.7504
   9274372.14846   7346576.75045  23994391.6954                   23994394.5864
        41.7504         33.5004
 25  8  6  1  0 30.0000000  0  9G26G03G06G09G16G04G31G01G07
 -83414753.54347 -66021903.86746  21902463.5004                   21902465.7464
        45.0004         39.7504
-110344145.07048 -85909303.17247  20397974.4454                   20397975.9144
        50.2504         47.7504
  -5380038.82846  -8095377.90645  24390257.4694                   24390261.6604
        40.5004         32.7504
 -20717882.48447 -15964818.49246  22154515.8984                   22154517.0904
        44.2504         40.0004
 -55957638.15647 -38664633.76645  20960018.6024                   20960016.6724
        47.0004         34.5004
 -89233882.36748 -69293721.26246  20450075.5164                   20450075.0824
        48.0004         37.7504
-135363319.60546-105477908.66445  23419873.8914                   23419873.8914
        41.7504         33.5004
-122577532.30945 -95307479.20343  24657742.1334                   24657751.6454
        33.5004         18.5004
   8942106.81647   7087668.92645  23931163.8134                   23931166.1954
        42.0004         33.5004
 25  8  6  1  1  0.0000000  0  9G26G03G06G09G16G04G31G01G07
 -83621736.75047 -66183189.48046  21863075.3834                   21863078.2274
        44.5004         40.0004
-110548939.52048 -86068883.28547  20359003.4534                   20359005.0824
        49.2504         47.7504
  -5637792.07446  -8296224.59845  24341209.0784                   24341213.0984
        39.7504         31.7504
 -21050294.18747 -16223840.53946  22091259.6644                   22091261.2384
        43.0004         40.5004
 -56257881.06647 -38898589.21945  20902884.2194                   20902882.3794
        46.7504         35.0004
 -89516563.87148 -69513992.54346  20396283.2194                   20396282.6294
        48.0004         37.2504
-135524262.64547-105603318.87945  23389248.2114                   23389247.4654
        42.0004         33.2504
-122744175.16445 -95437331.04743  24626032.7344                   24626041.3674
        34.0004         19.0004
   8610035.96146   6828912.64545  23867971.9534                   23867975.0744
        41.2504         33.2504
 25  8  6  1  1 30.0000000  0  9G26G03G06G09G16G04G31G01G07
 -83828170.85947 -66344047.21546  21823792.8444                   21823794.9144
        44.5004         40.0004
-110753199.22348 -86228046.72347  20320133.9144                   20320135.4964
        49.7504         47.5004
  -5895018.06246  -8496660.44145  24292260.2344                   24292264.3284
        40.0004         32.2504
 -21382613.78147 -16482790.78146  22028021.1174                   22028022.8554
        43.5004         40.5004
 -56557505.35547 -39132062.64545  20845867.3834                   20845865.6844
        47.0004         35.2504
 -89799017.71548 -69734086.42246  20342533.8204                   20342533.2424
        48.0004         37.0004
-135685152.12147-105728687.35945  23358631.3524                   23358631.4384
        42.5004         34.2504
-122910907.10945 -95567252.32443  24594303.7034                   24594312.8834
        34.7504         18.2504
   8278160.87947   6570308.87945  23804818.8134                   23804821.2464
        42.2504         33.5004
 25  8  6  1  2  0.0000000  0  9G26G03G06G09G16G04G31G01G07
 -82458632.58647 -65276874.53546  22084406.9614                   22084409.4844
        44.7504         39.7504
-109381500.47748 -85159190.58247  20581159.7734                   20581161.4224
        49.5004         47.5004
  -4576290.65646  -7469080.65645  24543205.6334                   24543210.1254
        39.7504         32.5004
 -20139410.83247 -15514061.11746  22264595.3204                   22264597.1334
        45.0004         41.0004
 -55281081.04347 -38137446.24645  21088762.8134                   21088761.7194
        47.5004         35.5004
 -88505815.15648 -68726396.09446  20588621.9224                   20588621.4344
        48.0004         37.2504
-134270566.46146-104626412.87545  23627818.5394                   23627818.5084
        41.5004         33.7504
-121502306.99246 -94469642.09843  24862351.8364                   24862360.9104
        36.0004         19.2504
   9521911.33246   7539465.30545  24041496.1334                   24041498.7074
        41.5004         32.5004
 25  8  6  1  2 30.0000000  0  9G26G03G06G09G16G04G31G01G07
 -82663974.19547 -65436880.98046  22045331.5004                   22045334.2624
        44.2504         39.7504
-109584694.96548 -85317523.96947  20542493.5164                   20542494.5434
        49.2504         47.5004
  -4832464.48046  -7668696.64545  24494457.7504                   24494461.8634
        39.0004         32.0004
 -20471543.20747 -15772865.49246  22201392.4454                   22201393.8524
        45.7504         41.7504
 -55579462.47347 -38369951.20745  21031982.3834                   21031981.4454
        47.5004         35.0004
 -88787810.81648 -68946132.95746  20534959.9534                   20534959.4344
        48.0004         37.2504
-134431354.73447-104751702.49245  23597221.7034                   23597221.3554
        42.5004         34.0004
-121669225.21146 -94599708.53143  24830588.8524                   24830597.7854
        36.7504         19.2504
   9190428.19546   7281166.98445  23978416.4224                   23978419.3484
        41.2504         31.7504
 25  8  6  1  3  0.0000000  0  9G26G03G06G09G16G04G31G01G07
 -82868773.63347 -65596464.96146  22006359.6414                   22006362.0354
        44.5004         40.0004
-109787360.11348 -85475444.89547  20503927.1094                   20503928.8834
        49.0004         47.5004
  -5088114.46546  -7867904.44145  24445809.0474                   24445813.4924
        37.7504         32.5004
 -20803581.61347 -16031596.64846  22138207.2344                   22138208.8594
        45.5004         41.0004
 -55877220.77047 -38601970.60945  20975321.3134                   20975320.0394
        47.5004         35.5004
 -89069577.10248 -69165691.07446  20481341.5634                   20481341.1804
        48.5004         37.5004
-134592095.89147-104876955.39145  23566633.5394                   23566633.4694
        42.5004         34.0004
-121836241.60546 -94729851.42643  24798807.6884                   24798816.3754
        37.0004         20.5004
   8859140.53546   7023020.96945  23915374.5234                   23915377.0704
        41.5004         31.5004
 25  8  6  1  3 30.0000000  0  9G26G03G06G09G16G04G31G01G07
 -83073031.39847 -65755626.85546  21967490.7424                   21967493.3094
        43.0004         39.2504
-109989495.97348 -85632953.37947  20465462.2274                   20465463.3794
        48.5004         47.5004
  -5343240.18046  -8066703.71545  24397260.3134                   24397264.3524
        38.5004         32.2504
 -21135523.74647 -16290252.78546  22075040.7894                   22075042.2974
        44.2504         40.5004
 -56174352.64847 -38833501.88745  20918778.7424                   20918777.4574
        47.2504         35.0004
 -89351111.63347 -69385068.61746  20427767.7814                   20427766.9614
        47.2504         37.2504
-134752790.34047-105002171.89145  23536054.3754                   23536054.1054
        43.2504         34.0004
-122003357.41446 -94860071.81243  24767006.2664                   24767015.5234
        38.2504         20.5004
   8528049.96147   6765028.52045  23852369.6254                   23852372.6254
        42.7504         33.0004
 25  8  6  1  4  0.0000000  0  9G26G03G06G09G16G04G31G01G07
 -83276749.45347 -65914368.20746  21928724.3364                   21928726.9264
        42.5004         39.7504
-110191104.00448 -85790050.57447  20427097.4774                   20427099.1484
        48.2504         47.2504
  -5597842.27346  -8265094.97345  24348811.7274                   24348815.2074
        39.7504         32.0004
 -21467368.49647 -16548833.02346  22011892.3524                   22011894.4574
        45.0004         41.5004
 -56470856.60547 -39064543.88345  20862355.8674                   20862354.4964
        47.0004         35.2504
 -89632413.44548 -69604264.81246  20374237.4534                   20374237.0204
        48.0004         38.0004
-134913439.66847-105127353.22345  23505483.8524                   23505483.7274
        42.2504         33.0004
-122170575.18746 -94990371.63343  24735185.3444                   24735194.8954
        37.7504         21.0004
   8197157.07447   6507190.09845  23789403.2344                   23789406.0704
        43.0004         34.0004
 25  8  6  1  4 30.0000000  0  9G26G03G06G09G16G04G31G01G07
 -83479931.08247 -66072691.55546  21890060.4694                   21890062.8444
        44.5004         39.5004
-110392186.97348 -85946738.62547  20388832.3754                   20388834.0904
        49.2504         47.5004
  -5851922.95346  -8463079.94145  24300461.0944                   24300465.5274
        39.5004         33.0004
 -21799116.14147 -16807337.59447  21948763.5784                   21948765.3094
        46.2504         42.7504
 -56766731.60547 -39295095.77345  20806052.7894                   20806051.5824
        47.2504         35.5004
 -89913482.83647 -69823279.90246  20320751.7584                   20320751.1094
        47.7504         37.7504
-135074046.39847-105252501.37145  23474921.0394                   23474921.7424
        42.2504         33.5004
-122337898.81246 -95120753.93443  24703345.4454                   24703354.3834
        38.2504         20.0004
   7866460.57047   6249504.70345  23726473.7734                   23726476.1764
        43.0004         33.0004
 25  8  6  1  5  0.0000000  0  9G26G03G06G09G16G04G31G01G07
 -82107149.37947 -65002991.52346  22151292.2584                   22151294.6294
        44.2504         39.7504
-109017317.50448 -84875411.79347  20650461.3674                   20650463.2504
        48.7504         47.0004
  -4530052.57446  -7433051.10245  24552005.3134                   24552009.2424
        39.7504         32.5004
 -20555332.42247 -15838155.39147  22185447.7894                   22185449.3524
        47.0004         42.0004
 -55486544.02747 -38297546.95345  21049664.2424                   21049662.9344
        47.5004         35.2504
 -88618887.28948 -68814504.12146  20567104.7894                   20567104.6914
        48.5004         37.7504
-133659185.23847-104150012.21145  23744161.2734                   23744161.0554
        42.0004         33.2504
-120929903.03946 -94023614.61343  24971278.9694                   24971287.3874
        39.0004         21.5004
   9111393.89147   7219582.80945  23963376.1254                   23963378.4454
        42.0004         31.2504
 25  8  6  1  5 30.0000000  0  9G26G03G06G09G16G04G31G01G07
 -82309260.72347 -65160480.88346  22112831.4064                   22112833.8094
        42.5004         39.5004
-109217351.41847 -85031282.40247  20612396.4224                   20612398.0824
        47.5004         47.2504
  -4783089.63746  -7630222.87145  24503852.7114                   24503857.6804
        39.0004         32.5004
 -20886879.22747 -16096503.46546  22122356.1884                   22122357.5824
        45.5004         41.5004
 -55781152.71947 -38527112.10545  20993602.1644                   20993600.8164
        47.5004         35.2504
 -88899485.44548 -69033152.00846  20513708.5634                   20513708.2344
        48.0004         37.7504
-133819709.21147-104275095.88345  23713614.1174                   23713613.7074
        42.0004         33.5004
-121097442.53146 -94154165.12143  24939396.3834                   24939406.6054
        37.5004         21.5004
   8781094.54346   6962206.87145  23900522.8134                   23900524.1954
        41.2504         32.0004
 25  8  6  1  6  0.0000000  0  9G26G03G06G09G16G04G31G01G07
 -82510840.14147 -65317555.76646  22074472.4614                   22074474.6604
        43.7504         39.5004
-109416863.26648 -85186746.20347  20574430.4064                   20574432.0474
        49.7504         47.0004
  -5035606.45746  -7826989.25045  24455800.9304                   24455805.3554
        38.2504         32.2504
 -21218324.32447 -16354772.28946  22059284.1414                   22059285.6134
        45.5004         41.7504
 -56075125.93447 -38756182.07045  20937660.7974                   20937659.3444
        46.5004         35.5004
 -89179846.66048 -69251615.27046  20460358.1094                   20460357.4454
        48.0004         37.7504
-133980194.10547-104400149.09445  23683074.7814                   23683074.8164
        42.0004         33.7504
-121265094.03946 -94284802.91443  24907493.6174                   24907502.9574
        39.5004         20.7504
   8450994.18846   6704985.99245  23837705.8984                   23837708.2384
        41.7504         31.5004
 25  8  6  1  6 30.0000000  0  9G26G03G06G09G16G04G31G01G07
 -82711890.84847 -65474218.65646  22036214.0474                   22036216.1954
        43.5004         39.5004
-109615855.83248 -85341805.37947  20536563.3284                   20536565.1094
        49.0004         47.2504
  -5287605.19146  -8023351.91845  24407846.8674                   24407851.2034
        39.7504         31.7504
 -21549667.79347 -16612961.93447  21996231.4614                   21996233.0274
        46.0004         42.0004
 -56368463.28147 -38984756.55945  20881840.5164                   20881838.8364
        47.0004         35.2504
 -89459971.18447 -69469894.09846  20407052.2504                   20407051.5274
        47.5004         37.5004
-134140642.89847-104525174.16445  23652542.2194                   23652542.0594
        42.0004         33.0004
-121432861.25846 -94415530.86343  24875569.0164                   24875578.1644
        38.2504         20.0004
   8121091.71946   6447919.31645  23774927.2584                   23774929.4924
        41.2504         30.7504
 25  8  6  1  7  0.0000000  0  9G26G03G06G09G16G04G31G01G07
 -82912414.30147 -65630470.70346  21998055.7034                   21998057.1294
        43.7504         39.5004
-109814330.05148 -85496460.64147  20498795.0554                   20498797.0514
        49.0004         47.0004
  -5539086.11746  -8219311.10945  24359992.4144                   24359996.6914
        38.7504         31.7504
 -21880907.89547 -16871071.02347  21933198.4224                   21933200.1954
        45.7504         42.7504
 -56661162.25047 -39212833.61345  20826141.5394                   20826139.9804
        47.5004         35.5004
 -89739857.35247 -69687987.18046  20353791.3834                   20353791.0824
        47.7504         37.5004
-134301056.38747-104650171.73445  23622016.6254                   23622016.4344
        42.2504         33.2504
-121600746.02746 -94546350.36743  24843621.6724                   24843631.5164
        39.5004         19.5004
   7791388.14846   6191007.60545  23712186.5704                   23712189.0084
        41.0004         31.2504
 25  8  6  1  7 30.0000000  0  9G26G03G06G09G16G04G31G01G07
 -83112411.64847 -65786312.79346  21959997.0704                   21959999.8794
        42.7504         39.2504
-110012286.55148 -85650712.48447  20461125.3444                   20461126.5944
        48.5004         47.0004
  -5790049.27246  -8414866.84245  24312235.9454                   24312239.7304
        39.7504         31.2504
 -22212042.64847 -17129098.00847  21870186.1724                   21870187.3714
        45.2504         42.7504
 -56953220.26647 -39440411.22746  20770565.1564                   20770563.3754
        46.7504         36.0004
 -90019503.24648 -69905893.05146  20300576.4304                   20300575.9654
        48.0004         37.2504
-134461435.29747-104775142.35945  23591497.9924                   23591498.0084
        42.0004         33.0004
-121768750.08246 -94677262.88743  24811652.1024                   24811661.4024
        39.7504         19.7504
   7461884.73446   5934251.84045  23649483.8444                   23649486.3404
        41.0004         32.0004
 25  8  6  1  8  0.0000000  0  9G26G03G06G09G16G04G31G01G07
 -81736459.50847 -64714142.30146  22221831.9924                   22221834.2624
        43.0004         39.0004
-108634301.62547 -84576958.02747  20723347.1954                   20723348.5944
        47.0004         47.0004
  -4465068.56646  -7382414.34845  24564370.6644                   24564375.3364
        38.7504         31.7504
 -20967641.14847 -16159434.41446  22106987.2034                   22106988.8164
        46.0004         41.7504
 -55669207.48847 -38439881.71945  21014904.3524                   21014902.7664
        46.2504         35.5004
 -88723479.75848 -68896004.59046  20547201.9924                   20547201.3134
        48.2504         37.2504
-133046357.41846-103672484.33245  23860778.4064                   23860778.1454
        41.7504         33.7504
-120361451.44946 -93580666.74643  25079452.1024                   25079461.3054
        39.2504         19.0004
   8708011.40646   6905259.80545  23886614.6724                   23886616.3164
        41.5004         32.7504
 25  8  6  1  8 30.0000000  0  9G26G03G06G09G16G04G31G01G07
 -81935412.27747 -64869170.43446  22183972.5394                   22183974.7894
        42.5004         39.2504
-108831228.98047 -84730407.94147  20685873.2894                   20685875.1684
        47.5004         46.7504
  -4715000.62946  -7577166.61345  24516810.3674                   24516814.1484
        38.7504         31.7504
 -21298563.30947 -16417295.75847  22044014.9844                   22044016.3364
        46.0004         42.2504
 -55959980.57847 -38666458.09445  20959572.2664                   20959570.2114
        47.2504         35.7504
 -89002643.43048 -69113534.70346  20494078.7344                   20494077.9264
        48.2504         37.5004
-133206673.53147-103797406.02345  23830271.2034                   23830270.9534
        42.0004         34.0004
-120529702.80146 -93711771.90243  25047434.9844                   25047444.9344
        39.5004         18.2504
   8378907.53146   6648815.38745  23823987.7114                   23823989.7504
        41.5004         32.0004
 25  8  6  1  9  0.0000000  0  9G26G03G06G09G16G04G31G01G07
 -82133845.47347 -65023793.70346  22146211.5164                   22146214.6134
        44.0004         38.5004
-109027643.72348 -84883458.42247  20648496.5164                   20648498.3714
        48.5004         47.0004
  -4964418.22746  -7771518.00445  24469347.7424                   24469352.0824
        40.0004         31.7504
 -21629377.02347 -16675072.60547  21981063.0084                   21981064.3244
        46.2504         42.2504
 -56250107.91847 -38892531.28945  20904362.4614                   20904360.5864
        46.0004         35.0004
 -89281563.95748 -69330875.34846  20441001.5394                   20441000.9144
        48.5004         38.0004
-133366959.94546-103922304.57045  23799769.7274                   23799769.2584
        41.5004         33.2504
-120698081.06646 -93842975.97342  25015393.9774                   25015403.8634
        38.2504         16.7504
   8050004.13346   6392527.21545  23761398.6024                   23761401.4884
        41.7504         31.5004
 25  8  6  1  9 30.0000000  0  9G26G03G06G09G16G04G31G01G07
 -82331762.59447 -65178014.84846  22108550.0164                   22108552.1884
        42.7504         39.2504
-109223548.91447 -85036111.84047  20611217.0864                   20611218.9224
        47.7504         47.0004
  -5213323.85946  -7965470.44145  24421982.3364                   24421987.0164
        39.2504         30.5004
 -21960082.59447 -16932765.18447  21918132.1094                   21918133.3634
        46.0004         42.2504
 -56539589.71547 -39118101.46545  20849276.0474                   20849274.4964
        46.2504         35.2504
 -89560241.76647 -69548026.85546  20387970.8204                   20387970.2734
        47.7504         37.2504
-133527219.57846-104047182.24245  23769273.2274                   23769272.9964
        41.7504         33.5004
-120866590.15246 -93974281.98842  24983328.0554                   24983338.2704
        39.7504         17.2504
   7721300.15647   6136394.40245  23698848.5864                   23698850.9494
        42.2504         32.0004
 25  8  6  1 10  0.0000000  0  9G26G03G06G09G16G04G31G01G07
 -82529163.76647 -65331833.93446  22070985.8754                   22070987.8524
        42.5004         39.2504
-109418944.19947 -85188367.93747  20574034.5864                   20574036.3594
        47.5004         46.7504
  -5461716.50446  -8159023.15645  24374715.0634                   24374719.4654
        39.0004         31.5004
 -22290676.82447 -17190370.99647  21855221.8674                   21855223.2424
        45.5004         42.7504
 -56828422.46547 -39343165.89145  20794312.8364                   20794311.3134
        46.5004         35.0004
 -89838673.71947 -69764986.79746  20334987.1884                   20334986.5554
        47.7504         37.2504
-133687451.92646-104172038.64845  23738782.3134                   23738782.2034
        41.7504         34.0004
-121035230.49646 -94105690.20742  24951237.4224                   24951247.6254
        39.5004         16.2504
   7392797.96947   5880418.79745  23636337.0704                   23636338.4414
        42.7504         32.2504
 25  8  6  1 10 30.0000000  0  9G26G03G06G09G16G04G31G01G07
 -82726053.42647 -65485254.45346  22033518.8914                   22033521.0004
        43.7504         39.0004
-109613833.57448 -85340229.81647  20536948.7114                   20536950.2894
        49.0004         46.7504
  -5709599.61346  -8352178.81645  24327544.9694                   24327549.1094
        39.0004         31.0004
 -22621160.91847 -17447890.98847  21792332.7194                   21792334.1374
        44.5004         42.0004
 -57116607.02047 -39567725.24245  20739472.8364                   20739471.3324
        46.2504         34.7504
 -90116861.16848 -69981756.20746  20282049.7734                   20282049.0314
        48.2504         37.0004
-133847660.94146-104296876.87545  23708295.2114                   23708295.1994
        41.7504         34.0004
-121204006.90646 -94237204.39142  24919120.2974                   24919131.3754
        39.2504         15.5004
   7064495.50046   5624598.84045  23573862.9614                   23573865.0984
        40.5004         33.5004
 25  8  6  1 11  0.0000000  0  9G26G03G06G09G16G04G31G01G07
 -81347006.57847 -64410672.49246  22295942.4064                   22295944.8204
        42.5004         39.0004
-108232791.64147 -84264093.26647  20799752.1024                   20799753.7074
        47.7504         46.7504
  -4381545.41046  -7317331.38345  24580264.3054                   24580269.1914
        39.0004         30.5004
 -21376102.02347 -16477715.15647  22029259.7424                   22029260.9024
        47.0004         42.5004
 -55828711.61747 -38564170.33245  20984551.2424                   20984549.5824
        45.7504         35.0004
 -88819373.10247 -68970726.52746  20528953.5164                   20528953.0784
        47.7504         37.2504
-132432422.02746-103194093.35245  23977606.4064                   23977606.3984
        40.7504         33.7504
-119797495.426 6                  25186770.125
        38.250
   8311824.52747   6596543.68845  23811221.0634                   23811223.4024
        42.5004         33.5004
 25  8  6  1 11 30.0000000  0  9G26G03G06G09G16G04G31G01G07
 -81542877.32047 -64563299.05146  22258669.9064                   22258671.7894
        43.7504         39.0004
-108426671.88748 -84415168.80547  20762857.9614                   20762860.0354
        49.0004         46.5004
  -4628410.34046  -7509693.67645  24533287.8134                   24533292.5704
        39.0004         31.2504
 -21706359.82447 -16735058.84047  21966413.4694                   21966414.7544
        46.2504         42.7504
 -56115592.84047 -38787714.09445  20929959.4694                   20929958.0664
        45.7504         35.0004
 -89097065.85247 -69187110.47346  20476110.1414                   20476109.8164
        47.7504         37.7504
-132592586.14546-103318896.62545  23947128.4304                   23947128.4494
        40.2504         32.0004
-119966548.609 6                  25154600.891
        37.750
   7983924.34047   6341037.19945  23748824.2274                   23748826.5434
        43.0004         32.2504
 25  8  6  1 12  0.0000000  0  9G26G03G06G09G16G04G31G01G07
 -81738242.52047 -64715531.67246  22221493.0314                   22221495.1484
        44.5004         38.5004
-108620050.80148 -84565853.69947  20726059.2194                   20726060.6054
        48.7504         46.7504
  -4874768.57846  -7701661.14545  24486408.2424                   24486412.0274
        39.2504         31.2504
 -22036503.39147 -16992313.50047  21903588.9064                   21903590.1604
        45.2504         42.2504
 -56401820.91047 -39010748.90645  20875492.3284                   20875491.0634
        46.0004         35.2504
 -89374510.30548 -69403300.93746  20423314.6174                   20423313.9264
        48.5004         37.0004
-132752730.63746-103443684.59045  23916653.6884                   23916653.7734
        40.5004         32.2504
-120135744.480 6                  25122404.492
        36.500
   7656225.26647   6085687.41845  23686464.8674                   23686466.7584
        43.0004         34.0004
 25  8  6  1 12 30.0000000  0  9G26G03G06G09G16G04G31G01G07
 -81933103.31647 -64867371.24646  22184412.2814                   22184414.1094
        44.5004         39.0004
-108812929.01248 -84716148.44547  20689355.8054                   20689357.7154
        48.5004         46.7504
  -5120620.18446  -7893233.84445  24439623.4144                   24439628.1484
        40.0004         30.5004
 -22366530.44947 -17249477.37547  21840787.1024                   21840788.1414
        46.2504         42.0004
 -56687393.06647 -39233272.62145  20821149.6174                   20821148.2274
        46.7504         35.7504
 -89651704.29748 -69619296.23846  20370565.8284                   20370565.1764
        48.0004         37.2504
-132912855.88346-103568457.55145  23886183.3134                   23886183.1054
        40.0004         31.5004
-120305084.363 5                  25090180.547
        35.250
   7328728.60547   5830495.34045  23624144.5084                   23624145.6524
        43.2504         33.2504
 25  8  6  1 13  0.0000000  0  9G26G03G06G09G16G04G31G01G07
 -82127462.82047 -65018820.21546  22147427.0394                   22147428.8404
        44.5004         38.7504
-109005309.29348 -84866055.18447  20652747.1254                   20652748.6764
        48.0004         46.7504
  -5365967.33646  -8084413.46545  24392935.8674                   24392939.8134
        39.2504         32.0004
 -22696440.71547 -17506550.25447  21778007.0004                   21778008.2544
        45.0004         42.2504
 -56972309.23847 -39455285.17645  20766931.9534                   20766930.3954
        46.5004         35.2504
 -89928647.73448 -69835096.30546  20317865.8364                   20317864.8164
        48.2504         37.5004
-133072964.37546-103693217.48045  23855715.2974                   23855715.8054
        39.2504         31.5004
-120474571.672 5                  25057927.109
        33.000
   7001433.33246   5575460.19545  23561862.1724                   23561863.5904
        41.2504         34.0004
 25  8  6  1 13 30.0000000  0  9G26G03G06G09G16G04G31G01G07
 -82321324.14147 -65169880.97746  22110536.0634                   22110538.1094
        44.5004         39.0004
-109197194.23448 -85015575.94947  20616232.2424                   20616234.4844
        48.5004         46.5004
  -5610812.05546  -8275201.57445  24346343.5394                   24346347.5824
        39.5004         31.5004
 -23026233.89147 -17763531.89847  21715249.6564                   21715250.7274
        46.5004         42.0004
 -57256569.09847 -39676786.31245  20712838.9454                   20712837.3834
        47.0004         35.2504
 -90205340.36348 -70050700.93046  20265212.8364                   20265212.0784
        48.2504         37.5004
-133233058.19946-103817965.98445  23825250.1644                   23825250.6294
        38.2504         30.7504
-120644209.47714                  25025647.070
        29.250
   6674339.20747   5320581.80945  23499618.0784                   23499619.6804
        43.0004         34.5004
 25  8  6  1 14  0.0000000  0  8G26G03G06G09G16G04G31G07
 -80939262.48847 -64092949.82846  22373533.8284                   22373535.8444
        43.7504         39.5004
-107813158.67248 -83937106.71547  20879605.5084                   20879607.4344
        48.7504         46.5004
  -4279726.87546  -7237992.38345  24599640.3834                   24599644.7704
        40.7504         31.7504
 -21780477.12547 -16792812.28947  21952309.0634                   21952309.8634
        46.2504         42.0004
 -55964741.09847 -38670167.04345  20958666.0234                   20958663.9494
        46.2504         35.2504
 -88906351.30947 -69038501.65246  20512402.1024                   20512401.4804
        47.7504         38.5004
-131817712.96546-102715099.64145  24094582.4924                   24094581.8404
        38.5004         30.2504
   7922877.63747   6293469.05146  23737206.8914                   23737208.6524
        44.0004         36.0004
 25  8  6  1 14 30.0000000  0  8G26G03G06G09G16G04G31G07
 -81132131.28547 -64243237.20746  22336831.5084                   22336834.3204
        44.2504         39.0004
-108004055.50848 -84085857.52747  20843279.2584                   20843280.9104
        48.5004         46.5004
  -4523567.60946  -7427998.18445  24553238.8674                   24553243.1524
        40.0004         31.2504
 -22110029.48447 -17049606.28147  21889597.4304                   21889598.6454
        46.7504         42.2504
 -56247681.23047 -38890639.81645  20904824.3834                   20904822.3134
        46.0004         34.7504
 -89182536.22747 -69253710.66846  20459846.1024                   20459845.2384
        47.5004         37.7504
-131977778.58246-102839826.15245  24064122.5234                   24064122.2424
        39.5004         30.0004
   7596188.65247   6038906.35945  23675040.1884                   23675041.8914
        43.7504         35.2504
 25  8  6  1 15  0.0000000  0  8G26G03G06G09G16G04G31G07
 -81324500.15247 -64393135.03146  22300225.5634                   22300227.7624
        42.5004         38.5004
-108194453.90247 -84234219.94547  20807047.7974                   20807049.5864
        47.2504         46.5004
  -4766901.20746  -7617608.81245  24506934.5704                   24506938.5864
        39.5004         31.2504
 -22439452.49647 -17306299.49247  21826910.1174                   21826911.1804
        46.2504         42.2504
 -56529952.40647 -39110591.33245  20851109.2274                   20851107.5744
        46.5004         35.0004
 -89458458.57848 -69468715.08646  20407339.3834                   20407338.8634
        48.5004         37.7504
-132137825.59046-102964538.17644  24033666.6254                   24033666.7774
        38.7504         29.5004
   7269709.72347   5784507.34445  23612913.5784                   23612914.3634
        43.7504         35.0004
 25  8  6  1 15 30.0000000  0  8G26G03G06G09G16G04G31G07
 -81516368.32847 -64542642.69946  22263714.3914                   22263716.5394
        44.7504         38.7504
-108384352.73848 -84382193.09847  20770911.4384                   20770912.8954
        48.5004         46.5004
  -5009725.91846  -7806822.90245  24460726.4614                   24460730.3754
        39.7504         31.0004
 -22768741.94947 -17562888.62147  21764248.4694                   21764249.5904
        45.0004         42.2504
 -56811550.59847 -39330018.44145  20797523.0944                   20797521.2544
        47.2504         35.5004
 -89734114.31648 -69683511.75046  20354884.1954                   20354883.2704
        48.0004         38.0004
-132297852.07846-103089234.20344  24003213.8754                   24003214.2974
        39.2504         28.0004
   6943443.71946   5530274.25045  23550826.6954                   23550828.0234
        41.7504         35.0004
 25  8  6  1 16  0.0000000  0  8G26G03G06G09G16G04G31G07
 -81707738.82047 -64691762.56646  22227297.9844                   22227299.8554
        44.5004         39.0004
-108573754.53947 -84529778.94947  20734869.3914                   20734871.1684
        47.7504         46.2504
  -5252043.70346  -7995641.98845  24414614.6334                   24414618.7344
        39.2504         30.7504
 -23097897.19947 -17819373.18046  21701612.4534                   21701613.2074
        46.2504         41.7504
 -57092475.17247 -39548920.64145  20744064.7974                   20744062.9064
        47.0004         35.7504
 -90009502.95347 -69898100.27746  20302479.2664                   20302478.6724
        47.7504         37.7504
-132457860.08246-103213915.85244  23972765.8054                   23972766.0514
        39.7504         28.0004
   6617390.52047   5276206.99645  23488779.9064                   23488781.7814
        43.5004         35.2504
 25  8  6  1 16 30.0000000  0  8G26G03G06G09G16G04G31G07
 -81898616.35947 -64840498.31246  22190974.7344                   22190977.3094
        44.5004         39.0004
-108762663.71148 -84676980.93447  20698921.0634                   20698922.8054
        48.2504         46.5004
  -5493858.48846  -8184069.13745  24368599.7274                   24368603.2584
        39.5004         31.0004
 -23426919.56647 -18075754.19947  21639001.3204                   21639002.3754
        45.7504         42.0004
 -57372727.77747 -39767299.23845  20690734.5864                   20690732.9884
        47.5004         35.5004
 -90284625.95748 -70112481.81246  20250125.2424                   20250124.6054
        48.0004         37.7504
-132617853.30946-103338585.97744  23942320.1174                   23942320.2344
        39.0004         28.7504
   6291547.66047   5022303.62945  23426774.4534                   23426775.9844
        42.7504         35.2504
 25  8  6  1 17  0.0000000  0  8G26G03G06G09G16G04G31G07
 -80513578.24647 -63761247.83746  22454539.0234                   22454541.1564
        42.2504         39.0004
-107375657.05547 -83596196.56247  20962859.6094                   20962861.5434
        47.5004         46.0004
  -4159744.81646  -7144500.08245  24622472.6804                   24622476.8204
        40.0004         32.0004
 -22180378.02347 -17104423.07047  21876210.2974                   21876211.3444
        46.0004         42.7504
 -56076878.77047 -38757546.70745  20937326.2274                   20937324.7074
        47.2504         35.5004
 -88984054.24247 -69099049.28946  20497615.8834                   20497614.7464
        47.5004         37.7504
-131202409.20346-102235642.60945  24211670.6334                   24211670.5204
        39.0004         30.2504
   7541344.86347   5996171.74645  23664603.1644                   23664603.9384
        42.5004         34.5004
 25  8  6  1 17 30.0000000  0  8G26G03G06G09G16G04G31G07
 -80703482.36747 -63909225.08246  22418401.0164                   22418403.4064
        44.2504         38.7504
-107563592.02748 -83742639.43447  20927097.1414                   20927098.7704
        48.2504         46.2504
  -4400562.98846  -7332150.65245  24576646.0394                   24576650.7154
        40.0004         31.0004
 -22509136.10947 -17360598.14147  21813650.0004                   21813650.8794
        46.2504         42.7504
 -56355788.95747 -38974879.26246  20884251.0864                   20884249.8594
        47.7504         36.0004
 -89258648.02747 -69313018.45346  20445361.9614                   20445361.9024
        47.5004         37.7504
-131362382.69546-102360297.35545  24181228.9304                   24181229.1254
        40.0004         30.0004
   7215918.09847   5742592.63345  23602676.2274                   23602677.8054
        43.7504         35.0004
 25  8  6  1 18  0.0000000  0  8G26G03G06G09G16G04G31G07
 -80892903.79347 -64056826.20346  22382355.5394                   22382357.8834
        43.5004         38.5004
-107751043.35248 -83888705.43747  20891426.3204                   20891428.1334
        48.0004         46.0004
  -4640885.45746  -7519414.94944  24530914.4924                   24530918.5004
        40.0004         29.7504
 -22837760.69547 -17616669.18047  21751114.6174                   21751115.6524
        46.5004         42.7504
 -56634026.93748 -39191688.01645  20831304.4694                   20831302.6564
        48.2504         35.2504
 -89532976.12147 -69526780.59046  20393159.3444                   20393158.8164
        47.2504         38.0004
-131522348.71946-102484946.29345  24150788.2034                   24150788.4104
        40.5004         30.5004
   6890698.74247   5489175.11346  23540789.3444                   23540790.4144
        43.7504         36.0004
 25  8  6  1 18 30.0000000  0  8G26G03G06G09G16G04G31G07
 -81081845.63347 -64204053.60946  22346401.3054                   22346403.1414
        42.5004         38.0004
-107938013.67248 -84034396.62547  20855846.8984                   20855848.6294
        48.2504         46.0004
  -4880714.44146  -7706294.71145  24485276.4534                   24485280.7154
        39.2504         30.0004
 -23166251.21147 -17872635.75447  21688604.8834                   21688605.4264
        45.7504         43.2504
 -56911592.34047 -39407972.69945  20778485.5314                   20778483.6524
        47.0004         35.2504
 -89807038.14147 -69740335.39846  20341006.9144                   20341006.2424
        47.0004         37.7504
-131682309.37546-102609591.06245  24120349.0234                   24120349.1914
        40.0004         31.7504
   6565686.24247   5235918.78945  23478940.6334                   23478942.3674
        43.5004         35.5004
 25  8  6  1 19  0.0000000  0  8G26G03G06G09G16G04G31G07
 -81270309.55147 -64350908.62546  22310537.3594                   22310539.6294
        43.7504         38.2504
-108124504.26248 -84179714.00047  20820359.1564                   20820360.9804
        48.2504         46.0004
  -5120050.72346  -7892790.53945  24439732.5394                   24439736.3984
        40.0004         30.5004
 -23494605.71947 -18128496.33647  21626120.7814                   21626122.2664
        46.5004         43.2504
 -57188483.61347 -39623732.08645  20725794.5004                   20725792.6024
        45.5004         34.7504
 -90080832.26247 -69953681.44546  20288905.4774                   20288904.9414
        45.5004         38.0004
-131842265.24646-102734232.07845  24089910.9774                   24089910.7194
        40.5004         32.2504
   6240881.84047   4982824.63345  23417132.2814                   23417134.1334
        42.5004         35.5004
 25  8  6  1 19 30.0000000  0  8G26G03G06G09G16G04G31G07
 -81458301.14147 -64497395.58646  22274763.8134                   22274765.9884
        44.0004         38.2504
-108310520.36748 -84324661.65247  20784961.3524                   20784962.6094
        49.2504         46.0004
  -5358898.84046  -8078905.98045  24394281.1724                   24394284.9654
        40.0004         30.7504
 -23822826.05147 -18384252.37147  21563662.1564                   21563663.7934
        46.7504         43.2504
 -57464702.94148 -39838967.87145  20673231.7114                   20673230.0744
        48.0004         35.2504
 -90354360.67247 -70166820.44946  20236854.9064                   20236854.5784
        47.7504         38.0004
-132002220.83646-102858872.90645  24059472.0234                   24059472.2894
        41.2504         32.5004
   5916281.84847   4729889.75045  23355362.9224                   23355364.7584
        43.0004         35.5004
 25  8  6  1 20  0.0000000  0  8G26G03G06G09G16G04G31G07
 -80070395.80147 -63415910.91046  22538873.4304                   22538875.7934
        42.5004         37.5004
-106920637.02048 -83241635.69547  21049447.3054                   21049448.7894
        48.0004         45.7504
  -4021831.71146  -7037035.52045  24648715.7814                   24648720.7624
        40.0004         30.0004
 -22575479.24647 -17412293.75047  21801024.7974                   21801025.8284
        47.0004         43.2504
 -56164819.76648 -38826071.84845  20920591.2344                   20920589.3484
        48.5004         35.7504
 -89052192.32447 -69152143.80546  20484649.2274                   20484648.5514
        47.5004         38.5004
-130586751.54347-101755909.91445  24328827.0234                   24328827.5554
        42.5004         34.0004
   7167318.21147   5704723.45345  23593427.2194                   23593428.2114
        43.5004         35.0004
 25  8  6  1 20 30.0000000  0  8G26G03G06G09G16G04G31G07
 -80257451.01247 -63561668.23846  22503278.4614                   22503280.6174
        43.2504         37.7504
-107105711.13748 -83385849.32447  21014228.9774                   21014230.5084
        48.5004         45.7504
  -4259709.19946  -7222394.62145  24603449.6644                   24603454.5004
        39.0004         30.2504
 -22903428.40247 -17667838.47347  21738618.3364                   21738618.7934
        46.0004         43.0004
 -56439693.84447 -39040259.40245  20868284.4304                   20868283.0354
        47.2504         35.2504
 -89325186.94147 -69364866.87146  20432700.2734                   20432699.4184
        46.7504         38.5004
-130746711.47747-101880554.11345  24298387.7274                   24298388.0664
        42.0004         34.2504
   6843127.14546   5452107.20345  23531735.5314                   23531736.5984
        41.2504         34.5004
 25  8  6  1 21  0.0000000  0  8G26G03G06G09G16G04G31G07
 -80444039.84047 -63707062.14146  22467771.4304                   22467774.0274
        43.2504         37.5004
-107290315.53148 -83529696.93747  20979099.7344                   20979101.6804
        48.5004         45.7504
  -4497101.92646  -7407375.99245  24558276.3984                   24558280.0784
        39.2504         31.0004
 -23231238.23047 -17923274.62947  21676238.0474                   21676238.8324
        47.0004         44.0004
 -56713891.60548 -39253919.94945  20816106.3284                   20816104.6684
        48.0004         35.5004
 -89597911.19947 -69577379.25846  20380802.3754                   20380801.8714
        47.0004         38.0004
-130906673.87546-102005200.23045  24267948.0784                   24267948.0704
        41.5004         33.0004
   6519142.31647   5199651.67245  23470083.5554                   23470084.5784
        43.5004         34.5004
 25  8  6  1 21 30.0000000  0  8G26G03G06G09G16G04G31G07
 -80630167.86747 -63852096.98046  22432352.9384                   22432354.8834
        43.5004         37.2504
-107474455.41048 -83673182.58647  20944059.3594                   20944060.7154
        48.2504         46.0004
  -4734014.54746  -7591983.26245  24513192.5634                   24513197.1374
        39.2504         30.5004
 -23558910.53147 -18178603.61747  21613884.3204                   21613884.8484
        46.7504         44.2504
 -56987416.06247 -39467055.85245  20764056.4144                   20764054.8404
        46.5004         35.5004
 -89870367.22747 -69789682.64546  20328955.7734                   20328955.4574
        46.5004         38.0004
-131066642.82446-102129851.46145  24237506.4144                   24237507.2464
        41.5004         33.0004
   6195360.88347   4947354.60545  23408469.5004                   23408470.6334
        44.5004         35.5004
 25  8  6  1 22  0.0000000  0  8G26G03G06G09G16G04G31G07
 -80815834.38347 -63996772.20746  22397021.3284                   22397023.4964
        44.0004         37.2504
-107658129.64848 -83816305.40247  20909107.1884                   20909109.1254
        48.5004         45.2504
  -4970445.48046  -7776215.18745  24468201.2424                   24468205.8674
        38.0004         30.0004
 -23886440.83647 -18433821.95747  21551557.0164                   21551557.7974
        46.5004         44.2504
 -57260263.10947 -39679663.90245  20712135.2664                   20712133.5204
        47.7504         34.7504
 -90142550.71547 -70001773.66446  20277160.6644                   20277160.3054
        47.5004         37.7504
-131226616.50046-102254506.36345  24207064.5004                   24207065.5864
        40.7504         33.2504
   5871785.77347   4695218.30545  23346895.4614                   23346895.9384
        43.7504         35.5004
 25  8  6  1 22 30.0000000  0  8G26G03G06G09G16G04G31G07
 -81001043.79347 -64141091.24646  22361777.0084                   22361779.6134
        43.7504         37.7504
-107841342.28148 -83959068.52347  20874242.7814                   20874244.9574
        48.0004         45.2504
  -5206398.26246  -7960074.51645  24423300.6094                   24423305.5124
        38.5004         30.2504
 -24213829.70347 -18688930.09047  21489257.0474                   21489257.6024
        46.5004         44.0004
 -57532433.96148 -39891745.03145  20660342.9774                   20660341.1454
        48.0004         35.7504
 -90414462.46947 -70213652.93746  20225417.6484                   20225417.2074
        47.2504         38.0004
-131386598.32446-102379167.60945  24176621.8834                   24176622.2464
        40.5004         32.7504
   5548415.40247   4443241.56345  23285359.5474                   23285360.8364
        42.5004         35.0004
 25  8  6  1 23  0.0000000  0  8G26G03G06G09G16G04G31G07
 -79610371.85947 -63057450.79746  22626413.0554                   22626415.6524
        43.5004         38.7504
-106448668.79747 -82873868.43747  21139259.9614                   21139262.0944
        47.5004         45.0004
  -3866446.13346  -6915956.01645  24678285.4534                   24678290.1524
        38.0004         30.0004
 -22965644.35247 -17716318.05947  21726778.4144                   21726779.7464
        46.7504         44.2504
 -56228498.16847 -38875691.12545  20908474.1644                   20908472.1374
        47.2504         35.0004
 -89110671.83648 -69197712.17646  20473521.1644                   20473520.0904
        48.0004         38.0004
-129971163.60946-101276231.52345  24445969.6804                   24445969.9144
        40.2504         31.5004
   6800680.88347   5419033.01645  23523657.7034                   23523658.6804
        42.7504         35.5004
 25  8  6  1 23 30.0000000  0  8G26G03G06G09G16G04G31G07
 -79794673.41847 -63201062.42246  22591342.0234                   22591344.2624
        42.0004         38.0004
-106630963.52347 -83015916.31247  21104570.6804                   21104571.9924
        47.2504         45.2504
  -4101446.43446  -7099073.16045  24633567.0634                   24633571.1804
        38.0004         30.7504
 -23292745.31647 -17971201.85947  21664533.3914                   21664534.0434
        46.0004         44.0004
 -56499313.07447 -39086715.68445  20856939.1174                   20856937.2154
        47.0004         35.0004
 -89382035.84047 -69409164.62946  20421882.1094                   20421881.0704
        47.5004         38.7504
-130131164.09446-101400907.30545  24415523.2424                   24415523.2274
        39.2504         30.0004
   6477720.98447   5167376.10545  23462199.9774                   23462201.0824
        43.2504         34.7504
 25  8  6  1 24  0.0000000  0  8G26G03G06G09G16G04G31G07
 -79978527.24247 -63344325.16046  22556355.5234                   22556357.9264
        43.2504         37.5004
-106812804.96948 -83157610.98047  21069967.1724                   21069969.1954
        48.0004         45.2504
  -4335975.41846  -7281823.04745  24588936.9614                   24588942.0314
        37.5004         30.5004
 -23619702.75447 -18225973.82047  21602315.3834                   21602316.1254
        45.7504         44.0004
 -56769451.52047 -39297213.13745  20805533.6254                   20805531.7584
        46.5004         35.0004
 -89653126.78547 -69620404.32046  20370295.2974                   20370294.6454
        46.7504         37.5004
-130291178.13746-101525593.66045  24385072.6724                   24385073.6644
        38.0004         30.0004
   6154963.78147   4915877.14145  23400781.6254                   23400782.1804
        43.2504         34.5004
 25  8  6  1 24 30.0000000  0  8G26G03G06G09G16G04G31G07
 -80161932.65646 -63487238.47746  22521455.4064                   22521456.9344
        41.5004         37.5004
-106994192.07847 -83298951.62147  21035450.4534                   21035452.4184
        46.7504         45.5004
  -4570031.65246  -7464204.56645  24544397.4304                   24544402.1644
        37.5004         30.0004
 -23946512.12547 -18480630.40647  21540125.3674                   21540126.2154
        46.0004         44.0004
 -57038910.04747 -39507180.77745  20754257.1414                   20754255.4494
        45.5004         35.5004
 -89923940.41447 -69831427.91046  20318760.9384                   20318760.3134
        45.2504         38.2504
-130451203.78146-101650289.05944  24354621.0314                   24354622.2894
        36.5004         28.0004
   5832412.78947   4664538.84845  23339402.2114                   23339402.9454
        43.2504         35.0004
 25  8  6  1 25  0.0000000  0  8G26G03G06G09G16G04G31G07
 -80344893.02747 -63629805.02046  22486638.6334                   22486641.2894
        43.5004         37.7504
-107175127.91048 -83439940.61747  21001019.5634                   21001021.4144
        48.0004         45.5004
  -4803617.60946  -7646219.63745  24499947.5474                   24499952.4494
        37.5004         31.2504
 -24273172.93047 -18735171.23447  21477963.9924                   21477964.6334
        46.0004         44.2504
 -57307688.48847 -39716618.49245  20703110.5784                   20703108.5314
        47.5004         35.5004
 -90194476.46148 -70042235.20746  20267279.6334                   20267278.8324
        48.2504         37.7504
-130611243.19546-101774995.20744  24324166.6024                   24324167.3554
        37.2504         27.7504
   5510066.92247   4413360.40245  23278062.1094                   23278062.3444
        43.5004         34.5004
 25  8  6  1 25 30.0000000  0  8G26G03G06G09G16G04G31G07
 -80527412.97347 -63772028.36746  22451906.6174                   22451908.5434
        43.0004         37.2504
-107355616.69948 -83580581.27047  20966673.5004                   20966675.3164
        48.0004         45.2504
  -5036737.19946  -7827871.28145  24455586.1484                   24455590.9844
        37.5004         30.2504
 -24599685.89147 -18989596.85947  21415830.8914                   21415831.6914
        45.7504         44.5004
 -57575788.25047 -39925527.36345  20652092.6724                   20652091.0514
        47.0004         35.7504
 -90464735.91048 -70252826.96946  20215851.2734                   20215850.6374
        48.0004         38.5004
-130771299.71146-101899714.66844  24293709.2664                   24293709.8364
        37.7504         28.7504
   5187924.19147   4162340.22745  23216760.0704                   23216760.3914
        43.5004         35.2504
 25  8  6  1 26  0.0000000  0  8G26G03G06G09G16G04G31G07
 -79134066.00047 -62686303.47346  22717050.9534                   22717053.8914
        43.5004         37.2504
-105960231.67647 -82493268.30547  21232206.3834                   21232208.3484
        47.2504         45.5004
  -3693961.35246  -6781552.47745  24711107.4534                   24711113.1914
        38.0004         30.7504
 -23350615.73847 -18016295.38747  21653520.4534                   21653521.6914
        45.2504         44.2504
 -56267777.29747 -38906298.01645  20900998.9064                   20900997.2544
        46.5004         35.7504
 -89159285.70748 -69235593.03546  20464270.1804                   20464269.2544
        48.0004         38.5004
-129355946.18446-100796841.87144  24563042.0314                   24563042.3054
        38.5004         28.0004
   6441418.32847   5139089.05945  23455291.1254                   23455292.0004
        43.7504         34.7504
 25  8  6  1 26 30.0000000  0  8G26G03G06G09G16G04G31G07
 -79315706.25446 -62827841.35546  22682486.1884                   22682488.9494
        41.0004         37.0004
-106139826.58647 -82633212.42647  21198030.7814                   21198033.4694
        46.7504         45.0004
  -3926146.85546  -6962476.27045  24666925.3754                   24666929.2704
        37.2504         30.0004
 -23676822.41047 -18270482.34847  21591445.4384                   21591446.4804
        45.5004         43.7504
 -56534512.25047 -39114143.41045  20850240.7504                   20850239.0124
        47.2504         35.5004
 -89428982.28147 -69445746.19146  20412948.3524                   20412947.7234
        47.2504         38.0004
-129516033.91446-100921585.62544  24532578.4304                   24532579.6054
        39.5004         28.7504
   6119688.38747   4888390.53145  23394068.6024                   23394069.2814
        44.0004         35.0004
 25  8  6  1 27  0.0000000  0  8G26G03G06G09G16G04G31G07
 -79496911.19546 -62969040.02746  22648004.2424                   22648006.4144
        40.7504         37.0004
-106318978.53547 -82772811.38747  21163939.4454                   21163941.5514
        46.5004         45.0004
  -4157868.72746  -7143038.79745  24622829.4064                   24622834.2934
        38.0004         30.5004
 -24002874.46147 -18524548.83247  21529399.4384                   21529400.2424
        46.0004         44.2504
 -56800564.73847 -39321457.00845  20799612.9304                   20799610.8834
        46.0004         35.5004
 -89698396.38747 -69655679.25046  20361680.0634                   20361679.8244
        45.7504         38.5004
-129676139.64846-101046343.41444  24502111.4534                   24502111.9184
        40.0004         29.0004
   5798164.53947   4637852.60945  23332884.1484                   23332884.9064
        43.2504         35.5004
 25  8  6  1 27 30.0000000  0  9G26G27G03G06G09G16G04G31G07
 -79677684.16847 -63109902.10546  22613604.3834                   22613606.7544
        43.2504         37.0004
  45028740.03155  35186727.20753  25030741.3364                   25030748.7464
        32.5004         22.5004
-106497690.65247 -82912067.62147  21129931.4924                   21129933.6844
        47.0004         45.0004
  -4389129.51246  -7323242.02045  24578822.5554                   24578826.8554
        38.0004         31.0004
 -24328771.40247 -18778494.46147  21467383.7664                   21467384.0744
        45.0004         44.5004
 -57065935.33247 -39528239.26645  20749114.6564                   20749112.3794
        47.7504         35.7504
 -89967527.84448 -69865392.05546  20310466.5784                   20310465.7344
        48.0004         37.5004
-129836265.49246-101171116.84444  24471639.9924                   24471640.9104
        40.0004         26.7504
   5476845.47747   4387474.24645  23271739.2734                   23271739.7424
        44.0004         35.7504
 25  8  6  1 28  0.0000000  0  9G26G27G03G06G09G16G04G31G07
 -79858033.48446 -63250434.07446  22579284.8204                   22579287.2584
        41.7504         36.5004
  44687720.61755  34920998.01653  24965847.6094                   24965854.8914
        31.5004         22.5004
-106675970.85547 -83050987.30547  21096006.3444                   21096008.1914
        46.7504         45.0004
  -4619936.80946  -7503091.87945  24534901.0314                   24534905.3954
        37.5004         30.7504
 -24654517.52047 -19032322.55547  21405396.3674                   21405397.0234
        45.2504         44.5004
 -57330629.23847 -39734494.23445  20698744.8754                   20698743.2424
        46.7504         35.5004
 -90236381.21947 -70074888.18446  20259305.4224                   20259304.9964
        46.7504         37.7504
-129996417.88746-101295910.97744  24441164.9064                   24441165.1764
        40.0004         27.7504
   5155725.42647   4137250.95345  23210631.8984                   23210632.3954
        44.0004         35.2504
 25  8  6  1 28 30.0000000  0  9G26G27G03G06G09G16G04G31G07
 -80037963.98047 -63390639.68446  22545045.2274                   22545047.8484
        42.5004         36.5004
  44346704.28545  34655271.28943  24900952.6804                   24900960.7814
        32.7504         21.2504
-106853823.65647 -83189573.93747  21062161.8984                   21062163.8634
        47.5004         45.0004
  -4850294.67246  -7682591.53145  24491065.7734                   24491069.8914
        38.0004         30.5004
 -24980113.60547 -19286033.75847  21343437.1564                   21343437.9264
        44.2504         44.7504
 -57594648.09447 -39940223.18745  20648503.7344                   20648501.3284
        46.2504         35.5004
 -90504957.63747 -70284168.49246  20208197.0004                   20208196.6214
        47.0004         38.2504
-130156600.68746-101420728.84444  24410682.9144                   24410683.4304
        41.0004         29.2504
   4834802.15647   3887180.99246  23149562.2734                   23149562.3674
        43.0004         36.0004
 25  8  6  1 29  0.0000000  0  9G26G27G03G06G09G16G04G31G07
 -78642051.15647 -62302915.43046  22810678.3754                   22810681.3594
        42.5004         36.0004
  45581126.57055  35617159.05153  25135856.3754                   25135863.5474
        33.7504         22.0004
-105455824.38347 -82100223.88747  21328192.6884                   21328194.5234
        47.2504         44.7504
  -3504776.19146  -6634135.60245  24747108.7974                   24747113.8404
        37.5004         30.7504
 -23730126.35247 -18312017.66447  21581301.8914                   21581302.9384
        45.2504         44.5004
 -56282561.94147 -38917818.36745  20898185.4614                   20898183.3554
        46.5004         35.7504
 -89197826.07447 -69265624.41046  20456936.0234                   20456935.3674
        47.7504         38.0004
-128741388.28546-100317966.00445  24679989.3364                   24679989.6884
        41.5004         30.0004
   6089507.56647   4864873.64145  23388324.6174                   23388325.1844
        43.2504         35.5004
 25  8  6  1 29 30.0000000  0  9G26G27G03G06G09G16G04G31G07
 -78821149.87946 -62442472.91045  22776597.2664                   22776600.0594
        41.2504         35.5004
  45240127.70345  35351445.87143  25070966.4304                   25070973.0904
        33.2504         22.5004
-105632827.41447 -82238148.36347  21294509.9064                   21294511.7504
        47.0004         44.5004
  -3734238.94546  -6812937.76645  24703444.1644                   24703448.5514
        38.0004         31.2504
 -24055416.26647 -18565490.29747  21519401.2194                   21519402.0514
        45.0004         44.5004
 -56545228.19147 -39122493.33645  20848201.7664                   20848199.3754
        46.5004         35.5004
 -89465843.50047 -69474469.14846  20405934.2584                   20405932.9774
        47.7504         38.0004
-128901632.75847-100442831.87144  24649495.3054                   24649496.0084
        42.2504         28.7504
   5768979.86347   4615111.91846  23327330.1484                   23327330.3674
        42.2504         36.2504
 25  8  6  1 30  0.0000000  0  9G26G27G03G06G09G16G04G31G07
 -78999832.26646 -62581705.96546  22742595.5634                   22742597.8754
        40.7504         36.5004
  44899146.55545  35085746.52043  25006079.9224                   25006086.1804
        34.0004         21.5004
-105809404.66447 -82375741.06647  21260908.5084                   21260909.9614
        46.7504         44.5004
  -3963252.61346  -6991390.00045  24659864.5554                   24659868.8134
        38.0004         31.2504
 -24380546.64147 -18818838.60547  21457530.5704                   21457531.6414
        44.5004         44.2504
 -56807213.38747 -39326637.61345  20798347.5394                   20798345.2504
        45.7504         35.5004
 -89733575.41847 -69683091.41846  20354986.3524                   20354986.0634
        46.5004         38.0004
-129061905.56647-100567719.82044  24618996.5944                   24618997.4144
        43.0004         28.7504
   5448654.33647   4365507.73445  23266374.2344                   23266374.7544
        43.5004         35.5004
 25  8  6  1 30 30.0000000  0  9G26G27G03G06G09G16G04G31G07
 -79178101.01247 -62720616.71146  22708672.4614                   22708674.3594
        42.7504         36.5004
  44558186.25845  34820063.43443  24941197.4064                   24941203.9844
        34.5004         21.0004
-105985558.55147 -82513003.86347  21227387.2504                   21227389.6684
        47.5004         44.2504
  -4191819.12146  -7169493.80145  24616369.0784                   24616373.8324
        37.5004         31.2504
 -24705516.02747 -19072061.46947  21395690.9224                   21395691.9884
        46.0004         44.5004
 -57068517.56248 -39530251.22745  20748622.9224                   20748620.8404
        48.0004         35.7504
 -90001020.80947 -69891490.41446  20304092.8524                   20304091.9494
        46.7504         38.5004
-129222208.01647-100692630.87544  24588492.3674                   24588492.5434
        42.0004         28.5004
   5128530.89547   4116061.02346  23205456.5864                   23205457.3444
        43.0004         36.5004
 25  8  6  1 31  0.0000000  0  9G26G27G03G06G09G16G04G31G07
 -79355958.15647 -62859206.72346  22674826.8754                   22674829.1374
        43.2504         36.0004
  44217250.63745  34554399.57443  24876317.8284                   24876325.6294
        34.5004         22.7504
-106161290.79347 -82649938.11747  21193947.0314                   21193948.6914
        47.0004         44.5004
  -4419940.02046  -7347250.38345  24572959.6024                   24572964.4804
        38.2504         32.0004
 -25030322.46547 -19325157.35947  21333882.5164                   21333883.5124
        46.0004         44.5004
 -57329139.68447 -39733333.36745  20699027.9924                   20699026.4654
        46.2504         35.7504
 -90268178.01647 -70099664.85246  20253254.8204                   20253253.8204
        47.0004         38.0004
-129382540.64547-100817565.42244  24557981.8524                   24557982.3204
        42.5004         28.0004
   4808609.97347   3866772.09846  23144577.8054                   23144578.4654
        43.0004         37.0004
 25  8  6  1 31 30.0000000  0  9G26G27G03G06G09G16G04G31G07
 -79533404.56247 -62997476.67645  22641059.9774                   22641062.1294
        43.5004         35.7504
  43876344.56645  34288758.70743  24811445.4144                   24811453.1994
        35.5004         22.5004
-106336602.04348 -82786544.31247  21160586.0784                   21160588.1374
        48.0004         44.7504
  -4647615.32046  -7524659.73445  24529634.2274                   24529639.3164
        37.2504         32.2504
 -25354962.74247 -19578123.77047  21272105.6804                   21272106.5004
        46.0004         45.0004
 -57589077.93748 -39935882.62145  20649563.3594                   20649561.7274
        48.2504         35.5004
 -90535044.22747 -70307612.53946  20202471.7734                   20202470.8914
        47.0004         38.0004
-129542902.65246-100942522.87944  24527466.2974                   24527466.3054
        41.2504         27.2504
   4488893.10947   3617642.19146  23083737.5634                   23083737.8634
        44.5004         37.0004
 25  8  6  1 32  0.0000000  0  9G26G27G03G06G09G16G04G31G07
 -79710443.81647 -63135429.37946  22607370.3364                   22607372.9064
        43.5004         36.0004
  43535470.22346  34023142.57843  24746578.4304                   24746586.4384
        36.5004         22.0004
-106511495.53547 -82922824.98847  21127305.2194                   21127306.8634
        47.5004         44.7504
  -4874847.98446  -7701724.19145  24486393.4454                   24486397.9304
        38.5004         32.0004
 -25679436.29347 -19830960.26647  21210359.7814                   21210360.9774
        46.0004         44.7504
 -57848333.05948 -40137899.57045  20600229.1414                   20600226.7384
        48.5004         35.5004
 -90801619.21147 -70515333.30546  20151744.2344                   20151743.6724
        47.0004         38.7504
-129703295.86346-101067504.68444  24496943.7504                   24496944.8874
        41.5004         28.7504
   4169379.43847   3368670.60946  23022935.5634                   23022936.4884
        44.0004         36.2504
 25  8  6  1 32 30.0000000  0  9G26G27G03G06G09G16G04G31G07
 -78311652.29747 -62045461.98446  22873551.9774                   22873553.9924
        43.0004         36.5004
  44770062.46546  34985162.71943  24981514.5164                   24981521.7074
        37.2504         23.7504
-105110547.53147 -81831177.22747  21393896.6644                   21393898.4574
        47.0004         44.0004
  -3526212.03146  -6650839.07045  24743030.3444                   24743034.7344
        37.5004         30.5004
 -24428310.48047 -18856056.99647  21448441.8134                   21448442.7074
        46.7504         44.7504
 -56531476.07848 -39111777.21545  20850818.7274                   20850816.5824
        48.5004         35.5004
 -89492472.66047 -69495219.10246  20400866.5634                   20400866.1844
        47.5004         38.5004
-128288295.62546 -99964907.16444  24766210.0704                   24766210.5704
        41.0004         29.0004
   5425499.73447   4347465.75446  23261967.5004                   23261968.1254
        43.0004         36.5004
 25  8  6  1 33  0.0000000  0  9G26G27G03G06G09G16G04G31G07
 -78487883.46947 -62182785.00846  22840016.6174                   22840018.3404
        43.5004         36.2504
  44429262.94146  34719604.89843  24916663.1804                   24916669.1684
        38.2504         23.2504
-105284611.03147 -81966811.16047  21360773.4694                   21360775.3634
        47.0004         43.7504
  -3752563.68046  -6827217.01645  24699957.1414                   24699961.8404
        37.7504         32.0004
 -24752444.51647 -19108628.93747  21386761.0634                   21386761.6954
        46.2504         45.0004
 -56789362.96947 -39312728.00846  20801744.2034                   20801742.4844
        47.5004         36.0004
 -89758460.29347 -69702482.19146  20350250.7034                   20350249.9774
        46.7504         38.2504
-128448753.05946-100089939.00044  24735676.1174                   24735677.0474
        40.2504         28.7504
   5106393.73847   4098811.83246  23201243.3674                   23201243.4654
        43.5004         37.0004
 25  8  6  1 33 30.0000000  0  9G26G27G03G06G09G16G04G31G07
 -78663714.15247 -62319795.95345  22806556.8364                   22806558.9924
        43.7504         35.7504
  44088506.02746  34454080.25444  24851818.0864                   24851824.6094
        39.0004         24.5004
-105458262.71947 -82102124.19947  21327728.5704                   21327730.7384
        47.0004         44.2504
  -3978477.46146  -7003253.77045  24656966.8674                   24656971.3634
        37.0004         31.5004
 -25076406.16047 -19361066.53947  21325113.0784                   21325113.7664
        46.7504         45.0004
 -57046565.41047 -39513145.46546  20752800.1884                   20752797.9574
        47.0004         36.2504
 -90024152.15247 -69909514.80546  20299691.2274                   20299690.7664
        47.2504         38.0004
-128609243.57846-100214996.62545  24705136.1174                   24705136.7854
        40.0004         30.0004
   4787492.08247   3850317.14546  23140558.9304                   23140559.1524
        42.7504         36.5004
 25  8  6  1 34  0.0000000  0  9G26G27G03G06G09G16G04G31G07
 -78839147.14146 -62456497.01645  22773173.0084                   22773175.0704
        41.5004         35.0004
  43747794.78946  34188591.16444  24786982.8594                   24786989.3164
        38.5004         25.2504
-105631505.05147 -82237118.26647  21294761.7584                   21294763.9844
        45.5004         43.7504
  -4203955.39546  -7178950.89545  24614059.5704                   24614064.8984
        37.5004         30.7504
 -25400194.00847 -19613368.71947  21263498.3054                   21263498.8914
        46.2504         45.0004
 -57303083.29347 -39713029.50445  20703986.3444                   20703984.1844
        46.5004         35.7504
 -90289547.28947 -70116316.20746  20249188.4924                   20249187.4494
        47.0004         38.7504
-128769768.41446-100340080.99244  24674588.6254                   24674589.8954
        39.7504         29.2504
   4468794.44547   3601981.42646  23079912.3284                   23079912.6884
        43.2504         36.5004
 25  8  6  1 34 30.0000000  0  9G26G27G03G06G09G16G04G31G07
 -79014183.69947 -62592889.16845  22739864.4844                   22739866.8134
        43.0004         35.5004
  43407133.78546  33923141.25443  24722156.8364                   24722163.5004
        37.7504         22.7504
-105804339.15647 -82371794.23047  21261872.3444                   21261874.6604
        46.0004         43.5004
  -4428998.26646  -7354309.01245  24571235.4694                   24571240.6644
        37.5004         30.5004
 -25723805.22747 -19865533.26247  21201917.2194                   21201917.8834
        46.7504         45.0004
 -57558915.41048 -39912379.17645  20655302.9774                   20655301.2854
        48.0004         35.7504
 -90554643.22347 -70322884.46146  20198742.3134                   20198741.3324
        47.7504         38.0004
-128930327.24646-100465191.85244  24644034.8984                   24644036.8914
        39.0004         29.5004
   4150301.99647   3353805.60946  23019304.8754                   23019305.6724
        43.0004         37.5004
 25  8  6  1 35  0.0000000  0  9G26G27G03G06G09G16G04G31G07
 -79188829.28147 -62728976.66845  22706630.2974                   22706633.0704
        43.0004         35.7504
  43066523.55546  33657730.91044  24657340.3594                   24657347.2114
        39.2504         25.2504
-105976770.20347 -82506156.12147  21229060.0474                   21229062.1604
        45.5004         43.7504
  -4653610.90246  -7529331.89144  24528493.4144                   24528498.0204
        36.7504         29.5004
 -26047241.05147 -20117561.14147  21140369.5554                   21140369.7194
        46.7504         45.0004
 -57814064.51647 -40111196.63345  20606749.7814                   20606747.7854
        47.7504         35.5004
 -90819441.63347 -70529220.87546  20148352.8364                   20148352.0594
        47.2504         38.0004
-129090923.84046-100590332.12944  24613475.2504                   24613475.9614
        38.5004         27.7504
   3832011.88747   3105787.45346  22958736.3524                   22958737.1484
        43.5004         37.2504
 25  8  6  1 35 30.0000000  0  9G26G27G03G06G09G16G04G31G07
 -77787659.10947 -61637155.78945  22973264.6484                   22973266.6914
        43.0004         35.5004
  44301400.21546  34619972.68844  24892330.7274                   24892336.4774
        38.5004         25.5004
-104573373.26647 -81412600.10247  21496117.7974                   21496119.6294
        45.0004         43.7504
  -3302366.30146  -6476414.05944  24785626.8364                   24785631.5274
        36.2504         29.7504
 -24795067.58647 -19141841.51247  21378650.2114                   21378650.8794
        46.0004         45.2504
 -56493100.53147 -39081874.02745  20858121.0634                   20858118.5784
        47.0004         35.0004
 -89508511.03147 -69507716.50046  20397814.5004                   20397813.5784
        47.0004         38.2504
-127676132.29746 -99487897.26644  24882700.7424                   24882702.4384
        37.0004         28.0004
   5089356.55547   4085536.65246  23198001.2584                   23198001.3444
        44.0004         37.2504
 25  8  6  1 36  0.0000000  0  9G26G27G03G06G09G16G04G31G07
 -77961527.91447 -61772638.01645  22940178.6334                   22940180.9614
        42.0004         35.7504
  43960903.95346  34354651.13744  24827535.7664                   24827541.8364
        38.5004         25.2504
-104745002.69547 -81546337.35547  21463457.5944                   21463459.5634
        45.5004         43.2504
  -3526121.93446  -6650769.15244  24743047.3674                   24743052.3444
        36.5004         29.2504
 -25118145.30147 -19393590.33647  21317170.3524                   21317171.1414
        46.0004         45.2504
 -56746881.19148 -39279625.15645  20809827.9454                   20809825.7814
        48.2504         35.7504
 -89772708.34847 -69713584.53546  20347539.4384                   20347538.4414
        47.2504         38.5004
-127836805.06246 -99613096.92644  24852125.7114                   24852127.1914
        36.7504         28.0004
   4771473.51647   3837835.68846  23137510.1954                   23137510.0474
        43.5004         37.0004
 25  8  6  1 36 30.0000000  0  9G26G27G03G06G09G16G04G31G07
 -78135013.53547 -61907821.65245  22907165.1024                   22907168.0164
        42.5004         35.5004
  43620468.46946  34089376.94544  24762752.5234                   24762759.1484
        38.7504         27.7504
-104916236.10947 -81679766.03147  21430872.6804                   21430874.6374
        45.7504         43.7504
  -3749453.33646  -6824793.65645  24700549.4454                   24700553.5164
        36.5004         30.7504
 -25441042.78547 -19645198.72747  21255724.9454                   21255725.4694
        46.5004         45.2504
 -56999978.99648 -39476844.20745  20761665.2424                   20761663.0434
        48.2504         35.5004
 -90036604.55948 -69919217.94546  20297321.5314                   20297320.8954
        48.0004         38.5004
-127997518.18745 -99738328.05144  24821543.5084                   24821544.8954
        35.2504         26.5004
   4453793.02347   3590292.57046  23077057.7194                   23077057.8014
        44.5004         37.5004
 25  8  6  1 37  0.0000000  0  9G26G27G03G06G09G16G04G31G07
 -78308117.63346 -62042708.00045  22874225.1564                   22874227.0004
        41.2504         35.5004
  43280097.81646  33824153.30144  24697981.7894                   24697988.6214
        39.2504         27.2504
-105087075.04347 -81812887.32447  21398363.3204                   21398365.5204
        45.5004         43.7504
  -3972361.63345  -6998488.48844  24658130.2274                   24658135.8794
        35.7504         29.0004
 -25763757.53547 -19896664.72747  21194314.0864                   21194314.5744
        46.7504         45.2504
 -57252393.05948 -39673530.46145  20713632.5394                   20713630.3874
        48.0004         35.5004
 -90300197.66047 -70124615.16046  20247161.4224                   20247160.6254
        47.5004         37.5004
-128158271.76645 -99863590.68044  24790952.8444                   24790954.4924
        35.0004         27.0004
   4136315.57847   3342907.66446  23016643.4774                   23016643.4804
        44.0004         37.5004
 25  8  6  1 37 30.0000000  0  9G26G27G03G06G09G16G04G31G07
 -78480842.29746 -62177298.68445  22841356.3054                   22841358.4694
        41.2504         34.0004
  42939795.97746  33558983.25044  24633224.2274                   24633230.8754
        38.7504         28.5004
-105257521.41047 -81945702.71547  21365928.5634                   21365930.9884
        45.2504         43.2504
  -4194848.48845  -7171854.92244  24615792.1884                   24615797.8244
        35.2504         28.5004
 -26086287.46147 -20147986.69547  21132938.8284                   21132939.5984
        46.5004         45.5004
 -57504122.89848 -39869683.55946  20665729.9064                   20665727.7424
        48.0004         36.0004
 -90563485.94147 -70329774.85546  20197059.3984                   20197058.6604
        47.2504         38.2504
-128319066.15245 -99988885.08244  24760355.3754                   24760356.2774
        35.7504         26.7504
   3819041.89147   3095681.53146  22956268.0634                   22956268.3204
        44.5004         38.0004
 25  8  6  1 38  0.0000000  0  9G26G27G03G06G09G16G04G31G07
 -78653190.25046 -62311595.81645  22808559.2274                   22808561.8094
        41.2504         34.5004
  42599566.12946  33293869.31344  24568480.7584                   24568486.7544
        40.5004         28.5004
-105427577.65647 -82078214.12147  21333567.6254                   21333570.2154
        45.5004         43.2504
  -4416915.89545  -7344894.50445  24573535.0704                   24573540.2544
        35.0004         30.2504
 -26408630.94547 -20399163.40247  21071599.3364                   21071599.4384
        46.7504         46.0004
 -57755169.00848 -40065303.89145  20617957.0634                   20617954.9964
        48.2504         35.5004
 -90826468.30947 -70534696.16846  20147015.8364                   20147015.0044
        47.2504         38.7504
-128479902.24245-100114211.98844  24729749.0554                   24729750.2034
        35.0004         27.2504
   3501971.76247   2848614.03946  22895931.2034                   22895931.3554
        44.2504         37.5004
 25  8  6  1 38 30.0000000  0  9G26G27G03G06G09G16G04G31G07
 -77249738.25846 -61217996.90245  23075627.4844                   23075630.2974
        41.0004         34.2504
  43834843.06346  34256422.99245  24803545.8674                   24803551.7194
        40.2504         30.0004
-104021820.52347 -80982818.99647  21601074.7504                   21601077.2734
        45.0004         43.2504
  -3063138.66046  -6290003.21545  24831150.7034                   24831155.4574
        36.0004         30.0004
 -25155355.60547 -19422585.18447  21310089.1804                   21310089.7704
        46.2504         45.7504
 -56430102.85248 -39032784.78145  20870108.9694                   20870106.5314
        48.0004         35.2504
 -89513714.80547 -69511771.35946  20396824.3364                   20396823.4844
        46.7504         38.5004
-127065355.81646 -99011968.08244  24998928.5704                   24998928.9104
        37.0004         27.0004
   4760535.71947   3829313.36346  23135428.2584                   23135428.2154
        43.7504         37.5004
 25  8  6  1 39  0.0000000  0  9G26G27G03G06G09G16G04G31G07
 -77421339.74246 -61351712.39545  23042972.6414                   23042975.3054
        40.2504         34.0004
  43494768.17246  33991429.76645  24738831.5314                   24738838.0124
        39.2504         30.0004
-104191102.98447 -81114727.46547  21568861.8364                   21568863.4064
        45.5004         43.0004
  -3284372.85545  -6462393.55144  24789051.0394                   24789056.2894
        34.5004         28.5004
 -25477320.52347 -19673466.90247  21248821.4454                   21248822.2464
        47.2504         45.7504
 -56679780.79748 -39227339.01645  20822596.9304                   20822594.6804
        48.2504         35.0004
 -89776080.98447 -69716212.53146  20346897.6954                   20346896.6524
        47.7504         38.2504
-127226277.48046 -99137361.67244  24968305.5084                   24968307.0984
        37.0004         27.7504
   4443873.04347   3582563.38346  23075169.1884                   23075169.5434
        44.7504         38.0004
 25  8  6  1 39 30.0000000  0  9G26G27G03G06G09G16G04G31G07
 -77592573.91446 -61485141.66045  23010388.1564                   23010391.1254
        39.5004         34.5004
  43154773.80946  33726499.31645  24674132.3984                   24674138.9734
        38.7504         30.5004
-104360004.20747 -81246338.85947  21536720.6024                   21536722.5944
        45.5004         42.7504
  -3505195.52045  -6634463.22744  24747029.1024                   24747035.0314
        34.7504         27.5004
 -25799095.67647 -19924200.75847  21187589.5164                   21187590.2034
        46.7504         45.7504
 -56928777.24648 -39421362.20745  20775214.2584                   20775211.7504
        48.2504         35.0004
 -90038139.32047 -69920413.81646  20297029.8284                   20297028.8984
        47.5004         38.5004
-127387245.10246 -99262791.06244  24937675.2424                   24937675.7544
        37.2504         27.2504
   4127412.10247   3335970.56646  23014948.8204                   23014948.2544
        44.5004         38.0004
 25  8  6  1 40  0.0000000  0  9G26G27G03G06G09G16G04G31G07
 -77763443.64146 -61618286.94545  22977872.7424                   22977875.0824
        39.0004         34.7504
  42814863.09046  33461634.05145  24609450.0634                   24609455.9454
        39.7504         31.0004
-104528526.78547 -81377655.20347  21504651.8444                   21504653.8594
        45.0004         43.0004
  -3725609.09845  -6806214.13744  24705086.2504                   24705091.3134
        34.2504         28.7504
 -26120679.53947 -20174785.55547  21126393.9144                   21126394.7934
        46.7504         46.0004
 -57177092.43748 -39614854.54745  20727961.0784                   20727959.3794
        48.0004         35.2504
 -90299888.83648 -70124374.47346  20247220.2114                   20247219.2584
        48.0004         38.5004
-127548259.67646 -99388257.03944  24907034.4304                   24907036.3244
        37.5004         29.5004
   3811152.72747   3089534.80946  22954766.2504                   22954766.0164
        45.0004         37.5004
 25  8  6  1 40 30.0000000  0  9G26G27G03G06G09G16G04G31G07
 -77933952.63746 -61751151.13345  22945426.1954                   22945428.9344
        39.5004         34.5004
  42475038.24246  33196835.69945  24544782.9924                   24544789.2234
        37.7504         30.5004
-104696674.37147 -81508679.35247  21472654.7814                   21472656.8364
        45.5004         43.0004
  -3945616.80145  -6977648.77044  24663220.3444                   24663225.6994
        34.0004         28.0004
 -26442071.66847 -20425220.95747  21065235.1414                   21065235.4654
        46.2504         46.0004
 -57424728.05948 -39807817.35946  20680837.7734                   20680835.4964
        48.5004         36.0004
 -90561329.49647 -70328094.45746  20197470.1174                   20197469.0514
        46.5004         38.0004
-127709323.21946 -99513761.18044  24876385.6484                   24876387.0234
        38.0004         29.2504
   3495093.86347   2843255.30546  22894622.1484                   22894622.0904
        44.2504         37.2504
 25  8  6  1 41  0.0000000  0  9G26G27G03G06G09G16G04G31G07
 -78104105.39846 -61883737.74645  22913046.9844                   22913049.4694
        40.2504         34.7504
  42135300.82846  32932105.47745  24480133.1334                   24480139.1884
        38.0004         30.5004
-104864451.21547 -81639414.61347  21440727.9304                   21440729.9224
        45.0004         43.0004
  -4165222.58645  -7148770.25044  24621432.0864                   24621436.4774
        34.5004         29.0004
 -26763272.15247 -20675507.02047  21004112.8834                   21004113.3674
        47.5004         46.0004
 -57671686.10948 -40000252.18445  20633843.2344                   20633841.1884
        48.7504         35.7504
 -90822461.94947 -70531574.28946  20147777.7584                   20147777.4534
        47.7504         37.7504
-127870438.28146 -99639305.44544  24845726.5864                   24845727.7584
        38.5004         29.2504
   3179233.34847   2597130.36346  22834515.4614                   22834515.7544
        44.0004         37.5004
 25  8  6  1 41 30.0000000  0  9G26G27G03G06G09G16G04G31G07
 -76698475.53946 -60788441.78545  23180529.7584                   23180531.9344
        40.0004         35.5004
  43371088.87946  33895057.45345  24715295.3524                   24715301.7114
        37.5004         30.5004
-103456430.93447 -80542256.00847  21708665.1174                   21708667.1524
        45.5004         43.0004
  -2808998.08245  -6091972.00844  24879511.4844                   24879517.1604
        33.5004         27.2504
 -25508845.38747 -19698031.60247  21242822.4064                   21242822.8054
        47.7504         46.0004
 -56342535.48848 -38964550.37945  20886772.2114                   20886770.2504
        48.5004         35.0004
 -89507853.00847 -69507203.67246  20397939.8054                   20397939.2894
        47.5004         38.0004
-126456176.72746 -98537283.51244  25114852.0784                   25114852.8404
        39.0004         28.7504
   4439004.90247   3578770.66446  23074242.0554                   23074242.0744
        43.7504         38.0004
 25  8  6  1 42  0.0000000  0  9G26G27G03G06G09G16G04G31G07
 -76867919.21946 -60920475.86745  23148285.4694                   23148287.9614
        40.5004         34.5004
  43031541.03546  33630474.94545  24650681.2664                   24650687.2114
        38.0004         30.7504
-103623469.25447 -80672415.79347  21676879.0474                   21676881.3444
        45.5004         43.5004
  -3027802.22745  -6262468.79344  24837875.2894                   24837880.2704
        35.0004         27.0004
 -25829653.07047 -19948011.59447  21181774.4534                   21181775.1454
        47.0004         46.2504
 -56588135.11348 -39155926.70345  20840036.1414                   20840034.0824
        48.5004         35.5004
 -89768361.02747 -69710196.92646  20348366.4924                   20348365.5554
        47.0004         38.2504
-126617392.71546 -98662906.39145  25084173.5084                   25084174.6644
        39.5004         30.2504
   4123545.23447   3332958.06646  23014211.8834                   23014212.1094
        44.5004         37.7504
 25  8  6  1 42 30.0000000  0  9G26G27G03G06G09G16G04G31G07
 -77037011.99246 -61052236.50845  23116108.3364                   23116110.9494
        41.0004         34.5004
  42692093.29746  33365970.44144  24586085.9774                   24586092.4804
        36.0004         29.5004
-103790141.72347 -80802290.50047  21645161.7974                   21645164.2584
        45.0004         42.5004
  -3246208.43445  -6432655.49244  24796313.7584                   24796318.7814
        34.7504         26.2504
 -26150261.52047 -20197836.34847  21120765.0634                   21120765.1724
        47.0004         46.2504
 -56833056.02748 -39346774.15245  20793429.0394                   20793427.2704
        49.0004         35.5004
 -90028554.79747 -69912945.30146  20298853.4694                   20298852.5204
        47.0004         38.2504
-126778659.87146 -98788569.18744  25053485.3364                   25053486.8524
        40.5004         29.5004
   3808286.17247   3087301.77346  22954220.2424                   22954219.7464
        45.0004         38.0004
 25  8  6  1 43  0.0000000  0  9G26G27G03G06G09G16G04G31G07
 -77205756.57846 -61183725.84045  23083997.3754                   23084000.0044
        41.0004         35.5004
  42352748.93446  33101546.48844  24521510.9694                   24521516.7034
        36.5004         29.5004
-103956450.96947 -80931882.17247  21613514.3364                   21613516.6374
        46.0004         42.5004
  -3464219.11745  -6602534.05544  24754827.8754                   24754832.9654
        34.5004         26.0004
 -26470669.15247 -20447504.61747  21059793.1414                   21059793.9694
        47.2504         46.2504
 -57077298.60548 -39537093.02345  20746951.5394                   20746949.6024
        48.0004         35.5004
 -90288433.22747 -70115447.97346  20249400.1644                   20249399.2624
        46.0004         38.5004
-126939979.52046 -98914272.89544  25022786.9304                   25022788.6174
        40.7504         28.5004
   3493227.55147   2841801.67246  22894266.3524                   22894265.9224
        44.7504         37.5004
 25  8  6  1 43 30.0000000  0  9G26G27G03G06G09G16G04G31G07
 -77374155.59046 -61314945.89545  23051951.6804                   23051954.4844
        41.0004         35.0004
  42013511.48046  32837205.84444  24456957.4224                   24456962.1524
        36.5004         27.0004
-104122399.40647 -81061192.69947  21581935.6564                   21581937.8484
        45.0004         42.7504
  -3681836.41445  -6772106.05144  24713416.6564                   24713421.6564
        35.0004         26.0004
 -26790874.17247 -20697015.00847  20998860.1174                   20998860.8594
        47.5004         46.2504
 -57320863.23848 -39726883.63345  20700602.7664                   20700601.0704
        48.2504         35.2504
 -90547995.14547 -70317704.00046  20200006.7664                   20200006.1454
        47.5004         38.2504
-127101352.23446 -99040017.94944  24992079.1884                   24992079.9064
        40.2504         27.7504
   3178369.38747   2596457.75846  22834350.5634                   22834350.3364
        45.5004         36.7504
 25  8  6  1 44  0.0000000  0  9G26G27G03G06G09G16G04G31G07
 -77542212.42646 -61445899.31245  23019971.8444                   23019974.5664
        40.0004         34.0004
  41674383.60245  32572950.58644  24392422.8204                   24392428.2894
        34.7504         28.0004
-104287990.27347 -81190224.59047  21550425.2114                   21550427.0664
        45.2504         43.2504
  -3899063.41045  -6941373.87943  24672080.1724                   24672084.8364
        33.5004         23.5004
 -27110875.60947 -20946366.76647  20937966.0784                   20937966.7304
        47.0004         46.2504
 -57563751.26648 -39916147.01646  20654382.5164                   20654380.7034
        48.0004         36.0004
 -90807240.11347 -70519713.05946  20150674.3284                   20150673.8244
        47.0004         38.5004
-127262779.21146 -99165805.27344  24961360.0314                   24961361.6484
        41.2504         27.0004
   2863710.64547   2351269.22746  22774472.7814                   22774472.7384
        45.0004         37.5004
 25  8  6  1 44 30.0000000  0  9G26G27G03G06G09G16G04G31G07
 -76134505.39546 -60348984.79345  23287849.7194                   23287852.6484
        40.7504         35.2504
  42910798.73445  33536391.16044  24627704.1254                   24627709.7154
        33.5004         28.0004
-102877801.92247 -80091376.58647  21818774.4304                   21818777.0664
        45.5004         42.0004
  -2540476.23446  -5882734.58644  24930610.8754                   24930615.5514
        37.5004         28.5004
 -25855242.35547 -19967951.22747  21176905.1414                   21176905.5434
        47.2504         46.7504
 -56230536.39148 -38877278.25445  20908085.1334                   20908082.5864
        48.5004         35.5004
 -89490739.61347 -69493868.50046  20401196.2344                   20401195.5274
        47.7504         38.5004
-125848837.39846 -98064032.48444  25230424.6954                   25230425.4414
        41.0004         26.2504
   4124680.46147   3333843.21946  23014427.4774                   23014427.3244
        44.7504         37.5004
 25  8  6  1 45  0.0000000  0  9G26G27G03G06G09G16G04G31G07
 -76301886.07446 -60479411.33645  23255998.1884                   23256000.9344
        40.2504         35.7504
  42571899.87945  33272314.37544  24563214.7814                   24563219.0904
        35.7504         28.2504
-103042685.57847 -80219857.41046  21787398.2814                   21787400.5354
        45.2504         41.7504
  -2756929.43445  -6051399.46144  24889420.8364                   24889426.0984
        35.7504         25.0004
 -26174831.75447 -20216981.91447  21116089.2734                   21116089.9534
        47.0004         46.5004
 -56472073.18748 -39065488.73046  20862122.1024                   20862120.1994
        48.5004         36.0004
 -89749347.49647 -69695381.12946  20351984.8594                   20351983.8634
        47.5004         38.5004
-126010375.53146 -98189906.39143  25199685.4534                   25199686.5204
        38.7504         22.7504
   3810420.13747   3088965.14546  22954626.1334                   22954625.5204
        45.0004         38.0004
 25  8  6  1 45 30.0000000  0  9G26G27G03G06G09G16G04G31G07
 -76468932.03946 -60609577.06245  23224210.6414                   23224213.1484
        40.2504         35.2504
  42233121.28945  33008331.26644  24498745.6174                   24498751.4534
        34.2504         26.5004
-103207218.85247 -80348065.21147  21756088.8444                   21756091.0784
        46.2504         42.2504
  -2972998.59446  -6219765.10544  24848304.4454                   24848309.2934
        36.2504         25.0004
 -26494211.93048 -20465849.56647  21055312.8444                   21055313.9224
        48.0004         46.5004
 -56712934.59448 -39253172.91045  20816287.8754                   20816285.5824
        48.5004         35.5004
 -90007634.50047 -69896643.71946  20302834.3204                   20302833.3524
        47.2504         38.2504
-126171970.10546 -98315824.25443  25168935.0314                   25168935.7074
        39.2504         20.0004
   3496359.60947   2844242.77046  22894862.4384                   22894861.6564
        45.0004         38.2504
 25  8  6  1 46  0.0000000  0  9G26G27G03G06G09G16G04G31G07
 -76635646.71546 -60739484.64145  23192486.1174                   23192488.3984
        40.0004         33.7504
  41894465.54745  32744443.93044  24434301.6804                   24434307.4964
        34.2504         27.0004
-103371405.04347 -80476002.55547  21724845.1884                   21724847.6024
        45.2504         42.0004
  -3188686.78946  -6387833.84844  24807259.7114                   24807264.8954
        37.2504         25.2504
 -26813381.89847 -20714553.43447  20994576.8364                   20994577.3794
        47.2504         46.5004
 -56953122.29348 -39440332.13745  20770581.2974                   20770579.4454
        48.7504         35.5004
 -90265600.26647 -70097655.99246  20253744.9924                   20253744.3594
        46.7504         38.2504
-126333622.23446 -98441786.96943  25138173.5314                   25138174.4344
        40.2504         19.7504
   3182497.70347   2599675.15246  22835136.4844                   22835135.5634
        45.2504         37.7504
 25  8  6  1 46 30.0000000  0  9G26G27G03G06G09G16G04G31G07
 -76802032.84446 -60869136.21145  23160823.9844                   23160826.1054
        41.0004         34.7504
  41555936.09446  32480654.96944  24369881.2504                   24369886.7504
        36.0004         28.5004
-103535246.74647 -80603671.47347  21693667.4224                   21693669.5904
        45.7504         42.0004
  -3403996.44946  -6555607.64844  24766288.4064                   24766293.3404
        37.7504         25.7504
 -27132339.95347 -20963092.15647  20933881.4694                   20933882.1134
        47.7504         46.7504
 -57192636.70348 -39626966.71946  20725003.0314                   20725000.8554
        48.0004         36.0004
 -90523243.68447 -70298417.09446  20204717.0634                   20204716.3594
        47.2504         38.2504
-126495332.90246 -98567795.25443  25107401.0944                   25107401.6454
        38.7504         18.5004
   2868834.37147   2355262.26646  22775447.6334                   22775447.4614
        45.2504         37.7504
 25  8  6  1 47  0.0000000  0  9G26G27G03G06G09G16G04G31G07
 -76968092.59446 -60998533.44945  23129223.6804                   23129226.5044
        40.0004         34.5004
  41217536.71545  32216967.34044  24305485.6094                   24305492.1454
        33.5004         28.2504
-103698746.08247 -80731073.60547  21662554.2504                   21662557.1094
        45.7504         42.0004
  -3618929.44546  -6723087.94944  24725387.4844                   24725391.9494
        39.0004         26.2504
 -27451083.96147 -21211464.09847  20873225.9844                   20873226.9494
        47.2504         46.7504
 -57431478.31248 -39813077.04345  20679553.2194                   20679550.9614
        48.5004         35.2504
 -90780563.19147 -70498925.78546  20155751.0784                   20155750.2194
        46.2504         38.5004
-126657102.32046 -98693849.37943  25076618.3834                   25076618.4964
        38.2504         20.2504
   2555369.93847   2111004.36346  22715797.5164                   22715796.9534
        43.5004         37.7504
 25  8  6  1 47 30.0000000  0  9G26G27G03G06G09G16G04G31G07
 -75558403.24246 -59900074.25045  23397478.4614                   23397481.2584
        40.5004         33.7504
  42454701.96946  33180992.42244  24540911.1334                   24540916.0554
        36.0004         28.5004
-102286480.31647 -79630606.82846  21931299.7034                   21931302.5164
        46.0004         41.7504
  -2258060.98446  -5662671.03144  24984352.9144                   24984357.1764
        40.2504         27.7504
 -26194181.64847 -20232059.67247  21112406.8134                   21112407.4144
        46.7504         46.7504
 -56094219.86347 -38771057.44945  20934024.7814                   20934023.0394
        47.5004         35.7504
 -89462129.18047 -69471574.60546  20406640.4694                   20406639.5784
        47.0004         38.0004
-125243505.75846 -97592345.60943  25345616.4454                   25345617.2424
        36.2504         21.2504
   3817534.67647   3094509.45346  22955979.4844                   22955978.5474
        45.0004         37.2504
 25  8  6  1 48  0.0000000  0  9G26G27G03G06G09G16G04G31G07
 -75723817.96946 -60028968.87145  23366000.7274                   23366003.5864
        40.2504         33.5004
  42116573.50046  32917515.90245  24476566.8594                   24476572.5554
        37.7504         30.5004
-102449302.35247 -79757481.18747  21900315.8364                   21900318.0234
        45.7504         42.0004
  -2472247.21146  -5829569.39844  24943594.6564                   24943599.0084
        39.7504         28.0004
 -26512491.94147 -20480093.64547  21051834.5864                   21051835.1174
        47.2504         47.0004
 -56331717.74647 -38956120.71545  20888830.7114                   20888828.4344
        47.0004         35.5004
 -89718797.09047 -69671575.56246  20357798.4224                   20357797.3054
        47.2504         38.7504
-125405394.18045 -97718492.52043  25314809.9924                   25314810.7424
        34.2504         20.0004
   3504468.00047   2850561.49646  22896404.9144                   22896403.7584
        44.5004         37.5004
 25  8  6  1 48 30.0000000  0  9G26G27G03G06G09G16G04G31G07
 -75888914.87946 -60157615.85245  23334584.4774                   23334586.9734
        40.2504         32.5004
  41778584.81346  32654148.32445  24412249.6564                   24412255.0274
        38.2504         30.5004
-102611790.34447 -79884095.25047  21869395.6564                   21869397.8444
        46.0004         42.0004
  -2686064.44946  -5996180.28945  24902905.9844                   24902910.9104
        41.7504         30.5004
 -26830583.44147 -20727957.12147  20991303.7734                   20991304.5634
        47.5004         46.7504
 -56568545.59048 -39140661.87545  20843763.6644                   20843761.7234
        48.0004         35.0004
 -89975138.28947 -69871321.94946  20309018.0704                   20309017.1954
        47.0004         38.2504
                                  25283993.0944                   25283993.1564
        31.0004         20.0004
   3191599.05147   2606767.60246  22836867.5084                   22836866.9024
        44.7504         37.7504
 25  8  6  1 49  0.0000000  0  8G26G27G03G06G09G16G04G07
 -76053696.76646 -60286017.35245  23303227.8054                   23303229.8674
        39.0004         32.0004
  41440739.27046  32390892.25445  24347960.1094                   24347965.0314
        39.0004         30.7504
-102773947.00847 -80010451.14146  21838538.2344                   21838540.4654
        45.0004         41.2504
  -2899515.13346  -6162505.53145  24862288.4614                   24862292.6644
        41.5004         30.0004
 -27148454.53547 -20975648.84847  20930814.8204                   20930815.6994
        47.7504         47.0004
 -56804704.62948 -39324681.89145  20798824.1804                   20798821.9534
        48.0004         35.5004
 -90231151.71947 -70070812.93446  20260300.7034                   20260299.9344
        47.7504         38.0004
   2878927.68847   2363127.67646  22777368.1644                   22777367.6054
        45.7504         38.0004
 25  8  6  1 49 30.0000000  0  8G26G27G03G06G09G16G04G07
 -76218166.96946 -60414175.98445  23271929.5554                   23271932.2814
        40.0004         31.5004
  41103039.56646  32127749.82045  24283697.2734                   24283702.2974
        40.0004         31.2504
-102935775.67247 -80136551.44946  21807743.3204                   21807745.5944
        45.2504         41.5004
  -3112602.28146  -6328547.50844  24821738.8594                   24821743.6764
        41.2504         28.7504
 -27466104.14547 -21223167.99647  20870368.1564                   20870368.4844
        47.2504         47.0004
 -57040196.07447 -39508181.70746  20754011.7734                   20754009.6954
        47.2504         36.0004
 -90486836.96947 -70270048.18046  20211645.1724                   20211644.2774
        47.7504         38.0004
   2566453.16047   2119641.12546  22717906.2734                   22717905.8444
        45.0004         38.0004
 25  8  6  1 50  0.0000000  0  8G26G27G03G06G09G16G04G07
 -76382336.00846 -60542099.93745  23240689.4384                   23240692.1844
        39.5004         32.5004
  40765481.37946  31864717.66045  24219462.1804                   24219467.0864
        40.2504         31.5004
-103097286.69947 -80262404.24647  21777008.5314                   21777010.8244
        46.0004         42.0004
  -3325336.09846  -6494314.18444  24781256.6024                   24781261.9064
        40.5004         29.5004
 -27783538.27347 -21470519.21947  20809962.5944                   20809962.7464
        46.7504         47.2504
 -57275028.59047 -39691168.07445  20709324.7114                   20709322.7504
        47.7504         35.0004
 -90742200.69947 -70469032.90246  20163051.4384                   20163050.2274
        46.7504         38.2504
   2254167.07847   1876301.41846  22658479.9694                   22658479.6174
        44.5004         38.5004
 25  8  6  1 50 30.0000000  0  9G26G27G03G06G09G16G04G08G07
 -74970775.70346 -59442182.84845  23509300.3834                   23509302.8284
        39.0004         32.0004
  42003504.77046  32829411.39145  24455050.6954                   24455055.5314
        41.2504         31.0004
-101683052.03947 -79160403.26246  22046128.4924                   22046130.9884
        45.2504         41.7504
  -1962286.68446  -5432197.81644  25040636.7734                   25040641.6254
        40.7504         28.5004
 -26525319.24247 -20490088.76647  21049393.1644                   21049393.7624
        46.5004         47.2504
 -55933770.15647 -38646031.61345  20964557.6804                   20964555.5354
        47.5004         35.0004
 -89421808.00447 -69440155.47746  20414313.4384                   20414312.7194
        47.0004         37.7504
                                  24966439.0784                   24966447.9654
        27.5004         21.0004
   3517505.28147   2860720.89546  22898885.0234                   22898884.3594
        44.5004         38.0004
 25  8  6  1 51  0.0000000  0  8G26G27G03G06G09G16G04G07
 -75134338.38746 -59569634.32845  23478175.4144                   23478177.8794
        39.5004         30.7504
  41666251.85946  32566617.09845  24390872.5164                   24390877.5514
        40.2504         30.0004
-101843923.77347 -79285757.91046  22015515.8594                   22015518.1994
        45.7504         41.0004
  -2174309.26646  -5597410.26243  25000289.9384                   25000295.3524
        36.2504         22.5004
 -26842305.14147 -20737090.72347  20989072.7974                   20989073.5594
        47.2504         47.0004
 -56167276.02048 -38827984.23045  20920122.7114                   20920120.6024
        48.0004         35.5004
 -89676513.45347 -69638627.25446  20365844.7664                   20365843.8014
        45.5004         37.7504
   3205608.11347   2617684.21546  22839532.9304                   22839532.6644
        45.5004         38.5004
 25  8  6  1 51 30.0000000  0  8G26G27G03G06G09G16G04G07
 -75297596.64846 -59696848.59845  23447108.2274                   23447110.9884
        39.5004         32.0004
  41329162.03946  32303949.89544  24326726.1954                   24326731.5634
        40.2504         29.2504
-102004474.51647 -79410862.43446  21984964.2894                   21984966.1134
        45.5004         41.5004
  -2385974.56245  -5762344.33643  24960011.8914                   24960016.5634
        34.2504         19.0004
 -27159058.97747 -20983911.84447  20928796.8754                   20928797.1684
        46.5004         47.5004
 -56400114.76648 -39009417.01245  20875815.1724                   20875812.9844
        48.2504         34.7504
 -89930882.83647 -69836837.15646  20317439.5634                   20317438.9224
        47.5004         38.0004
   2893910.32447   2374802.89546  22780218.7814                   22780218.1884
        45.7504         38.5004
 25  8  6  1 52  0.0000000  0  8G26G27G03G06G09G16G04G07
 -75460559.14546 -59823832.38745  23416098.0704                   23416100.6174
        38.2504         30.5004
  40992232.68046  32041407.72744  24262610.8914                   24262615.5234
        41.2504         28.7504
-102164712.96947 -79535723.62546  21954471.6334                   21954474.1884
        45.2504         41.0004
  -2597291.07844  -5927006.59042  24919799.4694                   24919805.1684
        28.5004         16.2504
 -27475584.94948 -21230555.41447  20868563.6644                   20868563.7704
        48.0004         47.5004
 -56632293.33247 -39190335.36745  20831632.6334                   20831630.8914
        47.0004         34.7504
 -90184921.06647 -70034789.02046  20269097.8754                   20269097.1054
        47.5004         38.2504
   2582405.87947   2132072.23446  22720941.3674                   22720940.7774
        45.5004         38.7504
 25  8  6  1 52 30.0000000  0  9G26G27G03G06G09G16G04G08G07
 -75623233.04746 -59950591.30545  23385142.1564                   23385144.3794
        38.0004         31.0004
  40655462.77046  31778989.79744  24198525.3204                   24198530.4344
        40.5004         29.7504
-102324646.21547 -79660346.98046  21924037.4144                   21924039.9224
        45.0004         41.2504
  -2808265.672 5                  24879653.563
        30.000
 -27791885.81647 -21477023.57847  20808373.7734                   20808374.0204
        47.2504         47.2504
 -56863817.27348 -39370743.62945  20787575.5704                   20787573.1414
        48.0004         35.7504
 -90438631.53147 -70232485.48446  20220818.4694                   20220817.2584
        46.7504         37.2504
  55543030.45355  44128401.84053  24702562.3754                   24702568.2114
        32.2504         20.0004
   2271089.76647   1889488.33246  22661700.0394                   22661699.4344
        45.5004         39.0004
 25  8  6  1 53  0.0000000  0  9G26G27G03G06G09G16G04G08G07
 -75785619.36746 -60077126.14545  23354241.1024                   23354243.5594
        39.5004         31.0004
  40318857.43846  31516700.10244  24134471.0864                   24134476.3324
        40.2504         28.2504
-102484275.26247 -79784733.31246  21893661.4384                   21893664.0434
        46.2504         41.2504
  -3018899.34415                  24839571.133
        32.750
 -28107958.01647 -21723313.56647  20748227.2664                   20748227.7034
        47.5004         47.2504
 -57094686.17247 -39550641.45345  20743642.5474                   20743640.2934
        46.7504         34.7504
 -90692011.45347 -70429924.37146  20172601.3914                   20172600.4344
        47.0004         38.2504
  55196121.75455  43858083.68453  24636546.3364                   24636554.2584
        33.0004         20.5004
   1959963.66847   1647052.50846  22602494.6644                   22602494.3324
        45.2504         39.0004
 25  8  6  1 53 30.0000000  0  8G26G27G03G09G16G04G08G07
 -74372294.85946 -58975834.35945  23623188.1414                   23623190.4534
        39.5004         30.7504
  41557851.78546  32482150.41444  24370244.3054                   24370248.5354
        40.2504         28.7504
-101068176.96947 -78681280.16046  22163135.3834                   22163138.2384
        46.2504         41.0004
 -26848368.80947 -20741815.43747  20987919.1254                   20987919.2974
        47.5004         47.5004
 -55749472.67647 -38502423.14545  20999628.1254                   20999626.1994
        46.7504         35.0004
 -89369630.85947 -69399497.93446  20424242.3284                   20424241.4884
        46.5004         38.0004
  56424554.90645  44815304.62543  24870309.7114                   24870317.0704
        33.0004         21.0004
   3224458.29747   2632373.06646  22843120.1254                   22843119.3054
        44.2504         38.7504
 25  8  6  1 54  0.0000000  0  8G26G27G03G09G16G04G08G07
 -74534110.42246 -59101924.44945  23592395.3204                   23592397.9104
        39.0004         31.2504
  41221589.38746  32220127.93444  24306254.3054                   24306259.7704
        38.7504         28.0004
-101227202.08647 -78805195.89846  22132874.4064                   22132876.8714
        45.7504         41.0004
 -27163974.86747 -20987742.19947  20927861.0704                   20927861.5634
        47.5004         47.2504
 -55979030.93047 -38681299.70345  20955944.9224                   20955942.2664
        46.7504         35.0004
 -89622342.98847 -69596416.47346  20376152.7734                   20376151.9964
        45.7504         38.0004
  56077472.12545  44544850.77343  24804261.6564                   24804269.1564
        35.0004         21.0004
   2913715.05147   2390235.51646  22783986.9534                   22783986.9104
        44.7504         39.0004
 25  8  6  1 54 30.0000000  0  8G26G27G03G09G16G04G08G07
 -74695643.76246 -59227794.63745  23561657.1954                   23561659.7974
        38.5004         30.5004
  40885504.67246  31958243.92644  24242300.8204                   24242305.0274
        40.5004         27.0004
-101385928.26247 -78928878.70346  22102670.0394                   22102672.5204
        45.5004         41.0004
 -27479344.14847 -21233484.45747  20867848.1024                   20867848.5004
        47.2504         47.5004
 -56207934.68747 -38859666.25845  20912385.9534                   20912383.7814
        47.5004         35.7504
 -89874718.61747 -69793072.80146  20328127.5704                   20328126.4654
        46.5004         38.2504
  55730307.74645  44274333.37143  24738198.1884                   24738205.7624
        35.0004         20.7504
   2603164.10247   2148247.84846  22724891.2664                   22724890.6414
        44.5004         39.0004
 25  8  6  1 55  0.0000000  0  8G26G27G03G09G16G04G08G07
 -74856896.43446 -59353446.10545  23530971.2114                   23530973.9024
        39.5004         31.0004
  40549601.93846  31696501.72744  24178380.3204                   24178384.4344
        39.0004         27.7504
-101544357.24647 -79052329.92646  22072521.8444                   22072524.3984
        45.2504         41.5004
 -27794473.85247 -21479040.03147  20807880.8984                   20807881.3404
        47.0004         47.5004
 -56436183.94147 -39037522.81245  20868951.1644                   20868949.1764
        47.0004         35.5004
 -90126755.69947 -69989465.32446  20280166.1724                   20280165.4614
        47.2504         38.0004
  55383065.43846  44003755.24243  24672120.0704                   24672127.3754
        36.2504         20.5004
   2292806.02747   1906410.46546  22665831.9694                   22665831.7074
        46.0004         39.0004
 25  8  6  1 55 30.0000000  0  8G26G27G03G09G16G04G08G07
 -75017870.16446 -59478880.22745  23500339.2344                   23500341.9534
        38.5004         31.2504
  40213885.68046  31434904.82844  24114494.9774                   24114499.9024
        37.7504         28.5004
-101702490.68747 -79175550.85946  22042430.1094                   22042432.6524
        44.5004         41.0004
 -28109361.22747 -21724406.78547  20747960.1484                   20747960.6764
        46.7504         47.5004
 -56663779.27747 -39214869.80945  20825641.4924                   20825639.3594
        46.2504         34.7504
 -90378452.21147 -70185592.47746  20232269.7504                   20232269.2464
        47.5004         38.0004
  55035749.34446  43733119.61343  24606027.1484                   24606034.4964
        37.5004         20.7504
   1982641.43447   1664723.83246  22606809.6884                   22606808.9384
        44.7504         39.2504
 25  8  6  1 56  0.0000000  0  8G26G27G03G09G16G04G08G07
 -75178568.79346 -59604099.97345  23469759.6334                   23469761.8714
        40.0004         31.2504
  39878358.20746  31173455.06644  24050646.7734                   24050650.8324
        38.2504         28.0004
-101860332.40647 -79298544.47746  22012393.7734                   22012396.7384
        44.2504         40.7504
 -28424005.51647 -21969584.12147  20688085.1414                   20688085.2934
        47.7504         47.7504
 -56890722.73047 -39391708.86345  20782455.4844                   20782453.2974
        46.5004         34.7504
 -90629808.19147 -70381454.27046  20184438.6174                   20184437.6524
        47.0004         38.0004
  54688361.09446  43462427.75843  24539921.3754                   24539928.8094
        36.7504         21.7504
   1672669.41047   1423187.25846  22547824.1024                   22547823.3404
        45.0004         39.7504
 25  8  6  1 56 30.0000000  0  8G26G27G03G09G16G04G08G07
 -73763567.55146 -58501501.66045  23739025.0234                   23739027.6954
        40.5004         31.5004
  41118456.13346  32139765.35944  24286629.1564                   24286633.4734
        38.5004         29.0004
-100442457.85947 -78193707.23846  22282206.1644                   22282209.1054
        44.2504         40.5004
 -27162972.43448 -20986960.91447  20928051.6174                   20928052.2504
        48.2504         47.7504
 -55541586.02047 -38340433.49645  21039187.4844                   21039185.7774
        46.0004         34.5004
 -89305392.21947 -69349441.82446  20436466.3134                   20436465.4614
        46.5004         37.5004
  55916337.29346  44419292.62543  24773598.0474                   24773604.7814
        37.5004         22.5004
   2938321.37547   2409409.62546  22788669.5084                   22788668.8874
        46.2504         39.2504
 25  8  6  1 57  0.0000000  0  8G26G27G03G09G16G04G08G07
 -73923719.77346 -58626295.64545  23708549.0234                   23708551.9494
        39.7504         32.5004
  40783320.71546  31878621.09044  24222855.6644                   24222859.2584
        38.5004         29.5004
-100599720.13347 -78316249.34446  22252280.0164                   22252282.9804
        44.7504         40.0004
 -27477120.98048 -21231751.96547  20868271.4384                   20868271.3714
        48.0004         47.5004
 -55767225.68447 -38516256.61745  20996250.1024                   20996247.6604
        46.7504         34.5004
 -89556059.87147 -69544767.25846  20388766.2034                   20388764.9964
        47.5004         38.0004
  55568817.85946  44148498.53944  24707465.5704                   24707473.8954
        37.5004         25.0004
   2628736.78547   2168174.93046  22729757.3834                   22729756.7584
        46.0004         39.2504
 25  8  6  1 57 30.0000000  0  8G26G27G03G09G16G04G08G07
 -74083602.15246 -58750879.35945  23678124.6254                   23678126.8914
        41.0004         32.2504
  40448387.07846  31617634.04345  24159119.1334                   24159122.8324
        39.0004         30.7504
-100756696.16847 -78438568.41046  22222408.9844                   22222411.4384
        44.2504         40.0004
 -27791018.29747 -21476347.25047  20808538.4144                   20808538.8204
        47.2504         47.5004
 -55992214.75047 -38691572.77345  20953435.4844                   20953433.6484
        47.0004         34.7504
 -89806381.24247 -69739822.86746  20341131.3754                   20341130.8794
        46.5004         38.5004
  55221237.86746  43877657.26644  24641323.9924                   24641330.9654
        38.0004         27.2504
   2319346.60247   1927091.71946  22670882.2034                   22670881.7854
        46.2504         39.7504
 25  8  6  1 58  0.0000000  0  8G26G27G03G09G16G04G08G07
 -74243217.55146 -58875255.03945  23647749.9774                   23647753.6484
        40.5004         32.7504
  40113658.44546  31356806.73445  24095421.9534                   24095425.9734
        39.2504         30.0004
-100913388.76647 -78560666.60946  22192591.2344                   22192594.2584
        44.2504         39.7504
 -28104662.74248 -21720745.48848  20748854.0784                   20748854.1134
        48.2504         48.0004
 -56216554.82047 -38866383.21945  20910745.3204                   20910743.0124
        47.2504         34.5004
 -90056355.36747 -69934607.90246  20293563.0004                   20293562.4064
        46.2504         37.2504
  54873600.14546  43606771.03944  24575171.2194                   24575177.7384
        38.7504         26.5004
   2010150.22347   1686159.52746  22612044.2034                   22612043.6214
        47.0004         40.0004
 25  8  6  1 58 30.0000000  0  8G26G27G03G09G16G04G08G07
 -74402566.95346 -58999423.45745  23617427.7274                   23617430.8554
        40.2504         33.5004
  39779140.02046  31096143.21545  24031765.4924                   24031769.3204
        38.7504         31.7504
-101069798.98847 -78682544.77746  22162827.2894                   22162830.1684
        43.7504         39.7504
 -28418050.71948 -21964943.88348  20689218.0164                   20689218.3364
        48.5004         48.0004
 -56440245.71947 -39040687.81245  20868178.3984                   20868176.1644
        47.2504         35.2504
 -90305979.55547 -70129120.24646  20246060.5784                   20246060.2154
        46.5004         37.5004
  54525909.38346  43335843.44944  24509007.1024                   24509013.9924
        39.2504         27.0004
   1701148.80547   1445379.26246  22553243.4924                   22553242.6564
        46.0004         40.2504
 25  8  6  1 59  0.0000000  0  8G26G27G03G09G16G04G08G07
 -74561653.33246 -59123386.91845  23587154.6024                   23587157.5004
        39.5004         33.5004
  39444834.93046  30835645.93845  23968149.5634                   23968152.9144
        38.5004         30.7504
-101225929.89847 -78804205.30146  22133116.9064                   22133119.4344
        43.2504         39.0004
 -28731180.73848 -22208941.27748  20629631.7194                   20629631.6294
        49.0004         48.0004
 -56663288.98047 -39214487.76245  20825734.5634                   20825732.0204
        46.5004         35.2504
 -90555253.12147 -70323359.39146  20198625.8834                   20198625.1024
        46.7504         37.2504
  54178168.22746  43064876.60544  24442833.4694                   24442840.4654
        39.2504         27.0004
   1392342.28547   1204750.84046  22494479.0704                   22494478.5124
        46.7504         40.0004
 25  8  6  1 59 30.0000000  0  8G26G27G03G09G16G04G08G07
 -73145051.91446 -58019541.71545  23856724.7194                   23856727.5234
        40.7504         33.7504
  40686179.84446  31802927.87945  24204368.6174                   24204372.9024
        38.7504         31.5004
 -99806356.91047 -77698044.59846  22403252.6024                   22403255.4614
        43.7504         39.5004
 -27468618.41047 -21225126.44948  20869889.1024                   20869889.3714
        47.7504         48.0004
 -55310256.52347 -38160176.75845  21083207.9304                   21083205.6604
        47.0004         34.5004
 -89228744.62547 -69289716.40246  20451051.7734                   20451051.2854
        47.0004         37.7504
  55405813.29346  44021483.45344  24676445.9924                   24676453.2814
        39.5004         28.7504
   2659162.39547   2191883.44146  22735546.9844                   22735546.2774
        46.5004         40.2504
 25  8  6  2  0  0.0000000  0  8G26G27G03G09G16G04G08G07
 -73303615.63346 -58143097.91445  23826551.4844                   23826554.5594
        40.2504         32.7504
  40352316.27346  31542774.62945  24140836.8054                   24140840.5514
        38.5004         31.0004
 -99961932.74247 -77819272.58646  22373647.2504                   22373650.4844
        43.5004         38.7504
 -27781222.36748 -21468713.92248  20810402.3914                   20810402.5554
        49.0004         48.0004
 -55532004.37547 -38332967.29345  21041010.8524                   21041008.7384
        46.5004         35.0004
 -89477309.23847 -69483403.10946  20403751.5164                   20403751.0084
        47.2504         37.7504
  55057984.90246  43750448.61344  24610256.7974                   24610263.6524
        39.2504         29.7504
   2350748.85247   1951561.26646  22676858.0864                   22676856.9344
        46.0004         39.7504
 25  8  6  2  0 30.0000000  0  8G26G27G03G09G16G04G08G07
 -73461922.72346 -58266454.14845  23796426.5554                   23796429.6024
        40.0004         33.7504
  40018677.88746  31282796.83645  24077347.5704                   24077351.0354
        39.2504         32.0004
-100117235.93447 -77940288.12546  22344094.3984                   22344097.1134
        43.5004         39.2504
 -28093561.28148 -21712094.86748  20750966.2424                   20750966.7074
        48.5004         48.2504
 -55753107.53147 -38505255.46145  20998936.3834                   20998934.1914
        46.5004         34.5004
 -89725518.66847 -69676813.05146  20356519.1414                   20356518.1604
        47.2504         37.2504
  54710116.55546  43479382.65245  24544059.5864                   24544066.1524
        39.7504         30.0004
   2042530.70347   1711391.35246  22618205.9924                   22618205.0864
        45.5004         39.7504
 25  8  6  2  1  0.0000000  0  8G26G27G03G09G16G04G08G07
 -73619978.07846 -58389614.22345  23766349.3754                   23766352.4384
        40.5004         33.2504
  39685265.93846  31022995.47345  24013900.9144                   24013904.9734
        37.5004         31.2504
-100272271.36747 -78061095.02746  22314592.5234                   22314595.0554
        43.7504         40.0004
 -28405635.46947 -21955269.53148  20691580.8054                   20691580.8014
        47.0004         48.2504
 -55973569.52747 -38677044.02745  20956984.3594                   20956981.4344
        45.2504         35.0004
 -89973374.05147 -69869947.11746  20309354.1414                   20309353.1484
        46.7504         38.0004
  54362209.22346  43208286.29345  24477854.6954                   24477861.7664
        38.5004         30.0004
   1734505.47747   1471371.75846  22559590.6414                   22559589.3954
        46.0004         40.0004
 25  8  6  2  1 30.0000000  0  8G26G27G03G09G16G04G08G07
 -73777780.48446 -58512577.19145  23736321.6414                   23736323.6214
        39.2504         33.5004
  39352087.63346  30763376.18045  23950498.9534                   23950503.0394
        38.2504         30.7504
-100427038.01247 -78181692.48846  22285141.2664                   22285143.9454
        44.0004         39.0004
 -28717439.25048 -22198233.48448  20632246.2894                   20632246.3444
        48.7504         48.2504
 -56193388.19547 -38848331.30545  20915153.4774                   20915151.3594
        45.5004         35.0004
 -90220870.55947 -70062801.53946  20262256.9924                   20262255.7464
        46.7504         38.0004
  54014269.68846  42937164.84045  24411644.4694                   24411650.4734
        38.7504         30.7504
   1426677.30947   1231505.71946  22501012.4064                   22501011.6564
        46.0004         39.7504
 25  8  6  2  2  0.0000000  0  8G26G27G03G09G16G04G08G07
 -73935331.18046 -58635344.02045  23706340.2584                   23706342.8984
        40.2504         33.5004
  39019147.91846  30503942.81345  23887141.7584                   23887146.5904
        38.5004         31.2504
-100581537.12947 -78302081.47746  22255741.0474                   22255743.8794
        43.5004         39.2504
 -29028969.32448 -22440984.16848  20572964.3754                   20572964.4844
        48.7504         48.2504
 -56412563.63347 -39019117.35245  20873445.8204                   20873443.8484
        46.5004         35.0004
 -90468005.77347 -70255374.43446  20215228.3444                   20215227.7274
        47.2504         38.0004
  53666302.44946  42666021.80944  24345426.8914                   24345434.0664
        38.0004         29.5004
   1119046.34047    991793.34846  22442472.4534                   22442471.8554
        46.2504         39.7504
 25  8  6  2  2 30.0000000  0  8G26G27G03G09G16G04G08G07
 -72517209.71546 -57530314.36745  23976199.7734                   23976202.5314
        39.2504         32.7504
  40261879.14846  31472304.97745  24123626.2034                   24123630.2504
        38.2504         32.0004
 -99160348.48447 -77194661.82846  22526183.9534                   22526187.0634
        43.5004         39.5004
 -27764795.63748 -21455913.73048  20813527.9304                   20813528.0314
        48.5004         48.2504
 -55055672.52747 -37961799.60245  21131653.7034                   21131652.0234
        46.0004         34.2504
 -89139352.69947 -69220060.34446  20468062.9304                   20468061.9804
        46.7504         37.5004
  54893739.94546  43622466.87944  24579000.3524                   24579007.9804
        37.0004         29.7504
   2387040.60947   1979840.90646  22683763.3134                   22683762.9964
        46.7504         39.7504
 25  8  6  2  3  0.0000000  0  8G26G27G03G09G16G04G08G07
 -72674264.80546 -57652695.00845  23946312.8364                   23946315.6644
        40.2504         30.7504
  39929427.00846  31213251.52745  24060361.8984                   24060366.5274
        38.2504         31.2504
 -99314320.72347 -77314640.26646  22496884.8364                   22496887.2504
        44.5004         40.0004
 -28075772.60948 -21698233.41848  20754350.8914                   20754351.4064
        49.0004         48.2504
 -55273566.25047 -38131586.91445  21090190.0314                   21090187.7704
        46.2504         34.5004
 -89385762.33647 -69412067.84846  20421172.6334                   20421171.7974
        46.5004         38.0004
  54545726.55146  43351287.86745  24512775.6024                   24512782.5784
        36.7504         30.0004
   2079804.04347   1740435.85946  22625298.1804                   22625297.6994
        46.0004         39.7504
 25  8  6  2  3 30.0000000  0  8G26G27G03G09G16G04G08G07
 -72831075.41446 -57774885.15245  23916472.2664                   23916475.4804
        38.5004         30.0004
  39597224.39146  30954392.52045  23997146.7504                   23997150.2624
        38.2504         31.7504
 -99468033.13347 -77434416.24646  22467633.8284                   22467636.8404
        43.5004         39.2504
 -28386469.62948 -21940334.96548  20695227.4224                   20695227.8164
        48.7504         48.5004
 -55490821.04347 -38300876.36745  21048847.6174                   21048845.2234
        46.7504         34.7504
 -89631807.09047 -69603791.02346  20374352.0864                   20374350.9884
        47.5004         37.7504
  54197695.23045  43080094.91044  24446547.2814                   24446553.7544
        34.0004         27.5004
   1772764.89847   1501184.66046  22566870.4924                   22566869.8134
        46.2504         39.7504
 25  8  6  2  4  0.0000000  0  8G26G27G03G09G16G04G08G07
 -72987641.16446 -57896884.50044  23886679.2974                   23886682.6414
        37.5004         29.2504
  39265277.74646  30695732.97345  23933978.3134                   23933982.9924
        38.2504         32.5004
 -99621485.27747 -77553989.43446  22438433.1174                   22438435.9884
        43.0004         39.0004
 -28696881.73048 -22182214.50048  20636158.1334                   20636158.0744
        49.0004         48.5004
 -55707435.71947 -38469667.01645  21007627.5554                   21007625.1804
        47.5004         34.5004
 -89877482.93447 -69795226.74246  20327601.0944                   20327600.2814
        47.0004         37.7504
  53849652.11745  42808892.78544  24380316.9064                   24380323.8794
        34.5004         28.2504
   1465926.03947   1262089.51646  22508481.1954                   22508480.2114
        46.2504         39.7504
 25  8  6  2  4 30.0000000  0  8G26G27G03G09G16G04G08G07
 -73143966.04746 -58018696.15244  23856931.7114                   23856934.6804
        37.7504         29.0004
  38933589.20346  30437274.54745  23870860.4694                   23870864.2034
        38.0004         32.0004
 -99774681.40647 -77673363.13746  22409280.7734                   22409283.9344
        42.7504         39.0004
 -29007008.49247 -22423871.68748  20577142.8284                   20577142.9804
        47.5004         48.5004
 -55923412.93447 -38637960.94945  20966528.2034                   20966526.2274
        47.0004         34.5004
 -90122790.36347 -69986375.38346  20280921.0314                   20280919.8204
        47.5004         37.7504
  53501598.95755  42537682.80954  24314084.0864                   24314090.9144
        34.5004         27.7504
   1159285.81347   1023149.15246  22450129.1484                   22450128.3794
        45.0004         39.7504
 25  8  6  2  5  0.0000000  0  8G26G27G03G09G16G04G08G07
 -73300050.15246 -58140320.19144  23827229.6254                   23827233.1094
        37.0004         27.5004
  38602164.66846  30179021.84045  23807791.8914                   23807796.2664
        37.7504         31.5004
 -99927621.65647 -77792537.44946  22380177.0784                   22380180.2854
        42.5004         39.5004
 -29316845.38348 -22665303.00448  20518182.7974                   20518182.9224
        49.7504         48.5004
 -56138751.91847 -38805757.56645  20925550.7194                   20925548.5784
        47.0004         33.5004
 -90367725.77747 -70177234.15246  20234311.4694                   20234310.1174
        47.5004         38.0004
  53153541.37545  42266469.41044  24247849.9304                   24247857.3594
        33.7504         27.0004
    852846.37147    784365.24246  22391815.8834                   22391814.8244
        46.2504         39.7504
 25  8  6  2  5 30.0000000  0  8G26G27G03G09G16G04G08G07
 -73455896.89846 -58261759.27044  23797574.2034                   23797576.5904
        36.0004         27.0004
  38271006.77746  29920976.90645  23744774.7034                   23744778.7624
        38.0004         31.7504
-100080309.67647 -77911515.22346  22351121.4144                   22351124.6174
        42.2504         38.7504
 -29626391.39848 -22906507.66848  20459278.0474                   20459278.1454
        49.7504         48.5004
 -56353455.25047 -38973058.86345  20884694.2504                   20884691.9774
        47.2504         34.2504
 -90612289.08647 -70367802.96146  20187771.8754                   20187771.1564
        46.7504         38.0004
  52805481.64545  41995254.31644  24181617.0944                   24181623.7424
        35.5004         26.0004
    546606.52347    545736.85246  22333540.5234                   22333538.8954
        46.0004         39.7504
 25  8  6  2  6  0.0000000  0  8G26G27G03G09G16G04G08G07
 -72036085.47746 -57155412.76644  24067754.2814                   24067757.2974
        36.7504         26.2504
  39515548.26646  30890749.67245  23981603.8594                   23981607.2344
        38.0004         31.7504
 -98657324.89547 -76802696.01246  22621907.1884                   22621910.1724
        42.5004         39.0004
 -28360216.03548 -21919877.48848  20700223.2974                   20700223.6954
        49.5004         48.7504
 -54992099.35947 -37912262.08245  21143751.2034                   21143749.3984
        47.0004         34.2504
 -89281052.91447 -69330476.07846  20441098.1884                   20441097.1374
        47.5004         37.7504
  54032852.79355  42951647.71554  24415177.1954                   24415184.2504
        33.2504         27.2504
   1815994.51247   1534870.42246  22575096.5634                   22575095.1644
        45.7504         39.5004
 25  8  6  2  6 30.0000000  0  8G26G27G03G09G16G04G08G07
 -72191466.93746 -57276489.27744  24038185.9534                   24038189.4964
        36.7504         27.0004
  39184932.37946  30633127.06645  23918688.6804                   23918692.6994
        38.2504         31.5004
 -98809518.31647 -76921288.38746  22592945.4774                   22592948.5634
        43.7504         38.5004
 -28669176.14548 -22160625.60248  20641430.1334                   20641430.6604
        49.5004         48.7504
 -55205538.31647 -38078578.15245  21103135.3834                   21103133.3204
        47.2504         34.0004
 -89524870.73447 -69520463.98046  20394701.0234                   20394700.4694
        47.7504         37.7504
  53684796.57855  42680435.36754  24348943.9534                   24348951.3094
        33.2504         27.2504
   1510151.87947   1296551.55946  22516896.7344                   22516896.0554
        46.0004         39.7504
 25  8  6  2  7  0.0000000  0  8G26G27G03G09G16G04G08G07
 -72346617.13746 -57397385.57444  24008661.8594                   24008665.6604
        36.5004         26.5004
  38854595.16446  30375721.60545  23855827.4384                   23855831.4924
        38.5004         31.0004
 -98961466.02347 -77039689.31246  22564031.0784                   22564034.0274
        42.5004         38.5004
 -28977837.92648 -22401141.25048  20582693.8984                   20582693.7894
        50.0004         49.0004
 -55418345.22347 -38244401.73045  21062639.5634                   21062637.2384
        46.7504         33.5004
 -89768311.87947 -69710158.38346  20348375.7974                   20348374.8954
        47.0004         38.0004
  53336749.35245  42409230.03944  24282714.5634                   24282719.6414
        35.0004         27.0004
   1204509.48047   1058388.71946  22458734.8524                   22458734.1524
        45.2504         40.0004
 25  8  6  2  7 30.0000000  0  8G26G27G03G09G16G04G08G07
 -72501541.46545 -57518105.89544  23979181.1954                   23979184.5314
        35.2504         27.0004
  38524537.29346  30118533.81645  23793019.2734                   23793023.3914
        38.7504         33.0004
 -99113173.58247 -77157903.09846  22535162.0004                   22535165.5354
        43.0004         38.2504
 -29286202.24648 -22641425.10948  20524013.8754                   20524014.0204
        49.0004         48.7504
 -55630524.71147 -38409736.40645  21022263.1954                   21022260.7624
        46.5004         34.0004
 -90011378.15247 -69899560.67646  20302121.8364                   20302120.9734
        47.0004         37.5004
  52988711.30945  42138031.83244  24216483.9224                   24216490.0944
        34.5004         27.0004
    899064.45747    820379.66846  22400610.5704                   22400609.5864
        45.2504         39.5004
 25  8  6  2  8  0.0000000  0  8G26G27G03G09G16G04G08G07
 -72656239.00846 -57638649.46944  23949743.9064                   23949746.1214
        36.7504         25.5004
  38194765.61346  29861569.02345  23730265.7274                   23730269.6844
        38.2504         31.5004
 -99264640.25447 -77275929.18046  22506339.4144                   22506342.0234
        43.5004         38.2504
 -29594263.70748 -22881472.97748  20465391.8984                   20465392.2664
        48.2504         49.0004
 -55842075.20747 -38574580.95745  20982006.2894                   20982004.2384
        46.5004         33.5004
 -90254065.19147 -70088667.46146  20255940.2664                   20255939.3244
        46.7504         37.5004
  52640689.32446  41866846.17244  24150257.2424                   24150263.2154
        36.0004         28.7504
    593820.23047    582527.09046  22342524.8134                   22342523.7114
        45.0004         40.0004
 25  8  6  2  8 30.0000000  0  8G26G27G03G09G16G04G08G07
 -72810714.94946 -57759020.36344  23920348.0234                   23920350.1334
        38.0004         27.5004
  37865280.93046  29604827.84845  23667567.5944                   23667570.5474
        38.7504         32.5004
 -99415871.45747 -77393771.78146  22477560.6724                   22477563.9414
        43.5004         38.2504
 -29902023.05147 -23121285.43448  20406827.2734                   20406827.3714
        47.0004         49.0004
 -56053001.00047 -38738938.71945  20941868.7114                   20941866.3324
        46.7504         35.0004
 -90496374.67647 -70277480.05546  20209829.7584                   20209829.0984
        47.2504         37.5004
  52292683.84046  41595673.35244  24084032.6804                   24084039.8134
        37.5004         28.0004
    288773.65647    344828.50846  22284475.8204                   22284475.0514
        44.2504         40.2504
 25  8  6  2  9  0.0000000  0  8G26G27G03G09G16G04G08G07
 -71389545.77046 -56651615.83644  24190787.1174                   24190790.3874
        38.5004         28.2504
  39111518.64146  30575922.29745  23904717.8984                   23904721.5824
        40.0004         32.7504
 -97991443.94547 -76283828.37546  22748620.1094                   22748623.5274
        43.7504         38.0004
 -28634047.10948 -22133252.20348  20648114.9844                   20648115.0234
        49.5004         48.7504
 -54687876.20747 -37675205.12545  21201643.6024                   21201640.8984
        47.0004         34.2504
 -89162876.65247 -69238390.68746  20463586.6414                   20463585.5514
        46.2504         37.5004
  53520130.44146  42552125.52744  24317608.9454                   24317614.7074
        37.5004         28.5004
   1559355.71147   1334892.50046  22526260.0004                   22526258.9844
        46.5004         39.7504
 25  8  6  2  9 30.0000000  0  9G26G27G03G09G16G04G30G08G07
 -71543583.18746 -56771645.05144  24161475.7584                   24161478.3324
        37.5004         29.0004
  38782621.39546  30319638.86745  23842131.2274                   23842134.6024
        39.5004         33.5004
 -98142209.38347 -76401308.05146  22719930.5864                   22719934.3984
        43.0004         37.5004
 -28941193.27747 -22372586.85248  20589667.3134                   20589667.2234
        47.0004         49.0004
 -54897555.46947 -37838591.57045  21161742.7894                   21161740.4144
        46.5004         34.0004
 -89404425.17647 -69426610.32446  20417621.5474                   20417620.6214
        47.0004         37.2504
  67112631.49256  52455060.73054  24865123.1804                   24865128.5084
        39.5004         29.2504
  53172170.49246  42280988.17244  24251394.2504                   24251400.3204
        38.5004         29.0004
   1254706.70747   1097503.72346  22468287.0314                   22468285.6454
        44.5004         40.0004
 25  8  6  2 10  0.0000000  0  9G26G27G03G09G16G04G30G08G07
 -71697403.18046 -56891504.81645  24132203.9694                   24132207.2734
        39.7504         30.7504
  38454024.94146  30063589.81345  23779601.4694                   23779604.5704
        40.5004         33.2504
 -98292744.05147 -76518607.90646  22691284.9924                   22691288.7544
        43.2504         38.0004
 -29248028.02748 -22611678.84048  20531278.2274                   20531278.2234
        50.0004         48.7504
 -55106612.12547 -38001492.86345  21121960.0554                   21121958.1024
        47.0004         33.7504
 -89645589.84047 -69614530.84846  20371729.1644                   20371728.3874
        47.5004         38.0004
  66777469.34046  52193895.69144  24801344.0704                   24801348.8404
        36.7504         27.5004
  52824240.10946  42009873.85944  24185184.5554                   24185191.1254
        38.2504         29.2504
    950258.12947    860271.11346  22410352.1484                   22410351.1454
        47.0004         39.7504
 25  8  6  2 10 30.0000000  0  9G26G27G03G09G16G04G30G08G07
 -71851008.76246 -57011197.51645  24102974.0944                   24102977.1294
        39.5004         31.5004
  38125732.29346  29807777.47345  23717129.1644                   23717132.4804
        41.2504         33.2504
 -98443051.20747 -76635730.46146  22662683.1024                   22662685.9884
        43.5004         37.7504
 -29554549.80948 -22850526.95748  20472949.2114                   20472949.2934
        49.2504         49.0004
 -55315048.67247 -38163910.96145  21082295.7894                   21082294.2774
        46.5004         33.7504
 -89886370.20347 -69802151.91046  20325910.1334                   20325909.0984
        47.5004         38.0004
  66442433.17246  51932828.75444  24737588.0164                   24737593.5044
        38.2504         28.0004
  52476342.00846  41738784.66844  24118982.4924                   24118987.3284
        40.0004         29.5004
    646009.37947    623194.21946  22352455.7114                   22352454.4224
        45.5004         40.5004
 25  8  6  2 11  0.0000000  0  9G26G27G03G09G16G04G30G08G07
 -72004402.90646 -57130725.46145  24073784.1254                   24073787.3094
        40.7504         32.0004
  37797746.41446  29552204.19945  23654715.5554                   23654718.3874
        39.7504         33.7504
 -98593134.02747 -76752678.22346  22634122.5634                   22634126.2854
        42.2504         37.0004
 -29860757.19948 -23089130.09448  20414679.8134                   20414680.0434
        49.5004         49.0004
 -55522867.76247 -38325847.91045  21042749.7814                   21042747.4024
        47.5004         33.5004
 -90126765.86748 -69989473.21546  20280164.1174                   20280163.6844
        48.0004         37.7504
  66107522.67646  51671859.72344  24673856.8594                   24673861.9384
        37.0004         28.5004
  52128478.85246  41467722.72744  24052785.4064                   24052791.6254
        38.5004         28.2504
    341959.46947    386272.26246  22294596.7734                   22294595.9224
        47.5004         41.0004
 25  8  6  2 11 30.0000000  0  9G26G27G03G09G16G04G30G08G07
 -72157587.35246 -57250089.98445  24044634.0864                   24044637.0784
        40.0004         32.2504
  37470071.57046  29296873.28945  23592360.0234                   23592364.0554
        39.7504         33.0004
 -98742994.46947 -76869452.69946  22605605.7274                   22605608.4144
        43.0004         37.5004
 -30166647.37148 -23327486.04348  20356470.8834                   20356470.4884
        50.0004         49.0004
 -55730070.43447 -38487304.54345  21003320.2194                   21003318.2464
        46.7504         34.0004
 -90366775.03147 -70176493.34846  20234492.1024                   20234491.2894
        47.2504         37.5004
  65772738.98846  51410989.53944  24610148.9614                   24610153.8634
        38.5004         27.5004
  51780654.83246  41196691.25444  23986596.5634                   23986601.7424
        40.2504         27.0004
     38109.06347    149505.76246  22236776.1094                   22236774.9804
        47.0004         40.7504
 25  8  6  2 12  0.0000000  0  9G26G27G03G09G16G04G30G08G07
 -70735139.09846 -56141688.78545  24315316.9924                   24315320.2814
        39.7504         31.5004
  38718142.50446  30269396.24245  23829860.8054                   23829864.1804
        40.0004         32.7504
 -97317209.85247 -75758451.79746  22876923.2034                   22876926.7344
        42.5004         37.5004
 -28896787.83247 -22337985.07448  20598116.8524                   20598117.2194
        47.0004         49.0004
 -54361231.27047 -37420676.62545  21263801.5554                   21263799.5554
        46.2504         33.7504
 -89030968.41847 -69135605.08246  20488687.5944                   20488686.4414
        47.5004         37.5004
  67013513.91446  52377827.30944  24846260.7974                   24846265.6644
        37.5004         28.2504
  53008305.13746  42153302.13344  24220211.1334                   24220216.0554
        39.2504         27.7504
   1309888.25847   1140502.58646  22478788.0004                   22478785.9344
        45.0004         41.0004
 25  8  6  2 12 30.0000000  0  9G26G27G03G09G16G04G30G08G07
 -70887910.77046 -56260731.69145  24286244.9144                   24286248.7424
        39.5004         32.7504
  38391100.88346  30014558.76645  23767626.8674                   23767629.9304
        39.2504         33.0004
 -97466632.79747 -75874885.35946  22848489.3984                   22848492.5314
        42.2504         37.5004
 -29202036.86348 -22575841.43048  20540030.0004                   20540029.8754
        49.7504         49.0004
 -54567205.83647 -37581176.28545  21224605.8674                   21224603.8984
        46.5004         33.5004
 -89270200.98847 -69322020.07046  20443163.1414                   20443162.4694
        47.5004         37.2504
  66678985.47345  52117155.98844  24782601.8284                   24782606.9264
        35.5004         26.0004
  52660569.95746  41882339.91044  24154038.2894                   24154044.1374
        39.5004         28.7504
   1006436.68847    904046.87146  22421042.7584                   22421041.2894
        46.5004         41.0004
 25  8  6  2 13  0.0000000  0  9G26G27G03G09G16G04G30G08G07
 -71040481.03146 -56379617.64845  24257212.3524                   24257215.6214
        39.2504         32.2504
  38064379.75046  29759971.03145  23705453.5474                   23705456.8134
        39.2504         33.5004
 -97615842.39147 -75991152.68446  22820095.8594                   22820098.9804
        42.5004         36.7504
 -29506963.64547 -22813446.68748  20482004.5234                   20482004.3714
        47.2504         49.0004
 -54772570.61347 -37741200.79345  21185526.3444                   21185524.4844
        46.5004         33.5004
 -89509045.21548 -69508132.45746  20397712.4614                   20397711.8954
        48.0004         38.0004
  66344583.68445  51856583.36744  24718968.0314                   24718971.9264
        35.5004         24.5004
  52312882.82846  41611415.11344  24087875.9454                   24087880.9804
        39.5004         28.7504
    703182.69947    667745.11346  22363335.0554                   22363334.0434
        45.0004         41.2504
 25  8  6  2 13 30.0000000  0  9G26G27G03G09G16G04G30G08G07
 -71192853.30546 -56498349.32845  24228216.9774                   24228220.1684
        39.2504         31.5004
  37737981.57446  29505634.93845  23643341.4384                   23643344.7774
        38.2504         32.0004
 -97764842.28547 -76107256.60546  22791741.7114                   22791745.5944
        42.0004         37.2504
 -29811567.12947 -23050800.02348  20424040.1564                   20424040.4184
        47.2504         49.0004
 -54977328.64847 -37900752.50445  21146562.1414                   21146559.9454
        46.5004         33.2504
 -89747501.16447 -69693942.29346  20352336.0944                   20352335.3204
        47.5004         37.2504
  66010307.85245  51596108.90644  24655356.9534                   24655361.5474
        34.0004         24.5004
  51965246.02046  41340529.54744  24021722.0314                   24021728.1454
        39.5004         28.0004
    400125.22747    431596.48446  22305665.5084                   22305664.0164
        45.0004         41.2504
 25  8  6  2 14  0.0000000  0  9G26G27G03G09G16G04G30G08G07
 -71345026.94146 -56616926.21545  24199259.4384                   24199262.6054
        38.5004         31.2504
  37411912.94146  29251555.63345  23581292.8594                   23581295.6884
        38.5004         33.0004
 -97913632.10947 -76223196.83646  22763428.1484                   22763431.4304
        42.2504         37.0004
 -30115842.17248 -23287897.42648  20366138.7194                   20366138.7304
        49.5004         49.0004
 -55181478.82047 -38059830.56645  21107713.7664                   21107711.8914
        46.7504         34.0004
 -89985564.69147 -69879446.34446  20307034.0634                   20307033.2544
        47.5004         36.7504
  65676161.52045  51335735.32444  24591769.9924                   24591775.7704
        34.5004         24.2504
  51617666.02046  41069688.21944  23955579.4844                   23955585.1174
        39.7504         29.2504
     97267.26647    195603.32446  22248033.3204                   22248032.0744
        47.5004         41.5004
 25  8  6  2 14 30.0000000  0  9G26G27G03G09G16G04G30G08G07
 -71497005.98046 -56735351.48445  24170338.7894                   24170342.2464
        37.5004         31.2504
  37086175.70746  28997734.55145  23519307.4614                   23519310.1884
        39.0004         32.7504
 -98062216.06247 -76338976.63746  22735154.2504                   22735157.2894
        42.0004         37.0004
 -30419788.38748 -23524738.60548  20308299.2974                   20308299.2344
        50.0004         49.0004
 -55385024.65247 -38218437.70745  21068979.9144                   21068977.9924
        46.7504         33.2504
 -90223236.55947 -70064645.20346  20261806.4924                   20261805.8634
        47.5004         37.7504
  65342143.27045  51075461.57044  24528209.0864                   24528214.2704
        34.5004         27.0004
  51270144.55546  40798892.48844  23889449.1094                   23889453.4384
        40.7504         29.5004
   -205392.93748    -40235.73446  22190438.7344                   22190437.6524
        48.0004         41.7504
 25  8  6  2 15  0.0000000  0  9G26G27G03G09G16G04G30G08G07
 -70073366.35946 -55626021.92645  24441248.0164                   24441251.4734
        37.2504         30.0004
  38336205.62546  29971783.98045  23757179.3364                   23757182.7034
        38.2504         31.7504
 -96635170.48047 -75226993.15646  23006711.5394                   23006715.2504
        42.7504         37.2504
 -29147972.12548 -22533712.91448  20550318.1804                   20550318.1524
        50.2504         49.2504
 -54012540.16847 -37148969.27045  21330155.3594                   21330152.9774
        47.0004         34.0004
 -88885086.44548 -69021930.82846  20516447.9774                   20516447.2464
        48.2504         36.7504
  66583685.99246  52042897.63344  24764465.4384                   24764471.2664
        36.5004         27.5004
  52498118.00446  41755755.14544  24123124.2664                   24123129.3954
        40.2504         29.0004
   1067575.71548    951687.94546  22432676.3834                   22432675.6094
        48.0004         41.2504
 25  8  6  2 15 30.0000000  0  9G26G27G03G09G16G04G30G08G07
 -70224962.61345 -55744148.91844  24412400.0554                   24412403.8204
        35.5004         29.0004
  38011142.37946  29718488.06645  23695322.1024                   23695325.5044
        39.0004         32.0004
 -96783350.03946 -75342457.84046  22978513.6644                   22978517.6414
        41.2504         37.5004
 -29451253.75448 -22770036.23848  20492605.5394                   20492605.5704
        50.0004         49.0004
 -54214883.09447 -37306639.08645  21291650.8914                   21291648.6914
        47.0004         32.5004
 -89121971.32047 -69206516.44546  20471370.1954                   20471369.5864
        47.5004         37.0004
  66249925.60946  51782824.78544  24700953.7034                   24700958.7074
        36.0004         28.5004
  52150724.46946  41485059.10544  24057017.0004                   24057022.2074
        40.0004         29.2504
    765310.59048    716156.73446  22375157.8134                   22375156.4654
        48.2504         41.5004
 25  8  6  2 16  0.0000000  0  9G26G27G03G09G16G04G30G08G07
 -70376371.55545 -55862129.95344  24383588.1174                   24383591.3914
        35.5004         28.2504
  37686420.94146  29465458.50845  23633528.6024                   23633532.4774
        39.0004         32.2504
 -96931331.80546 -75457768.40246  22950354.1884                   22950357.4884
        41.7504         37.5004
 -29754200.40648 -23006098.54348  20434956.9224                   20434956.7114
        50.5004         49.2504
 -54416627.76647 -37463842.72345  21253259.9924                   21253257.6254
        47.0004         33.5004
 -89358461.77748 -69390794.72346  20426367.8054                   20426366.7934
        48.7504         36.7504
  65916294.29346  51522852.49645  24637465.9454                   24637470.6374
        36.5004         30.5004
  51803399.57046  41214416.53144  23990923.2194                   23990927.9964
        39.5004         29.2504
    463242.60247    480779.13346  22317675.7814                   22317674.6254
        47.5004         41.2504
 25  8  6  2 16 30.0000000  0  9G26G27G03G09G16G04G30G08G07
 -70527594.96145 -55979966.42644  24354810.8524                   24354815.1604
        33.7504         25.5004
  37362045.29346  29212698.38345  23571803.2274                   23571805.9654
        39.5004         32.5004
 -97079117.88347 -75572926.47346  22922231.3674                   22922234.8244
        42.5004         37.5004
 -30056809.50448 -23241897.81648  20377371.9384                   20377371.9414
        50.5004         49.2504
 -54617775.87147 -37620581.50045  21214983.1564                   21214980.8324
        46.5004         33.0004
 -89594556.30148 -69574764.48046  20381440.4304                   20381439.7664
        48.5004         37.5004
  65582792.65646  51262981.25845  24574002.4144                   24574007.0394
        37.5004         30.7504
  51456147.17246  40943830.46544  23924842.7274                   23924848.1954
        38.5004         28.5004
    161371.82048    245555.19946  22260231.8914                   22260230.6994
        48.0004         41.5004
 25  8  6  2 17  0.0000000  0  9G26G27G03G09G16G04G30G08G07
 -70678637.27345 -56097661.81244  24326068.4384                   24326072.5744
        33.5004         26.5004
  37038016.69146  28960208.67645  23510142.3204                   23510145.2504
        38.7504         31.7504
 -97226713.14147 -75687935.85246  22894145.0164                   22894148.6644
        42.5004         36.7504
 -30359081.20748 -23477434.18048  20319851.7194                   20319851.6454
        50.2504         49.2504
 -54818331.77047 -37776858.82045  21176818.4454                   21176816.2774
        46.2504         33.0004
 -89830256.18747 -69758426.72746  20336588.5004                   20336587.1724
        47.5004         37.7504
  65249419.01646  51003209.76645  24510563.1254                   24510568.0354
        36.5004         31.7504
  51108968.56346  40673301.88744  23858777.3914                   23858781.8984
        38.7504         28.5004
   -140304.12148     10483.09846  22202825.1564                   22202823.2504
        48.2504         41.5004
 25  8  6  2 17 30.0000000  0  9G26G27G03G09G16G04G30G08G07
 -70829499.77045 -56215217.02044  24297360.9224                   24297364.1994
        35.0004         26.5004
  36714339.79346  28707993.01645  23448548.3984                   23448550.9184
        39.2504         32.7504
 -97374118.98447 -75802797.62946  22866095.0944                   22866098.0084
        42.5004         36.0004
 -30661012.16048 -23712705.02748  20262396.1804                   20262396.2344
        50.2504         49.2504
 -55018296.12147 -37932675.19545  21138766.6334                   21138764.2734
        46.2504         32.5004
 -90065559.25447 -69941779.76646  20291811.5864                   20291810.7544
        47.7504         37.2504
  64916174.87546  50743539.18445  24447148.8754                   24447153.4414
        36.2504         30.7504
  50761868.26646  40402834.33244  23792725.7504                   23792730.7664
        37.0004         28.0004
   -441783.84448   -224436.10946  22145455.2424                   22145453.8204
        48.0004         41.5004
 25  8  6  2 18  0.0000000  0  9G26G27G03G09G16G04G30G08G07
 -69404756.51645 -55105027.51644  24568479.3674                   24568484.1564
        33.7504         25.5004
  37966452.15246  29683665.09845  23686817.0474                   23686820.1094
        38.5004         32.5004
 -95945910.00047 -74689907.57846  23137874.5784                   23137877.4774
        42.2504         36.5004
 -29387167.14548 -22720098.50048  20504800.5784                   20504800.7664
        49.2504         49.5004
 -53642241.28147 -36860424.66845  21400621.2114                   21400619.0984
        46.2504         33.7504
 -88725033.64147 -68897214.34846  20546905.4924                   20546904.3164
        47.5004         37.5004
  66158494.73445  51711580.80945  24683554.6564                   24683559.0274
        35.7504         31.0004
  51990284.52346  41360042.00444  24026484.9384                   24026490.3874
        36.2504         27.7504
    832365.30947    768407.44146  22387917.3284                   22387916.1724
        47.7504         41.7504
 25  8  6  2 18 30.0000000  0  9G26G27G03G09G16G04G30G08G07
 -69555256.41045 -55222300.18044  24539841.1024                   24539844.6334
        34.2504         24.0004
  37643499.10246  29432013.48445  23625362.3284                   23625364.3554
        39.0004         32.7504
 -96092935.02047 -74804472.61346  23109896.6254                   23109899.6134
        42.2504         36.0004
 -29688400.61748 -22954825.86348  20447477.8204                   20447477.9734
        50.5004         49.5004
 -53841019.04747 -37015316.43445  21362794.7584                   21362792.5234
        46.5004         32.2504
 -88959530.53548 -69079939.19946  20502281.8444                   20502280.7814
        48.0004         37.2504
  65825520.26646  51452120.36745  24620191.5474                   24620195.8054
        36.2504         31.0004
  51643361.15245  41089712.33244  23960467.2424                   23960473.0744
        35.2504         27.7504
    531286.75448    533800.84046  22330624.3204                   22330622.6214
        48.5004         41.7504
 25  8  6  2 19  0.0000000  0 10G26G27G03G21G09G16G04G30G08G07
 -69705576.31245 -55339432.61344  24511236.7734                   24511239.8054
        35.5004         24.5004
  37320915.23046  29180649.54345  23563975.8594                   23563978.4064
        39.0004         31.0004
 -96239771.55546 -74918890.77046  23081953.9384                   23081957.1844
        41.5004         36.2504
  71796144.12956  56020324.72753  25172138.3754                   25172139.7544
        39.7504         20.5004
 -29989280.10548 -23189277.40248  20390222.4224                   20390222.5554
        50.2504         49.5004
 -54039204.85547 -37169746.93745  21325081.5784                   21325078.8094
        46.7504         33.7504
 -89193620.85547 -69262347.23446  20457736.2194                   20457735.2194
        47.2504         37.0004
  65492683.25045  51192767.01645  24556854.9774                   24556859.2114
        35.2504         30.2504
  51296533.52745  40819457.25844  23894468.4454                   23894473.4884
        34.0004         28.5004
    230410.50848    299351.86746  22273369.5704                   22273368.1134
        48.5004         41.7504
 25  8  6  2 19 30.0000000  0 10G26G27G03G21G09G16G04G30G08G07
 -69855723.23846 -55456430.22344  24482664.4844                   24482667.5394
        37.2504         26.5004
  36998699.47746  28929572.44545  23502659.7734                   23502663.0634
        39.5004         31.5004
 -96386426.69946 -75033167.59445  23054046.3834                   23054050.0234
        41.2504         35.0004
  71442912.64546  55745079.39543  25104921.4774                   25104922.0554
        40.0004         21.5004
 -30289808.11748 -23423455.05148  20333033.7584                   20333033.5664
        50.5004         49.5004
 -54236805.23847 -37323721.26245  21287479.2974                   21287476.9654
        47.0004         32.7504
 -89427308.28147 -69444441.32846  20413266.5944                   20413265.8634
        47.7504         36.7504
  65159979.47346  50933517.47745  24493542.7584                   24493547.5594
        36.2504         30.0004
  50949800.53545  40549275.94544  23828487.5164                   23828492.3244
        35.2504         28.2504
    -70268.23447     65056.80546  22216151.9774                   22216150.9264
        47.7504         41.2504
 25  8  6  2 20  0.0000000  0 10G26G27G03G21G09G16G04G30G08G07
 -70005704.59846 -55573298.83244  24454124.5704                   24454127.3594
        37.7504         25.2504
  36676850.07446  28678780.82845  23441413.7344                   23441416.6414
        38.7504         32.2504
 -96532908.28546 -75147309.18745  23026171.8674                   23026175.8954
        40.5004         33.7504
  71089945.82446  55470040.28543  25037753.3364                   25037754.4694
        39.2504         22.0004
 -30589987.71148 -23657361.21148  20275911.5634                   20275911.1804
        50.0004         49.5004
 -54433827.63747 -37477245.20745  21249987.0004                   21249984.5634
        46.7504         33.0004
 -89660597.12547 -69626224.84046  20368873.5004                   20368872.6454
        47.5004         37.2504
  64827403.94546  50674367.88345  24430255.7974                   24430260.0394
        37.5004         30.5004
  50603160.44546  40279166.99644  23762523.2344                   23762528.5004
        36.0004         29.7504
   -370754.50447   -169088.27746  22158970.5474                   22158970.0234
        47.7504         41.2504
