     2.11           OBSERVATION DATA    G (GPS)             RINEX VERSION / TYPE
teqc  2019Feb25                         20250819 04:32:18UTCPGM / RUN BY / DATE
Linux 2.6.32-573.12.1.x86_64|x86_64|gcc -static|Linux 64|=+ COMMENT
BIT 2 OF LLI FLAGS DATA COLLECTED UNDER A/S CONDITION       COMMENT
36453570                                                    MARKER NAME
3645                                                        MARKER NUMBER
-Unknown-           -Unknown-                               OBSERVER / AGENCY
0220263645          TRIMBLE 5700        2.32                REC # / TYPE / VERS
-Unknown-           TRM39105.00     NONE                    ANT # / TYPE
 -2372561.5641 -4591119.1927  3726563.0173                  APPROX POSITION XYZ
        0.0000        0.0000        0.0000                  ANTENNA: DELTA H/E/N
     1     1                                                WAVELENGTH FACT L1/2
     7    L1    L2    C1    P1    P2    S1    S2            # / TYPES OF OBSERV
    18                                                      LEAP SECONDS
 SNR is mapped to RINEX snr flag value [0-9]                COMMENT
  L1 & L2: min(max(int(snr_dBHz/6), 0), 9)                  COMMENT
  2025     8     8     0     0   30.0000000     GPS         TIME OF FIRST OBS
                                                            END OF HEADER
 25  8  8  0  0 30.0000000  0 10G01G02G03G09G28G31G06G26G04G16
  -6075893.48857  -4715025.03554  22878644.0704                   22878645.2894
        42.2504         28.2504
  10238994.03156   7954353.62553  24870643.2974                   24870650.1484
        39.7504         22.0004
 -30713322.31658 -23996435.63758  19945575.0864                   19945574.0234
        48.2504         52.0004
  -7511380.18456  -5776870.26655  23760541.2894                   23760543.3834
        41.2504         34.0004
   9427471.79356   7354381.03554  24367082.8364                   24367081.6684
        41.0004         25.0004
  -9759035.03957  -7589526.87157  21626627.3054                   21626623.6844
        46.5004         44.0004
  -3567117.10255  -2716344.19554  25003862.9454                   25003865.6684
        34.2504         27.5004
 -25933692.19957 -20186375.71557  21476422.2894                   21476422.2544
        46.2504         44.7504
 -25627016.54757 -19806648.44156  21189158.8204                   21189156.5744
        47.5004         36.5004
 -12133092.72757 -13476978.91454  22295917.4144                   22295915.5274
        44.0004         29.7504
 25  8  8  0  1  0.0000000  0 10G01G02G03G09G28G31G06G26G04G16
  -6020299.31247  -4671705.03944  22889224.1724                   22889224.4654
        42.5004         28.5004
  10294855.97746   7997882.09843  24881274.0864                   24881280.5904
        38.0004         20.7504
 -30748830.30548 -24024104.20748  19938818.1174                   19938816.9734
        49.0004         51.7504
  -7620146.52746  -5861623.12945  23739843.8054                   23739845.5354
        41.5004         34.5004
   9495777.78546   7407606.39844  24380080.7424                   24380079.9964
        39.7504         24.5004
  -9707518.18447  -7549383.89547  21636430.7344                   21636426.9654
        47.2504         44.0004
  -3649409.03545  -2780467.71944  24988203.2114                   24988205.4104
        34.5004         27.0004
 -25973104.79747 -20217086.78947  21468922.1254                   21468922.3754
        46.5004         44.5004
 -25700486.03147 -19863897.35246  21175178.0784                   21175175.7504
        47.0004         36.2504
 -12253426.66047 -13570745.48845  22273018.7034                   22273016.6884
        44.5004         30.0004
 25  8  8  0  1 30.0000000  0 10G01G02G03G09G28G31G06G26G04G16
  -5964498.33647  -4628223.92644  22899843.2274                   22899842.7384
        44.0004         28.5004
  10350614.22746   8041329.66443  24891884.7344                   24891890.9184
        39.5004         22.7504
 -30783789.49248 -24051345.13348  19932165.8914                   19932164.4144
        48.0004         52.0004
  -7728897.79746  -5946364.23045  23719148.8134                   23719151.3914
        40.7504         34.2504
   9564105.12946   7460848.41043  24393083.1954                   24393081.7114
        41.0004         23.2504
  -9655735.21947  -7509033.56247  21646285.0164                   21646281.0474
        47.5004         44.0004
  -3731232.94546  -2844226.59044  24972632.9924                   24972635.7384
        36.2504         28.5004
 -26011909.17247 -20247323.93047  21461538.2424                   21461537.8754
        46.0004         44.7504
 -25773813.74647 -19921035.79746  21161224.2344                   21161221.8754
        47.0004         37.0004
 -12373449.10547 -13664269.35945  22250178.7344                   22250177.0704
        43.7504         30.5004
 25  8  8  0  2  0.0000000  0 10G01G02G03G09G28G31G06G26G04G16
  -5908493.70347  -4584584.09444  22910499.7894                   22910500.6764
        43.5004         29.5004
  10406266.14846   8084694.37144  24902475.3524                   24902482.1914
        40.7504         24.2504
 -30818199.01648 -24078157.75448  19925617.8594                   19925616.2974
        48.5004         52.0004
  -7837633.67647  -6031093.32445  23698457.5314                   23698459.7194
        42.2504         33.7504
   9632452.07846   7514105.71943  24406089.6644                   24406088.2624
        41.2504         21.7504
  -9603688.39147  -7468477.62147  21656189.2424                   21656185.1644
        46.7504         44.0004
  -3812587.38746  -2907619.65244  24957151.4384                   24957154.3914
        37.2504         28.5004
 -26050104.76247 -20277086.69547  21454269.4384                   21454269.3324
        46.5004         44.7504
 -25846999.34047 -19978063.49246  21147297.6094                   21147295.6724
        47.0004         36.5004
 -12493157.41447 -13757548.44545  22227399.4614                   22227397.3554
        44.5004         30.0004
 25  8  8  0  2 30.0000000  0 10G01G02G03G09G28G31G06G26G04G16
  -5852282.07047  -4540782.94944  22921196.3364                   22921197.3134
        42.7504         29.0004
  10461815.92646   8127979.50443  24913046.6414                   24913053.2194
        37.7504         22.2504
 -30852051.35948 -24104536.19948  19919175.8754                   19919174.9304
        48.7504         52.0004
  -7946347.44546  -6115805.22345  23677770.0864                   23677771.2154
        41.5004         32.2504
   9700823.41846   7567382.00443  24419099.8524                   24419098.9264
        41.2504         23.7504
  -9551374.34047  -7427713.45347  21666144.2424                   21666140.2974
        46.7504         43.5004
  -3893464.42646  -2970640.71144  24941761.5784                   24941763.4064
        36.0004         26.0004
 -26087684.44947 -20306369.53147  21447118.4224                   21447118.7624
        46.7504         45.0004
 -25920035.96947 -20034975.10546  21133398.8204                   21133396.8364
        47.2504         37.0004
 -12612541.26247 -13850574.69545  22204680.7504                   22204679.0354
        43.2504         30.2504
 25  8  8  0  3  0.0000000  0 10G01G02G03G09G28G31G06G26G04G16
  -5795876.32447  -4496830.59844  22931931.2424                   22931931.1374
        42.5004         29.5004
  10517251.22345   8171175.43043  24923594.7424                   24923602.5084
        34.5004         19.0004
 -30885355.49247 -24130487.47348  19912838.2034                   19912837.3404
        47.7504         52.0004
  -8055048.82846  -6200507.51245  23657083.8054                   23657086.5354
        39.5004         32.7504
   9769207.52346   7620668.25043  24432113.1484                   24432111.9694
        40.0004         22.7504
  -9498805.11347  -7386750.44947  21676147.3594                   21676143.8284
        47.0004         43.5004
  -3973872.38346  -3033296.24244  24926460.6334                   24926462.5164
        36.0004         28.2504
 -26124657.44947 -20335179.62947  21440082.6414                   21440082.6374
        46.0004         44.7504
 -25992933.03947 -20091777.98846  21119527.4304                   21119524.9574
        47.5004         36.7504
 -12731607.09447 -13943353.12945  22182023.1564                   22182021.5044
        44.2504         30.5004
 25  8  8  0  3 30.0000000  0 10G01G02G03G09G28G31G06G26G04G16
  -5739269.30946  -4452721.40644  22942702.5394                   22942703.5314
        41.5004         29.7504
  10572579.89545   8214288.27342  24934124.4534                   24934132.6884
        31.0004         15.5004
 -30918100.23847 -24156002.85948  19906607.0394                   19906606.3914
        47.0004         52.0004
  -8163727.16046  -6285191.76245  23636403.1254                   23636404.9144
        39.7504         32.2504
   9837613.03146   7673971.17643  24445131.0864                   24445128.9804
        39.0004         22.0004
  -9445972.78947  -7345582.43447  21686201.5864                   21686197.5124
        47.2504         43.5004
  -4053799.47346  -3095577.06245  24911250.2894                   24911252.4344
        38.0004         30.0004
 -26161012.85247 -20363508.48447  21433164.5394                   21433164.1484
        45.5004         45.0004
 -26065679.87548 -20148463.79346  21105683.6804                   21105681.7114
        48.0004         36.7504
 -12850341.12947 -14035873.03145  22159429.0084                   22159426.9414
        43.2504         31.0004
 25  8  8  0  4  0.0000000  0 10G01G02G03G09G28G31G06G26G04G16
  -5682472.76247  -4408464.53544  22953512.5704                   22953511.7624
        43.5004         28.5004
  10627791.11714                  24944631.820
        28.250
 -30950293.25048 -24181088.31648  19900480.9774                   19900479.9804
        49.0004         52.0004
  -8272390.71546  -6369864.57445  23615724.5784                   23615726.8714
        38.7504         32.7504
   9906029.72346   7727282.77343  24458150.2664                   24458148.6844
        40.0004         22.0004
  -9392888.79347  -7304218.30547  21696303.2034                   21696299.4964
        46.5004         43.2504
  -4133252.86746  -3157488.76644  24896131.1094                   24896133.3874
        38.7504         29.0004
 -26196758.68747 -20391362.36347  21426362.2664                   21426362.0864
        46.5004         45.0004
 -26138284.60548 -20205038.87946  21091867.7664                   21091865.1764
        48.5004         36.5004
 -12968748.50047 -14128138.41045  22136896.5864                   22136894.9494
        42.5004         30.5004
 25  8  8  0  4 30.0000000  0  9G01G03G09G28G31G06G26G04G16
  -5625488.78947  -4364061.60244  22964355.6254                   22964354.8794
        43.0004         28.5004
 -30981932.72748 -24205742.44948  19894460.1724                   19894459.1254
        48.0004         52.0004
  -8381038.21546  -6454524.82845  23595050.1564                   23595052.4694
        39.0004         32.2504
   9974456.75046   7780602.50443  24471171.7194                   24471170.1994
        40.7504         22.5004
  -9339554.30147  -7262658.98447  21706452.2424                   21706448.1174
        47.0004         43.2504
  -4212230.10946  -3219029.44544  24881101.7894                   24881104.3634
        38.2504         29.0004
 -26231893.50047 -20418740.11347  21419676.4534                   21419676.2814
        44.7504         44.7504
 -26210745.91447 -20261502.19146  21078078.6884                   21078076.3404
        47.5004         36.5004
 -13086824.89847 -14220145.86345  22114427.9614                   22114425.4224
        43.7504         30.5004
 25  8  8  0  5  0.0000000  0  9G01G03G09G28G31G06G26G04G16
  -5568314.40246  -4319510.29744  22975234.6094                   22975235.0784
        41.0004         26.5004
 -31013011.76248 -24229959.86748  19888546.1174                   19888544.9224
        48.2504         52.0004
  -8489663.47346  -6539167.77745  23574379.1024                   23574381.3364
        38.5004         32.5004
  10042898.60246   7833933.80143  24484194.7814                   24484193.6134
        39.2504         20.5004
  -9285966.14147  -7220901.99647  21716649.7034                   21716645.8754
        47.0004         43.2504
  -4290723.81246  -3280193.35545  24866165.1804                   24866167.2034
        38.7504         30.7504
 -26266410.63347 -20445636.55947  21413107.7274                   21413107.7584
        46.2504         44.7504
 -26283057.21948 -20317848.62946  21064318.0554                   21064315.9064
        48.0004         37.2504
 -13204560.65247 -14311887.89145  22092023.0004                   22092020.5434
        44.0004         31.2504
 25  8  8  0  5 30.0000000  0  9G01G03G09G28G31G06G26G04G16
  -5510953.88746  -4274813.95744  22986150.5314                   22986150.6524
        40.7504         26.7504
 -31043530.66447 -24253740.82448  19882738.6414                   19882737.3164
        47.0004         51.7504
  -8598267.13346  -6623793.89845  23553711.5474                   23553714.5864
        39.0004         32.7504
  10111352.46946   7887274.36743  24497221.5864                   24497220.8164
        39.2504         20.2504
  -9232127.96147  -7178950.19947  21726894.6884                   21726891.3134
        46.7504         43.5004
  -4368733.68446  -3340980.25044  24851319.5704                   24851322.8014
        39.0004         29.5004
 -26300310.79347 -20472052.24647  21406656.5554                   21406656.5434
        44.2504         44.5004
 -26355219.29747 -20374078.78546  21050586.2114                   21050583.9654
        47.5004         36.7504
 -13321953.50047 -14403362.73845  22069683.1804                   22069681.5124
        42.5004         31.5004
 25  8  8  0  6  0.0000000  0  9G01G03G09G28G31G06G26G04G16
  -5453409.93046  -4229974.68744  22997099.9614                   22997101.4694
        40.0004         27.0004
 -31073488.28947 -24277084.41448  19877037.7974                   19877036.7584
        47.2504         51.5004
  -8706848.60546  -6708402.72345  23533051.0944                   23533052.3014
        40.7504         33.7504
  10179817.12546   7940623.35543  24510249.8524                   24510248.9144
        38.5004         19.2504
  -9178041.73047  -7136805.10947  21737186.9614                   21737183.2424
        46.7504         43.0004
  -4446257.93446  -3401388.72745  24836568.2664                   24836570.0904
        39.2504         31.0004
 -26333593.14547 -20497986.51647  21400323.4304                   21400323.0744
        46.0004         44.5004
 -26427231.30147 -20430192.00046  21036882.7034                   21036880.4304
        47.0004         36.5004
 -13438999.58647 -14494567.36745  22047410.7274                   22047408.3484
        43.7504         31.0004
 25  8  8  0  6 30.0000000  0  9G01G03G09G28G31G06G26G04G16
  -5395684.33246  -4184993.87544  23008084.1024                   23008086.8794
        39.5004         27.2504
 -31102882.48048 -24299988.97348  19871444.4614                   19871443.2194
        49.0004         51.7504
  -8815406.27046  -6792992.99645  23512393.2194                   23512394.3284
        40.5004         33.7504
  10248292.28146   7993980.55943  24523279.7194                   24523279.7584
        37.7504         19.5004
  -9123708.64547  -7094467.66847  21747526.3984                   21747522.5204
        47.2504         42.7504
  -4523293.90246  -3461416.73044  24821907.9384                   24821910.4384
        39.0004         29.5004
 -26366255.89547 -20523437.99247  21394108.1884                   21394107.9344
        45.0004         44.5004
 -26499091.44547 -20486186.88346  21023208.2974                   21023205.9144
        47.5004         37.0004
 -13555694.58647 -14585498.43045  22025204.1254                   22025202.0084
        43.0004         31.0004
 25  8  8  0  7  0.0000000  0  9G01G03G09G28G31G06G26G04G16
  -5337774.64546  -4139869.63344  23019104.8834                   23019106.2734
        39.2504         28.7504
 -31131707.04347 -24322449.66048  19865959.0164                   19865958.0704
        47.5004         52.0004
  -8923934.25046  -6877560.11345  23491740.7274                   23491742.3874
        40.7504         34.7504
  10316781.61746   8047348.79343  24536313.1254                   24536312.8914
        38.0004         19.7504
  -9069125.55147  -7051935.40247  21757913.4774                   21757909.0744
        46.2504         43.2504
  -4599834.75046  -3521058.93044  24807342.5704                   24807345.0864
        40.0004         29.5004
 -26398293.16847 -20548402.07447  21388011.3914                   21388011.2234
        46.2504         44.5004
 -26570793.81247 -20542058.82846  21009563.4924                   21009561.0474
        47.0004         36.2504
 -13672029.25847 -14676148.68045  22003066.1644                   22003063.9104
        43.7504         31.7504
 25  8  8  0  7 30.0000000  0  9G01G03G09G28G31G06G26G04G16
  -5279699.28946  -4094616.30144  23030157.1484                   23030157.5004
        41.0004         28.0004
 -31159976.42247 -24344477.74648  19860579.4064                   19860578.3204
        47.5004         51.7504
  -9032447.54746  -6962115.78945  23471090.9844                   23471092.9104
        41.2504         35.5004
  10385268.60246   8100715.21543  24549345.5164                   24549345.4344
        37.7504         18.2504
  -9014310.19147  -7009222.16047  21768344.1724                   21768340.3714
        46.5004         43.0004
  -4675894.38746  -3580326.16844  24792868.9064                   24792871.5634
        39.5004         27.5004
 -26429719.86347 -20572890.37147  21382031.0474                   21382030.8014
        47.7504         44.7504
 -26642353.12147 -20597819.28946  20995946.3834                   20995943.9804
        47.2504         37.2504
 -13788015.14147 -14766527.18045  21980994.9694                   21980992.6024
        45.0004         31.5004
 25  8  8  0  8  0.0000000  0  9G01G03G09G28G31G06G26G04G16
  -5221459.71547  -4049235.01644  23041240.8204                   23041241.1414
        42.5004         28.7504
 -31187688.28948 -24366071.40248  19855306.2274                   19855305.1484
        49.7504         52.0004
  -9140944.15246  -7046658.46546  23450445.2274                   23450446.4264
        41.0004         36.0004
  10453752.99246   8154079.58243  24562377.8134                   24562377.8674
        38.0004         18.5004
  -8959263.87147  -6966328.94547  21778818.7814                   21778815.4964
        47.0004         42.5004
  -4751469.79746  -3639216.05145  24778487.7114                   24778490.4264
        39.7504         30.0004
 -26460533.93747 -20596901.32047  21376167.2504                   21376167.5354
        47.5004         45.2504
 -26713767.34047 -20653466.69946  20982356.7344                   20982354.5474
        47.0004         37.0004
 -13903647.39547 -14856630.13345  21958990.5784                   21958988.5084
        44.2504         31.5004
 25  8  8  0  8 30.0000000  0  9G01G03G09G28G31G06G26G04G16
  -5163045.96547  -4003717.98844  23052357.4694                   23052357.1914
        43.0004         29.2504
 -31214828.96548 -24387219.97748  19850141.3914                   19850140.3524
        48.5004         52.0004
  -9249410.75847  -7131177.75046  23429804.6254                   23429805.5744
        42.2504         36.5004
  10522246.33246   8207450.94943  24575412.6484                   24575411.2274
        39.5004         19.5004
  -8903975.75447  -6923247.33647  21789339.9924                   21789336.1604
        47.0004         42.7504
  -4826546.80546  -3697717.59445  24764200.8674                   24764203.3634
        40.5004         31.0004
 -26490722.12547 -20620424.57847  21370422.3204                   21370422.1414
        46.7504         44.7504
 -26785022.92648 -20708990.50046  20968797.2504                   20968794.5784
        48.0004         36.7504
 -14018909.73847 -14946444.84445  21937056.5084                   21937054.7034
        43.2504         31.5004
 25  8  8  0  9  0.0000000  0  9G01G03G09G28G31G06G26G04G16
  -5104468.58647  -3958073.46545  23063503.8594                   23063504.3794
        43.5004         30.2504
 -31241405.13748 -24407928.68448  19845084.2114                   19845083.3674
        49.0004         52.0004
  -9357854.38347  -7215679.14846  23409168.1884                   23409169.3754
        42.5004         37.5004
  10590739.65246   8260822.32843  24588445.8204                   24588445.6484
        38.0004         18.5004
  -8848455.77047  -6879985.03947  21799905.2344                   21799901.6524
        47.2504         43.0004
  -4901131.55146  -3755835.54745  24750008.3914                   24750010.6954
        40.2504         30.7504
 -26520291.48047 -20643465.60947  21364795.7734                   21364795.5904
        47.5004         45.0004
 -26856126.82447 -20764396.09846  20955266.4924                   20955263.8754
        47.0004         37.0004
 -14133806.12147 -15035974.35945  21915193.1724                   21915190.8674
        44.7504         32.0004
 25  8  8  0  9 30.0000000  0  9G01G03G09G28G31G06G26G04G16
  -5045733.43047  -3912305.98044  23074679.5864                   23074681.1024
        42.2504         29.0004
 -31267418.99248 -24428199.21948  19840134.0784                   19840133.1374
        48.0004         52.0004
  -9466277.55146  -7300164.60246  23388534.9144                   23388537.1764
        41.2504         37.0004
  10659228.54346   8314190.21942  24601478.4614                   24601478.1994
        37.0004         17.2504
  -8792709.16047  -6836546.15247  21810513.6954                   21810509.5944
        46.0004         43.0004
  -4975225.59846  -3813571.14144  24735908.4144                   24735911.0274
        40.5004         29.7504
 -26549244.60947 -20666026.48047  21359286.0704                   21359286.1994
        45.7504         45.0004
 -26927081.36748 -20819685.31646  20941764.1174                   20941762.0004
        48.0004         36.0004
 -14248336.02047 -15125218.34045  21893397.8364                   21893395.9454
        44.0004         31.0004
 25  8  8  0 10  0.0000000  0  9G01G03G09G28G31G06G26G04G16
  -4986840.30946  -3866415.41444  23085886.1254                   23085888.0944
        41.0004         28.5004
 -31292866.49647 -24448028.44548  19835291.4224                   19835290.4024
        47.5004         51.7504
  -9574676.56646  -7384631.20746  23367907.3054                   23367909.7234
        40.7504         38.0004
  10727714.82446   8367556.02343  24614512.1254                   24614510.6334
        39.5004         19.7504
  -8736734.98447  -6792929.93747  21821165.1804                   21821161.3054
        46.7504         42.5004
  -5048824.26246  -3870920.73444  24721902.6414                   24721905.2624
        39.7504         28.5004
 -26577577.85247 -20688104.31647  21353894.4064                   21353894.2194
        45.0004         45.0004
 -26997882.64847 -20874855.10946  20928290.8674                   20928288.7074
        47.2504         36.7504
 -14362492.37147 -15214171.21545  21871675.1334                   21871672.4264
        45.2504         32.2504
 25  8  8  0 10 30.0000000  0  9G01G03G09G28G31G06G26G04G16
  -4927786.63746  -3820399.77344  23097123.7664                   23097126.3324
        40.7504         28.7504
 -31317741.49248 -24467411.55548  19830557.9774                   19830556.5634
        49.0004         51.7504
  -9683045.40647  -7469074.30146  23347286.0084                   23347287.0944
        42.5004         37.7504
  10796202.45746   8420923.01243  24627544.8524                   24627543.5634
        38.7504         20.0004
  -8680530.18747  -6749134.02747  21831860.1884                   21831856.8404
        46.0004         43.0004
  -5121920.85546  -3927879.08644  24707992.8914                   24707995.4064
        39.7504         29.0004
 -26605285.42647 -20709694.61347  21348621.8524                   21348621.9264
        46.2504         44.7504
 -27068524.61747 -20929900.76646  20914848.4384                   20914846.1994
        47.5004         37.0004
 -14476266.39547 -15302826.18745  21850024.8914                   21850021.8524
        44.5004         32.2504
 25  8  8  0 11  0.0000000  0  9G01G03G09G28G31G06G26G04G16
  -4868574.20347  -3774260.43744  23108393.0474                   23108393.5594
        43.0004         28.5004
 -31342041.97748 -24486346.99648  19825933.5474                   19825932.5204
        48.7504         51.7504
  -9791382.30146  -7553492.53546  23326668.9144                   23326671.2154
        41.5004         38.0004
  10864691.41846   8474290.92243  24640577.4614                   24640577.0084
        37.7504         21.5004
  -8624095.66847  -6705159.10947  21842599.6724                   21842596.1684
        46.7504         42.2504
  -5194512.71146  -3984444.15244  24694179.8054                   24694181.4064
        41.0004         29.0004
 -26632365.81247 -20730796.19947  21343468.5784                   21343468.3134
        45.7504         44.5004
 -27139005.33647 -20984820.76246  20901435.9304                   20901433.8794
        47.5004         37.0004
 -14589653.39547 -15391179.58245  21828447.3834                   21828444.8594
        45.0004         32.5004
 25  8  8  0 11 30.0000000  0  9G01G03G09G28G31G06G26G04G16
  -4809225.32447  -3728014.73844  23119686.2664                   23119687.8404
        42.7504         28.7504
 -31365786.71548 -24504849.39148  19821415.1724                   19821413.6764
        48.0004         51.7504
  -9899706.27747  -7637900.65246  23306056.7424                   23306058.0474
        42.0004         39.0004
  10933160.79746   8527643.66443  24653606.5864                   24653605.5784
        38.5004         21.5004
  -8567453.25447  -6661022.19947  21853377.8674                   21853374.7194
        47.0004         42.5004
  -5266617.93446  -4040630.01644  24680458.7114                   24680459.8954
        40.7504         28.5004
 -26658838.12147 -20751423.95347  21338431.2504                   21338430.8484
        44.7504         45.2504
 -27209343.60547 -21039629.76246  20888051.4534                   20888049.0434
        47.5004         37.0004
 -14702669.35547 -15479243.85245  21806941.5314                   21806938.8404
        45.2504         33.2504
 25  8  8  0 12  0.0000000  0  9G01G03G09G28G31G06G26G04G16
  -4749728.09846  -3681653.46144  23131007.3054                   23131010.0234
        39.7504         27.7504
 -31388960.08248 -24522906.55948  19817005.7894                   19817004.3674
        49.5004         51.7504
 -10008001.82446  -7722286.64846  23285447.7504                   23285449.9654
        41.7504         38.2504
  11001624.14546   8580991.71143  24666634.6024                   24666634.3164
        39.0004         21.7504
  -8510590.53147  -6616713.61747  21864199.1644                   21864195.5124
        46.5004         42.7504
  -5338220.37146  -4096424.09844  24666832.0784                   24666834.1254
        40.0004         28.5004
 -26684687.17647 -20771566.06247  21333512.2584                   21333511.9264
        47.0004         45.0004
 -27279523.89847 -21094315.67246  20874696.4304                   20874694.1334
        47.5004         37.0004
 -14815295.61747 -15567004.47345  21785509.0314                   21785506.4224
        44.7504         32.7504
 25  8  8  0 12 30.0000000  0  9G01G03G09G28G31G06G26G04G16
  -4690082.44147  -3635176.54744  23142359.0164                   23142360.8164
        42.7504         28.5004
 -31411558.44148 -24540515.66448  19812705.5314                   19812703.9844
        48.7504         52.0004
 -10116265.51246  -7806647.79346  23264846.0554                   23264847.2734
        41.5004         38.5004
  11070083.10246   8634336.29743  24679662.6564                   24679661.7734
        40.0004         21.7504
  -8453506.27747  -6572232.41447  21875061.6644                   21875058.3324
        46.0004         42.5004
  -5409315.78546  -4151823.10544  24653303.2274                   24653305.3204
        39.2504         29.5004
 -26709909.74247 -20791220.00047  21328712.4774                   21328712.3134
        45.5004         44.7504
 -27349542.53947 -21148875.60246  20861372.6414                   20861370.4184
        47.7504         36.7504
 -14927526.10947 -15654456.69545  21764152.3134                   21764149.9184
        45.5004         32.2504
 25  8  8  0 13  0.0000000  0  9G01G03G09G28G31G06G26G04G16
  -4630298.68047  -3588592.00044  23153735.2504                   23153737.2544
        42.7504         28.5004
 -31433588.57048 -24557681.99648  19808513.0474                   19808511.8094
        48.7504         52.0004
 -10224504.13346  -7890989.42646  23244248.0944                   23244250.2814
        40.7504         38.0004
  11138528.89846   8687670.66443  24692687.3914                   24692686.3634
        39.0004         21.5004
  -8396210.55947  -6527586.43747  21885964.9844                   21885961.3714
        47.0004         42.2504
  -5479910.26646  -4206831.73444  24639869.6254                   24639871.8524
        39.7504         29.0004
 -26734513.06247 -20810391.40647  21324030.5314                   21324030.6334
        46.5004         44.7504
 -27419406.21947 -21203314.80146  20848077.7504                   20848075.3484
        47.5004         37.0004
 -15039364.25847 -15741603.19545  21742870.3204                   21742867.5164
        45.0004         32.2504
 25  8  8  0 13 30.0000000  0  9G01G03G09G28G31G06G26G04G16
  -2994943.93747  -2314289.83644  23464934.8444                   23464934.5514
        42.5004         27.0004
 -29879611.28147 -23346790.60248  20104224.9774                   20104224.0474
        47.2504         52.0004
  -8757275.77746  -6747694.43746  23523452.6094                   23523454.0514
        39.7504         37.2504
  12782395.67646   9968605.76643  25005504.4304                   25005504.2234
        38.7504         22.2504
  -6763269.60547  -5255164.93747  22196702.5394                   22196699.5044
        46.0004         42.2504
  -3974562.52346  -3033833.46544  24926328.2974                   24926329.9774
        40.2504         29.0004
 -25183058.28547 -19601465.58647  21619262.4774                   21619262.4264
        44.5004         44.7504
 -25913674.10247 -20030017.00046  21134608.6414                   21134606.4694
        47.5004         37.7504
 -13575365.40647 -14600824.75445  22021460.3444                   22021457.2704
        44.5004         32.5004
 25  8  8  0 14  0.0000000  0  9G01G03G09G28G31G06G26G04G16
  -2934863.85246  -2267474.36744  23476366.0474                   23476367.6094
        41.5004         26.0004
 -29900474.10248 -23363047.34048  20100254.9224                   20100253.8984
        48.2504         51.7504
  -8865433.77746  -6831973.22346  23502870.2424                   23502872.3524
        39.0004         37.0004
  12850840.09046  10021938.98443  25018529.4844                   25018529.5274
        39.5004         22.2504
  -6705528.69947  -5210172.05547  22207690.8914                   22207687.6484
        46.5004         42.0004
  -4044122.64846  -3088036.11744  24913091.2034                   24913093.1604
        39.7504         28.7504
 -25206393.55547 -19619648.90647  21614822.0084                   21614822.1054
        45.0004         45.0004
 -25983196.85547 -20084190.54346  21121379.0554                   21121377.0554
        47.5004         37.2504
 -13686380.12547 -14687329.63345  22000334.2584                   22000331.4414
        44.5004         31.7504
 25  8  8  0 14 30.0000000  0  9G01G03G09G28G31G06G26G04G16
  -2874652.06246  -2220556.28544  23487823.4844                   23487826.4304
        40.5004         25.7504
 -29920764.41048 -23378857.96948  20096393.6484                   20096392.7504
        49.0004         51.5004
  -8973562.59446  -6916229.28146  23482294.9774                   23482296.1454
        40.2504         37.5004
  12919269.86346  10075260.83243  25031551.9534                   25031550.6254
        38.2504         20.7504
  -6647580.66047  -5165017.77047  22218717.9774                   22218714.3674
        46.2504         42.0004
  -4113175.79346  -3141843.75445  24899950.9144                   24899953.1954
        39.7504         30.0004
 -25229106.64147 -19637347.39547  21610500.2194                   21610499.7234
        46.5004         45.0004
 -26052560.14147 -20138239.80946  21108179.7584                   21108177.3954
        47.5004         37.0004
 -13796989.82047 -14773518.88745  21979286.5474                   21979283.2034
        44.7504         32.2504
 25  8  8  0 15  0.0000000  0  9G01G03G09G28G31G06G26G04G16
  -2814300.66447  -2173529.46144  23499309.8594                   23499310.8914
        42.5004         27.0004
 -29940470.89148 -23394213.66848  20092643.8364                   20092642.5784
        49.0004         51.7504
  -9081650.99246  -7000453.85546  23461725.4304                   23461727.2344
        38.5004         37.0004
  12987694.27346  10128578.54343  25044571.4224                   25044571.2274
        37.5004         21.5004
  -6589416.87947  -5119695.36747  22229786.3834                   22229782.6134
        46.2504         42.2504
  -4181710.03546  -3195247.05144  24886908.9224                   24886910.8914
        40.7504         29.2504
 -25251186.57847 -19654552.52747  21606298.4844                   21606297.7974
        47.0004         45.0004
 -26121752.48447 -20192155.88346  21095013.1804                   21095010.6454
        47.0004         36.7504
 -13907180.48047 -14859381.62545  21958317.4614                   21958314.6214
        44.5004         32.0004
 25  8  8  0 15 30.0000000  0  9G01G03G09G28G31G06G26G04G16
  -2753813.70347  -2126396.95344  23510820.0164                   23510821.0824
        43.0004         26.5004
 -29959594.12547 -23409114.88348  20089005.0474                   20089003.4884
        47.0004         51.7504
  -9189699.43446  -7084647.27046  23441165.0704                   23441166.2894
        41.0004         37.0004
  13056111.06346  10181890.27343  25057591.0004                   25057591.0704
        37.5004         20.7504
  -6531040.82047  -5074207.55947  22240894.7814                   22240891.5124
        46.2504         42.0004
  -4249725.26246  -3248245.89544  24873966.2664                   24873968.6024
        40.7504         29.7504
 -25272634.51647 -19671265.18747  21602217.0394                   21602216.7304
        44.7504         45.0004
 -26190774.27048 -20245939.05146  21081878.4924                   21081876.4024
        48.0004         37.5004
 -14016949.54347 -14944915.86345  21937428.9534                   21937426.1954
        45.0004         32.5004
 25  8  8  0 16  0.0000000  0  9G01G03G09G28G31G06G26G04G16
  -2693203.12147  -2079168.16044  23522353.8054                   23522355.1024
        42.0004         24.5004
 -29978142.55948 -23423568.21148  20085475.2114                   20085473.8954
        49.2504         51.7504
  -9297716.42246  -7168816.18046  23420609.7814                   23420611.1134
        40.7504         36.2504
  13124509.98846  10235188.03943  25070606.4304                   25070606.3674
        36.0004         19.5004
  -6472463.60947  -5028563.02046  22252041.6644                   22252037.8754
        45.5004         41.5004
  -4317229.39146  -3300846.46144  24861120.5004                   24861123.0824
        38.2504         28.2504
 -25293459.32847 -19687492.29747  21598253.9844                   21598253.7034
        47.2504         45.2504
 -26259633.73047 -20299595.73046  21068774.8054                   21068772.7974
        47.5004         37.5004
 -14126302.47347 -15030125.83645  21916619.4304                   21916616.9064
        44.5004         33.5004
 25  8  8  0 16 30.0000000  0  9G01G03G09G28G31G06G26G04G16
  -2632463.47346  -2031838.77344  23533911.3754                   23533914.2074
        41.2504         26.7504
 -29996107.37148 -23437566.76248  20082056.6174                   20082055.3594
        49.2504         51.7504
  -9405692.97746  -7252953.59046  23400062.0554                   23400063.2464
        39.5004         36.0004
  13192898.00846  10288477.34043  25083621.4064                   25083620.1214
        37.7504         20.2504
  -6413679.13747  -4982756.97746  22263228.3134                   22263224.5084
        46.5004         41.7504
  -4384212.89846  -3353041.37944  24848374.0474                   24848376.4064
        39.0004         29.2504
 -25313652.64847 -19703227.33247  21594411.4454                   21594411.2464
        46.2504         45.2504
 -26328321.84047 -20353118.89846  21055703.9224                   21055701.5434
        47.2504         36.7504
 -14235227.60947 -15115002.44945  21895891.4694                   21895888.8984
        44.2504         32.5004
 25  8  8  0 17  0.0000000  0  9G01G03G09G28G31G06G26G04G16
  -2571602.66847  -1984415.02044  23545494.2894                   23545495.5784
        42.5004         26.0004
 -30013493.18748 -23451114.15248  20078748.3594                   20078747.0004
        48.2504         51.7504
  -9513633.53946  -7337062.95745  23379521.6804                   23379522.9844
        39.0004         35.0004
  13261268.84445  10341753.30143  25096631.4774                   25096631.2544
        34.7504         20.7504
  -6354694.53947  -4936794.97346  22274452.5864                   22274448.8054
        46.2504         41.5004
  -4450679.82846  -3404833.77744  24835726.6564                   24835728.3794
        39.5004         29.7504
 -25333219.55947 -19718474.25047  21590687.9774                   21590687.8444
        46.0004         45.5004
 -26396842.92247 -20406511.91046  21042664.8134                   21042662.4494
        47.7504         37.5004
 -14343726.84847 -15199547.20745  21875244.8674                   21875242.1054
        44.7504         32.7504
 25  8  8  0 17 30.0000000  0  9G01G03G09G28G31G06G26G04G16
  -2510623.77346  -1936899.25044  23557098.3984                   23557098.9844
        41.5004         24.5004
 -30030299.57448 -23464210.03948  20075550.0084                   20075548.7584
        49.0004         51.7504
  -9621537.66446  -7421143.93045  23358988.4614                   23358989.5004
        39.2504         35.5004
  13329621.14146  10395014.77343  25109639.4224                   25109638.6684
        36.0004         18.5004
  -6295512.30147  -4890678.98446  22285714.6254                   22285710.9924
        46.2504         41.0004
  -4516629.12146  -3456222.82045  24823176.2194                   24823178.4224
        39.0004         30.2504
 -25352160.18747 -19733233.16847  21587083.8674                   21587083.3014
        47.0004         45.2504
 -26465196.27747 -20459774.23046  21029657.6414                   21029655.0514
        47.7504         37.2504
 -14451796.39147 -15283757.14545  21854679.3444                   21854677.3714
        45.2504         32.7504
 25  8  8  0 18  0.0000000  0  9G01G03G09G28G31G06G26G04G16
  -2449522.52746  -1889288.07843  23568725.2584                   23568726.6804
        41.0004         22.7504
 -30046518.96548 -23476848.53148  20072463.4694                   20072462.3404
        48.7504         51.7504
  -9729397.53546  -7505190.42245  23338462.3674                   23338463.6684
        38.5004         35.7504
  13397960.94545  10448266.46943  25122643.6884                   25122642.5234
        35.5004         19.2504
  -6236127.45347  -4844405.11346  22297015.1954                   22297011.4734
        46.5004         41.5004
  -4582052.51646  -3507202.08645  24810725.9224                   24810728.8244
        39.7504         30.0004
 -25370467.36747 -19747498.49647  21583599.8444                   21583599.7274
        47.5004         45.2504
 -26533373.97347 -20512899.66046  21016683.6804                   21016681.1644
        47.0004         37.5004
 -14559425.75047 -15367624.09445  21834198.7504                   21834195.9024
        45.2504         33.7504
 25  8  8  0 18 30.0000000  0  9G01G03G09G28G31G06G26G04G16
  -2388311.14547  -1841591.13344  23580374.5164                   23580375.4264
        42.0004         26.2504
 -30062160.34847 -23489036.62148  20069487.3444                   20069485.5124
        47.5004         51.7504
  -9837221.88346  -7589209.23846  23317944.4064                   23317945.8834
        38.2504         36.0004
  13466277.46546  10501500.06343  25135643.5864                   25135643.4804
        38.0004         19.2504
  -6176551.39147  -4797982.24646  22308352.4064                   22308348.1684
        46.2504         41.2504
  -4646958.37946  -3557778.05944  24798375.4614                   24798377.7544
        38.5004         29.5004
 -25388150.61347 -19761277.63347  21580234.7194                   21580234.6804
        45.2504         45.0004
 -26601384.68747 -20565894.98846  21003741.6334                   21003739.2894
        47.2504         37.5004
 -14666621.32847 -15451153.03145  21813800.1254                   21813796.9654
        45.5004         33.7504
 25  8  8  0 19  0.0000000  0  9G01G03G09G28G31G06G26G04G16
  -2326988.24646  -1793807.27744  23592043.4384                   23592044.8914
        40.0004         25.0004
 -30077218.99648 -23500770.63748  20066621.6024                   20066620.4694
        49.0004         51.7504
  -9945005.77046  -7673196.53145  23297434.1884                   23297434.9654
        39.7504         35.7504
  13534573.82446  10554717.98043  25148639.8204                   25148640.2894
        36.7504         18.5004
  -6116782.09847  -4751408.80546  22319726.1884                   22319722.3284
        46.2504         40.7504
  -4711341.50046  -3607946.68445  24786123.2814                   24786126.0594
        38.2504         30.0004
 -25405205.69147 -19774567.28147  21576989.3054                   21576989.0514
        47.2504         44.7504
 -26669223.27047 -20618756.19146  20990832.3134                   20990830.1094
        46.7504         37.0004
 -14773375.04347 -15534337.65245  21793485.4384                   21793481.8554
        45.7504         33.7504
 25  8  8  0 19 30.0000000  0  9G01G03G09G28G31G06G26G04G16
  -2265556.41846  -1745938.57044  23603733.5784                   23603735.1334
        40.5004         26.0004
 -30091694.30548 -23512050.10248  20063866.8204                   20063865.7034
        49.0004         51.7504
 -10052748.34046  -7757151.64845  23276931.2274                   23276932.2034
        40.0004         35.5004
  13602849.33646  10607919.56643  25161632.4304                   25161632.4534
        38.2504         19.2504
  -6056821.03547  -4704685.92646  22331136.2034                   22331132.7974
        46.5004         41.2504
  -4775200.48846  -3657706.91444  24773971.2344                   24773973.4064
        38.7504         29.7504
 -25421632.48047 -19787367.36747  21573862.9774                   21573863.3364
        47.0004         44.5004
 -26736888.72747 -20671482.49646  20977956.2734                   20977953.6954
        47.5004         37.2504
 -14879683.33247 -15617175.18745  21773255.8754                   21773252.3634
        45.7504         33.2504
 25  8  8  0 20  0.0000000  0  9G01G03G09G28G31G06G26G04G16
  -2204023.39147  -1697990.96544  23615442.9924                   23615444.7194
        42.0004         27.0004
 -30105590.74248 -23522878.48848  20061222.6804                   20061221.6374
        49.5004         51.7504
 -10160453.73846  -7841077.80146  23256435.5784                   23256436.2384
        39.0004         36.5004
  13671097.68046  10661100.08643  25174620.6254                   25174619.3204
        38.7504         19.7504
  -5996675.76647  -4657819.53146  22342581.0634                   22342577.6724
        46.0004         40.5004
  -4838539.24246  -3707061.76645  24761918.7894                   24761920.6024
        38.2504         30.0004
 -25437435.94947 -19799681.74247  21570856.1334                   21570856.0944
        47.0004         44.7504
 -26804385.06247 -20724077.01246  20965111.8444                   20965109.3364
        47.5004         37.2504
 -14985547.56247 -15699666.71945  21753110.1414                   21753107.3674
        44.2504         33.0004
 25  8  8  0 20 30.0000000  0 10G01G03G09G28G31G06G26G07G04G16
  -2142394.66447  -1649968.82044  23627171.5314                   23627172.0944
        43.2504         27.0004
 -30118910.63348 -23533257.62948  20058688.0704                   20058686.8484
        49.2504         51.7504
 -10268123.97346  -7924976.57046  23235946.0314                   23235947.0634
        41.5004         37.0004
  13739315.21145  10714256.57442  25187600.3754                   25187601.2304
        35.5004         17.2504
  -5936350.92247  -4610813.19946  22354060.7734                   22354057.2384
        45.7504         40.7504
  -4901359.33646  -3756012.44545  24749964.6174                   24749966.9304
        38.2504         31.7504
 -25452618.91047 -19811512.60547  21567967.0004                   21567966.7234
        47.5004         44.5004
   1427587.29756   1155682.94153  25017812.8204                   25017818.0594
        37.2504         21.5004
 -26871714.10947 -20776541.17646  20952299.5084                   20952297.3444
        46.7504         37.7504
 -15090967.24647 -15781811.83245  21733049.3754                   21733046.2384
        45.7504         33.2504
 25  8  8  0 21  0.0000000  0 10G01G03G09G28G31G06G26G07G04G16
  -2080663.87546  -1601867.16844  23638918.3984                   23638919.9734
        40.5004         26.7504
 -30131644.46148 -23543180.09448  20056264.4614                   20056263.3484
        48.7504         51.7504
 -10375749.07446  -8008840.16446  23215465.8984                   23215466.4924
        40.0004         37.2504
  13807510.00846  10767395.22742  25200578.0394                   25200578.2274
        37.0004         17.7504
  -5875839.34847  -4563661.36346  22365575.9924                   22365572.6804
        44.7504         41.0004
  -4963650.64546  -3804551.10945  24738110.6174                   24738112.6454
        38.7504         31.7504
 -25467172.40647 -19822852.97747  21565197.2274                   21565196.9774
        47.0004         44.0004
   1314050.28546   1067212.93044  24996207.0704                   24996212.7854
        41.5004         28.7504
 -26938865.88747 -20828867.20746  20939521.0084                   20939518.7734
        47.0004         38.0004
 -15195929.82847 -15863600.76245  21713075.4774                   21713072.7424
        44.5004         33.5004
 25  8  8  0 21 30.0000000  0 10G01G03G09G28G31G06G26G07G04G16
  -2018847.64546  -1553698.88744  23650680.0944                   23650683.5044
        39.2504         26.5004
 -30143805.62948 -23552656.32448  20053950.7584                   20053949.0904
        49.0004         51.7504
 -10483342.23446  -8092678.87546  23194991.6024                   23194992.3554
        41.7504         38.0004
  13875666.99646  10820504.57842  25213549.2424                   25213547.9414
        39.0004         17.7504
  -5815156.87147  -4516376.35546  22377123.6884                   22377119.6174
        45.7504         40.5004
  -5025426.07846  -3852687.78545  24726355.5944                   24726356.6484
        37.7504         30.5004
 -25481110.32047 -19833713.68747  21562544.9534                   21562544.9734
        47.0004         44.5004
   1200663.91047    978860.28545  24974630.1644                   24974635.2154
        43.5004         34.0004
 -27005853.23447 -20881065.12546  20926773.9924                   20926771.4064
        47.0004         37.5004
 -15300445.27747 -15945041.29345  21693186.5394                   21693183.9694
        46.0004         34.2504
 25  8  8  0 22  0.0000000  0 10G01G03G09G28G31G06G26G07G04G16
  -1956939.39547  -1505458.96544  23662462.2974                   23662464.3404
        42.2504         26.0004
 -30155384.43748 -23561678.78148  20051747.0944                   20051745.6214
        49.0004         51.7504
 -10590893.21547  -8176484.71946  23174524.8594                   23174526.1414
        43.2504         38.5004
  13943794.70746  10873591.10543  25226512.6174                   25226511.3524
        37.7504         18.2504
  -5754296.30147  -4468952.57846  22388704.3984                   22388701.4264
        45.2504         41.0004
  -5086675.13746  -3900414.28145  24714699.5314                   24714702.1024
        37.5004         31.5004
 -25494423.49247 -19844087.58647  21560011.5704                   21560011.6644
        46.7504         44.2504
   1087438.61347    890633.15245  24953084.0394                   24953088.7774
        42.5004         33.5004
 -27072665.93047 -20933126.92246  20914059.6414                   20914057.3324
        47.5004         37.2504
 -15404501.01647 -16026123.59845  21673385.9924                   21673383.0044
        45.7504         34.0004
 25  8  8  0 22 30.0000000  0 10G01G03G09G28G31G06G26G07G04G16
  -1894946.74247  -1457153.23444  23674259.4064                   23674262.0234
        43.0004         27.7504
 -30166385.53148 -23570251.05948  20049653.8754                   20049652.5944
        48.7504         51.5004
 -10698406.23847  -8260260.99646  23154065.8674                   23154067.1764
        43.0004         38.5004
  14011887.08246  10926650.00842  25239469.4384                   25239469.3094
        38.2504         17.7504
  -5693264.45347  -4421395.34446  22400318.9774                   22400315.2934
        45.7504         40.5004
  -5147401.93746  -3947733.82045  24703143.9064                   24703146.3794
        38.5004         30.2504
 -25507117.03947 -19853978.65247  21557596.4454                   21557596.0594
        46.7504         44.2504
    974370.29746    802528.36345  24931567.6414                   24931572.5864
        39.0004         30.7504
 -27139307.97347 -20985055.76246  20901378.0394                   20901375.3484
        47.2504         37.2504
 -15508098.63347 -16106848.93445  21653671.3364                   21653668.1054
        45.2504         33.5004
 25  8  8  0 23  0.0000000  0 10G01G03G09G28G31G06G26G07G04G16
  -1832870.80947  -1408782.64544  23686073.3524                   23686074.0234
        42.0004         26.7504
 -30176806.94148 -23578371.64548  20047670.9454                   20047669.7154
        48.5004         51.5004
 -10805878.82847  -8344005.76646  23133615.0554                   23133615.6524
        43.7504         39.0004
  14079944.62546  10979681.82042  25252421.1094                   25252419.9104
        39.5004         17.7504
  -5632061.28547  -4373704.60246  22411965.2034                   22411961.6174
        45.7504         40.5004
  -5207603.81246  -3994644.34045  24691688.6414                   24691690.3594
        38.7504         30.5004
 -25519189.57047 -19863385.81647  21555298.7584                   21555298.6844
        47.2504         44.5004
    861461.84446    714548.13345  24910081.4774                   24910086.1374
        39.0004         32.0004
 -27205776.80547 -21036849.62946  20888729.4144                   20888726.7234
        46.7504         37.2504
 -15611233.18447 -16187213.43745  21634045.9844                   21634042.5314
        45.7504         33.2504
 25  8  8  0 23 30.0000000  0 10G01G03G09G28G31G06G26G07G04G16
  -1770714.96947  -1360349.76244  23697900.5394                   23697902.8754
        44.2504         28.5004
 -30186648.89548 -23586040.69948  20045797.8914                   20045796.5864
        48.7504         51.5004
 -10913310.73447  -8427718.84846  23113170.4694                   23113171.5354
        43.7504         40.0004
  14147966.00446  11032685.46142  25265365.7034                   25265364.3204
        39.7504         17.2504
  -5570690.01247  -4325882.87546  22423644.2584                   22423640.6914
        45.0004         40.5004
  -5267280.26646  -4041145.43445  24680331.5944                   24680334.0514
        37.7504         32.0004
 -25530641.81247 -19872309.64147  21553119.4304                   21553119.1804
        47.0004         44.0004
    748713.87546    626692.93045  24888625.9224                   24888630.6804
        40.0004         32.0004
 -27272071.97347 -21088508.17246  20876113.9064                   20876111.3364
        46.7504         37.5004
 -15713901.55147 -16267214.67245  21614507.9384                   21614505.1954
        45.0004         33.7504
 25  8  8  0 24  0.0000000  0 10G01G03G09G28G31G06G26G07G04G16
  -1708478.08647  -1311853.71544  23709743.2974                   23709746.0984
        42.7504         28.5004
 -30195907.30947 -23593255.05548  20044035.7274                   20044035.0864
        47.7504         51.5004
 -11020697.28947  -8511396.58646  23092736.1884                   23092736.3594
        44.0004         40.0004
  14215953.88746  11085663.02342  25278303.1564                   25278302.0864
        40.0004         17.2504
  -5509148.64847  -4277928.61346  22435354.8834                   22435351.8954
        45.7504         40.5004
  -5326426.64846  -4087233.47345  24669076.1644                   24669078.7464
        37.7504         31.0004
 -25541470.21547 -19880747.34447  21551059.0864                   21551058.5864
        45.2504         44.0004
    636131.06646    538966.47345  24867201.0234                   24867206.0634
        37.7504         30.5004
 -27338188.72747 -21140027.68746  20863532.4064                   20863529.6804
        46.0004         37.0004
 -15816096.87947 -16346847.30545  21595060.8984                   21595058.1054
        45.7504         33.5004
 25  8  8  0 24 30.0000000  0 10G01G03G09G28G31G06G26G07G04G16
  -1646160.71146  -1263294.96544  23721601.7034                   23721604.8754
        40.5004         27.2504
 -30204579.86347 -23600012.89548  20042385.5004                   20042384.3244
        47.2504         51.7504
 -11128035.60547  -8595036.73046  23072310.3204                   23072311.0044
        44.0004         39.7504
  14283909.40246  11138615.32442  25291233.8914                   25291234.2274
        39.5004         17.2504
  -5447436.82447  -4229841.52746  22447098.3594                   22447095.1374
        45.0004         40.5004
  -5385040.02046  -4132906.20745  24657922.7034                   24657924.6884
        37.5004         32.2504
 -25551672.99647 -19888697.56247  21549117.3134                   21549117.0234
        44.5004         44.0004
    523716.82046    451371.34845  24845809.0784                   24845814.7114
        39.0004         30.7504
 -27404124.04747 -21191405.82446  20850985.0314                   20850982.8594
        46.0004         37.7504
 -15917813.10247 -16426106.61345  21575705.3054                   21575702.0514
        46.2504         34.0004
 25  8  8  0 25  0.0000000  0 10G01G03G09G28G31G06G26G07G04G16
  -1583772.55147  -1214681.10944  23733475.0234                   23733477.0274
        43.2504         27.0004
 -30212673.21147 -23606319.40648  20040845.6884                   20040844.2504
        47.7504         51.5004
 -11235331.73047  -8678644.02046  23051892.5314                   23051892.6844
        44.0004         39.2504
  14351824.69946  11191536.37542  25304158.0234                   25304158.0004
        39.5004         16.7504
  -5385563.37547  -4181628.51246  22458872.1884                   22458869.0044
        45.5004         41.0004
  -5443126.32846  -4178168.21545  24646869.4224                   24646871.2424
        38.7504         31.0004
 -25561257.34847 -19896165.88347  21547293.3134                   21547293.2544
        45.7504         44.0004
    411465.13345    363902.89544  24824447.9774                   24824453.2114
        33.5004         25.0004
 -27469883.82847 -21242647.18446  20838471.6724                   20838469.1294
        45.5004         37.7504
 -16019054.27747 -16504995.75845  21556439.5864                   21556436.5314
        45.5004         33.7504
 25  8  8  0 25 30.0000000  0 10G01G03G09G28G31G06G26G07G04G16
  -1521311.19946  -1166010.19544  23745360.1954                   23745364.0904
        40.0004         26.5004
 -30220181.97748 -23612170.39548  20039416.5084                   20039415.4264
        49.2504         51.5004
 -11342579.66847  -8762213.73846  23031483.2034                   23031484.2194
        43.7504         40.0004
  14419704.05546  11244429.34842  25317075.3364                   25317074.4884
        39.0004         14.7504
  -5323525.14147  -4133287.08246  22470678.0164                   22470674.5784
        45.0004         40.7504
  -5500679.57046  -4223014.84445  24635917.0084                   24635918.7854
        38.2504         32.2504
 -25570218.46147 -19903148.56247  21545588.4534                   21545587.8834
        45.5004         44.2504
    299382.14145    276565.86744  24803119.4694                   24803124.0634
        31.5004         26.5004
 -27535461.96947 -21293746.99646  20825992.6724                   20825989.8204
        46.2504         37.5004
 -16119811.76647 -16583508.01645  21537266.1644                   21537263.0474
        45.2504         34.0004
 25  8  8  0 26  0.0000000  0 10G01G03G09G28G31G06G26G07G04G16
  -1458783.74646  -1117287.78144  23757260.0554                   23757262.3874
        40.0004         27.0004
 -30227110.57448 -23617569.30548  20038098.1804                   20038097.0164
        48.5004         51.2504
 -11449783.12147  -8845748.80546  23011083.4144                   23011083.8984
        43.0004         39.7504
  14487541.96546  11297289.94942  25329984.5234                   25329983.8134
        38.7504         16.7504
  -5261328.83247  -4084822.46946  22482513.7114                   22482510.1174
        46.0004         41.0004
  -5557703.45346  -4267449.00445  24625065.6414                   24625067.8284
        38.0004         31.5004
 -25578561.27747 -19909649.44547  21544000.6254                   21544000.1684
        45.5004         44.0004
    187464.07855    189357.46154  24781822.0864                   24781826.7274
        34.2504         25.7504
 -27600862.04347 -21344708.06646  20813547.0944                   20813544.5744
        45.7504         37.7504
 -16220086.78547 -16661644.31245  21518184.1174                   21518180.9964
        45.5004         34.5004
 25  8  8  0 26 30.0000000  0 10G01G03G09G28G31G06G26G07G04G16
  -1396194.42646  -1068517.19144  23769169.9694                   23769173.3794
        39.2504         25.0004
 -30233460.12148 -23622517.01248  20036889.5784                   20036888.8484
        49.0004         51.2504
 -11556942.57847  -8929249.57446  22990690.9304                   22990692.0164
        43.2504         39.7504
  14555336.05946  11350116.52743  25342884.2504                   25342885.1294
        37.7504         18.2504
  -5198977.50847  -4036237.06646  22494378.2664                   22494375.4104
        45.2504         40.7504
  -5614198.55546  -4311471.12145  24614314.7894                   24614317.2504
        37.5004         31.0004
 -25586287.42647 -19915669.81247  21542530.4064                   21542529.9454
        47.0004         44.0004
     75711.05145    102277.61744  24760554.5164                   24760560.4384
        35.0004         26.5004
 -27666084.30147 -21395530.57846  20801135.5164                   20801133.1484
        46.0004         38.0004
 -16319877.36747 -16739403.12945  21499194.4924                   21499191.2664
        44.7504         34.0004
 25  8  8  0 27  0.0000000  0 10G01G03G09G28G31G06G26G07G04G16
  -1333548.14146  -1019702.07844  23781090.8054                   23781093.7034
        40.0004         26.7504
 -30239232.73048 -23627015.15648  20035791.5944                   20035790.0004
        48.0004         51.5004
 -11664059.36747  -9012717.09446  22970307.2034                   22970307.9774
        43.5004         40.0004
  14623083.17646  11402906.50042  25355777.3914                   25355777.0554
        37.5004         16.7504
  -5136475.37947  -3987534.15646  22506272.8364                   22506269.1914
        44.0004         40.2504
  -5670166.37546  -4355082.37545  24603664.9614                   24603666.6844
        37.0004         31.5004
 -25593399.64847 -19921211.79747  21541177.0164                   21541176.4774
        46.5004         44.2504
    -35878.27746     15325.30144  24739320.4614                   24739325.0274
        37.2504         29.7504
 -27731130.10247 -21446215.60246  20788757.8754                   20788755.3134
        46.0004         38.0004
 -16419182.40247 -16816783.59845  21480297.1094                   21480294.2624
        46.0004         34.2504
 25  8  8  0 27 30.0000000  0 10G01G03G09G28G31G06G26G07G04G16
  -1270839.12146   -970838.41843  23793025.2974                   23793029.6604
        40.5004         22.7504
 -30244420.00847 -23631057.19548  20034804.2424                   20034803.3164
        47.5004         51.5004
 -11771124.37547  -9096144.27046  22949934.0084                   22949934.4494
        43.5004         39.7504
  14690790.71146  11455665.58243  25368661.2114                   25368661.4454
        38.0004         18.2504
  -5073815.98047  -3938708.69546  22518196.5704                   22518193.2664
        44.5004         40.0004
  -5725597.68446  -4398275.57845  24593116.7974                   24593118.7344
        37.2504         31.0004
 -25599890.08247 -19926269.28147  21539942.2344                   21539941.7504
        44.2504         44.2504
   -147294.64546    -71492.26244  24718118.9144                   24718122.9144
        38.0004         29.5004
 -27795990.09447 -21496755.83246  20776415.2194                   20776413.2664
        46.5004         38.0004
 -16517990.23847 -16893776.63745  21461495.0164                   21461491.7704
        45.7504         34.5004
 25  8  8  0 28  0.0000000  0 10G01G03G09G28G31G06G26G07G04G16
  -1208065.35245   -921923.96143  23804969.7664                   23804973.9734
        35.2504         19.7504
 -30249017.05148 -23634639.31248  20033929.5084                   20033927.9384
        48.5004         51.5004
 -11878131.85547  -9179526.61346  22929571.1174                   22929571.6644
        43.0004         39.7504
  14758462.65646  11508396.95343  25381539.1564                   25381538.8484
        38.5004         19.0004
  -5010996.25047  -3889758.30946  22530150.0314                   22530147.0664
        44.5004         40.0004
  -5780486.88746  -4441046.34845  24582671.4924                   24582673.3054
        38.0004         31.7504
 -25605754.28547 -19930838.79347  21538825.8204                   21538825.8134
        45.7504         44.5004
   -258532.13346   -158170.36744  24696949.5084                   24696954.7934
        37.5004         27.5004
 -27860658.43747 -21547146.72746  20764109.4924                   20764107.2624
        46.0004         38.0004
 -16616292.83247 -16970375.99245  21442788.7664                   21442784.9654
        46.2504         34.5004
 25  8  8  0 28 30.0000000  0 10G01G03G09G28G31G06G26G07G04G16
  -1145243.83646   -872972.37543  23816925.5554                   23816928.6174
        38.7504         21.5004
 -30253037.91048 -23637772.45748  20033164.8914                   20033163.5474
        49.5004         51.5004
 -11985095.06647  -9262874.46546  22909216.4534                   22909216.9534
        43.5004         39.7504
  14826083.91846  11561088.80143  25394406.9534                   25394406.8204
        38.2504         20.2504
  -4948032.25047  -3840695.50046  22542131.7974                   22542128.8954
        44.5004         40.0004
  -5834847.56646  -4483405.29345  24572326.5234                   24572328.7734
        37.5004         30.7504
 -25611006.96547 -19934931.78947  21537826.6254                   21537826.5634
        46.5004         44.2504
   -369603.92646   -244719.44544  24675813.3754                   24675818.0124
        38.7504         29.2504
 -27925148.25447 -21597398.50846  20751837.6954                   20751834.7304
        46.2504         37.2504
 -16714100.99247 -17046590.06245  21424176.5314                   21424172.8834
        46.0004         33.5004
 25  8  8  0 29  0.0000000  0 10G01G03G09G28G31G06G26G07G04G16
  -1082368.87946   -823979.19944  23828891.2034                   23828893.1414
        41.7504         25.7504
 -30256474.51647 -23640450.34048  20032510.3134                   20032509.3244
        47.5004         51.2504
 -12092005.05547  -9346180.84046  22888871.5864                   22888872.1334
        43.0004         39.2504
  14893661.66846  11613746.75443  25407267.0944                   25407266.1454
        36.7504         18.5004
  -4884918.12547  -3791515.70746  22554142.0634                   22554139.2234
        44.5004         39.5004
  -5888670.87946  -4525345.51245  24562084.7114                   24562086.7624
        38.5004         31.2504
 -25615640.60247 -19938542.41847  21536944.9304                   21536944.5744
        45.7504         44.2504
   -480501.14146   -331132.45745  24654710.2664                   24654714.6524
        40.5004         30.0004
 -27989450.50047 -21647504.13346  20739601.1804                   20739598.5004
        46.0004         37.5004
 -16811403.40247 -17122410.04745  21405660.1094                   21405656.9064
        45.5004         34.7504
 25  8  8  0 29 30.0000000  0  9G01G03G09G31G06G26G07G04G16
  -1019450.59045   -774952.34043  23840860.8594                   23840867.7624
        35.2504         20.5004
 -30259334.13348 -23642678.62148  20031966.0634                   20031964.7664
        48.2504         51.2504
 -12198868.22747  -9429450.73446  22868536.7424                   22868536.6954
        42.7504         39.2504
  -4821662.59847  -3742225.72746  22566179.7974                   22566176.4104
        44.5004         39.5004
  -5941963.45346  -4566872.17245  24551943.5314                   24551945.8014
        37.2504         31.0004
 -25619663.03147 -19941676.77347  21536179.1884                   21536179.1764
        45.5004         44.0004
   -591229.88347   -417414.22345  24633639.6804                   24633644.3244
        42.0004         32.2504
 -28053571.39147 -21697468.44946  20727399.2344                   20727397.0664
        45.5004         37.5004
 -16908204.07847 -17197839.07445  21387239.9614                   21387236.2734
        45.7504         35.5004
 25  8  8  0 30  0.0000000  0  9G01G03G09G31G06G26G07G04G16
   -956481.07846   -725885.40243  23852846.2584                   23852850.9414
        40.0004         22.7504
 -30261605.94547 -23644448.86748  20031533.9224                   20031532.6054
        47.0004         51.2504
 -12305672.90247  -9512675.04746  22848212.1804                   22848212.3634
        43.0004         40.0004
  -4758257.02047  -3692818.82846  22578244.9924                   22578242.3204
        43.7504         39.0004
  -5994713.91846  -4607976.39545  24541904.9844                   24541907.2034
        36.7504         30.7504
 -25623063.97347 -19944326.86347  21535532.4534                   21535531.9384
        44.5004         44.0004
   -701778.68447   -503555.74644  24612602.3984                   24612606.6134
        42.0004         28.0004
 -28117499.18447 -21747282.30546  20715234.0314                   20715231.1254
        45.5004         37.5004
 -17004489.28947 -17272866.44145  21368916.7734                   21368913.5354
        45.7504         35.0004
 25  8  8  0 30 30.0000000  0  9G01G03G09G31G06G26G07G04G16
   -893449.72746   -676770.37143  23864840.8054                   23864844.7814
        41.5004         21.2504
 -30263277.20347 -23645751.16048  20031216.2664                   20031214.8984
        47.2504         51.2504
 -12412405.34447  -9595843.07446  22827901.3284                   22827902.0634
        43.0004         40.0004
  -4694690.54347  -3643286.55946  22590341.8834                   22590338.1604
        45.0004         39.5004
  -6046908.73046  -4648647.65245  24531973.3754                   24531974.6134
        38.0004         31.0004
 -25625831.27747 -19946483.21147  21535005.3754                   21535005.3834
        44.5004         44.0004
   -812133.27046   -589546.03544  24591602.1414                   24591605.4384
        41.7504         28.5004
 -28181219.94947 -21796934.82846  20703108.4774                   20703106.0744
        46.0004         38.0004
 -17100242.86747 -17347479.55545  21350695.6884                   21350692.2664
        46.0004         35.0004
 25  8  8  0 31  0.0000000  0  9G01G03G09G31G06G26G07G04G16
   -830349.70345   -627601.75443  23876846.3834                   23876853.1844
        35.0004         19.5004
 -30264338.18747 -23646577.91448  20031014.0704                   20031013.0234
        47.7504         51.2504
 -12519054.82047  -9678946.44946  22807606.9534                   22807607.5164
        43.0004         39.5004
  -4630955.16447  -3593622.67646  22602469.4144                   22602466.7934
        44.5004         39.0004
  -6098537.59046  -4688877.91845  24522147.5164                   24522150.6604
        37.0004         31.0004
 -25627955.73847 -19948138.62947  21534600.8674                   21534600.8094
        45.7504         44.0004
   -922283.40647   -675376.98844  24570640.9064                   24570644.2974
        42.0004         29.5004
 -28244722.93447 -21846417.64846  20691024.2274                   20691021.8014
        45.5004         38.0004
 -17195451.84447 -17421668.29345  21332577.8054                   21332574.1644
        45.2504         34.5004
 25  8  8  0 31 30.0000000  0  9G01G03G09G31G06G26G07G04G16
   -767182.09047   -578380.65243  23888869.6414                   23888873.4924
        42.0004         22.2504
 -30264787.33648 -23646927.91048  20030928.6334                   20030927.2814
        48.0004         51.5004
 -12625618.87547  -9761983.27346  22787328.1804                   22787328.5084
        42.7504         39.5004
  -4567051.00447  -3543827.28146  22614630.6564                   22614627.6374
        44.2504         39.2504
  -6149598.24646  -4728665.41845  24512431.1644                   24512433.3914
        37.5004         31.0004
 -25629436.44547 -19949292.43047  21534319.5234                   21534319.1884
        46.5004         44.2504
  -1032226.32846   -761046.48844  24549719.7194                   24549722.2934
        41.7504         28.0004
 -28308005.40247 -21895728.65646  20678982.0394                   20678979.7114
        44.7504         38.0004
 -17290111.46547 -17495428.96145  21314564.7504                   21314561.2704
        45.5004         35.5004
 25  8  8  0 32  0.0000000  0  9G01G03G09G31G06G26G07G04G16
   -703956.63746   -529114.32043  23900901.0704                   23900904.0314
        40.7504         22.2504
 -30264632.11748 -23646806.96548  20030958.1954                   20030957.1374
        48.0004         51.2504
 -12732103.80947  -9844958.43746  22767064.6024                   22767064.5554
        42.0004         38.7504
  -4502987.19947  -3493907.47346  22626821.5234                   22626818.2734
        44.2504         38.5004
  -6200097.38346  -4768015.38345  24502821.9304                   24502824.2424
        37.0004         30.2504
 -25630281.31647 -19949950.76647  21534158.8364                   21534158.2544
        45.0004         44.0004
  -1141968.51247   -846559.50845  24528836.1564                   24528839.7384
        42.0004         30.0004
 -28371073.63747 -21944872.71546  20666980.2894                   20666977.9884
        45.2504         38.2504
 -17384225.89847 -17568764.81645  21296654.8284                   21296651.7304
        45.7504         34.7504
 25  8  8  0 32 30.0000000  0  9G01G03G09G31G06G26G07G04G16
   -640683.89546   -479811.23844  23912941.8054                   23912946.1524
        41.2504         24.5004
 -30263880.13747 -23646221.02048  20031101.5004                   20031099.9804
        47.2504         51.2504
 -12838516.24247  -9927877.11746  22746815.0554                   22746815.1334
        42.5004         39.0004
  -4438772.99247  -3443870.48046  22639041.3834                   22639037.8404
        42.5004         39.5004
  -6250042.12946  -4806933.33645  24493317.7344                   24493319.8714
        36.5004         30.5004
 -25630498.69147 -19950120.15247  21534117.3524                   21534117.0554
        44.5004         44.0004
  -1251516.47746   -931921.25444  24507989.2814                   24507992.6524
        40.0004         25.2504
 -28433934.19547 -21993854.95346  20655018.4774                   20655016.1684
        45.0004         37.7504
 -17477799.48447 -17641679.22345  21278848.7814                   21278845.4064
        46.2504         35.0004
 25  8  8  0 33  0.0000000  0  9G01G03G09G31G06G26G07G04G16
   -577363.75047   -430471.10944  23924991.7584                   23924994.8874
        42.0004         26.5004
 -30262529.28147 -23645168.41048  20031358.0394                   20031357.1524
        47.2504         51.2504
 -12944852.93447 -10010736.77346  22726579.9064                   22726579.8954
        43.0004         39.5004
  -4374408.00047  -3393715.98846  22651289.5234                   22651286.6134
        43.2504         38.7504
  -6299429.70346  -4845417.14145  24483918.9454                   24483921.7704
        36.0004         30.5004
 -25630086.96547 -19949799.32847  21534195.7734                   21534195.2424
        44.5004         43.7504
  -1360866.89546  -1017129.04344  24487180.3984                   24487182.9184
        41.5004         28.5004
 -28496583.62147 -22042672.67646  20643096.8444                   20643094.2234
        46.0004         37.7504
 -17570826.62947 -17714167.83245  21261146.1644                   21261142.6524
        45.5004         35.2504
 25  8  8  0 33 30.0000000  0  9G01G03G09G31G06G26G07G04G16
   -514003.32046   -381099.76243  23937047.7194                   23937054.0904
        38.0004         23.5004
 -30260583.82448 -23643652.48448  20031728.6484                   20031727.3594
        48.7504         51.2504
 -13051117.00847 -10093539.85546  22706357.9384                   22706358.3554
        42.7504         39.7504
  -4309898.14147  -3343448.60246  22663565.4534                   22663562.5004
        43.7504         39.2504
  -6348263.55145  -4883469.48845  24474627.3204                   24474629.0664
        35.5004         30.5004
 -25629050.95747 -19948992.05147  21534393.1334                   21534392.6804
        44.7504         43.7504
  -1470023.17646  -1102185.56245  24466409.0084                   24466412.2814
        41.2504         30.0004
 -28559025.00447 -22091328.27746  20631214.5084                   20631211.7664
        46.5004         38.0004
 -17663308.77047 -17786231.78145  21243547.8444                   21243543.7344
        45.5004         34.7504
 25  8  8  0 34  0.0000000  0  9G01G03G09G31G06G26G07G04G16
   -450613.05147   -331704.81643  23949111.5084                   23949116.9534
        42.5004         20.5004
 -30258052.02348 -23641679.66048  20032210.2894                   20032209.3484
        48.2504         51.0004
 -13157315.63747 -10176291.94546  22686149.0554                   22686149.6094
        43.7504         40.0004
  -4245253.20747  -3293075.96946  22675866.8364                   22675863.8484
        42.5004         38.5004
  -6396551.35945  -4921096.34445  24465438.5004                   24465439.9654
        35.5004         30.5004
 -25627399.52347 -19947705.22347  21534706.7734                   21534707.1414
        45.2504         43.7504
  -1578992.21547  -1187096.13744  24445671.7034                   24445675.1524
        42.5004         27.7504
 -28621265.25447 -22139827.16046  20619370.4694                   20619368.1564
        46.5004         38.0004
 -17755250.70747 -17857874.77345  21226051.6724                   21226047.9304
        46.2504         35.2504
 25  8  8  0 34 30.0000000  0  9G01G03G09G31G06G26G07G04G16
   -387185.85946   -282281.53944  23961181.7194                   23961186.2274
        40.0004         26.0004
 -30254924.37948 -23639242.54348  20032805.9224                   20032804.4064
        48.5004         51.0004
 -13263438.03147 -10258984.62946  22665954.4774                   22665954.9804
        43.5004         39.5004
  -4180465.40247  -3242591.99246  22688195.5704                   22688192.5434
        43.0004         38.5004
  -6444283.02745  -4958289.82445  24456355.5314                   24456356.9494
        34.5004         30.0004
 -25625123.75847 -19945931.89547  21535140.3204                   21535139.8054
        44.5004         43.7504
  -1687763.75846  -1271852.90645  24424973.5394                   24424975.8554
        41.0004         30.2504
 -28683293.66047 -22188160.95746  20607566.8524                   20607564.4774
        46.5004         38.2504
 -17846639.68047 -17929086.90645  21208661.0784                   21208656.9884
        46.5004         35.5004
 25  8  8  0 35  0.0000000  0  9G01G03G09G31G06G26G07G04G16
   -323726.29747   -232832.69943  23973258.1884                   23973260.8364
        43.5004         22.5004
 -30251202.81647 -23636342.63348  20033513.7344                   20033512.3874
        47.0004         51.0004
 -13369484.95347 -10341618.50846  22645774.8834                   22645774.7344
        44.2504         39.7504
  -4115538.12147  -3191999.35246  22700551.0004                   22700547.5204
        43.7504         38.5004
  -6491459.85546  -4995050.98845  24447377.2114                   24447379.5314
        36.5004         30.0004
 -25622226.20347 -19943674.05147  21535691.3524                   21535691.2854
        44.0004         43.5004
  -1796338.42646  -1356456.21944  24404311.8984                   24404314.2114
        41.0004         29.7504
 -28745110.77747 -22236330.12146  20595803.6484                   20595800.7274
        46.7504         38.0004
 -17937474.15247 -17999866.93745  21191375.2114                   21191372.0824
        46.0004         35.2504
 25  8  8  0 35 30.0000000  0  9G01G03G09G31G06G26G07G04G16
   -260240.70246   -183363.78744  23985338.7504                   23985343.6884
        38.2504         26.7504
 -30246891.56248 -23632983.23048  20034333.8984                   20034332.8404
        48.2504         51.2504
 -13475459.32047 -10424195.84846  22625608.1484                   22625608.1994
        44.0004         39.7504
  -4050477.07847  -3141302.47346  22712932.2274                   22712929.2274
        44.5004         38.7504
  -6538085.25845  -5031382.42645  24438503.6334                   24438507.2464
        35.2504         31.0004
 -25618711.60547 -19940935.39847  21536360.3834                   21536360.1374
        44.5004         43.5004
  -1904719.18446  -1440908.42644  24383687.9924                   24383690.4534
        40.0004         29.7504
 -28806719.44147 -22284336.85546  20584080.0554                   20584076.9344
        46.5004         38.0004
 -18027755.21547 -18070215.74645  21174195.6804                   21174191.8054
        46.2504         35.0004
 25  8  8  0 36  0.0000000  0  9G01G03G09G31G06G26G07G04G16
   -196733.77347   -133878.22345  23997425.8594                   23997429.8444
        42.5004         30.2504
 -30241992.95748 -23629166.14548  20035266.2194                   20035264.7274
        49.0004         51.2504
 -13581362.24247 -10506717.51646  22605455.3284                   22605455.8014
        44.5004         40.2504
  -3985285.91447  -3090504.20346  22725337.5314                   22725334.4964
        44.5004         39.0004
  -6584160.91045  -5067285.53944  24429736.6174                   24429739.1134
        35.2504         29.7504
 -25614582.91847 -19937718.23847  21537145.8834                   21537145.5784
        45.5004         43.5004
  -2012907.26246  -1525210.47744  24363099.9384                   24363102.1644
        39.0004         28.0004
 -28868120.60547 -22332181.89146  20572395.4924                   20572393.1294
        46.5004         38.2504
 -18117482.06247 -18140132.70345  21157120.6644                   21157117.3164
        45.2504         35.5004
 25  8  8  0 36 30.0000000  0  9G01G03G09G31G06G26G07G04G16
   -133200.01646    -84371.77743  24009514.5004                   24009519.1294
        37.5004         21.5004
 -30236499.30548 -23624885.38748  20036311.7894                   20036310.4734
        48.7504         51.2504
 -13687184.64547 -10589176.44146  22585318.5314                   22585318.0354
        44.5004         40.2504
  -3919958.34047  -3039599.63746  22737768.8054                   22737765.9534
        45.0004         38.5004
  -6629678.53145  -5102753.80545  24421075.4694                   24421077.5904
        35.7504         30.0004
 -25609833.03947 -19934017.03147  21538050.2974                   21538049.3714
        45.0004         43.5004
  -2120893.82446  -1609355.53544  24342550.9384                   24342553.2274
        38.2504         29.7504
 -28929305.20347 -22379858.17646  20560752.7274                   20560749.9064
        46.5004         38.5004
 -18206643.53147 -18209609.10545  21140153.7114                   21140149.9384
        46.0004         35.2504
 25  8  8  0 37  0.0000000  0  9G01G03G09G31G06G26G07G04G16
    -69652.54746    -34854.53944  24021606.8284                   24021612.7344
        37.2504         26.0004
 -30230421.28547 -23620149.27348  20037468.4454                   20037467.1914
        47.2504         51.2504
 -13792935.91047 -10671579.93046  22565194.2504                   22565194.5124
        44.5004         40.2504
  -3854506.69147  -2988598.39146  22750223.7424                   22750220.7504
        44.5004         38.0004
  -6674648.06245  -5137794.98444  24412517.9064                   24412519.8714
        33.0004         29.0004
 -25604473.22347 -19929840.54747  21539070.0784                   21539069.5664
        44.5004         43.7504
  -2228688.39546  -1693350.89544  24322037.1334                   24322040.0124
        36.2504         28.0004
 -28990282.43747 -22427372.87546  20549148.8134                   20549146.1764
        46.2504         38.7504
 -18295246.77347 -18278650.53545  21123292.9534                   21123289.7464
        46.0004         35.5004
 25  8  8  0 37 30.0000000  0  9G01G03G09G31G06G26G07G04G16
     -6095.17646     14670.32043  24033702.0314                   24033706.4694
        38.2504         23.0004
 -30223760.66048 -23614959.18748  20038735.9694                   20038734.5434
        49.0004         51.2504
 -13898616.41447 -10753928.28946  22545083.9844                   22545083.6954
        44.2504         40.7504
  -3788934.16047  -2937502.95746  22762702.1564                   22762698.8594
        44.5004         38.2504
  -6719070.74245  -5172410.06645  24404064.3054                   24404066.7544
        35.7504         30.0004
 -25598505.78547 -19925190.58247  21540205.0394                   21540204.7384
        45.0004         43.5004
  -2336291.41845  -1777197.08244  24301560.3524                   24301564.1174
        35.0004         28.0004
 -29051052.56247 -22474726.18446  20537584.7734                   20537581.9344
        46.2504         38.0004
 -18383290.16447 -18347255.71545  21106538.9844                   21106535.4024
        45.5004         35.7504
 25  8  8  0 38  0.0000000  0  9G01G03G09G31G06G26G07G04G16
     57471.27746     64202.32044  24045797.5704                   24045803.5354
        38.0004         24.5004
 -30216515.95348 -23609313.97748  20040114.7274                   20040113.5354
        48.2504         51.2504
 -14004223.21947 -10836219.22746  22524987.5234                   22524987.8634
        44.5004         40.2504
  -3723240.14547  -2886312.86346  22775202.8594                   22775199.7034
        42.7504         37.7504
  -6762944.41845  -5206597.34845  24395715.8134                   24395717.9774
        35.2504         31.0004
 -25591929.93447 -19920066.53547  21541456.9454                   21541456.8164
        45.5004         43.5004
  -2443700.23446  -1860891.90245  24281121.0004                   24281124.2424
        37.0004         30.0004
 -29111612.65247 -22521915.83246  20526060.3594                   20526057.9734
        46.7504         38.5004
 -18470769.73047 -18415421.55145  21089891.9924                   21089888.8914
        46.5004         35.7504
 25  8  8  0 38 30.0000000  0  9G01G03G09G31G06G26G07G04G16
    121042.98046    113738.33243  24057896.1414                   24057901.6764
        39.0004         23.5004
 -30208688.87148 -23603214.97348  20041603.9694                   20041602.9064
        49.0004         51.0004
 -14109756.68447 -10918453.00846  22504905.1484                   22504905.1134
        44.0004         40.5004
  -3657427.87547  -2835030.63346  22787726.8984                   22787723.2814
        43.2504         38.5004
  -6806270.00045  -5240357.57045  24387471.5784                   24387473.3794
        35.5004         30.2504
 -25584747.88347 -19914470.12547  21542823.4844                   21542823.1054
        46.2504         43.5004
  -2550915.21546  -1944435.72345  24260719.0234                   24260721.3284
        39.0004         31.2504
 -29171962.85247 -22568941.93446  20514576.3594                   20514573.7854
        46.7504         38.2504
 -18557683.45347 -18483146.46946  21073352.7584                   21073349.6254
        46.5004         36.2504
 25  8  8  0 39  0.0000000  0  9G01G03G09G31G06G26G07G04G16
    184618.28546    163277.23843  24069993.9304                   24069999.1524
        36.0004         21.0004
 -30200278.88748 -23596661.76248  20043204.2034                   20043203.2704
        49.5004         51.0004
 -14215214.78547 -11000628.06246  22484837.0314                   22484836.9304
        44.2504         41.0004
  -3591498.29347  -2783656.98446  22800273.1254                   22800269.5664
        43.5004         38.5004
  -6849046.42245  -5273689.85244  24379330.8674                   24379333.1054
        35.2504         29.7504
 -25576959.76647 -19908401.45747  21544305.2974                   21544304.8364
        46.0004         43.5004
  -2657934.62946  -2027827.12545  24240352.6174                   24240356.0944
        38.0004         31.2504
 -29232101.09847 -22615802.87946  20503132.1334                   20503129.8444
        46.2504         38.7504
 -18644027.25447 -18550427.29346  21056922.9454                   21056918.9104
        45.5004         36.0004
 25  8  8  0 39 30.0000000  0  9G01G03G09G31G06G26G07G04G16
   1823610.89845   1440414.03143  24381884.3674                   24381889.9694
        32.7504         21.5004
 -28615868.40248 -22362056.20348  20344707.8284                   20344706.4144
        48.2504         51.0004
 -12745174.49647  -9855142.04346  22764576.6094                   22764576.1024
        44.0004         41.0004
  -1950036.62947  -1504596.00446  23112632.7114                   23112629.2894
        42.5004         38.2504
  -5315853.61745  -4078994.16845  24671087.7194                   24671090.2194
        35.0004         30.7504
 -23993148.46947 -18674262.77747  21845694.4144                   21845694.3594
        46.0004         43.5004
  -1189335.96546   -883464.19545  24519818.4614                   24519820.8134
        39.7504         32.5004
 -27716605.81647 -21434897.44946  20791521.8054                   20791518.5164
        46.7504         38.0004
 -17154377.09847 -17389660.88746  21340393.3204                   21340389.8244
        46.0004         36.0004
 25  8  8  0 40  0.0000000  0  9G01G03G09G31G06G26G07G04G16
   1887176.92645   1489945.52343  24393979.6024                   24393986.4734
        32.5004         19.0004
 -28606302.96948 -22354602.64148  20346527.9304                   20346526.8204
        48.5004         51.0004
 -12850487.55147  -9937204.07846  22744536.0084                   22744536.2664
        43.5004         41.0004
  -1883886.02047  -1453050.13746  23125220.8524                   23125217.4924
        44.0004         38.5004
  -5357540.05146  -4111477.11345  24663154.9844                   24663157.4574
        36.0004         31.5004
 -23984160.25047 -18667258.97347  21847405.4224                   21847404.6914
        46.2504         43.7504
  -1295971.17246   -966556.27745  24499525.8674                   24499528.5474
        39.0004         33.2504
 -27776325.64547 -21481432.35546  20780157.1724                   20780154.6914
        46.0004         38.5004
 -17239581.52047 -17456053.88745  21324179.6884                   21324176.0004
        47.2504         35.5004
 25  8  8  0 40 30.0000000  0  9G01G03G09G31G06G26G07G04G16
   1950745.34046   1539478.93843  24406078.8134                   24406083.2234
        37.0004         21.7504
 -28596149.59448 -22346690.93448  20348459.7274                   20348458.9184
        48.5004         51.0004
 -12955715.58247 -10019199.85946  22724511.5634                   22724511.6804
        43.5004         40.7504
  -1817616.60247  -1401411.68446  23137831.8284                   23137828.2154
        43.0004         38.0004
  -5398670.18446  -4143526.58245  24655327.9924                   24655330.2304
        36.7504         30.2504
 -23974562.65247 -18659780.32047  21849231.0554                   21849231.1684
        46.0004         43.5004
  -1402401.97746  -1049489.05945  24479273.0234                   24479275.4144
        41.2504         35.2504
 -27835823.58647 -21527794.36346  20768834.7664                   20768832.1454
        45.7504         38.0004
 -17324201.39847 -17521991.40245  21308076.5784                   21308073.1174
        46.7504         35.7504
 25  8  8  0 41  0.0000000  0  9G01G03G09G31G06G26G07G04G16
   2014308.77046   1589008.58244  24418174.0944                   24418179.6524
        38.5004         24.7504
 -28585413.58648 -22338325.24248  20350502.9534                   20350501.8954
        49.0004         51.0004
 -13060862.27047 -10101132.24646  22704502.8054                   22704502.5164
        42.7504         41.0004
  -1751234.43047  -1349685.37946  23150463.9454                   23150460.4574
        44.5004         37.7504
  -5439248.69546  -4175146.21945  24647606.6024                   24647608.5944
        36.0004         30.7504
 -23964361.55947 -18651831.41847  21851172.0704                   21851172.5554
        46.5004         43.5004
  -1508632.16446  -1132265.56245  24459057.8134                   24459059.5234
        41.0004         34.7504
 -27895103.23847 -21573986.28546  20757554.4224                   20757551.8164
        46.5004         38.5004
 -17408238.39147 -17587474.71946  21292085.0004                   21292081.0634
        47.0004         36.2504
 25  8  8  0 41 30.0000000  0  9G01G03G09G31G06G26G07G04G16
   2077855.77346   1638525.29343  24430267.1414                   24430273.2664
        37.5004         23.0004
 -28574104.56648 -22329513.04348  20352654.9064                   20352653.9804
        48.5004         51.0004
 -13165935.65247 -10183007.51246  22684508.1334                   22684507.8754
        42.0004         41.7504
  -1684750.60947  -1297879.86346  23163114.8674                   23163111.9384
        44.0004         37.5004
  -5479284.67646  -4206343.10245  24639988.3754                   24639990.0864
        37.5004         31.5004
 -23953567.21147 -18643420.23847  21853226.9304                   21853226.4304
        44.7504         43.5004
  -1614670.27747  -1214892.33645  24438879.1094                   24438881.7894
        42.0004         35.5004
 -27954172.62147 -21620014.36346  20746313.5944                   20746311.1294
        46.2504         38.5004
 -17491698.93447 -17652508.85546  21276202.8364                   21276199.3404
        47.2504         36.5004
 25  8  8  0 42  0.0000000  0  9G01G03G09G31G06G26G07G04G16
   2141388.75846   1688031.17243  24442357.7344                   24442362.7424
        38.5004         21.5004
 -28562218.08647 -22320250.87548  20354917.0314                   20354915.8914
        47.5004         50.7504
 -13270929.59047 -10264820.87546  22664528.0704                   22664528.2854
        42.5004         41.5004
  -1618161.55547  -1245992.36746  23175786.2664                   23175783.4884
        44.2504         38.0004
  -5518772.85246  -4237113.12545  24632473.3594                   24632475.5664
        36.5004         31.5004
 -23942175.70347 -18634543.73847  21855393.9614                   21855394.0234
        44.0004         42.7504
  -1720510.49646  -1297364.91445  24418738.1024                   24418740.6804
        41.2504         34.7504
 -28013025.45347 -21665873.69546  20735114.4384                   20735111.8954
        46.2504         38.5004
 -17574574.95747 -17717087.52046  21260432.0864                   21260428.3674
        47.2504         36.5004
 25  8  8  0 42 30.0000000  0  9G01G03G09G31G06G26G07G04G16
   2204908.10246   1737526.46542  24454445.0944                   24454450.3554
        37.7504         14.7504
 -28549751.85248 -22310536.94948  20357289.3594                   20357288.3134
        48.0004         50.7504
 -13375840.08647 -10346569.21546  22644564.3054                   22644564.0004
        42.7504         41.2504
  -1551466.10247  -1194021.95346  23188478.2194                   23188475.3674
        43.5004         38.0004
  -5557710.43746  -4267454.13345  24625063.2814                   24625066.0634
        36.0004         31.2504
 -23930185.40647 -18625200.64847  21857675.9694                   21857675.6914
        43.5004         42.7504
  -1826149.16847  -1379680.49645  24398636.1884                   24398637.5124
        42.5004         34.7504
 -28071657.75047 -21711561.18446  20723957.0944                   20723954.7664
        47.0004         38.5004
 -17656861.36747 -17781206.76245  21244773.2974                   21244769.4264
        47.0004         35.5004
 25  8  8  0 43  0.0000000  0  9G01G03G09G31G06G26G07G04G16
   2268409.38346   1787007.60243  24466528.6724                   24466533.3834
        37.7504         20.5004
 -28536708.47348 -22300373.29748  20359771.1954                   20359770.0594
        49.0004         50.5004
 -13480668.07047 -10428253.26646  22624615.3204                   22624616.1684
        42.7504         41.5004
  -1484667.75047  -1141971.35946  23201189.5634                   23201186.6024
        43.5004         38.0004
  -5596099.19945  -4297367.48445  24617759.4614                   24617761.4264
        35.0004         31.0004
 -23917599.39547 -18615393.36347  21860071.1644                   21860071.0984
        44.5004         42.7504
  -1931587.41847  -1461839.92245  24378572.0394                   24378572.2704
        42.2504         32.7504
 -28130070.28947 -21757077.43746  20712841.5474                   20712839.0594
        46.0004         38.7504
 -17738557.12547 -17844865.74245  21229227.4384                   21229223.5394
        47.2504         35.7504
 25  8  8  0 43 30.0000000  0  9G01G03G09G31G06G26G07G04G16
   2331889.53146   1836472.24643  24478608.4694                   24478615.1094
        37.5004         18.5004
 -28523089.06648 -22289760.79348  20362362.7814                   20362361.8984
        48.7504         50.5004
 -13585412.92647 -10509872.52746  22604683.3834                   22604683.8834
        42.5004         41.0004
  -1417768.67247  -1089842.28146  23213920.2974                   23213917.3204
        42.5004         37.5004
  -5633939.77346  -4326853.66045  24610558.2034                   24610560.7814
        36.2504         30.7504
 -23904419.51247 -18605123.33247  21862579.5084                   21862578.8404
        45.5004         42.7504
  -2036824.96546  -1543842.88345  24358544.6954                   24358546.3714
        41.7504         32.0004
 -28188262.38747 -21802421.91046  20701768.0784                   20701765.0474
        46.5004         38.5004
 -17819659.98047 -17908062.71945  21213794.2664                   21213790.2194
        47.0004         35.7504
 25  8  8  0 44  0.0000000  0  9G01G03G09G31G06G26G07G04G16
   2395345.46546   1885918.11743  24490684.6884                   24490689.6134
        40.0004         19.0004
 -28508894.92648 -22278700.44148  20365064.1414                   20365062.8874
        49.5004         50.5004
 -13690074.10947 -10591426.59446  22584767.2664                   22584767.1994
        42.7504         41.5004
  -1350771.09847  -1037636.45346  23226669.6484                   23226666.4804
        43.5004         37.5004
  -5671232.71145  -4355913.12145  24603461.2274                   24603463.7734
        35.0004         30.7504
 -23890647.59047 -18594391.96947  21865199.8364                   21865199.8524
        46.7504         42.7504
  -2141861.63747  -1625689.35945  24338556.3054                   24338558.5594
        42.0004         32.5004
 -28246233.44147 -21847594.14846  20690736.3914                   20690733.7734
        46.7504         39.0004
 -17900167.96547 -17970796.16846  21198473.7974                   21198469.9264
        47.0004         36.2504
 25  8  8  0 44 30.0000000  0  9G01G03G09G31G06G26G07G04G16
   2458772.35246   1935341.30543  24502754.4384                   24502760.8874
        41.0004         22.5004
 -28494128.89848 -22267194.46548  20367874.0234                   20367872.8054
        49.5004         50.5004
 -13794652.73047 -10672916.32846  22564866.6254                   22564866.4104
        43.5004         41.7504
  -1283678.70347   -985356.74646  23239437.2664                   23239434.4064
        44.0004         38.0004
  -5707980.30145  -4384547.61745  24596468.8914                   24596471.2584
        35.5004         31.5004
 -23876287.08647 -18583201.96547  21867932.7194                   21867932.2934
        46.0004         42.7504
  -2246699.11746  -1707380.60245  24318606.4844                   24318608.2114
        41.5004         32.2504
 -28303984.50447 -21892594.96146  20679746.6884                   20679743.9694
        45.5004         38.5004
 -17980080.71547 -18033065.79346  21183266.6644                   21183262.8984
        47.0004         36.5004
 25  8  8  0 45  0.0000000  0  9G01G03G09G31G06G26G07G04G16
   2522170.75846   1984742.17644  24514819.1414                   24514825.8014
        40.7504         24.7504
 -28478788.87948 -22255241.23048  20370793.1724                   20370792.3594
        49.0004         50.5004
 -13899144.81647 -10754338.64146  22544982.2894                   22544982.0864
        44.0004         41.7504
  -1216490.18747   -933002.13746  23252222.1334                   23252219.8134
        43.2504         37.5004
  -5744179.63346  -4412754.93045  24589579.7274                   24589582.5274
        37.5004         32.2504
 -23861336.40247 -18571552.09447  21870777.4694                   21870777.4774
        46.0004         43.0004
  -2351333.44546  -1788913.57445  24298694.6174                   24298697.1884
        41.5004         33.0004
 -28361511.54747 -21937421.22346  20668799.9694                   20668797.2384
        46.5004         39.0004
 -18059392.70747 -18094867.30146  21168173.8284                   21168170.1564
        47.2504         36.5004
 25  8  8  0 45 30.0000000  0  9G01G03G09G31G06G26G07G04G16
   2585532.35246   2034114.41843  24526876.8524                   24526883.6214
        41.7504         22.5004
 -28462881.27348 -22242845.71148  20373820.1174                   20373819.4844
        49.2504         50.5004
 -14003554.85547 -10835697.00847  22525113.5004                   22525113.5634
        43.7504         42.2504
  -1149212.74647   -880578.22746  23265024.7584                   23265022.2074
        43.0004         37.2504
  -5779836.52046  -4440539.55145  24582794.2664                   24582797.1334
        36.5004         31.2504
 -23845802.60947 -18559447.85247  21873733.6884                   21873733.6804
        46.5004         42.5004
  -2455770.15246  -1870292.54745  24278821.1644                   24278822.1094
        41.5004         32.0004
 -28418819.00847 -21982076.37546  20657894.5554                   20657891.9104
        46.7504         39.5004
 -18138106.64547 -18156202.78946  21153195.1954                   21153191.6024
        47.5004         36.7504
 25  8  8  0 46  0.0000000  0  9G01G03G09G31G06G26G07G04G16
   2648864.91046   2083464.10943  24538929.2974                   24538935.1174
        40.2504         20.7504
 -28446396.64148 -22230000.56248  20376957.2034                   20376955.9964
        48.5004         50.2504
 -14107871.51247 -10916982.62547  22505262.1724                   22505262.6024
        43.7504         42.2504
  -1081837.92247   -828078.43446  23277845.7034                   23277843.0004
        42.7504         37.0004
  -5814940.98045  -4467893.69145  24576114.5474                   24576117.8094
        35.7504         31.5004
 -23829676.76647 -18546882.27047  21876802.0784                   21876802.1644
        46.2504         42.7504
  -2559997.76647  -1951508.59045  24258987.2974                   24258988.1454
        42.0004         31.7504
 -28475895.46947 -22026551.52746  20647033.1564                   20647030.4614
        47.2504         38.7504
 -18216210.30947 -18217062.73846  21138332.8984                   21138328.8094
        47.5004         36.7504
 25  8  8  0 46 30.0000000  0  9G01G03G09G31G06G26G07G04G16
   2712163.66046   2132787.40243  24550975.0164                   24550980.4414
        37.7504         18.5004
 -28429338.21948 -22216708.30948  20380203.1254                   20380202.0554
        48.7504         50.2504
 -14212096.18447 -10998196.56247  22485429.4384                   22485429.2154
        43.5004         42.5004
  -1014369.53947   -775505.74646  23290684.8284                   23290681.9694
        44.0004         37.5004
  -5849495.52046  -4494819.32445  24569539.2664                   24569541.7114
        36.5004         32.0004
 -23812962.78547 -18533858.40247  21879982.6174                   21879982.7034
        45.7504         42.7504
  -2664018.54346  -2032563.46545  24239192.4924                   24239193.3834
        40.7504         31.2504
 -28532742.26647 -22070847.71546  20636215.5784                   20636212.5004
        46.5004         38.5004
 -18293703.46547 -18277446.96146  21123586.0394                   21123582.4574
        47.0004         36.7504
 25  8  8  0 47  0.0000000  0  9G01G03G09G31G06G26G07G04G16
   2775426.68446   2182082.83243  24563014.0234                   24563019.4774
        40.2504         19.7504
 -28411706.11748 -22202969.03548  20383558.5474                   20383557.4264
        48.2504         50.5004
 -14316226.93047 -11079337.31647  22465613.9694                   22465613.4414
        43.0004         42.0004
   -946808.79747   -722861.08646  23303541.1484                   23303538.7234
        43.2504         37.2504
  -5883499.59046  -4521316.03545  24563068.4614                   24563071.1844
        37.0004         32.0004
 -23795661.33647 -18520376.77747  21883275.2114                   21883274.7974
        46.2504         42.7504
  -2767830.92646  -2113455.98045  24219437.0474                   24219438.5824
        39.5004         30.5004
 -28589357.47347 -22114963.44546  20625442.1334                   20625439.5514
        46.5004         39.0004
 -18370582.86747 -18337352.93746  21108956.8054                   21108952.6644
        47.0004         36.5004
 25  8  8  0 47 30.0000000  0  9G01G03G09G31G06G26G07G04G16
   2838646.82846   2231344.94143  24575044.0164                   24575050.4924
        37.7504         18.2504
 -28393505.80948 -22188786.98848  20387021.8524                   20387021.0634
        49.5004         50.2504
 -14420267.24647 -11160407.60547  22445815.6414                   22445815.3204
        43.2504         42.2504
   -879161.55547   -670149.02046  23316414.3054                   23316411.3014
        43.5004         36.7504
  -5916958.02345  -4547387.56645  24556701.4144                   24556704.2274
        34.5004         32.2504
 -23777778.45747 -18506442.07847  21886678.2974                   21886678.3954
        46.2504         42.7504
  -2871438.93446  -2194189.20345  24199721.8834                   24199722.3794
        40.0004         31.2504
 -28645744.54747 -22158901.41046  20614711.9384                   20614709.7034
        46.2504         39.0004
 -18446850.64147 -18396782.33646  21094443.2814                   21094439.5004
        46.7504         36.2504
 25  8  8  0 48  0.0000000  0  9G01G03G09G31G06G26G07G04G16
   2901834.13745   2280581.37942  24587067.2734                   24587075.6174
        34.7504         16.7504
 -28374725.85248 -22174153.28148  20390595.5784                   20390594.5124
        49.2504         50.2504
 -14524203.68747 -11241396.96547  22426037.2424                   22426036.7894
        43.2504         43.0004
   -811416.86747   -617361.01246  23329305.9304                   23329302.6524
        44.5004         37.0004
  -5949858.75846  -4573024.55145  24550441.3444                   24550443.4734
        37.5004         32.2504
 -23759303.28547 -18492045.85947  21890194.3444                   21890193.9144
        45.5004         42.5004
  -2974829.37146  -2274752.88345  24180046.2584                   24180047.6174
        38.0004         30.7504
 -28701889.96147 -22202651.06246  20604028.0864                   20604025.2814
        47.0004         38.7504
 -18522491.99647 -18455723.60546  21080048.9224                   21080045.0434
        47.0004         36.0004
 25  8  8  0 48 30.0000000  0  9G01G03G09G31G06G26G07G04G16
   2964971.05146   2329778.52743  24599083.4144                   24599090.0394
        38.5004         19.0004
 -28355382.16048 -22159080.29348  20394276.8754                   20394275.8714
        49.5004         50.2504
 -14628050.14847 -11322316.20747  22406275.7974                   22406275.5434
        44.5004         42.5004
   -743591.86347   -564510.40246  23342211.9454                   23342209.7664
        43.5004         36.5004
  -5982217.03946  -4598238.82445  24544283.6414                   24544285.8834
        36.7504         31.7504
 -23740252.31247 -18477200.95747  21893818.9454                   21893819.2074
        46.7504         42.2504
  -3078016.73446  -2355158.34844  24160409.7424                   24160411.6954
        36.5004         29.5004
 -28757807.50447 -22246223.14846  20593386.9384                   20593384.1954
        46.2504         39.0004
 -18597519.55147 -18514186.58646  21065771.2584                   21065768.0864
        47.0004         36.0004
 25  8  8  0 49  0.0000000  0  9G01G03G09G31G06G26G07G04G16
   3028050.99646   2378931.26643  24611087.9694                   24611094.5904
        40.7504         22.0004
 -28335479.61348 -22143571.83648  20398063.7114                   20398063.1644
        49.0004         50.2504
 -14731809.39847 -11403167.50047  22386531.2584                   22386530.5594
        45.0004         42.5004
   -675691.73847   -511601.27746  23355133.1884                   23355130.5084
        43.2504         36.5004
  -6014037.10946  -4623033.71145  24538228.8444                   24538230.8484
        36.7504         31.5004
 -23720630.97747 -18461911.61747  21897552.9454                   21897553.0474
        46.5004         42.5004
  -3181004.50046  -2435408.25844  24140812.6884                   24140812.9384
        39.5004         29.5004
 -28813499.98847 -22289619.87546  20582789.5554                   20582786.5554
        46.2504         38.5004
 -18671935.03147 -18572172.62546  21051610.9694                   21051607.1414
        46.2504         36.7504
 25  8  8  0 49 30.0000000  0  9G01G03G09G31G06G26G07G04G16
   3091076.90246   2428041.94943  24623081.0944                   24623088.6884
        39.7504         22.5004
 -28315013.88348 -22127624.53548  20401958.5554                   20401957.7194
        49.2504         50.5004
 -14835474.95747 -11483945.78947  22366804.0164                   22366803.9344
        44.5004         42.5004
   -607712.80547   -458630.73046  23368069.0704                   23368066.8404
        44.5004         36.5004
  -6045313.96945  -4647405.32445  24532276.3134                   24532278.9384
        35.0004         32.5004
 -23700435.50847 -18446174.90247  21901396.0864                   21901396.0234
        45.2504         42.2504
  -3283786.29346  -2515497.78945  24121252.6094                   24121254.1564
        39.0004         30.5004
 -28868960.91047 -22332836.15246  20572235.3594                   20572232.7114
        47.0004         38.7504
 -18745730.62947 -18629675.64546  21037567.6094                   21037563.9024
        47.0004         36.5004
 25  8  8  0 50  0.0000000  0  9G01G03G09G31G06G26G07G04G16
   3154052.48846   2477113.37143  24635065.9844                   24635072.5394
        37.5004         22.5004
 -28293979.83248 -22111234.39148  20405961.0944                   20405960.3794
        49.5004         50.2504
 -14939039.65247 -11564645.48046  22347096.1174                   22347095.9344
        44.2504         41.7504
   -539650.24247   -405595.02046  23381021.2974                   23381018.5274
        44.2504         36.7504
  -6076042.00046  -4671349.27345  24526430.6804                   24526431.9774
        36.0004         31.0004
 -23679661.43447 -18429987.32847  21905349.1884                   21905349.2814
        45.7504         42.2504
  -3386356.02746  -2595421.95345  24101735.3674                   24101735.7894
        40.0004         31.7504
 -28924182.99647 -22375866.32446  20561727.1334                   20561724.2304
        47.0004         39.2504
 -18818898.00047 -18686689.14146  21023644.8674                   21023640.9414
        47.5004         36.5004
 25  8  8  0 50 30.0000000  0  9G01G03G09G31G06G26G07G04G16
   3216971.89846   2526141.05944  24647039.4924                   24647046.1994
        39.0004         24.0004
 -28272381.78548 -22094404.75848  20410071.5784                   20410070.1524
        48.5004         50.0004
 -15042505.50447 -11645268.15646  22327406.9774                   22327407.1174
        44.5004         41.7504
   -471509.10247   -352498.07046  23393988.2344                   23393985.4884
        44.2504         36.0004
  -6106224.71145  -4694868.27745  24520686.2344                   24520688.5044
        33.5004         32.2504
 -23658313.51247 -18413352.59847  21909411.6884                   21909411.3324
        46.0004         42.2504
  -3488716.15246  -2675182.81245  24082257.2584                   24082257.5084
        41.7504         31.5004
 -28979168.35247 -22418712.03146  20551263.4144                   20551260.4614
        46.7504         39.0004
 -18891438.13747 -18743213.88346  21009840.7424                   21009837.0984
        47.7504         36.7504
 25  8  8  0 51  0.0000000  0  9G01G03G09G31G06G26G07G04G16
   3279833.55946   2575123.69943  24659001.6094                   24659008.6454
        38.5004         22.2504
 -28250220.01648 -22077135.87148  20414288.8754                   20414287.4804
        49.0004         50.2504
 -15145870.71947 -11725812.41846  22307737.6884                   22307736.7704
        44.2504         41.7504
   -403289.92247   -299340.31245  23406969.7584                   23406967.2034
        43.0004         35.7504
  -6135861.89145  -4717962.22745  24515045.3524                   24515048.8984
        34.2504         30.5004
 -23636392.75047 -18396271.50047  21913582.9614                   21913582.7814
        45.7504         42.0004
  -3590865.03546  -2754779.14845  24062817.6884                   24062818.9064
        39.0004         32.5004
 -29033915.04747 -22461371.75846  20540845.4064                   20540842.4024
        47.2504         38.5004
 -18963347.99247 -18799247.50446  20996156.8524                   20996152.7584
        47.0004         37.2504
 25  8  8  0 51 30.0000000  0  9G01G03G09G31G06G26G07G04G16
   3342642.22345   2624065.09043  24670953.3834                   24670961.5514
        31.0004         18.2504
 -28227488.12948 -22059422.74248  20418614.2034                   20418613.4574
        48.2504         50.0004
 -15249126.60947 -11806271.49247  22288088.2814                   22288088.1454
        44.2504         42.0004
   -334986.99647   -246117.29745  23419967.6724                   23419965.0744
        42.2504         35.5004
  -6164946.36745  -4740625.48045  24509511.1804                   24509514.2274
        33.2504         32.7504
 -23613893.22347 -18378739.41847  21917864.5474                   21917864.1954
        46.0004         42.0004
  -3692795.09046  -2834204.95345  24043420.2504                   24043421.8404
        41.2504         33.7504
 -29088414.46947 -22503838.82046  20530474.5234                   20530471.9104
        46.0004         39.0004
 -19034617.71947 -18854782.31246  20982594.4384                   20982590.7774
        46.7504         36.7504
 25  8  8  0 52  0.0000000  0  9G01G03G09G31G06G26G07G04G16
   3405389.42645   2672958.50043  24682895.3674                   24682902.5004
        33.2504         18.5004
 -28204193.62148 -22041271.20348  20423047.0634                   20423046.0984
        49.0004         50.0004
 -15352278.31647 -11886649.38746  22268459.1564                   22268458.9344
        44.0004         41.7504
   -266607.95347   -192834.96545  23432979.4694                   23432976.7854
        43.0004         35.5004
  -6193485.02045  -4762863.44545  24504080.5704                   24504083.2974
        35.5004         32.2504
 -23590822.96547 -18360762.61347  21922254.5554                   21922254.7894
        45.0004         42.0004
  -3794512.17647  -2913464.77745  24024065.2504                   24024065.0274
        42.7504         34.5004
 -29142671.73847 -22546117.18746  20520149.6884                   20520147.4304
        47.2504         39.2504
 -19105251.74247 -18909821.76646  20969153.0164                   20969149.0554
        46.7504         36.7504
 25  8  8  0 52 30.0000000  0  9G01G03G09G31G06G26G07G04G16
   3468068.85556   2721799.14153  24694823.6334                   24694830.4144
        36.2504         20.5004
 -28180341.19948 -22022684.91848  20427586.0164                   20427584.9304
        48.7504         49.7504
 -15455328.40647 -11966948.09847  22248849.4064                   22248848.8284
        43.7504         42.0004
   -198158.17246   -139497.50845  23446004.5084                   23446002.4924
        41.5004         34.5004
  -6221482.06245  -4784679.35545  24498752.6094                   24498755.4344
        35.0004         33.0004
 -23567187.27347 -18342345.19947  21926752.7894                   21926752.6214
        45.5004         42.0004
  -3896019.19947  -2992560.97345  24004747.7584                   24004749.2034
        42.2504         34.0004
 -29196689.38347 -22588208.83646  20509870.2814                   20509867.9614
        46.2504         39.0004
 -19175251.30947 -18964366.84846  20955833.1334                   20955829.2344
        47.0004         37.0004
 25  8  8  0 53  0.0000000  0  9G01G03G09G31G06G26G07G04G16
   3530686.26645   2770591.53543  24706737.4454                   24706746.3554
        33.5004         18.2504
 -28155923.75448 -22003658.36748  20432232.3674                   20432231.5744
        49.0004         50.0004
 -15558267.35547 -12047160.21147  22229260.8834                   22229260.2814
        44.7504         42.2504
   -129630.78946    -86099.61345  23459045.3284                   23459042.9804
        41.2504         34.5004
  -6248929.69946  -4806067.14845  24493529.6644                   24493532.5664
        37.7504         33.0004
 -23542979.59447 -18323482.08647  21931359.0634                   21931359.1724
        45.7504         42.5004
  -3997307.17646  -3071486.48445  23985472.8594                   23985473.9494
        40.5004         34.7504
 -29250457.94147 -22630106.39146  20499638.5314                   20499635.9844
        47.2504         39.0004
 -19244606.15247 -19018409.54346  20942634.9924                   20942631.1644
        47.0004         37.0004
 25  8  8  0 53 30.0000000  0  9G01G03G09G31G06G26G07G04G16
   3593232.42246   2819328.27343  24718641.2664                   24718649.3284
        37.0004         20.0004
 -28130949.42648 -21984197.87148  20436985.1644                   20436984.1564
        48.5004         50.0004
 -15661101.01647 -12127290.28147  22209692.4144                   22209691.6414
        44.5004         42.5004
    -61034.34846    -32647.90245  23472099.2584                   23472096.3834
        41.5004         35.5004
  -6275835.41446  -4827032.67645  24488410.6174                   24488412.5234
        37.0004         32.5004
 -23518208.61747 -18304180.03147  21936072.8674                   21936072.8014
        46.5004         42.2504
  -4098382.93746  -3150246.60245  23966238.4924                   23966239.3914
        40.7504         34.7504
 -29303983.14847 -22671814.32846  20489453.0784                   20489450.5204
        47.0004         39.0004
 -19313321.15647 -19071953.68046  20929558.8594                   20929555.2584
        46.7504         36.5004
 25  8  8  0 54  0.0000000  0  9G01G03G09G31G06G26G07G04G16
   3655713.63346   2868014.55943  24730532.0864                   24730539.0204
        37.0004         20.7504
 -28105410.46548 -21964297.41048  20441844.5554                   20441843.8794
        48.2504         50.0004
 -15763819.23447 -12207330.39847  22190145.8364                   22190145.4384
        44.0004         42.7504
      7638.68446     20863.50445  23485166.4924                   23485164.1214
        41.7504         34.2504
  -6302190.82046  -4847569.38745  24483395.0634                   24483397.2894
        38.7504         33.5004
 -23492867.18047 -18284433.46546  21940895.0164                   21940895.1564
        45.5004         41.7504
  -4199236.87146  -3228833.91845  23947046.7814                   23947048.1764
        39.0004         35.5004
 -29357254.94147 -22713324.80146  20479315.9454                   20479313.1214
        46.7504         39.2504
 -19381385.24647 -19124990.58246  20916606.7584                   20916602.7544
        47.0004         37.0004
 25  8  8  0 54 30.0000000  0  9G01G03G09G31G06G26G07G04G16
   3718117.71546   2916640.70343  24742407.2894                   24742414.7424
        39.2504         20.0004
 -28079318.06648 -21943965.69548  20446810.3674                   20446809.4064
        48.0004         50.0004
 -15866430.80947 -12287287.41047  22170618.9064                   22170618.9264
        45.5004         42.5004
     76376.98846     74425.76645  23498246.9304                   23498244.6914
        40.7504         33.5004
  -6328006.47745  -4867685.52745  24478482.6414                   24478484.6484
        35.7504         33.0004
 -23466967.04747 -18264251.55947  21945823.6334                   21945823.6564
        45.5004         42.2504
  -4299878.86346  -3307256.03545  23927895.4224                   23927896.1254
        40.7504         35.0004
 -29410282.11347 -22754644.66046  20469224.5634                   20469222.3914
        46.5004         38.7504
 -19448806.52747 -19177526.61346  20903776.5704                   20903772.6994
        46.5004         36.2504
 25  8  8  0 55  0.0000000  0  9G01G03G09G31G06G26G07G04G16
   3780444.44146   2965206.59843  24754267.3134                   24754274.7854
        38.5004         22.2504
 -28052671.04348 -21923201.81648  20451881.2194                   20451880.0434
        48.5004         50.0004
 -15968932.10947 -12367158.49247  22151113.8524                   22151113.7854
        44.5004         43.0004
    145181.39846    128039.52045  23511340.3594                   23511337.9344
        41.5004         34.2504
  -6353280.67245  -4887379.74645  24473672.7114                   24473675.4304
        35.7504         33.2504
 -23440507.50047 -18243633.73847  21950858.9924                   21950858.9224
        45.5004         42.0004
  -4400305.51646  -3385510.36745  23908784.9774                   23908785.7274
        40.5004         34.7504
 -29463061.03947 -22795771.08246  20459181.8914                   20459178.8834
        46.7504         39.0004
 -19515580.12547 -19229557.94946  20891070.3914                   20891066.1054
        46.5004         37.0004
 25  8  8  0 55 30.0000000  0  9G01G03G09G31G06G26G07G04G16
   3842700.41446   3013717.35943  24766115.0944                   24766121.9344
        37.7504         21.2504
 -28025461.82848 -21901999.85948  20457058.5084                   20457057.8834
        48.2504         50.0004
 -16071313.10547 -12446935.83247  22131630.9694                   22131630.8244
        45.2504         43.2504
    214059.12947    181710.41045  23524447.5084                   23524444.9964
        42.5004         34.7504
  -6378005.20746  -4906645.65645  24468968.3594                   24468971.0314
        37.7504         33.2504
 -23413481.55947 -18222574.57847  21956001.6724                   21956001.8164
        45.0004         42.5004
  -4500507.31647  -3463589.50045  23889716.1254                   23889717.4184
        42.5004         35.7504
 -29515581.69547 -22836696.25446  20449187.5314                   20449184.8134
        47.0004         38.5004
 -19581695.55947 -19281076.43746  20878489.0314                   20878484.9964
        47.2504         36.7504
 25  8  8  0 56  0.0000000  0  9G01G03G09G31G06G26G07G04G16
   3904873.28145   3062163.28142  24777945.7894                   24777954.2734
        34.5004         16.7504
 -27997701.61748 -21880368.55548  20462341.4224                   20462340.4304
        48.5004         50.0004
 -16173582.56647 -12526626.26247  22112170.1484                   22112169.5204
        45.5004         43.2504
    282999.01247    235429.72345  23537566.9304                   23537564.2424
        42.7504         35.0004
  -6402190.70346  -4925491.52345  24464365.8444                   24464368.2974
        37.7504         33.0004
 -23385901.02047 -18201083.27047  21961250.5554                   21961250.2854
        44.7504         42.0004
  -4600494.06247  -3541500.99645  23870691.8444                   23870690.3714
        44.7504         35.2504
 -29567852.82047 -22877426.99246  20439240.3204                   20439237.6564
        47.2504         38.5004
 -19647160.86747 -19332088.34446  20866031.3594                   20866027.0394
        47.0004         37.0004
 25  8  8  0 56 30.0000000  0  9G01G03G09G31G06G26G07G04G16
   3966966.797 5                  24789762.383
        31.000
 -27969385.42247 -21858304.02348  20467729.6334                   20467728.8244
        47.2504         50.0004
 -16275732.97347 -12606223.93047  22092731.1954                   22092730.7194
        45.5004         43.5004
    352006.08646    289201.40245  23550697.9224                   23550695.7114
        41.7504         34.5004
  -6425831.48046  -4943912.95345  24459867.4144                   24459869.3134
        37.7504         33.0004
 -23357761.36747 -18179156.28547  21966605.0314                   21966604.3834
        44.2504         42.0004
  -4700259.21147  -3619239.90245  23851706.3674                   23851705.2034
        44.5004         35.5004
 -29619866.95747 -22917957.47746  20429342.7734                   20429339.6294
        47.2504         39.0004
 -19711967.74247 -19382587.18446  20853699.0944                   20853694.9614
        46.7504         37.2504
 25  8  8  0 57  0.0000000  0  9G01G03G09G31G06G26G07G04G16
                                  24801564.422
        25.250
 -27940517.69547 -21835809.72748  20473223.3134                   20473222.1094
        47.7504         50.0004
 -16377766.16847 -12685730.25447  22073314.6954                   22073314.6054
        45.5004         43.7504
    421075.43847    343021.60545  23563841.5864                   23563839.1214
        43.0004         35.0004
  -6448931.37946  -4961912.90645  24455470.6414                   24455473.9924
        37.7504         33.0004
 -23329067.68447 -18156797.57047  21972065.4924                   21972065.3594
        44.2504         42.2504
  -4799805.59847  -3696808.28945  23832764.5084                   23832761.8874
        46.2504         35.5004
 -29671625.99247 -22958289.18446  20419493.2664                   20419490.0204
        47.0004         39.0004
 -19776117.13747 -19432573.68746  20841491.6024                   20841487.4224
        46.5004         37.5004
 25  8  8  0 57 30.0000000  0  8G03G09G31G06G26G07G04G16
 -27911105.39147 -21812891.07448  20478819.7974                   20478819.5664
        46.5004         50.0004
 -16479686.58647 -12765148.69947  22053920.5704                   22053919.7894
        45.5004         43.7504
    490199.85947    396884.69945  23576995.9924                   23576993.3364
        43.0004         35.2504
  -6471496.77346  -4979496.34445  24451177.0394                   24451179.9344
        37.0004         33.0004
 -23299827.35547 -18134012.92247  21977629.4534                   21977629.4614
        43.7504         42.0004
  -4899137.96146  -3774209.99245  23813859.1094                   23813859.4344
        41.2504         35.0004
 -29723134.35947 -22998425.56646  20409691.0004                   20409688.4064
        47.0004         39.5004
 -19839612.99247 -19482050.94946  20829408.5474                   20829404.9614
        45.7504         37.2504
 25  8  8  0 58  0.0000000  0  8G03G09G31G06G26G07G04G16
 -27881148.52747 -21789548.09848  20484520.7664                   20484519.9024
        47.5004         49.7504
 -16581491.58247 -12844477.20347  22034547.3914                   22034546.7584
        45.5004         43.7504
    559379.58647    450790.88345  23590161.2894                   23590157.9804
        43.7504         35.2504
  -6493527.07446  -4996662.88345  24446985.1094                   24446987.0474
        37.2504         32.2504
 -23270040.95347 -18110802.76247  21983297.8594                   21983297.7114
        43.7504         42.0004
  -4998254.63747  -3851443.51245  23794999.6094                   23794997.7074
        44.0004         34.7504
 -29774389.49647 -23038364.62946  20399937.5704                   20399934.8014
        47.2504         39.5004
 -19902452.36347 -19531016.66446  20817450.7584                   20817446.8164
        46.2504         37.2504
 25  8  8  0 58 30.0000000  0  8G03G09G31G06G26G07G04G16
 -27850639.84847 -21765775.13348  20490326.5784                   20490325.4804
        47.5004         49.7504
 -16683171.30947 -12923708.09447  22015198.6724                   22015197.8094
        45.5004         43.7504
    628622.09847    504745.98845  23603337.9304                   23603334.8754
        43.5004         35.5004
  -6515014.47746  -5013406.32845  24442896.5164                   24442898.4264
        37.2504         33.5004
 -23239701.78547 -18087161.87146  21989070.8444                   21989070.8914
        43.5004         41.5004
  -5097146.45747  -3928501.86345  23776181.2734                   23776179.6724
        44.2504         34.5004
 -29825381.57047 -23078098.71146  20390234.2974                   20390231.2774
        47.2504         38.7504
 -19964624.44547 -19579462.39546  20805619.9384                   20805615.8674
        46.0004         37.2504
 25  8  8  0 59  0.0000000  0  8G03G09G31G06G26G07G04G16
 -27819582.52347 -21741574.65648  20496236.1804                   20496235.4534
        47.5004         49.7504
 -16784726.29347 -13002841.78147  21995873.1334                   21995872.5004
        44.5004         44.2504
    697924.10547    558747.47746  23616524.7424                   23616522.4884
        44.0004         36.0004
  -6535961.55146  -5029728.75845  24438909.7114                   24438912.3554
        37.0004         32.0004
 -23208813.48047 -18063093.08246  21994948.9304                   21994948.8874
        43.0004         41.7504
  -5195814.90646  -4005386.16045  23757403.6884                   23757403.1414
        41.2504         33.7504
 -29876111.13747 -23117628.23446  20380581.1094                   20380577.8754
        47.5004         39.2504
 -20026129.25847 -19627388.18446  20793915.7034                   20793911.7034
        45.2504         37.0004
 25  8  8  0 59 30.0000000  0  8G03G09G31G06G26G07G04G16
 -27787974.85547 -21716945.32848  20502250.9224                   20502249.9924
        47.5004         49.7504
 -16886152.12947 -13081874.84447  21976572.2274                   21976571.5704
        45.5004         44.0004
    767287.19147    612796.55545  23629724.6174                   23629721.4844
        43.0004         35.2504
  -6556365.98446  -5045628.36745  24435026.6804                   24435029.6954
        37.7504         31.5004
 -23177374.93447 -18038595.53146  22000931.5004                   22000931.4734
        43.0004         41.7504
  -5294256.37147  -4082093.57845  23738670.9304                   23738670.3054
        43.2504         34.0004
 -29926573.85547 -23156949.82046  20370978.3984                   20370975.5044
        47.7504         38.7504
 -20086962.00047 -19674790.28946  20782340.0554                   20782335.3244
        46.2504         37.0004
 25  8  8  1  0  0.0000000  0  8G03G09G31G06G26G07G04G16
 -27755823.75047 -21691892.55948  20508369.7034                   20508368.3914
        47.0004         49.7504
 -16987452.96947 -13160810.51247  21957295.6254                   21957294.9064
        45.5004         44.0004
    836704.66847    666888.02045  23642934.1094                   23642931.3524
        43.5004         35.5004
  -6576234.10246  -5061110.05945  24431246.6724                   24431249.0824
        37.5004         31.7504
 -23145393.52747 -18013674.98046  22007017.0704                   22007017.2624
        43.0004         41.7504
  -5392476.06246  -4158628.19545  23719979.8444                   23719979.6214
        41.5004         33.5004
 -29976773.94547 -23196066.77046  20361425.0314                   20361422.4924
        47.0004         39.2504
 -20147126.03547 -19721671.32446  20770890.7504                   20770886.5704
        46.0004         37.2504
 25  8  8  1  0 30.0000000  0  8G03G09G31G06G26G07G04G16
 -27723132.39847 -21666418.81248  20514590.4774                   20514589.5084
        47.2504         50.0004
 -17088629.36747 -13239649.20347  21938042.1024                   21938041.4804
        45.2504         44.0004
    906173.05547    721019.13345  23656153.0944                   23656151.2704
        42.7504         34.5004
  -6595568.51246  -5076175.85545  24427566.2424                   24427569.6174
        37.0004         32.2504
 -23112873.03147 -17988334.35547  22013205.8984                   22013206.0474
        43.5004         42.0004
  -5490475.05946  -4234990.85945  23701330.0474                   23701330.7194
        37.7504         32.0004
 -30026711.99247 -23234979.52346  20351922.3984                   20351919.3834
        47.0004         39.0004
 -20206621.99647 -19768031.78146  20759568.8984                   20759564.8054
        46.2504         36.7504
 25  8  8  1  1  0.0000000  0  8G03G09G31G06G26G07G04G16
 -27689896.46147 -21640520.71548  20520914.7504                   20520914.3204
        47.5004         49.7504
 -17189674.14847 -13318385.33647  21918813.8594                   21918812.9574
        45.7504         44.0004
    975697.17247    775193.68045  23669383.3914                   23669381.1024
        42.7504         34.7504
  -6614364.22346  -5090821.92645  24423990.2664                   24423993.1454
        36.0004         32.7504
 -23079809.53947 -17962570.61747  22019497.8444                   22019497.4454
        43.2504         42.2504
  -5588247.80147  -4311177.12945  23682726.4454                   23682724.8914
        43.5004         32.2504
 -30076380.89847 -23273682.55546  20342470.4614                   20342467.3554
        47.2504         38.5004
 -20265442.19147 -19813865.65646  20748375.8834                   20748371.9574
        46.2504         37.0004
 25  8  8  1  1 30.0000000  0  8G03G09G31G06G26G07G04G16
 -27656122.53148 -21614203.40248  20527342.2974                   20527341.1564
        48.0004         49.5004
 -17290591.07447 -13397021.84847  21899610.2584                   21899609.1724
        46.0004         44.5004
   1045270.65247    829406.69545  23682622.4614                   23682620.7624
        43.0004         34.0004
  -6632627.29346  -5105052.95345  24420514.8364                   24420517.5204
        37.0004         33.0004
 -23046210.18047 -17936389.33247  22025891.5234                   22025891.9104
        44.0004         42.0004
  -5685798.59046  -4387190.55145  23664161.7194                   23664161.0204
        41.2504         32.5004
 -30125784.52747 -23312178.88346  20333069.2584                   20333066.6024
        47.2504         38.7504
 -20323589.97347 -19859175.59446  20737310.7114                   20737306.8914
        46.0004         36.0004
 25  8  8  1  2  0.0000000  0  8G03G09G31G06G26G07G04G16
 -27621814.93047 -21587470.23448  20533870.4534                   20533869.6294
        47.5004         49.5004
 -17391381.74647 -13475559.96947  21880429.8444                   21880429.1994
        46.2504         44.2504
   1114889.47347    883655.02745  23695870.9224                   23695868.3874
        43.0004         33.5004
  -6650361.55946  -5118871.88745  24417140.9774                   24417143.3054
        37.2504         32.0004
 -23012079.78947 -17909794.24647  22032386.5554                   22032386.1764
        44.2504         42.0004
  -5783129.74646  -4463032.86345  23645638.9304                   23645639.4574
        40.0004         32.2504
 -30174924.48847 -23350469.75446  20323718.4224                   20323715.4614
        46.7504         39.0004
 -20381066.57047 -19903962.52046  20726373.2344                   20726369.1334
        45.0004         37.5004
 25  8  8  1  2 30.0000000  0  8G03G09G31G06G26G07G04G16
 -27586976.14847 -21560323.17248  20540499.7894                   20540499.2934
        47.7504         49.2504
 -17492045.68447 -13553999.34847  21861274.3594                   21861273.5474
        46.5004         44.5004
   1184550.95746    937936.64145  23709126.9384                   23709125.1414
        41.2504         33.2504
  -6667568.79346  -5132280.18045  24413866.2584                   24413868.2934
        37.2504         31.5004
 -22977421.33247 -17882787.68746  22038981.6024                   22038981.5554
        44.5004         41.5004
  -5880242.18047  -4538704.62145  23627161.1724                   23627159.5594
        42.0004         32.2504
 -30223800.42647 -23388554.88746  20314417.7504                   20314414.6524
        47.7504         38.7504
 -20437871.18047 -19948225.83246  20715563.8054                   20715559.6134
        45.7504         37.2504
 25  8  8  1  3  0.0000000  0  8G03G09G31G06G26G07G04G16
 -27551589.91847 -21532749.51248  20547234.3284                   20547233.0784
        47.5004         49.2504
 -17592563.84847 -13632325.14847  21842146.4694                   21842145.3554
        46.0004         44.7504
   1254271.90246    992264.56345  23722394.7274                   23722392.7114
        41.2504         33.0004
  -6684232.17246  -5145264.65645  24410695.1484                   24410697.9804
        36.2504         31.5004
 -22942219.08647 -17855357.39146  22045680.2034                   22045680.5664
        44.5004         41.5004
  -5977117.30547  -4614191.55545  23608725.6334                   23608724.6454
        42.0004         32.5004
 -30272393.35247 -23426419.49646  20305170.5944                   20305167.8244
        46.2504         39.0004
 -20493984.62947 -19991950.57046  20704885.4924                   20704881.5044
        46.2504         36.7504
 25  8  8  1  3 30.0000000  0  8G03G09G31G06G26G07G04G16
 -27515670.50447 -21504760.39548  20554069.0784                   20554068.6414
        47.7504         49.0004
 -17692947.63347 -13710546.21547  21823044.2194                   21823043.6134
        46.2504         44.7504
   1324038.38746   1046627.98445  23735670.8284                   23735668.7234
        40.5004         32.2504
  -6700365.64546  -5157836.23045  24407625.4454                   24407628.1644
        36.0004         32.5004
 -22906487.79747 -17827514.85946  22052479.7114                   22052479.5904
        44.5004         41.5004
  -6073767.91847  -4689503.53545  23590332.9614                   23590332.6374
        42.7504         33.2504
 -30320714.73047 -23464072.50846  20295975.5004                   20295972.3444
        47.2504         39.0004
 -20549418.05547 -20035145.41846  20694336.8364                   20694332.8014
        45.5004         36.7504
 25  8  8  1  4  0.0000000  0  8G03G09G31G06G26G07G04G16
 -27479224.19548 -21476360.70748  20561004.5234                   20561003.7734
        48.0004         49.0004
 -17793200.25847 -13788665.08647  21803966.5474                   21803965.9344
        46.2504         44.7504
   1393844.34446   1101022.14145  23748954.1564                   23748952.5594
        39.5004         32.0004
  -6715974.55946  -5169999.06245  24404654.8284                   24404657.4304
        37.5004         32.2504
 -22870234.19947 -17799265.32846  22059378.7114                   22059378.8204
        45.2504         41.2504
  -6170198.15647  -4764643.81245  23571982.9224                   23571982.5124
        43.0004         33.5004
 -30368767.96147 -23501516.57046  20286831.1724                   20286827.9104
        47.0004         38.7504
 -20604174.62147 -20077812.83646  20683917.3674                   20683913.2344
        47.0004         37.2504
 25  8  8  1  4 30.0000000  0  8G03G09G31G06G26G07G04G16
 -27442250.09448 -21447549.75848  20568040.6414                   20568039.8714
        49.0004         49.0004
 -17893317.94147 -13866678.80547  21784914.3754                   21784913.6414
        46.0004         44.7504
   1463690.92246   1155447.97345  23762245.6024                   23762243.9534
        40.0004         31.7504
  -6731057.69946  -5181752.18445  24401784.6954                   24401787.3794
        37.7504         32.5004
 -22833457.86747 -17770608.46946  22066377.3914                   22066376.8714
        44.5004         41.0004
  -6266405.15647  -4839610.12145  23553675.3364                   23553674.5394
        43.5004         34.7504
 -30416549.28547 -23538748.76646  20277738.8134                   20277735.9304
        47.2504         39.0004
 -20658250.29747 -20119949.69946  20673626.9774                   20673622.6054
        46.5004         36.7504
 25  8  8  1  5  0.0000000  0  8G03G09G31G06G26G07G04G16
 -27404737.00448 -21418318.80948  20575179.2424                   20575178.3054
        48.5004         49.0004
 -17993286.53147 -13944576.34447  21765891.1724                   21765890.1024
        46.0004         44.5004
   1533589.75846   1209914.52345  23775547.2974                   23775544.9844
        39.0004         31.0004
  -6745603.20346  -5193086.37145  24399016.3914                   24399019.2034
        37.0004         32.0004
 -22796148.13347 -17741535.98046  22073477.1484                   22073476.7344
        45.0004         40.5004
  -6362375.85547  -4914392.34445  23535411.3754                   23535412.1564
        42.5004         35.5004
 -30464044.69547 -23575758.16446  20268700.4534                   20268697.9454
        47.5004         39.0004
 -20711630.74247 -20161544.82046  20663468.8054                   20663464.9574
        46.7504         37.0004
 25  8  8  1  5 30.0000000  0  8G03G09G31G06G26G07G04G16
 -27366702.96548 -21388681.93748  20582416.6414                   20582416.5664
        48.2504         49.0004
 -18093121.02747 -14022369.39847  21746892.5944                   21746892.6844
        45.7504         44.2504
   1603522.96146   1264407.89845  23788854.8984                   23788852.7624
        37.5004         31.0004
  -6759628.56645  -5204015.26245  24396347.4064                   24396350.9734
        35.5004         31.2504
 -22758323.49247 -17712062.25846  22080674.6484                   22080674.2894
        44.5004         41.0004
  -6458126.23847  -4989002.87946  23517191.0084                   23517191.3714
        44.0004         36.0004
 -30511269.25447 -23612556.51646  20259713.9304                   20259711.1564
        47.5004         38.7504
 -20764331.06647 -20202609.98446  20653440.2734                   20653436.1884
        47.0004         37.0004
 25  8  8  1  6  0.0000000  0  8G03G09G31G06G26G07G04G16
 -27328147.09048 -21358638.43448  20589753.4844                   20589753.0744
        48.5004         48.7504
 -18192817.53147 -14100054.93047  21727921.4614                   21727920.7974
        46.2504         44.2504
   1673492.24246   1318929.33245  23802169.5944                   23802167.8444
        37.0004         31.7504
  -6773132.47746  -5214537.82845  24393778.2344                   24393780.8834
        36.7504         31.7504
 -22719983.54747 -17682187.00446  22087970.1644                   22087969.9534
        43.2504         40.2504
  -6553653.56647  -5063439.61345  23499012.8984                   23499012.2344
        43.7504         35.7504
 -30558219.18047 -23649140.85946  20250779.7814                   20250776.8634
        47.0004         39.2504
 -20816347.33647 -20243142.11346  20643541.9064                   20643538.1054
        46.7504         37.2504
 25  8  8  1  6 30.0000000  0  8G03G09G31G06G26G07G04G16
 -25713636.24647 -20100578.08248  20896985.0474                   20896984.2774
        47.7504         49.0004
 -16716935.12547 -12950016.62947  22008772.3914                   22008771.2974
        46.0004         44.5004
   3318929.91046   2601088.49645  24115285.8204                   24115284.4024
        39.0004         31.2504
  -5210679.41846  -3997041.97745  24691103.5944                   24691105.4654
        37.2504         31.5004
 -21105695.56647 -16424300.29346  22395158.8524                   22395159.7624
        43.2504         40.2504
  -5073518.17647  -3910087.23446  23780673.3594                   23780673.0744
        43.5004         37.0004
 -29029455.52047 -22457896.43746  20541693.6254                   20541690.8484
        47.5004         39.5004
 -19292240.37947 -19055526.28146  20933569.7114                   20933565.7814
        47.5004         37.0004
 25  8  8  1  7  0.0000000  0  8G03G09G31G06G26G07G04G16
 -25673996.23048 -20069689.79748  20904528.3754                   20904527.5744
        48.0004         48.5004
 -16816305.82447 -13027448.28147  21989862.7114                   21989861.8754
        46.2504         44.5004
   3389012.86346   2655698.53145  24128621.5394                   24128620.6254
        38.5004         31.2504
  -5223098.07046  -4006718.87945  24688740.1564                   24688742.5204
        37.5004         31.5004
 -21066285.81247 -16393591.42246  22402658.5474                   22402658.5474
        42.7504         39.7504
  -5168552.60247  -3984139.90646  23762588.7424                   23762588.5944
        43.7504         37.7504
 -29075806.83647 -22494014.34046  20532873.1174                   20532870.3874
        46.7504         39.0004
 -19342838.89548 -19094953.66446  20923941.2894                   20923937.0864
        48.0004         37.5004
 25  8  8  1  7 30.0000000  0  8G03G09G31G06G26G07G04G16
 -25633809.72747 -20038375.68048  20912175.5234                   20912174.6954
        47.0004         48.5004
 -16915504.68047 -13104746.02047  21970985.9534                   21970985.0274
        46.2504         44.5004
   3459157.57046   2710356.67245  24141970.9924                   24141969.0984
        39.7504         32.2504
  -5234968.98846  -4015968.98445  24686480.9614                   24686483.2034
        37.5004         31.5004
 -21026337.52047 -16362462.90246  22410260.4064                   22410260.5784
        42.0004         39.5004
  -5263333.24247  -4057994.80146  23744554.0394                   23744552.4064
        45.2504         37.5004
 -29121850.02047 -22529892.12946  20524111.9064                   20524108.8594
        46.5004         38.7504
 -19392719.65647 -19133821.76646  20914448.8754                   20914445.0234
        47.5004         37.5004
 25  8  8  1  8  0.0000000  0  8G03G09G31G06G26G07G04G16
 -25593086.44947 -20006643.29348  20919925.2504                   20919924.2424
        47.7504         48.5004
 -17014538.17647 -13181914.91847  21952140.4224                   21952139.5204
        46.2504         44.7504
   3529355.31346   2765056.16845  24155328.6804                   24155327.0514
        40.2504         33.5004
  -5246301.21146  -4024799.33245  24684324.0944                   24684328.1214
        37.0004         32.2504
 -20985860.82047 -16330922.65246  22417963.2194                   22417963.5234
        42.2504         39.5004
  -5357868.00047  -4131658.13746  23726563.4694                   23726562.6994
        44.5004         37.5004
 -29167591.77047 -22565535.03946  20515407.1644                   20515404.8444
        44.7504         39.5004
 -19441889.40247 -19172135.81646  20905092.6804                   20905088.4494
        46.5004         37.2504
 25  8  8  1  8 30.0000000  0  8G03G09G31G06G26G07G04G16
 -25551826.28947 -19974492.55148  20927776.7584                   20927775.8914
        47.7504         48.5004
 -17113403.06247 -13258952.43047  21933327.1334                   21933326.0354
        46.5004         44.5004
   3599606.46946   2819797.28545  24168697.4614                   24168695.2304
        40.5004         33.5004
  -5257094.09446  -4033209.41045  24682270.6414                   24682273.6994
        37.2504         31.2504
 -20944856.01647 -16298970.88346  22425765.7814                   22425765.8874
        42.0004         40.0004
  -5452154.44947  -4205127.96146  23708621.2734                   23708620.0824
        44.5004         37.5004
 -29213028.98847 -22600940.64846  20506760.7584                   20506757.9024
        47.0004         39.5004
 -19490345.11347 -19209893.48846  20895871.7974                   20895867.3634
        47.0004         37.0004
 25  8  8  1  9  0.0000000  0  8G03G09G31G06G26G07G04G16
 -25510029.86347 -19941923.95348  20935730.4304                   20935729.4694
        47.5004         48.5004
 -17212096.77747 -13335856.56247  21914546.2584                   21914544.9964
        46.0004         44.7504
   3669911.32046   2874580.21145  24182075.9064                   24182074.2734
        41.0004         34.0004
  -5267347.82046  -4041199.35245  24680319.8594                   24680321.4774
        37.2504         31.5004
 -20903324.16847 -16266608.44546  22433669.3914                   22433669.4024
        43.0004         39.5004
  -5546191.27747  -4278403.27746  23690727.0004                   23690725.6684
        43.7504         38.0004
 -29258159.19147 -22636107.03146  20498173.0784                   20498170.1994
        46.5004         39.5004
 -19538084.15247 -19247092.71546  20886787.4614                   20886783.3014
        47.2504         37.0004
 25  8  8  1  9 30.0000000  0  8G03G09G31G06G26G07G04G16
 -25467710.58648 -19908947.93448  20943783.5634                   20943782.6604
        48.2504         48.5004
 -17310629.51247 -13412635.25447  21895795.9224                   21895795.2504
        46.5004         44.7504
   3740256.65246   2929394.68845  24195462.6804                   24195460.7234
        40.2504         34.2504
  -5277075.25846  -4048779.21145  24678468.1094                   24678471.3054
        37.2504         31.7504
 -20861279.22747 -16233846.18746  22441670.1644                   22441670.2974
        43.0004         39.5004
  -5639990.03947  -4351493.10246  23672876.1724                   23672876.0204
        43.2504         37.5004
 -29302992.81647 -22671042.30946  20489641.3674                   20489638.4964
        46.2504         39.0004
 -19585117.06247 -19283741.70746  20877837.2814                   20877833.1334
        47.5004         37.0004
 25  8  8  1 10  0.0000000  0  8G03G09G31G06G26G07G04G16
 -25424863.57048 -19875560.68748  20951936.6254                   20951936.2584
        48.2504         48.5004
 -17408993.13347 -13489282.17647  21877078.0634                   21877077.1644
        46.5004         45.0004
   3810647.97346   2984245.02045  24208856.9064                   24208855.0354
        39.7504         32.5004
  -5286270.98046  -4055944.76245  24676719.0864                   24676721.1414
        37.7504         32.2504
 -20818716.60947 -16200680.53946  22449769.7584                   22449769.4414
        44.0004         39.2504
  -5733543.69947  -4424391.88746  23655074.7894                   23655073.2734
        44.7504         37.5004
 -29347521.78147 -22705740.18746  20481167.6174                   20481165.0704
        45.5004         39.0004
 -19631436.14847 -19319834.47746  20869022.8284                   20869018.7504
        47.0004         37.5004
 25  8  8  1 10 30.0000000  0  8G03G09G31G06G26G07G04G16
 -25381493.20748 -19841765.64548  20960190.3594                   20960189.1524
        48.7504         48.7504
 -17507188.81647 -13565798.22747  21858391.7974                   21858391.1994
        46.5004         45.5004
   3881082.05546   3039128.65245  24222261.1254                   24222258.6764
        41.0004         33.2504
  -5294938.82846  -4062698.96145  24675069.3444                   24675072.2854
        38.0004         32.7504
 -20775641.15647 -16167115.29746  22457966.6804                   22457966.4494
        43.5004         40.0004
  -5826854.39547  -4497101.36746  23637318.5314                   23637316.8014
        44.7504         37.5004
 -29391747.45347 -22740201.73846  20472751.7344                   20472748.9844
        45.0004         39.5004
 -19677042.88747 -19355372.17246  20860344.3674                   20860340.1024
        45.7504         38.0004
 25  8  8  1 11  0.0000000  0  8G03G09G31G06G26G07G04G16
 -25337596.52747 -19807560.49248  20968543.3674                   20968542.6604
        47.7504         48.5004
 -17605210.18447 -13642178.44547  21839739.4144                   21839738.1254
        47.0004         45.5004
   3951562.25046   3094048.19945  24235673.6484                   24235671.1454
        40.5004         34.2504
  -5303075.32846  -4069039.14545  24673521.1174                   24673523.8404
        37.0004         31.0004
 -20732050.35947 -16133148.48446  22466261.5554                   22466261.9774
        44.0004         39.5004
  -5919917.02747  -4569617.55946  23619608.6334                   23619607.4614
        44.0004         36.5004
 -29435663.72347 -22774422.18746  20464394.8524                   20464392.1644
        46.0004         39.0004
 -19721931.28947 -19390350.12546  20851802.0474                   20851797.8634
        46.5004         37.7504
 25  8  8  1 11 30.0000000  0  8G03G09G31G06G26G07G04G16
 -25293182.99248 -19772952.58648  20976995.1254                   20976994.5904
        48.2504         48.5004
 -17703063.55947 -13718427.76647  21821118.1724                   21821117.0394
        47.2504         45.5004
   4022079.61347   3148996.77345  24249091.4614                   24249089.5664
        42.2504         34.7504
  -5310689.56246  -4074972.35245  24672072.3134                   24672074.7344
        38.0004         31.0004
 -20687954.12947 -16098787.82046  22474653.1484                   22474652.9454
        43.5004         39.5004
  -6012739.43047  -4641946.55946  23601944.3834                   23601943.7344
        43.0004         37.2504
 -29479276.98847 -22808406.53946  20456095.7504                   20456092.8594
        46.5004         39.7504
 -19766107.90247 -19424773.42646  20843395.9384                   20843391.8134
        46.7504         37.0004
 25  8  8  1 12  0.0000000  0  8G03G09G31G06G26G07G04G16
 -25248251.08647 -19737940.75848  20985545.4774                   20985544.9574
        47.5004         48.7504
 -17800744.01247 -13794542.34847  21802529.8674                   21802529.0744
        46.7504         45.2504
   4092636.75047   3203976.27345  24262519.2344                   24262516.8834
        43.2504         34.5004
  -5317779.37946  -4080496.93045  24670723.3594                   24670725.4734
        38.0004         31.5004
 -20643351.33247 -16064032.42646  22483140.9454                   22483140.9774
        44.0004         40.0004
  -6105317.69147  -4714085.30146  23584327.4924                   23584326.5474
        43.5004         36.7504
 -29522582.51247 -22842151.09846  20447854.7584                   20447852.1644
        47.0004         39.2504
 -19809568.39847 -19458638.71546  20835125.5234                   20835120.8984
        47.0004         37.5004
 25  8  8  1 12 30.0000000  0  8G03G09G31G06G26G07G04G16
 -25202807.57847 -19702530.27748  20994192.8364                   20994192.4064
        47.5004         48.2504
 -17898254.93747 -13870524.82447  21783974.1724                   21783973.0984
        45.7504         45.2504
   4163227.61347   3258982.11745  24275951.7034                   24275949.8954
        42.0004         34.0004
  -5324351.04746  -4085617.75845  24669472.7274                   24669475.1294
        38.0004         31.7504
 -20598249.14847 -16028887.91046  22491723.7734                   22491723.4344
        44.5004         40.0004
  -6197656.50047  -4786037.45746  23566755.1024                   23566754.9774
        42.5004         36.7504
 -29565583.92647 -22875658.67646  20439672.0704                   20439668.7274
        46.5004         39.5004
 -19852316.70347 -19491949.05546  20826990.6484                   20826986.1604
        46.5004         37.5004
 25  8  8  1 13  0.0000000  0  8G03G09G31G06G26G07G04G16
 -25156851.20348 -19666720.15648  21002937.6174                   21002937.4614
        48.0004         48.5004
 -17995591.72747 -13946371.61747  21765451.7114                   21765450.5474
        46.0004         45.5004
   4233854.35947   3314015.86345  24289392.0164                   24289389.5124
        42.5004         32.5004
  -5330402.87146  -4090333.50845  24668320.2894                   24668323.6604
        38.5004         32.0004
 -20552646.66047 -15993353.54746  22500401.7114                   22500401.7584
        44.0004         39.7504
  -6289752.47347  -4857800.39146  23549230.7274                   23549229.6484
        43.7504         36.5004
 -29608276.78147 -22908925.82046  20431547.6644                   20431544.9804
        45.5004         39.5004
 -19894348.59447 -19524701.15246  20818991.7194                   20818987.8754
        45.5004         37.2504
 25  8  8  1 13 30.0000000  0  8G03G09G31G06G26G07G04G16
 -25110391.45748 -19630517.80548  21011779.3204                   21011778.0904
        48.2504         48.2504
 -18092760.49647 -14022087.48047  21746961.3364                   21746960.1604
        46.0004         45.5004
   4304507.96547   3369070.59045  24302837.4224                   24302834.2424
        43.2504         33.7504
  -5335943.86346  -4094651.23045  24667266.1954                   24667269.2974
        38.7504         31.2504
 -20506553.80547 -15957437.07446  22509173.2194                   22509172.6804
        43.7504         39.2504
  -6381613.10247  -4929379.93746  23531750.7344                   23531748.4304
        43.2504         36.0004
 -29650667.42647 -22941957.47746  20423480.8524                   20423478.2974
        44.7504         40.0004
 -19935670.91847 -19556900.33646  20811128.8984                   20811124.6524
        45.5004         37.5004
 25  8  8  1 14  0.0000000  0  8G03G09G31G06G26G07G04G16
 -25063414.94147 -19593912.78148  21020718.8444                   21020717.8594
        46.7504         48.0004
 -18189744.34047 -14097659.24647  21728505.4384                   21728504.6994
        45.5004         45.7504
   4375202.89147   3424157.51245  24316289.2344                   24316287.3634
        42.2504         33.5004
  -5340960.03546  -4098559.97345  24666311.7274                   24666315.0164
        37.2504         30.7504
 -20459957.54347 -15921128.33646  22518039.8444                   22518039.7624
        43.0004         39.5004
  -6473222.64847  -5000763.84846  23514316.5004                   23514315.4924
        42.5004         36.7504
 -29692739.08247 -22974740.57446  20415475.1094                   20415472.1954
        46.5004         39.5004
 -19976267.41047 -19588533.94946  20803403.5084                   20803399.1844
        45.2504         38.0004
 25  8  8  1 14 30.0000000  0  8G03G09G31G06G26G07G04G16
 -25015939.65247 -19556919.09448  21029752.9694                   21029752.4454
        46.5004         48.0004
 -18286557.89547 -14173098.33247  21710082.9534                   21710081.5274
        46.2504         45.7504
   4445922.00446   3479263.26245  24329746.5704                   24329744.7854
        40.7504         33.0004
  -5345468.95746  -4102073.46945  24665454.4924                   24665456.3204
        39.0004         31.0004
 -20412876.30147 -15884441.69546  22526998.8594                   22526999.1414
        42.7504         39.2504
  -6564597.24247  -5071964.67246  23496929.1644                   23496928.0004
        42.5004         36.2504
 -29734506.68747 -23007286.75446  20407526.9224                   20407524.0864
        47.5004         40.0004
 -20016153.03547 -19619613.62946  20795813.5554                   20795809.5634
        47.0004         38.0004
 25  8  8  1 15  0.0000000  0  8G03G09G31G06G26G07G04G16
 -24967968.37147 -19519538.91847  21038881.5314                   21038880.7974
        47.2504         47.7504
 -18383200.39147 -14248404.11347  21691691.9774                   21691690.9924
        45.2504         45.7504
   4516663.59846   3534386.51245  24343207.6954                   24343206.0274
        41.2504         31.7504
  -5349472.94546  -4105193.50045  24664691.8134                   24664694.6644
        37.7504         30.7504
 -20365313.26247 -15847379.62146  22536049.6804                   22536050.0664
        42.5004         39.2504
  -6655737.17247  -5142982.64546  23479585.7114                   23479583.9414
        42.5004         36.5004
 -29775969.67247 -23039595.57046  20399636.8834                   20399633.9184
        46.2504         39.5004
 -20055328.08647 -19650139.62146  20788358.9144                   20788354.8714
        46.2504         37.5004
 25  8  8  1 15 30.0000000  0  8G03G09G31G06G26G07G04G16
 -24919501.06248 -19481772.22348  21048104.7974                   21048103.7074
        48.0004         48.0004
 -18479668.32847 -14323573.88747  21673334.8134                   21673333.6994
        46.0004         46.0004
   4587428.46946   3589527.92245  24356674.8364                   24356672.2584
        41.5004         31.0004
  -5352971.40246  -4107919.62945  24664026.7664                   24664029.5554
        39.2504         30.7504
 -20317268.70747 -15809942.34846  22545192.5394                   22545192.2464
        44.5004         39.0004
  -6746640.71947  -5213816.43046  23462286.3754                   23462285.1174
        42.0004         36.0004
 -29817124.77347 -23071664.46946  20391805.2034                   20391802.4224
        47.7504         39.7504
 -20093789.72347 -19680109.69946  20781039.2664                   20781035.4104
        46.5004         37.2504
 25  8  8  1 16  0.0000000  0  8G03G09G31G06G26G07G04G16
 -24870534.56647 -19443616.55147  21057422.5084                   21057422.0984
        47.5004         47.7504
 -18575955.05147 -14398602.44147  21655011.9144                   21655010.9734
        46.0004         46.2504
   4658220.53546   3644690.53945  24370146.8914                   24370143.7424
        41.0004         30.7504
  -5355960.85246  -4110249.11745  24663458.1094                   24663460.3794
        38.7504         31.2504
 -20268739.84447 -15772127.69146  22554427.4534                   22554427.9144
        43.5004         39.0004
  -6837302.28547  -5284461.66046  23445034.4774                   23445032.8554
        42.7504         36.2504
 -29857965.53147 -23103488.43446  20384033.8364                   20384030.8674
        45.0004         39.5004
 -20131531.85547 -19709519.12146  20773857.8444                   20773853.5944
        45.2504         37.2504
 25  8  8  1 16 30.0000000  0  8G03G09G31G06G26G07G04G16
 -24821076.36747 -19405077.75447  21066834.1334                   21066833.7344
        46.5004         47.5004
 -18672064.48447 -14473492.85247  21636722.9064                   21636721.9454
        46.0004         46.0004
   4729033.47746   3699869.41445  24383621.1484                   24383619.2344
        41.0004         31.0004
  -5358448.26646  -4112187.40645  24662984.5314                   24662987.1484
        38.7504         30.7504
 -20219734.59847 -15733941.82046  22563752.5314                   22563752.8834
        42.0004         38.7504
  -6927727.27747  -5354922.55546  23427826.5394                   23427825.6294
        42.7504         36.5004
 -29898496.16847 -23135070.74246  20376320.5864                   20376317.4734
        47.5004         39.5004
 -20168558.95347 -19738371.38746  20766811.3594                   20766807.0984
        47.5004         37.7504
 25  8  8  1 17  0.0000000  0  8G03G09G31G06G26G07G04G16
 -24771131.83247 -19366159.97347  21076338.0944                   21076337.8014
        47.5004         47.5004
 -18767998.34847 -14548246.46547  21618467.2734                   21618465.9924
        46.0004         46.0004
   4799863.12146   3755061.28945  24397099.5944                   24397098.0394
        39.0004         30.0004
  -5360438.39846  -4113738.24245  24662606.3054                   24662608.8594
        39.7504         30.5004
 -20170258.59847 -15695389.12946  22573167.5944                   22573167.7304
        42.5004         38.7504
  -7017918.85547  -5425201.56646  23410663.8594                   23410662.9064
        43.0004         36.5004
 -29938718.62947 -23166412.92246  20368666.7814                   20368663.7384
        47.2504         39.7504
 -20204874.32047 -19766669.06246  20759900.8284                   20759896.4534
        47.7504         37.5004
 25  8  8  1 17 30.0000000  0  8G03G09G31G06G26G07G04G16
 -24720723.58647 -19326880.87147  21085930.8134                   21085930.0314
        47.2504         47.7504
 -18863775.81647 -14622878.21147  21600241.5704                   21600239.8834
        46.5004         46.0004
   4870687.71546   3810249.19944  24410576.9844                   24410575.7424
        38.0004         29.0004
  -5361953.58646  -4114918.94945  24662316.8524                   24662320.0554
        39.5004         31.5004
 -20120334.90247 -15656487.58246  22582667.8364                   22582667.9454
        43.5004         38.7504
  -7107897.50447  -5495314.66446  23393541.8834                   23393540.4964
        43.7504         37.0004
 -29978652.35547 -23197530.10546  20361067.3284                   20361064.6724
        47.5004         40.2504
 -20240497.80947 -19794427.61346  20753121.8754                   20753117.8674
        47.5004         38.0004
 25  8  8  1 18  0.0000000  0  9G27G03G09G31G06G26G07G04G16
   4597606.52055   3615501.27053  25034565.4144                   25034569.8594
        33.5004         22.0004
 -24669862.92247 -19287249.23847  21095609.3054                   21095608.9184
        47.7504         47.5004
 -18959404.52747 -14697394.03547  21582043.6804                   21582042.5594
        45.2504         46.0004
   4941496.71146   3865424.97344  24424051.1644                   24424049.8054
        39.7504         29.2504
  -5363004.64546  -4115738.02344  24662116.8204                   24662120.0434
        39.5004         29.0004
 -20069975.11747 -15617246.22746  22592250.9304                   22592251.3244
        43.7504         38.5004
  -7197672.23047  -5565268.87946  23376458.4454                   23376455.9494
        43.7504         37.0004
 -30018305.19147 -23228428.41446  20353521.6254                   20353519.0124
        46.5004         40.0004
 -20275437.76247 -19821653.53546  20746473.1094                   20746468.9844
        47.0004         37.7504
 25  8  8  1 18 30.0000000  0  9G27G03G09G31G06G26G07G04G16
   4488236.96945   3530278.44144  25013753.2344                   25013757.0474
        35.0004         24.7504
 -24618542.22747 -19247259.14148  21105375.3284                   21105375.1844
        47.5004         48.0004
 -19054873.14847 -14771785.12147  21563876.8524                   21563875.3014
        46.5004         46.2504
   5012299.25446   3920595.74645  24437524.8284                   24437523.2464
        40.2504         30.2504
  -5363583.42246  -4116189.09044  24662007.3054                   24662010.3284
        39.5004         29.2504
 -20019171.91447 -15577659.34446  22601918.0944                   22601919.0514
        44.0004         38.5004
  -7287233.27347  -5635056.58646  23359414.8134                   23359413.2274
        43.0004         37.0004
 -30057666.11747 -23259099.26646  20346031.3754                   20346028.6884
        47.5004         39.7504
 -20309683.83247 -19848338.77046  20739956.6174                   20739952.4884
        46.0004         36.7504
 25  8  8  1 19  0.0000000  0  9G27G03G09G31G06G26G07G04G16
   4378895.27046   3445077.32844  24992946.2584                   24992950.2774
        36.0004         27.5004
 -24566756.11747 -19206906.36747  21115229.6954                   21115229.6054
        47.0004         47.5004
 -19150172.77747 -14846044.52047  21545741.6484                   21545740.2624
        45.5004         46.7504
   5083101.88346   3975766.59044  24450997.9144                   24450996.3554
        40.0004         29.7504
  -5363684.08646  -4116267.55944  24661988.0004                   24661990.4184
        39.5004         28.5004
 -19967920.31247 -15537723.06646  22611671.7734                   22611671.4614
        43.0004         38.5004
  -7376572.99647  -5704671.85246  23342413.8524                   23342412.3094
        43.2504         37.7504
 -30096726.46147 -23289535.89146  20338598.6564                   20338595.6454
        47.5004         39.7504
 -20343228.23047 -19874477.25046  20733573.3674                   20733569.1954
        46.5004         37.5004
 25  8  8  1 19 30.0000000  0  9G27G03G09G31G06G26G07G04G16
   4269582.45746   3359898.71145  24972144.4774                   24972148.4414
        37.7504         30.2504
 -24514508.95347 -19166194.34847  21125172.2974                   21125172.2664
        47.0004         47.5004
 -19245304.11347 -14920172.78947  21527638.7274                   21527636.9104
        44.5004         46.0004
   5153901.34046   4030934.94544  24464470.1024                   24464468.9774
        38.5004         27.7504
  -5363310.73446  -4115976.71544  24662058.8914                   24662061.8954
        39.0004         29.5004
 -19916225.07446 -15497441.09846  22621508.9384                   22621509.0664
        41.7504         37.7504
  -7465693.67247  -5774116.43446  23325455.0784                   23325453.2704
        43.7504         37.2504
 -30135487.22747 -23319739.08646  20331222.8674                   20331220.0554
        46.7504         39.5004
 -20376072.43447 -19900070.11346  20727323.0944                   20727319.0234
        47.5004         37.5004
 25  8  8  1 20  0.0000000  0  9G27G03G09G31G06G26G07G04G16
   4160311.20346   3274752.48845  24951350.6724                   24951354.5784
        36.5004         30.0004
 -24461793.44547 -19125117.37147  21135203.7034                   21135203.3364
        46.7504         47.5004
 -19340256.07047 -14994161.27747  21509570.1804                   21509568.6604
        44.5004         46.0004
   5224705.53146   4086106.95744  24477945.1024                   24477942.5084
        38.7504         27.2504
  -5362455.54746  -4115310.37944  24662222.4224                   24662223.8634
        38.0004         29.2504
 -19864079.15647 -15456807.94946  22631432.7274                   22631432.3164
        42.5004         38.0004
  -7554585.37947  -5843382.60546  23308539.3284                   23308537.9414
        43.5004         37.2504
 -30173937.66447 -23349700.45746  20323906.0784                   20323903.1214
        46.7504         40.0004
 -20408207.00847 -19925110.02746  20721207.7424                   20721203.4734
        46.5004         37.2504
 25  8  8  1 20 30.0000000  0  9G27G03G09G31G06G26G07G04G16
   4051081.81645   3189638.88344  24930563.8444                   24930568.5314
        35.0004         28.0004
 -24408614.85947 -19083679.56247  21145323.0704                   21145322.7664
        46.2504         47.5004
 -19435030.21547 -15068011.21547  21491535.1564                   21491533.7934
        45.5004         46.0004
   5295510.65246   4141279.73044  24491418.3674                   24491417.0314
        39.0004         29.7504
  -5361123.25446  -4114272.26644  24662476.0234                   24662477.3874
        39.7504         29.7504
 -19811488.11347 -15415827.95346  22641439.2734                   22641439.4844
        43.5004         38.0004
  -7643251.74647  -5912473.18046  23291667.1564                   23291664.5904
        44.0004         37.5004
 -30212079.60947 -23379421.45746  20316647.5394                   20316644.7774
        46.5004         39.7504
 -20439634.25447 -19949598.77746  20715227.6094                   20715223.0904
        47.5004         38.0004
 25  8  8  1 21  0.0000000  0  9G27G03G09G31G06G26G07G04G16
   3941900.34845   3104562.66844  24909788.0554                   24909791.6174
        34.5004         26.2504
 -24354972.22747 -19041880.14847  21155531.1954                   21155531.0274
        47.2504         47.2504
 -19529621.89547 -15141718.96947  21473534.6564                   21473533.5274
        45.0004         46.5004
   5366319.05146   4196455.04345  24504891.6564                   24504891.7664
        40.7504         30.0004
  -5359312.59046  -4112861.40644  24662820.0784                   24662822.3984
        39.0004         29.7504
 -19758451.35547 -15374500.63746  22651532.0554                   22651532.3484
        42.2504         37.5004
  -7731689.41447  -5981385.55146  23274837.2194                   23274835.5594
        42.7504         37.2504
 -30249908.68047 -23408898.64846  20309449.0314                   20309446.2544
        46.5004         39.5004
 -20470350.68047 -19973533.64546  20709382.3914                   20709378.0044
        46.5004         37.5004
 25  8  8  1 21 30.0000000  0  9G27G03G09G31G06G26G07G04G16
   3832760.49246   3019518.82044  24889019.4144                   24889022.9774
        36.2504         27.5004
 -24300877.78947 -18999728.69147  21165825.0784                   21165825.0004
        47.0004         47.0004
 -19624039.57447 -15215291.14147  21455567.5164                   21455566.3164
        46.0004         46.7504
   5437119.64146   4251624.32044  24518365.6804                   24518363.6484
        40.5004         29.7504
  -5357035.32446  -4111086.97744  24663254.2584                   24663255.7854
        41.0004         29.0004
 -19704981.39547 -15332835.77046  22661707.3364                   22661707.1884
        42.5004         37.0004
  -7819908.26247  -6050127.43046  23258050.1484                   23258047.7704
        44.2504         37.5004
 -30287433.65647 -23438138.87946  20302308.0634                   20302305.3874
        46.0004         40.5004
 -20500365.99247 -19996922.18746  20703670.3674                   20703666.6884
        46.2504         37.2504
 25  8  8  1 22  0.0000000  0  9G27G03G09G31G06G26G07G04G16
   3723682.22346   2934522.96145  24868262.4774                   24868266.2274
        38.2504         30.0004
 -24246316.80947 -18957213.69547  21176207.3914                   21176207.1174
        47.0004         47.0004
 -19718264.69147 -15288713.26647  21437637.3524                   21437635.7034
        46.2504         46.5004
   5507928.02346   4306799.65244  24531840.3054                   24531838.9224
        40.2504         29.0004
  -5354276.25446  -4108937.10545  24663778.5784                   24663781.1884
        39.5004         30.2504
 -19651063.72347 -15290822.03946  22671967.0164                   22671967.4224
        42.0004         36.7504
  -7907891.43747  -6118685.66846  23241307.9064                   23241305.4104
        44.5004         37.5004
 -30324636.36747 -23467128.00046  20295228.8674                   20295225.8164
        46.5004         40.2504
 -20529662.80547 -20019750.85546  20698095.7424                   20698091.3874
        46.0004         38.0004
 25  8  8  1 22 30.0000000  0  9G27G03G09G31G06G26G07G04G16
   3614666.85946   2849576.13745  24847516.6094                   24847520.6484
        38.2504         31.0004
 -24191293.57047 -18914338.50047  21186678.3754                   21186678.0274
        47.2504         47.0004
 -19812297.80947 -15361985.78947  21419743.5164                   21419741.9064
        46.5004         46.5004
   5578741.62546   4361979.05544  24545316.2424                   24545313.1604
        40.2504         28.5004
  -5351039.35246  -4106414.89844  24664394.9614                   24664397.0784
        38.7504         29.0004
 -19596703.04747 -15248463.10246  22682311.6644                   22682311.7774
        42.0004         36.5004
  -7995640.68447  -6187061.61746  23224609.8364                   23224607.1954
        44.5004         38.0004
 -30361517.59447 -23495866.59846  20288210.7344                   20288207.6684
        46.0004         39.5004
 -20558243.05547 -20042021.15646  20692656.7734                   20692652.7894
        47.5004         37.2504
 25  8  8  1 23  0.0000000  0  9G27G03G09G31G06G26G07G04G16
   3505713.32845   2764677.50844  24826784.3914                   24826788.0164
        33.7504         27.5004
 -24135814.70347 -18871108.26247  21197235.2034                   21197235.1954
        46.5004         46.5004
 -19906141.70347 -15435110.85547  21401885.7114                   21401883.8834
        47.0004         46.7504
   5649554.85946   4417158.16444  24558791.1484                   24558788.8284
        40.7504         29.0004
  -5347330.76246  -4103525.15644  24665100.7584                   24665102.8094
        39.0004         28.5004
 -19541906.23047 -15205764.32046  22692738.8914                   22692739.5664
        42.5004         37.2504
  -8083160.44547  -6255258.75846  23207954.4224                   23207952.7894
        44.5004         38.0004
 -30398080.49247 -23524357.16846  20281252.8754                   20281249.8874
        46.0004         39.7504
 -20586110.70748 -20063736.19946  20687354.2424                   20687349.6524
        48.2504         38.0004
 25  8  8  1 23 30.0000000  0  9G27G03G09G31G06G26G07G04G16
   3396833.16846   2679836.12944  24806064.7974                   24806067.7734
        36.0004         25.7504
 -24079874.02347 -18827518.16847  21207881.2814                   21207880.5554
        47.0004         46.7504
 -19999786.30547 -15508080.63747  21384065.4224                   21384063.8054
        46.5004         47.0004
   5720375.51246   4472343.07045  24572267.6564                   24572265.3834
        41.0004         30.5004
  -5343143.87546  -4100262.71944  24665897.7344                   24665899.9884
        39.5004         28.0004
 -19486667.30947 -15162721.03946  22703251.4534                   22703251.0744
        42.0004         37.0004
  -8170442.32447  -6323270.52046  23191345.4614                   23191343.3674
        44.7504         38.5004
 -30434315.31247 -23552592.08646  20274357.4774                   20274354.5744
        46.5004         40.0004
 -20613257.32448 -20084889.38346  20682187.9844                   20682183.4804
        48.0004         38.0004
 25  8  8  1 24  0.0000000  0  9G27G03G09G31G06G26G07G04G16
   3288023.98446   2595049.85244  24785359.0164                   24785361.9774
        39.0004         24.7504
 -24023479.70347 -18783574.59847  21218612.0864                   21218611.8714
        46.7504         46.7504
 -20093236.00847 -15580898.55547  21366282.6724                   21366281.2034
        47.0004         47.0004
   5791196.52046   4527528.23445  24585744.6644                   24585742.9024
        41.5004         31.7504
  -5338486.53546  -4096633.66444  24666783.9454                   24666785.9494
        39.5004         29.0004
 -19430994.82047 -15119339.92646  22713845.3674                   22713845.2344
        42.5004         37.5004
  -8257492.26247  -6391101.55146  23174780.1174                   23174778.1804
        44.5004         38.2504
 -30470226.84447 -23580575.09046  20267523.9534                   20267521.1804
        45.2504         39.7504
 -20639688.39547 -20105485.00046  20677158.5004                   20677154.3404
        47.7504         37.5004
 25  8  8  1 24 30.0000000  0  9G27G03G09G31G06G26G07G04G16
   3179287.96146   2510320.61744  24764667.2114                   24764670.8754
        39.2504         29.7504
 -23966634.98047 -18739280.05947  21229429.5004                   21229429.0984
        47.2504         46.7504
 -20186490.15647 -15653564.09847  21348536.7344                   21348535.3674
        47.0004         47.0004
   5862016.18446   4582712.34845  24599221.5084                   24599219.2544
        40.5004         30.2504
  -5333361.68046  -4092640.34044  24667759.3204                   24667761.6844
        40.2504         29.5004
 -19374892.25447 -15075623.68046  22724520.6644                   22724521.5864
        43.2504         36.7504
  -8344311.40647  -6458752.75846  23158259.4534                   23158256.7544
        44.2504         38.0004
 -30505814.78147 -23608305.93746  20260751.6644                   20260748.7344
        45.7504         39.5004
 -20665404.76647 -20125523.71546  20672265.1094                   20672260.5864
        47.5004         38.0004
 25  8  8  1 25  0.0000000  0  9G27G03G09G31G06G26G07G04G16
   3070628.95346   2425651.50045  24743989.3284                   24743993.0554
        38.5004         32.2504
 -23909341.69548 -18694635.99247  21240332.6024                   21240331.8754
        48.0004         46.7504
 -20279546.70347 -15726075.66447  21330828.9144                   21330827.4414
        46.2504         47.0004
   5932833.84846   4637894.92645  24612697.1094                   24612695.1884
        40.0004         30.2504
  -5327770.57846  -4088283.69544  24668823.1954                   24668826.2974
        40.2504         29.7504
 -19318361.69147 -15031573.92246  22735278.8444                   22735279.1024
        42.7504         37.5004
  -8430899.07847  -6526223.59846  23141781.4384                   23141779.7384
        43.5004         38.0004
 -30541077.37547 -23635783.27346  20254041.6174                   20254038.3874
        46.5004         40.5004
 -20690406.03147 -20145005.20346  20667507.0004                   20667502.8134
        45.7504         38.2504
 25  8  8  1 25 30.0000000  0  9G27G03G09G31G06G26G07G04G16
   2962047.09446   2341042.50845  24723327.0474                   24723330.9384
        39.0004         31.0004
 -23851605.29747 -18649646.63747  21251319.5554                   21251318.8524
        46.7504         46.7504
 -20372407.14847 -15798434.41847  21313157.6254                   21313156.2464
        46.2504         47.0004
   6003645.36746   4693072.68044  24626172.4774                   24626170.2734
        39.7504         29.0004
  -5321718.40646  -4083567.78144  24669974.9384                   24669977.2074
        40.2504         29.2504
 -19261408.87147 -14987195.13346  22746116.4384                   22746116.9224
        42.7504         37.2504
  -8517258.33247  -6593516.44146  23125348.6254                   23125346.4224
        43.7504         38.5004
 -30576016.55547 -23663008.60546  20247392.4924                   20247389.9734
        46.2504         39.5004
 -20714695.00847 -20163931.66446  20662884.9844                   20662880.7624
        47.5004         37.5004
 25  8  8  1 26  0.0000000  0  9G27G03G09G31G06G26G07G04G16
   2853560.78146   2256507.83243  24702683.0554                   24702685.2344
        39.2504         22.5004
 -23793412.96147 -18604302.00847  21262392.8054                   21262392.3094
        47.0004         46.5004
 -20465054.77047 -15870627.34447  21295527.7034                   21295526.1684
        46.2504         47.2504
   6074465.09046   4748256.85944  24639648.2974                   24639647.0124
        40.2504         29.5004
  -5315191.85946  -4078482.21944  24671216.7344                   24671219.5204
        39.5004         29.7504
 -19204021.19547 -14942477.50446  22757036.9144                   22757037.3444
        42.5004         37.2504
  -8603374.26247  -6660619.68746  23108960.6024                   23108958.9184
        43.2504         38.2504
 -30610615.93747 -23689969.16046  20240808.8284                   20240805.7854
        45.7504         39.7504
 -20738257.09448 -20182291.71946  20658401.7584                   20658397.2074
        48.0004         38.5004
 25  8  8  1 26 30.0000000  0  9G27G03G09G31G06G26G07G04G16
   2745166.65646   2172045.00844  24682055.9694                   24682059.0864
        40.2504         29.0004
 -23734773.82447 -18558609.23847  21273551.6644                   21273551.5314
        46.0004         46.2504
 -20557494.73047 -15942658.45747  21277936.9144                   21277935.6724
        46.0004         47.5004
   6145285.48846   4803441.51645  24653125.3524                   24653123.5634
        40.5004         30.7504
  -5308199.75846  -4073033.91044  24672546.9614                   24672549.8554
        39.2504         29.5004
 -19146208.04347 -14897428.32046  22768038.7034                   22768038.7304
        43.0004         36.7504
  -8689253.75447  -6727538.68746  23092618.5004                   23092616.6454
        43.5004         38.2504
 -30644881.08647 -23716669.26246  20234288.2344                   20234285.1884
        46.7504         39.7504
 -20761098.34847 -20200090.08246  20654055.1644                   20654050.4964
        47.2504         37.5004
 25  8  8  1 27  0.0000000  0  9G27G03G09G31G06G26G07G04G16
   2636870.50046   2087658.54344  24661446.6414                   24661449.9964
        39.5004         27.7504
 -23675687.77047 -18512568.21147  21284795.4144                   21284795.0744
        46.0004         46.2504
 -20649722.91847 -16014524.55547  21260386.4534                   21260385.0984
        46.5004         47.5004
   6216108.02346   4858627.84845  24666603.2034                   24666601.0864
        38.7504         30.5004
  -5300741.62546  -4067222.44144  24673966.8834                   24673969.2344
        39.5004         28.7504
 -19087969.46947 -14852047.64546  22779121.0554                   22779121.1024
        42.5004         36.5004
  -8774893.84847  -6794271.14146  23076322.4384                   23076320.0004
        44.0004         38.5004
 -30678808.27047 -23743106.02746  20227832.0784                   20227829.3244
        47.0004         40.0004
 -20783216.43747 -20217324.93446  20649846.1024                   20649841.6524
        47.5004         37.7504
 25  8  8  1 27 30.0000000  0  9G27G03G09G31G06G26G07G04G16
   2528672.89846   2003348.89144  24640857.4844                   24640860.7854
        36.7504         27.7504
 -23616159.83247 -18466182.85947  21296122.8134                   21296122.9144
        45.2504         46.0004
 -20741740.37547 -16086226.44947  21242875.9454                   21242874.6764
        46.7504         47.7504
   6286928.99246   4913812.99245  24680079.1804                   24680078.3554
        38.0004         30.7504
  -5292822.07046  -4061051.43444  24675473.6024                   24675475.9414
        40.0004         29.0004
 -19029310.82446 -14806339.64146  22790283.0394                   22790283.4064
        41.7504         36.5004
  -8860297.74247  -6860819.55946  23060069.6334                   23060068.2034
        43.5004         38.5004
 -30712398.98047 -23769280.60246  20221440.1484                   20221437.4184
        46.0004         40.2504
 -20804614.04347 -20233998.36346  20645773.6414                   20645769.6844
        47.5004         38.7504
 25  8  8  1 28  0.0000000  0  9G27G03G09G31G06G26G07G04G16
   2420576.07446   1919117.81345  24620288.3444                   24620290.9534
        38.0004         30.0004
 -23556193.52747 -18419455.93047  21307534.0704                   21307534.1914
        45.5004         46.0004
 -20833546.69547 -16157763.82047  21225406.0164                   21225404.5704
        46.2504         47.7504
   6357746.15246   4968995.11744  24693554.8054                   24693553.5234
        38.2504         28.7504
  -5284444.34846  -4054523.42244  24677068.7034                   24677070.9924
        39.0004         29.2504
 -18970235.85547 -14760307.23046  22801525.2664                   22801525.0124
        42.2504         36.7504
  -8945466.83247  -6927185.00446  23043861.9454                   23043860.2664
        44.0004         38.5004
 -30745653.17247 -23795192.94946  20215112.0084                   20215109.0634
        46.0004         40.5004
 -20825292.79748 -20250111.67246  20641839.0164                   20641834.6764
        48.5004         37.7504
 25  8  8  1 28 30.0000000  0  9G27G03G09G31G06G26G07G04G16
   2312581.08246   1834966.03144  24599737.0554                   24599739.5864
        38.5004         29.0004
 -23495793.59847 -18372391.11347  21319027.8834                   21319027.9654
        45.7504         46.0004
 -20925142.51647 -16229137.16047  21207975.8054                   21207974.4694
        46.5004         47.7504
   6428556.91446   5024172.23444  24707030.2424                   24707029.4384
        36.0004         27.7504
  -5275612.83646  -4047641.77745  24678748.7734                   24678751.8874
        39.5004         30.2504
 -18910749.53547 -14713954.27746  22812844.9064                   22812844.8524
        42.0004         36.5004
  -9030403.07047  -6993369.01646  23027699.5164                   23027697.5634
        43.5004         38.7504
 -30778571.93047 -23820843.92646  20208847.7664                   20208845.0554
        47.0004         40.0004
 -20845254.95747 -20265666.58246  20638040.0394                   20638035.9384
        47.0004         37.7504
 25  8  8  1 29  0.0000000  0  9G27G03G09G31G06G26G07G04G16
   2204700.56646   1750903.34444  24579207.6804                   24579210.2384
        38.0004         24.0004
 -23434953.09047 -18324982.99247  21330606.0394                   21330605.7074
        46.0004         46.2504
 -21016516.84447 -16300337.91447  21190587.9144                   21190586.1524
        45.5004         47.7504
   6499369.48045   5079350.82044  24720504.9224                   24720504.1524
        34.0004         26.5004
  -5266320.14146  -4040400.78945  24680517.4224                   24680519.7154
        38.7504         30.5004
 -18850845.07447 -14667275.50446  22824244.3444                   22824244.2814
        42.5004         36.7504
  -9115097.27747  -7059364.43046  23011581.8284                   23011581.0004
        43.5004         39.0004
 -30811144.65247 -23846225.26246  20202649.5004                   20202646.5274
        46.0004         40.0004
 -20864491.23847 -20280655.87946  20634379.8204                   20634375.3754
        47.5004         38.7504
 25  8  8  1 29 30.0000000  0  9G27G03G09G31G06G26G07G04G16
   2096925.97345   1666923.34844  24558698.8674                   24558702.2194
        35.5004         27.5004
 -23373686.28147 -18277242.68047  21342264.4614                   21342264.5314
        45.2504         46.2504
 -21107679.92247 -16371374.05947  21173240.1804                   21173238.7854
        46.0004         47.7504
   6570171.25846   5134520.99244  24733978.4304                   24733977.4064
        37.0004         28.0004
  -5256580.25846  -4032811.33645  24682370.2034                   24682373.7854
        39.0004         31.0004
 -18790536.94947 -14620282.19146  22835720.6564                   22835720.4774
        42.5004         37.2504
  -9199561.50447  -7125180.63346  22995510.0004                   22995507.7344
        44.2504         39.0004
 -30843382.02347 -23871345.28146  20196514.9384                   20196511.9384
        47.0004         39.7504
 -20883013.83248 -20295089.05946  20630854.9844                   20630850.4024
        48.0004         37.7504
 25  8  8  1 30  0.0000000  0  9G27G03G09G31G06G26G07G04G16
   1989269.91046   1583035.71945  24538212.5944                   24538215.0474
        37.7504         30.5004
 -23311986.26247 -18229164.80147  21354005.8054                   21354005.9064
        45.5004         46.2504
 -21198620.77347 -16442237.03147  21155934.1954                   21155932.7504
        46.5004         47.5004
   6640970.59846   5189689.25444  24747451.1804                   24747449.9534
        36.5004         27.0004
  -5246385.93046  -4024867.79345  24684311.1644                   24684313.4264
        38.5004         30.2504
 -18729818.51646 -14572969.15246  22847274.9064                   22847275.2154
        41.7504         37.0004
  -9283786.70347  -7190810.58246  22979482.2194                   22979479.9104
        44.5004         39.7504
 -30875273.53947 -23896195.80946  20190445.7664                   20190443.0314
        46.5004         40.0004
 -20900813.51247 -20308958.92246  20627468.1174                   20627463.5664
        47.5004         38.0004
 25  8  8  1 30 30.0000000  0  9G27G03G09G31G06G26G07G04G16
   1881731.12146   1499239.40644  24517747.5944                   24517751.3204
        36.5004         28.5004
 -23249860.23447 -18180754.97747  21365827.7194                   21365827.6524
        45.5004         46.0004
 -21289342.52747 -16512929.28947  21138670.7424                   21138669.1914
        46.0004         47.7504
   6711761.73845   5244851.13344  24760922.1724                   24760920.8834
        33.5004         27.0004
  -5235743.94946  -4016575.39845  24686335.7584                   24686338.4774
        37.5004         30.0004
 -18668697.09046 -14525342.09846  22858906.1884                   22858906.1954
        41.2504         37.0004
  -9367777.41447  -7256257.82846  22963499.4694                   22963497.1054
        44.5004         39.2504
 -30906822.69147 -23920779.55946  20184442.4064                   20184439.4734
        46.7504         39.7504
 -20917895.12147 -20322269.25446  20624217.2504                   20624212.7974
        47.7504         38.2504
 25  8  8  1 31  0.0000000  0  9G27G03G09G31G06G26G07G04G16
   1774308.97346   1415533.96544  24497306.5474                   24497309.0004
        37.2504         28.0004
 -23187314.60947 -18132018.19147  21377729.9454                   21377729.8484
        45.5004         46.0004
 -21379847.34447 -16583452.49647  21121448.4144                   21121446.7734
        46.7504         47.7504
   6782540.23845   5300003.11344  24774391.2504                   24774390.4614
        35.2504         26.0004
  -5224660.50046  -4007939.01244  24688444.4614                   24688448.1174
        36.7504         29.2504
 -18607179.25446 -14477406.15246  22870612.3054                   22870612.8324
        41.5004         36.7504
  -9451537.48447  -7321525.37146  22947559.9774                   22947558.1254
        44.5004         40.0004
 -30938032.17247 -23945098.63346  20178503.4534                   20178500.2154
        47.0004         40.5004
 -20934263.11747 -20335023.52746  20621102.2034                   20621098.2304
        47.7504         38.0004
 25  8  8  1 31 30.0000000  0  9G27G03G09G31G06G26G07G04G16
   1667017.21145   1331930.14544  24476889.7114                   24476891.8984
        35.5004         27.2504
 -23124341.31647 -18082948.15647  21389713.7734                   21389713.3524
        45.2504         45.5004
 -21470123.16047 -16653797.25847  21104269.2274                   21104267.6884
        46.7504         47.7504
   6853315.72745   5355152.79744  24787859.7424                   24787857.7974
        35.5004         25.2504
  -5213127.18746  -3998952.10244  24690639.4694                   24690642.7384
        38.5004         29.7504
 -18545257.30146 -14429155.31646  22882395.6414                   22882396.0864
        40.7504         37.0004
  -9535056.87947  -7386605.33646  22931666.5394                   22931664.8754
        44.2504         39.2504
 -30968890.38747 -23969143.98846  20172631.6414                   20172628.5824
        46.7504         39.7504
 -20949907.39547 -20347213.86346  20618125.3524                   20618120.8204
        47.7504         38.0004
 25  8  8  1 32  0.0000000  0  9G27G03G09G31G06G26G07G04G16
   1559861.66046   1248432.46545  24456498.8594                   24456501.5704
        38.0004         32.2504
 -23060940.55547 -18033545.03947  21401778.0944                   21401778.2704
        46.0004         45.5004
 -21560166.01647 -16723960.48447  21087134.5004                   21087133.0394
        46.5004         47.7504
   6924089.44146   5410301.08244  24801328.0864                   24801325.1374
        38.7504         26.5004
  -5201143.87146  -3989614.53544  24692919.3594                   24692923.2234
        37.0004         28.5004
 -18482931.43446 -14380589.74246  22894256.3524                   22894256.6884
        41.2504         37.0004
  -9618333.58647  -7451496.20746  22915820.3524                   22915817.6954
        44.5004         40.0004
 -30999393.79747 -23992912.87146  20166826.9064                   20166823.6604
        47.2504         39.7504
 -20964825.80147 -20358838.58246  20615286.8364                   20615282.4964
        47.7504         37.5004
 25  8  8  1 32 30.0000000  0  9G27G03G09G31G06G26G07G04G16
   1452835.19546   1165035.40644  24436131.6254                   24436134.6644
        36.0004         29.2504
 -22997125.27747 -17983818.90647  21413921.5394                   21413921.9384
        46.2504         45.5004
 -21649984.60947 -16793948.96548  21070042.4064                   21070041.2384
        46.5004         48.0004
   6994850.32046   5465439.36744  24814793.5394                   24814791.5004
        39.5004         28.0004
  -5188723.03546  -3979936.03545  24695283.5084                   24695287.3834
        36.5004         30.5004
 -18420214.72746 -14331719.62146  22906190.5634                   22906190.9264
        41.2504         36.2504
  -9701377.79347  -7516205.89546  22900016.6804                   22900014.6844
        44.5004         39.2504
 -31029551.64147 -24016412.48846  20161088.2504                   20161084.8054
        45.7504         40.5004
 -20979029.20348 -20369906.15646  20612583.7424                   20612579.6254
        48.0004         38.0004
 25  8  8  1 33  0.0000000  0  9G27G03G09G31G06G26G07G04G16
   1345943.68445   1081743.48044  24415790.8284                   24415793.8634
        35.7504         28.5004
 -22932895.32447 -17933769.65647  21426144.4614                   21426144.4184
        46.2504         45.0004
 -21739574.69147 -16863759.37948  21052994.0554                   21052992.3324
        47.0004         48.2504
   7065600.05146   5520568.99244  24828255.6024                   24828254.4454
        40.0004         24.7504
  -5175864.40645  -3969916.41044  24697730.5704                   24697734.4304
        35.5004         29.0004
 -18357107.28546 -14282545.03946  22918199.3754                   22918199.9184
        41.2504         36.7504
  -9784187.17247  -7580732.60946  22884258.6414                   22884256.6844
        44.0004         39.7504
 -31059360.10947 -24039639.85946  20155415.5164                   20155412.3674
        46.2504         40.2504
 -20992515.35948 -20380414.83646  20610017.7814                   20610013.3554
        48.2504         38.0004
 25  8  8  1 33 30.0000000  0  9G27G03G09G31G06G26G07G04G16
   1239189.16446    998558.27044  24395476.3674                   24395478.3914
        37.5004         28.7504
 -22868254.71147 -17883400.43447  21438445.4844                   21438445.2034
        46.2504         45.0004
 -21828936.07047 -16933391.58248  21035989.6334                   21035988.1294
        47.0004         48.2504
   7136336.77346   5575688.53144  24841716.6724                   24841715.0004
        38.7504         25.5004
  -5162571.55945  -3959558.43444  24700258.4454                   24700263.0004
        35.2504         28.2504
 -18293613.27346 -14233069.23046  22930282.4534                   22930283.0274
        40.5004         36.0004
  -9866763.30147  -7645077.56246  22868544.4534                   22868542.5514
        44.2504         39.5004
 -31088819.55147 -24062595.25846  20149809.3364                   20149806.7704
        46.5004         40.0004
 -21005286.21148 -20390366.14146  20607587.4694                   20607583.0084
        49.0004         38.0004
 25  8  8  1 34  0.0000000  0  9G27G03G09G31G06G26G07G04G16
   1132575.32845    915482.66844  24375187.5944                   24375190.8284
        35.7504         29.5004
 -22803205.47347 -17832712.78547  21450823.8674                   21450823.7424
        45.0004         45.2504
 -21918066.52347 -17002843.82048  21019028.4774                   21019026.8834
        46.7504         48.5004
   7207059.77346   5630797.32043  24855175.7424                   24855173.1914
        40.0004         23.7504
  -5148846.38745  -3948863.56644  24702872.2274                   24702874.9654
        35.0004         27.5004
 -18229734.85246 -14183293.87745  22942437.6564                   22942438.5474
        39.5004         35.5004
  -9949105.65247  -7709240.34846  22852876.5474                   22852873.2544
        45.5004         39.2504
 -31117928.21147 -24085277.32846  20144270.6564                   20144267.3484
        47.0004         40.0004
 -21017341.98848 -20399760.24646  20605293.1174                   20605289.3754
        48.2504         38.0004
 25  8  8  1 34 30.0000000  0  9G27G03G09G31G06G26G07G04G16
   1026105.05146    832519.02344  24354927.7584                   24354930.2384
        37.2504         29.7504
 -22737750.78547 -17781709.19147  21463279.4614                   21463279.5394
        46.0004         45.2504
 -22006965.03947 -17072115.34048  21002111.3364                   21002109.8634
        46.5004         48.2504
   7277767.44146   5685894.14143  24868630.7814                   24868628.8324
        39.7504         22.5004
  -5134691.57845  -3937833.92244  24705566.0944                   24705568.7114
        34.2504         28.0004
 -18165475.29346 -14133221.53946  22954665.9224                   22954666.5044
        40.5004         36.0004
 -10031215.18447  -7773221.71146  22837249.8594                   22837248.1294
        44.2504         39.0004
 -31146685.58647 -24107685.66446  20138798.0864                   20138795.2424
        47.0004         39.5004
 -21028683.55948 -20408597.82046  20603134.6334                   20603130.5394
        48.5004         37.5004
 25  8  8  1 35  0.0000000  0  9G27G03G09G31G06G26G07G04G16
    919785.96546    749673.13744  24334695.3134                   24334698.0554
        38.0004         29.2504
 -22671888.88747 -17730388.30147  21475812.9144                   21475812.4574
        45.5004         45.2504
 -22095625.59047 -17141201.43748  20985240.0234                   20985238.4774
        47.2504         48.7504
   7348463.62946   5740982.12943  24882083.4064                   24882081.4614
        37.7504         22.5004
  -5120105.22345  -3926468.01244  24708340.4534                   24708345.1294
        34.5004         28.0004
 -18100833.05546 -14082851.01246  22966967.2034                   22966968.3444
        40.5004         36.7504
 -10113087.92247  -7837018.56246  22821670.4614                   22821668.8244
        45.0004         39.5004
 -31175086.30547 -24129816.09046  20133393.6334                   20133390.8914
        47.0004         40.5004
 -21039307.19948 -20416875.96946  20601113.5314                   20601109.1954
        48.0004         37.5004
 25  8  8  1 35 30.0000000  0  9G27G03G09G31G06G26G07G04G16
   2389038.51246   1894545.32845  24614283.9064                   24614287.7154
        37.7504         31.0004
 -21030211.03547 -16451158.88747  21788213.7274                   21788213.0124
        46.2504         45.0004
 -20608630.08647 -15982503.57848  21268205.5864                   21268203.9774
        47.0004         48.7504
   8994558.99246   7023653.79344  25195324.8674                   25195323.7344
        39.7504         26.0004
  -3529676.55145  -2687173.02744  25010990.7034                   25010993.0904
        33.2504         27.5004
 -16460399.47346 -12804591.12945  23279131.7194                   23279132.5634
        40.0004         35.5004
  -8619307.59047  -6673033.79746  23105927.8914                   23105925.7544
        45.0004         39.5004
 -29627714.59447 -22924071.89546  20427848.6724                   20427845.7344
        47.2504         40.0004
 -19473799.86748 -19197000.11346  20899019.7194                   20899014.9454
        48.5004         37.2504
 25  8  8  1 36  0.0000000  0  9G27G03G09G31G06G26G07G04G16
   2283016.08646   1811930.65645  24594109.3364                   24594112.1254
        37.7504         31.2504
 -20963558.19547 -16399221.66847  21800897.2034                   21800897.1844
        45.5004         45.0004
 -20696825.49247 -16051227.20748  21251422.6094                   21251421.4804
        47.0004         48.7504
   9065214.43846   7078709.89844  25208769.9844                   25208768.7424
        40.5004         27.0004
  -3514249.53545  -2675152.03544  25013925.2814                   25013928.7384
        34.2504         28.2504
 -16395015.64146 -12753642.74645  23291572.8914                   23291574.0514
        38.7504         34.7504
  -8700722.53947  -6736473.92246  23090435.0864                   23090432.6954
        45.0004         39.7504
 -29655414.08647 -22945655.90646  20422577.5554                   20422574.8874
        47.0004         40.5004
 -19483005.49648 -19204173.31246  20897267.4844                   20897263.1134
        48.5004         38.0004
 25  8  8  1 36 30.0000000  0  9G27G03G09G31G06G26G07G04G16
   2177152.98846   1729440.05545  24573963.8444                   24573966.5824
        38.5004         31.0004
 -20896507.82447 -16346974.69547  21813656.6954                   21813656.5314
        45.7504         44.7504
 -20784779.85947 -16119763.02048  21234685.4064                   21234683.7384
        46.7504         48.7504
   9135853.90646   7133753.64144  25222212.0394                   25222211.1294
        38.7504         27.0004
  -3498399.84845  -2662801.69944  25016941.3134                   25016944.9264
        34.7504         29.0004
 -16329259.11346 -12702403.95345  23304086.0394                   23304087.0904
        39.0004         35.7504
  -8781903.26247  -6799731.52746  23074986.5944                   23074984.2934
        45.0004         39.5004
 -29682755.29347 -22966960.74646  20417374.7504                   20417371.7624
        47.2504         40.0004
 -19491497.14148 -19210790.17246  20895652.0164                   20895647.3324
        48.0004         37.7504
 25  8  8  1 37  0.0000000  0  9G27G03G09G31G06G26G07G04G16
   2071456.39546   1647079.18844  24553850.8914                   24553853.0904
        38.0004         29.5004
 -20829058.70747 -16294417.01247  21826491.6334                   21826492.0434
        46.2504         44.5004
 -20872487.60547 -16188106.64548  21217995.2734                   21217993.4304
        47.5004         49.0004
   9206480.66846   7188787.42644  25235652.3984                   25235650.8324
        41.0004         29.0004
  -3482125.92245  -2650120.81244  25020038.4304                   25020042.0234
        33.5004         28.0004
 -16263128.75046 -12650873.86345  23316671.1254                   23316671.4184
        40.5004         35.5004
  -8862845.90647  -6862803.60946  23059583.2734                   23059581.2344
        45.0004         39.2504
 -29709733.30947 -22987982.56646  20412240.7344                   20412237.7854
        47.7504         39.5004
 -19499271.37148 -19216848.00846  20894172.0704                   20894167.9694
        48.0004         37.7504
 25  8  8  1 37 30.0000000  0  9G27G03G09G31G06G26G07G04G16
   1965931.05146   1564851.82045  24533769.1884                   24533772.2424
        39.5004         33.0004
 -20761211.97747 -16241549.50447  21839402.4534                   21839402.4694
        45.5004         44.2504
 -20959945.63747 -16256255.69548  21201352.2584                   21201350.8634
        47.2504         49.0004
   9277095.49246   7243811.91844  25249090.1724                   25249089.0274
        41.7504         29.2504
  -3465428.68045  -2637110.04744  25023216.2814                   25023219.3134
        34.7504         29.2504
 -16196625.89146 -12599053.50846  23329326.2114                   23329326.3794
        39.7504         36.5004
  -8943549.07847  -6925689.09846  23044225.8364                   23044223.9144
        44.5004         39.2504
 -29736345.51247 -23008719.34846  20407176.8284                   20407173.6564
        46.0004         40.0004
 -19506327.87148 -19222346.57046  20892829.3674                   20892825.5514
        48.0004         37.5004
 25  8  8  1 38  0.0000000  0  9G27G03G09G31G06G26G07G04G16
   1860572.12146   1482754.08645  24513720.3984                   24513722.6054
        40.2504         32.5004
 -20692978.56647 -16188380.68747  21852387.0314                   21852387.0164
        45.0004         44.0004
 -21047160.54347 -16324215.29748  21184755.9614                   21184754.2074
        47.0004         49.2504
   9347689.20346   7298820.05944  25262524.0944                   25262521.5274
        40.7504         27.7504
  -3448318.64545  -2623777.62544  25026471.8054                   25026475.6294
        34.0004         28.7504
 -16129761.48446 -12546951.42245  23342049.9454                   23342050.0474
        41.2504         35.7504
  -9024021.27747  -6988394.60246  23028912.7114                   23028910.4614
        45.2504         39.5004
 -29762599.09047 -23029176.68046  20402180.6174                   20402177.6764
        45.7504         40.0004
 -19512675.67247 -19227292.89846  20891621.7894                   20891617.2664
        47.7504         38.0004
 25  8  8  1 38 30.0000000  0  9G27G03G09G31G06G26G07G04G16
   1755388.16846   1400792.71144  24493704.3134                   24493706.4064
        39.0004         28.2504
 -20624355.90247 -16134908.55547  21865446.2974                   21865445.7544
        45.7504         43.7504
 -21134125.34047 -16391980.02348  21168206.8674                   21168205.3524
        47.5004         49.0004
   9418266.43846   7353815.29344  25275954.2584                   25275952.3054
        41.0004         27.7504
  -3430793.03945  -2610121.40244  25029807.5474                   25029810.9264
        33.5004         29.2504
 -16062533.06646 -12494565.69146  23354843.3444                   23354843.3404
        40.5004         36.5004
  -9104257.73847  -7050916.43046  23013644.6414                   23013641.3554
        45.5004         39.7504
 -29788487.63747 -23049349.56646  20397254.6724                   20397251.4804
        47.0004         39.7504
 -19518310.01248 -19231683.28946  20890549.3674                   20890544.8404
        48.0004         38.0004
 25  8  8  1 39  0.0000000  0  9G27G03G09G31G06G26G07G04G16
   1650368.99246   1318959.67645  24473720.3754                   24473721.8554
        39.7504         31.0004
 -20555360.17647 -16081145.71947  21878575.1024                   21878575.2344
        46.0004         43.7504
 -21220851.92247 -16459559.11748  21151703.5394                   21151701.7664
        47.2504         49.0004
   9488813.07446   7408786.65644  25289378.8054                   25289377.7934
        39.2504         28.5004
  -3412867.84045  -2596153.85244  25033217.9304                   25033221.8524
        33.5004         27.7504
 -15994956.87546 -12441908.97345  23367701.8834                   23367702.5394
        40.5004         35.5004
  -9184272.49647  -7113265.48846  22998417.9614                   22998414.9414
        45.5004         40.0004
 -29814023.62147 -23069247.74246  20392395.1414                   20392392.4144
        46.7504         40.2504
 -19523245.46548 -19235529.08646  20889610.5634                   20889605.8874
        48.5004         37.7504
 25  8  8  1 39 30.0000000  0  9G27G03G09G31G06G26G07G04G16
   1545504.91446   1237247.52045  24453764.6954                   24453767.5864
        39.0004         32.0004
 -20486007.10947 -16027104.44547  21891772.7194                   21891773.0234
        46.2504         44.0004
 -21307351.66447 -16526961.46548  21135243.2424                   21135241.3524
        47.7504         49.0004
   9559314.71546   7463723.00444  25302795.2114                   25302792.9494
        39.5004         27.2504
  -3394558.51645  -2581886.93044  25036702.3444                   25036706.1024
        34.0004         28.7504
 -15927048.72746 -12388993.59045  23380624.7424                   23380625.1564
        41.5004         35.0004
  -9264078.57847  -7175451.96546  22983231.3754                   22983228.9144
        45.2504         40.0004
 -29839219.05947 -23088880.54746  20387600.8914                   20387598.0824
        46.2504         41.0004
 -19527495.94148 -19238841.14846  20888801.2974                   20888796.8634
        48.0004         38.0004
 25  8  8  1 40  0.0000000  0  9G27G03G09G31G06G26G07G04G16
   1440802.42246   1155661.30145  24433840.0234                   24433842.5164
        40.5004         30.5004
 -20416296.26647 -15972784.38747  21905038.1484                   21905038.3874
        46.5004         44.2504
 -21393619.74247 -16594183.30148  21118826.6804                   21118825.1054
        47.5004         49.0004
   9629773.99246   7518626.34044  25316202.4844                   25316201.4414
        38.5004         27.7504
  -3375864.49245  -2567320.22344  25040260.1804                   25040263.6254
        34.7504         29.2504
 -15858808.25847 -12335819.25045  23393610.4144                   23393610.9614
        42.0004         35.2504
  -9343673.13347  -7237473.60946  22968084.9844                   22968082.3874
        45.7504         40.0004
 -29864069.67247 -23108244.66446  20382871.3834                   20382868.8834
        47.0004         40.2504
 -19531059.30547 -19241617.78146  20888123.4844                   20888118.8444
        47.5004         37.5004
 25  8  8  1 40 30.0000000  0  9G27G03G09G31G06G26G07G04G16
   1336268.00046   1074206.03145  24413948.0004                   24413950.2584
        40.5004         31.2504
 -20346227.18747 -15918185.16847  21918371.8754                   21918372.1174
        46.7504         44.0004
 -21479651.25447 -16661220.78948  21102455.3674                   21102453.5904
        47.0004         49.0004
   9700193.91446   7573498.98044  25329602.8204                   25329601.7734
        37.7504         28.2504
  -3356784.84046  -2552453.06645  25043891.2664                   25043894.8364
        36.2504         32.2504
 -15790235.01246 -12282385.61345  23406659.9384                   23406660.5824
        41.5004         35.2504
  -9423052.94947  -7299327.93046  22952979.3284                   22952976.2734
        45.7504         40.0004
 -29888571.22347 -23127336.78546  20378209.0394                   20378206.5044
        47.2504         40.0004
 -19533933.29348 -19243857.24646  20887576.2974                   20887571.8444
        48.0004         37.5004
 25  8  8  1 41  0.0000000  0  9G27G03G09G31G06G26G07G04G16
   1231904.18046    992883.64545  24394087.9694                   24394090.8754
        40.5004         32.2504
 -20275803.30547 -15863309.50447  21931773.2734                   21931773.5594
        46.2504         43.5004
 -21565445.30148 -16728073.26248  21086129.4064                   21086127.4694
        48.0004         49.2504
   9770572.83246   7628339.68044  25342995.8674                   25342994.3674
        39.0004         27.2504
  -3337323.00046  -2537288.06645  25047594.2894                   25047598.5314
        37.2504         32.2504
 -15721332.52047 -12228695.41045  23419771.6724                   23419772.4534
        42.0004         35.5004
  -9502219.37947  -7361015.97746  22937913.9454                   22937911.8324
        45.5004         40.0004
 -29912723.39547 -23146156.65646  20373613.0234                   20373610.0594
        46.5004         40.2504
 -19536119.48848 -19245560.76646  20887160.0944                   20887156.0664
        48.0004         37.7504
 25  8  8  1 41 30.0000000  0  9G27G03G09G31G06G26G07G04G16
   1127719.32446    911700.79344  24374262.6024                   24374264.2464
        41.0004         29.0004
 -20205022.34847 -15808155.58647  21945242.3204                   21945242.5634
        46.0004         43.2504
 -21650995.16047 -16794735.45748  21069849.7814                   21069848.2934
        47.0004         49.0004
   9840914.27346   7683151.24644  25356381.2894                   25356379.7154
        36.7504         27.7504
  -3317476.41046  -2521823.28545  25051371.4534                   25051374.7894
        36.7504         31.0004
 -15652098.57046 -12174746.94145  23432946.3524                   23432947.1024
        41.5004         34.7504
  -9581167.75447  -7422534.10546  22922891.1804                   22922888.3324
        45.5004         40.5004
 -29936520.16447 -23164699.59446  20369084.9844                   20369081.7894
        46.7504         40.2504
 -19537613.99648 -19246725.30546  20886875.8984                   20886871.4964
        48.2504         38.0004
 25  8  8  1 42  0.0000000  0  9G27G03G09G31G06G26G07G04G16
   1023715.66846    830659.05945  24354470.5704                   24354472.6914
        40.2504         30.5004
 -20133888.23047 -15752726.47747  21958778.2734                   21958779.2544
        45.2504         43.0004
 -21736300.27747 -16861206.93748  21053616.5704                   21053614.8284
        47.2504         49.2504
   9911216.99645   7737932.55944  25369759.5234                   25369757.5004
        35.2504         27.0004
  -3297248.58646  -2506061.43445  25055220.1724                   25055224.0594
        38.0004         31.5004
 -15582537.13346 -12120543.27345  23446183.9774                   23446183.6804
        41.5004         34.5004
  -9659899.28147  -7483883.28146  22907908.2814                   22907906.1914
        46.0004         40.5004
 -29959961.57447 -23182965.62946  20364623.8834                   20364621.1804
        47.0004         40.2504
 -19538418.96548 -19247352.55146  20886722.6724                   20886718.2974
        48.0004         37.5004
 25  8  8  1 42 30.0000000  0  9G27G03G09G31G06G26G07G04G16
    919899.89546    749763.77345  24334716.2974                   24334717.3874
        40.5004         32.2504
 -20062400.38347 -15697021.75047  21972383.2734                   21972383.0594
        46.0004         43.0004
 -21821355.62548 -16927483.80948  21037431.3524                   21037429.4414
        48.0004         49.2504
   9981483.18045   7792685.44144  25383129.9924                   25383129.2344
        33.0004         25.0004
  -3276638.86346  -2490001.99645  25059142.2034                   25059146.1334
        38.0004         33.0004
 -15512647.56246 -12066083.91445  23459482.8444                   23459483.5274
        41.5004         34.5004
  -9738411.01647  -7545061.18746  22892967.6804                   22892965.7114
        46.0004         40.7504
 -29983043.28947 -23200951.38746  20360231.7344                   20360229.0234
        45.0004         39.7504
 -19538532.02347 -19247440.64846  20886701.3834                   20886697.0704
        47.5004         37.5004
 25  8  8  1 43  0.0000000  0  9G27G08G03G09G06G26G07G04G16
    816278.71546    669020.11745  24314996.9064                   24314999.3594
        40.5004         32.7504
   5787277.19155   4803301.45354  24826235.0474                   24826241.1374
        34.0004         27.5004
 -19990558.07047 -15641040.82447  21986054.2274                   21986053.8794
        46.0004         43.2504
 -21906156.10247 -16993562.08248  21021293.9534                   21021292.6604
        47.2504         49.2504
  -3255646.30946  -2473644.24245  25063137.2894                   25063141.3054
        39.0004         32.7504
 -15442429.22346 -12011368.37945  23472845.8594                   23472845.8714
        40.0004         34.2504
  -9816700.22347  -7606065.69546  22878070.5944                   22878067.9924
        46.0004         41.0004
 -30005760.78947 -23218653.33646  20355908.4304                   20355906.0784
        46.7504         40.2504
 -19537951.20747 -19246988.06246  20886811.5394                   20886806.9344
        47.2504         37.5004
 25  8  8  1 43 30.0000000  0  9G27G08G03G09G06G26G07G04G16
    712857.32846    588432.06645  24295316.3834                   24295317.6294
        39.7504         30.5004
   5673629.81645   4714745.35244  24804608.9064                   24804614.5664
        35.2504         29.5004
 -19918362.23847 -15584784.39147  21999791.8204                   21999792.4414
        45.5004         42.7504
 -21990698.14847 -17059438.98448  21005206.2664                   21005204.7464
        46.5004         49.5004
  -3234271.59946  -2456988.72245  25067204.9924                   25067208.8364
        40.0004         34.0004
 -15371883.09446 -11956397.43045  23486270.0634                   23486270.4884
        39.7504         33.7504
  -9894765.03147  -7666895.35946  22863215.0314                   22863212.6764
        45.7504         40.7504
 -30028111.18747 -23236069.23046  20351655.4924                   20351652.7934
        46.5004         39.5004
 -19536675.78147 -19245994.21946  20887054.1094                   20887050.3324
        46.2504         37.5004
 25  8  8  1 44  0.0000000  0  9G27G08G03G09G06G26G07G04G16
    609666.65246    508023.85545  24275679.7344                   24275681.7704
        41.0004         32.0004
   5559955.94545   4626168.56645  24782976.5234                   24782983.0274
        35.5004         30.7504
 -19845788.00047 -15528233.12947  22013602.9774                   22013603.2034
        45.5004         43.2504
 -22074952.41047 -17125091.63748  20989173.4384                   20989171.6254
        47.0004         49.2504
  -3212489.80146  -2440015.96145  25071349.8594                   25071353.6214
        40.0004         35.0004
 -15300984.24646 -11901151.64545  23499761.4304                   23499761.7624
        40.0004         33.5004
  -9972577.92247  -7727528.71546  22848407.7344                   22848404.9924
        46.0004         40.7504
 -30050065.91047 -23253176.80146  20347477.7974                   20347474.7544
        46.2504         39.7504
 -19534679.09047 -19244438.35546  20887434.2194                   20887429.8984
        46.5004         37.2504
 25  8  8  1 44 30.0000000  0  9G27G08G03G09G06G26G07G04G16
    506703.75446    427793.15245  24256086.3444                   24256089.1764
        39.0004         30.7504
   5446251.93445   4537568.34444  24761339.4224                   24761345.1914
        34.2504         28.0004
 -19772844.45347 -15471394.08647  22027483.1334                   22027483.9144
        46.0004         43.2504
 -22158923.46147 -17190523.61348  20973194.0784                   20973192.1644
        47.7504         49.5004
  -3190309.64146  -2422732.82845  25075570.7344                   25075574.4494
        40.2504         33.0004
 -15229741.84446 -11845638.13745  23513318.7114                   23513319.4224
        39.0004         33.5004
 -10050145.81647  -7787971.16046  22833647.2664                   22833644.5594
        45.7504         40.7504
 -30071630.21147 -23269980.14546  20343374.0944                   20343371.3164
        45.5004         39.5004
 -19531968.74647 -19242326.39846  20887950.3754                   20887945.6374
        46.5004         37.0004
 25  8  8  1 45  0.0000000  0  9G27G08G03G09G06G26G07G04G16
    403964.39546    347736.56345  24236536.0784                   24236537.8634
        38.5004         30.0004
   5332513.11745   4448940.96544  24739695.5234                   24739701.2894
        34.5004         29.5004
 -19699542.01247 -15414275.39847  22041433.2584                   22041432.9924
        45.5004         43.2504
 -22242617.24247 -17255739.53548  20957268.0164                   20957266.1994
        46.5004         49.5004
  -3167741.44146  -2405147.32045  25079865.0554                   25079869.1374
        40.0004         33.5004
 -15158166.19546 -11789864.96145  23526939.1334                   23526939.4144
        40.0004         33.7504
 -10127476.82847  -7848229.02046  22818931.6954                   22818928.9734
        46.0004         40.7504
 -30092810.60947 -23286484.35546  20339343.6024                   20339340.6684
        45.7504         39.5004
 -19528553.50847 -19239665.17646  20888600.2274                   20888596.1954
        45.7504         37.0004
 25  8  8  1 45 30.0000000  0  9G27G08G03G09G06G26G07G04G16
    301437.41846    267845.52045  24217025.3594                   24217028.0864
        38.0004         30.5004
   5218727.71945   4360277.28144  24718042.0554                   24718047.9694
        35.2504         26.7504
 -19625897.89547 -15356890.44147  22055446.5394                   22055447.2544
        45.0004         43.0004
 -22326046.43047 -17320749.27748  20941391.6024                   20941389.9224
        46.5004         49.5004
  -3144802.14846  -2387272.60945  25084230.4224                   25084234.7934
        40.5004         33.5004
 -15086274.62146 -11733845.60945  23540619.3594                   23540620.3014
        40.0004         33.2504
 -10204585.66047  -7908313.75846  22804257.5944                   22804255.3054
        45.2504         41.0004
 -30113620.59847 -23302699.92646  20335383.4924                   20335380.8634
        46.2504         39.5004
 -19524449.09047 -19236466.92646  20889380.8364                   20889376.5084
        45.5004         37.2504
 25  8  8  1 46  0.0000000  0  9G27G08G03G09G06G26G07G04G16
    199126.13346    188122.56644  24197556.2114                   24197558.2544
        38.2504         29.2504
   5104898.62945   4271579.49244  24696381.3834                   24696387.0664
        35.2504         24.5004
 -19551914.91847 -15299241.46947  22069524.8834                   22069525.8164
        44.2504         42.2504
 -22409209.41847 -17385551.59448  20925566.6174                   20925564.5984
        46.2504         49.7504
  -3121494.42246  -2369110.83645  25088665.5004                   25088669.4414
        40.5004         32.7504
 -15014069.87546 -11677582.22345  23554359.5084                   23554360.4844
        40.0004         34.0004
 -10281472.55147  -7968225.57446  22789627.2274                   22789624.1644
        45.7504         41.2504
 -30134059.23447 -23318626.12146  20331494.4694                   20331491.4224
        46.7504         39.7504
 -19519656.81247 -19232732.68746  20890293.1414                   20890288.7194
        45.5004         37.2504
 25  8  8  1 46 30.0000000  0  9G27G08G03G09G06G26G07G04G16
     97033.70346    108570.10544  24178129.2584                   24178128.8014
        37.2504         25.5004
   4991028.52046   4182849.76644  24674712.4304                   24674717.6094
        36.5004         28.2504
 -19477596.16047 -15241330.84447  22083667.1724                   22083667.6484
        44.0004         42.2504
 -22492104.58647 -17450145.21148  20909791.6884                   20909789.7624
        47.0004         49.7504
  -3097821.17646  -2350664.23845  25093170.5944                   25093174.7424
        41.2504         34.0004
 -14941554.98846 -11621077.18745  23568158.3754                   23568159.9454
        38.5004         35.0004
 -10358138.18447  -8027964.96146  22775037.2974                   22775035.5474
        45.7504         41.0004
 -30154125.69147 -23334262.32446  20327675.6954                   20327672.5944
        46.5004         39.7504
 -19514178.25447 -19228463.68746  20891335.5864                   20891331.1414
        46.2504         36.7504
 25  8  8  1 47  0.0000000  0  9G27G08G03G09G06G26G07G04G16
     -4839.60246     29188.46144  24158742.0634                   24158744.6764
        37.2504         29.2504
   4877117.19146   4094088.03945  24653035.8054                   24653040.8244
        38.0004         30.7504
 -19402947.28947 -15183162.98847  22097873.2424                   22097873.5554
        44.5004         42.5004
 -22574733.18047 -17514531.11748  20894068.2034                   20894066.6294
        47.0004         50.0004
  -3073787.96546  -2331937.14545  25097743.4454                   25097747.9534
        41.2504         31.7504
 -14868735.71946 -11564334.94945  23582015.1334                   23582016.5664
        39.0004         34.0004
 -10434585.79347  -8087534.45346  22760490.1884                   22760488.0124
        45.5004         41.2504
 -30173821.91447 -23349610.02346  20323927.7194                   20323925.3834
        45.2504         39.7504
 -19508017.64547 -19223663.21546  20892507.8674                   20892503.3984
        46.2504         37.2504
 25  8  8  1 47 30.0000000  0  9G27G08G03G09G06G26G07G04G16
   -106481.39145    -50012.78144  24139400.1254                   24139402.6604
        35.7504         26.7504
   4763176.43846   4005303.35945  24631353.2734                   24631358.5824
        39.0004         32.0004
 -19327962.22747 -15124733.14547  22112141.9774                   22112143.0234
        45.2504         43.0004
 -22657084.50847 -17578700.96548  20878397.1884                   20878395.0084
        47.7504         50.0004
  -3049388.30946  -2312924.52745  25102387.6254                   25102391.3014
        41.5004         33.0004
 -14795605.78946 -11507350.63345  23595932.2194                   23595933.4454
        40.2504         34.2504
 -10510806.84447  -8146927.40246  22745985.5084                   22745983.1884
        46.2504         41.7504
 -30193137.96147 -23364661.49646  20320252.1644                   20320249.1764
        47.0004         40.2504
 -19501167.40647 -19218325.37946  20893811.3524                   20893807.0004
        46.2504         37.5004
 25  8  8  1 48  0.0000000  0  9G27G08G03G09G06G26G07G04G16
   -207887.27046   -129030.25844  24120103.5944                   24120105.4534
        36.7504         28.5004
   4649209.97345   3916498.56344  24609665.8594                   24609671.0944
        34.5004         26.0004
 -19252642.73447 -15066042.72746  22126475.0314                   22126475.1724
        44.5004         41.7504
 -22739155.75847 -17642652.56648  20862779.3364                   20862777.5314
        47.5004         50.0004
  -3024624.00446  -2293627.73845  25107099.8594                   25107103.8014
        40.7504         31.5004
 -14722166.98446 -11450125.64845  23609906.9454                   23609908.0664
        41.0004         34.0004
 -10586800.54747  -8206143.19947  22731525.1724                   22731522.2074
        46.5004         42.0004
 -30212071.79347 -23379415.12946  20316648.8914                   20316645.9964
        46.2504         40.2504
 -19493628.03147 -19212450.54346  20895245.8834                   20895241.1374
        46.5004         37.0004
 25  8  8  1 48 30.0000000  0  9G27G08G03G09G06G26G07G04G16
   -309058.85946   -207865.14145  24100850.8754                   24100853.1414
        37.2504         30.0004
   4535215.73446   3827672.08244  24587973.4304                   24587978.4614
        36.7504         24.0004
 -19176996.62547 -15007097.79747  22140870.0164                   22140870.5744
        44.0004         42.2504
 -22820950.23047 -17706388.49648  20847214.3674                   20847212.4304
        47.5004         49.7504
  -2999502.75446  -2274052.86345  25111880.3674                   25111883.9494
        41.0004         31.0004
 -14648427.03946 -11392666.01645  23623939.8914                   23623940.6994
        39.5004         35.0004
 -10662572.07847  -8265185.87947  22717105.5864                   22717103.4654
        45.5004         42.0004
 -30230627.39847 -23393874.04346  20313117.9064                   20313115.0944
        45.0004         40.2504
 -19485405.74647 -19206043.57046  20896810.5784                   20896806.5904
        46.7504         37.0004
 25  8  8  1 49  0.0000000  0  9G27G08G03G09G06G26G07G04G16
   -409991.93046   -286514.21945  24081643.5944                   24081646.2464
        37.5004         30.5004
   4421197.81646   3738827.14845  24566276.0084                   24566281.2854
        38.7504         31.0004
 -19101025.66447 -14947899.73847  22155327.5234                   22155327.4654
        45.7504         42.2504
 -22902465.09447 -17769906.53948  20831702.8134                   20831700.7194
        47.7504         50.0004
  -2974026.04346  -2254200.96145  25116728.7974                   25116732.5744
        40.2504         30.0004
 -14574387.71546 -11334973.09445  23638028.8674                   23638029.7074
        41.0004         35.2504
 -10738121.07447  -8324055.14847  22702729.4304                   22702726.3594
        45.5004         42.0004
 -30248802.80947 -23408036.70746  20309659.4774                   20309656.4414
        45.0004         40.0004
 -19476501.02347 -19199104.82446  20898505.4144                   20898500.7934
        46.2504         36.7504
 25  8  8  1 49 30.0000000  0  9G27G08G03G09G06G26G07G04G16
   -510673.91846   -364967.59445  24062484.8754                   24062486.9964
        38.5004         32.2504
   4307168.12546   3649973.09045  24544577.0474                   24544582.3444
        38.7504         31.5004
 -19024723.65247 -14888443.72346  22169847.2814                   22169847.4844
        44.7504         41.5004
 -22983689.49648 -17833198.25048  20816246.1724                   20816244.3674
        48.0004         50.0004
  -2948187.53546  -2234067.17245  25121645.3204                   25121649.3554
        41.0004         30.5004
 -14500042.72746 -11277041.98445  23652176.2194                   23652177.0594
        40.5004         35.0004
 -10813438.87147  -8382744.24247  22688397.1024                   22688394.1414
        45.7504         42.0004
 -30266587.94147 -23421895.25046  20306274.9844                   20306271.6804
        45.5004         39.5004
 -19466906.30147 -19191628.41846  20900331.5704                   20900326.6024
        46.5004         36.5004
 25  8  8  1 50  0.0000000  0  9G27G08G03G09G06G26G07G04G16
   -611110.42646   -443229.68045  24043372.3594                   24043374.2154
        38.2504         30.5004
   4193120.52346   3561105.12545  24522874.3444                   24522879.6024
        37.5004         30.0004
 -18948102.23047 -14828738.80146  22184427.8594                   22184427.9884
        45.2504         41.5004
 -23064630.59047 -17896269.20748  20800843.4694                   20800841.7154
        47.0004         50.0004
  -2921998.78146  -2213660.43745  25126628.9694                   25126633.7774
        41.0004         30.0004
 -14425403.65646 -11218881.72345  23666379.1484                   23666380.2304
        41.5004         34.7504
 -10888534.27047  -8441260.06647  22674106.6954                   22674103.9384
        45.2504         42.0004
 -30283990.64847 -23435455.80946  20302963.6644                   20302960.5314
        45.2504         40.0004
 -19456631.84847 -19183622.35946  20902286.0634                   20902281.7854
        46.0004         36.2504
 25  8  8  1 50 30.0000000  0  9G27G08G03G09G06G26G07G04G16
   -711291.37146   -521292.66045  24024309.2274                   24024310.6134
        40.5004         33.5004
   4079064.60246   3472230.60944  24501169.8984                   24501174.5124
        38.2504         24.5004
 -18871157.64547 -14768782.07046  22199069.7114                   22199070.1604
        44.7504         41.7504
 -23145279.94947 -17959112.82048  20785496.4924                   20785494.7194
        46.7504         50.0004
  -2895455.80146  -2192977.66044  25131680.4614                   25131684.4804
        40.5004         28.5004
 -14350466.60246 -11160489.28545  23680639.5864                   23680640.5944
        40.0004         34.0004
 -10963401.59847  -8499598.16847  22659859.6644                   22659857.1094
        45.0004         42.0004
 -30301003.37147 -23448712.47746  20299726.0944                   20299723.2384
        46.0004         39.5004
 -19445672.56247 -19175082.65646  20904371.7274                   20904367.3054
        45.2504         36.5004
 25  8  8  1 51  0.0000000  0  9G27G08G03G09G06G26G07G04G16
   -811207.82046   -599149.49645  24005294.9144                   24005296.5234
        39.7504         33.5004
   3965009.14546   3383356.33645  24479466.0314                   24479471.1414
        40.0004         30.0004
 -18793886.96947 -14708571.25046  22213774.2114                   22213774.5784
        43.7504         41.7504
 -23225630.00847 -18021723.21948  20770206.5634                   20770204.5084
        47.0004         50.2504
  -2868555.53546  -2172016.47744  25136799.5084                   25136803.3794
        41.0004         27.0004
 -14275228.58246 -11101862.30945  23694957.2344                   23694957.9344
        40.7504         34.5004
 -11038035.30547  -8557754.22346  22645657.4694                   22645654.5664
        45.2504         41.7504
 -30317619.34447 -23461660.00046  20296564.1174                   20296561.0044
        46.2504         40.0004
 -19434024.45747 -19166006.21946  20906588.1884                   20906583.5234
        46.0004         36.2504
 25  8  8  1 51 30.0000000  0  9G27G08G03G09G06G26G07G04G16
   -910857.36746   -676798.37145  23986332.3204                   23986333.6484
        40.5004         33.2504
   3850955.87146   3294483.81344  24457761.6094                   24457767.1804
        38.0004         29.5004
 -18716294.07047 -14648109.35247  22228539.4454                   22228539.6414
        45.2504         42.0004
 -23305680.07048 -18084099.85548  20754973.6564                   20754971.4574
        48.0004         50.2504
  -2841301.70346  -2150779.82844  25141985.6564                   25141990.1024
        40.7504         24.7504
 -14199693.38746 -11043003.77745  23709330.6724                   23709331.5744
        40.5004         33.5004
 -11112436.60247  -8615729.18746  22631498.9694                   22631496.2704
        46.0004         41.7504
 -30333838.66047 -23474298.43746  20293477.6804                   20293474.7774
        45.5004         39.7504
 -19421689.87547 -19156394.86346  20908935.4454                   20908930.9064
        46.0004         36.2504
 25  8  8  1 52  0.0000000  0  9G27G08G03G09G06G26G07G04G16
  -1010233.49246   -754234.19946  23967421.5784                   23967423.8874
        41.7504         36.0004
   3736910.81646   3205617.81645  24436059.7034                   24436064.8594
        39.0004         30.0004
 -18638378.67247 -14587396.14846  22243365.9614                   22243366.5314
        44.5004         41.7504
 -23385425.22748 -18146238.89848  20739798.3834                   20739796.4064
        48.0004         50.2504
  -2813694.12546  -2129267.46943  25147239.6414                   25147243.1374
        39.7504         23.5004
 -14123860.68046 -10983913.41845  23723761.5234                   23723762.4184
        39.2504         33.5004
 -11186602.79347  -8673520.95346  22617385.1804                   22617383.2584
        45.5004         41.7504
 -30349657.27747 -23486624.64146  20290467.3054                   20290464.4694
        46.7504         39.0004
 -19408667.29747 -19146247.40246  20911413.7664                   20911409.3284
        45.7504         36.7504
 25  8  8  1 52 30.0000000  0  9G27G08G03G09G06G26G07G04G16
  -1109339.05146   -831459.23045  23948562.7664                   23948563.7664
        41.2504         34.5004
   3622870.93846   3116755.77044  24414359.1094                   24414363.3094
        38.5004         28.0004
 -18560149.78147 -14526438.67646  22258253.1024                   22258253.4024
        43.7504         41.5004
 -23464869.82448 -18208143.73848  20724680.5394                   20724678.6604
        48.5004         50.5004
  -2785741.40646  -2107486.25043  25152558.4304                   25152563.2154
        40.5004         23.2504
 -14047739.27046 -10924598.10945  23738246.7664                   23738247.3244
        39.2504         32.5004
 -11260540.73847  -8731134.86347  22603315.0944                   22603312.5984
        45.5004         42.0004
 -30365080.32847 -23498642.60946  20287532.5004                   20287529.4304
        46.5004         39.5004
 -19394964.66447 -19135570.03146  20914021.3984                   20914016.9734
        46.0004         37.2504
 25  8  8  1 53  0.0000000  0  9G27G08G03G09G06G26G07G04G16
  -1208167.68447   -908468.44146  23929756.4924                   23929758.5394
        42.0004         38.0004
   3508842.24246   3027902.33244  24392659.3444                   24392663.2464
        37.2504         25.5004
 -18481607.19947 -14465236.75846  22273199.0084                   22273200.2154
        43.7504         41.7504
 -23544009.02348 -18269810.60948  20709620.8834                   20709618.5704
        49.0004         50.5004
  -2757443.35546  -2085435.87543  25157943.7344                   25157947.1174
        39.5004         21.5004
 -13971328.94946 -10865057.65245  23752788.1484                   23752788.1454
        39.7504         32.0004
 -11334247.29347  -8788568.48447  22589290.1804                   22589286.9024
        46.0004         42.0004
 -30380103.85547 -23510349.25846  20284674.0314                   20284671.1684
        46.2504         39.5004
 -19380580.55547 -19124361.63746  20916758.5084                   20916753.7894
        47.0004         36.2504
 25  8  8  1 53 30.0000000  0  9G27G08G03G09G06G26G07G04G16
  -1306712.17246   -985256.24245  23911003.2584                   23911005.0514
        40.7504         35.0004
   3394831.26646   2939062.88345  24370963.6564                   24370968.8794
        37.5004         31.2504
 -18402749.89547 -14403789.63746  22288205.3054                   22288205.5594
        43.7504         41.5004
 -23622837.18748 -18331235.11748  20694620.0084                   20694617.9224
        48.5004         50.5004
  -2728798.82046  -2063115.52043  25163394.4774                   25163397.9384
        38.5004         21.0004
 -13894628.53146 -10805291.15245  23767383.1414                   23767383.9064
        40.0004         31.0004
 -11407719.34047  -8845819.35247  22575308.4144                   22575305.7894
        46.0004         42.0004
 -30394723.04747 -23521740.84846  20281891.6094                   20281888.7304
        46.7504         39.7504
 -19365512.66047 -19112620.42246  20919625.6724                   20919621.4534
        46.7504         37.0004
 25  8  8  1 54  0.0000000  0 10G27G08G03G09G30G06G26G07G04G16
  -1404970.66046  -1061821.19945  23892305.4144                   23892307.7664
        41.0004         35.5004
   3280839.75446   2850238.53144  24349271.6724                   24349276.7664
        37.2504         28.5004
 -18323582.32047 -14342100.71546  22303270.2274                   22303271.0394
        44.0004         41.7504
 -23701354.02348 -18392417.03548  20679678.8524                   20679676.9494
        48.5004         50.5004
   6012867.33655   4833186.95753  25039341.4534                   25039347.2384
        33.5004         18.5004
  -2699812.14546  -2040528.55143  25168910.5004                   25168913.9024
        37.7504         21.7504
 -13817642.24646 -10745301.91445  23782032.7274                   23782033.6174
        39.5004         31.2504
 -11480958.74647  -8902888.94147  22561371.2974                   22561368.5274
        45.5004         42.2504
 -30408938.53947 -23532817.86746  20279186.8444                   20279183.9694
        47.0004         39.5004
 -19349764.28947 -19100348.95746  20922622.2974                   20922618.4694
        46.7504         36.2504
 25  8  8  1 54 30.0000000  0 10G27G08G03G09G30G06G26G07G04G16
  -1502945.12146  -1138164.77746  23873661.9924                   23873663.9144
        41.7504         37.0004
   3166865.18846   2761427.34044  24327582.6884                   24327588.1134
        37.2504         28.2504
 -18244112.59447 -14280176.35946  22318392.7664                   22318393.7934
        43.5004         41.0004
 -23779563.04348 -18453359.09848  20664796.0394                   20664794.0354
        48.7504         50.2504
   5910748.27046   4753613.96944  25019909.0784                   25019914.6804
        37.2504         24.0004
  -2670491.28546  -2017681.16843  25174490.1024                   25174494.1804
        37.0004         22.0004
 -13740378.15246 -10685096.19145  23796735.9064                   23796736.7154
        38.7504         30.7504
 -11553971.10247  -8959781.62147  22547477.6564                   22547474.3714
        46.5004         42.0004
 -30422754.62547 -23543583.65646  20276557.7974                   20276554.5234
        47.5004         40.0004
 -19333342.46947 -19087552.73446  20925747.1954                   20925743.4654
        47.5004         36.2504
 25  8  8  1 55  0.0000000  0 10G27G08G03G09G30G06G26G07G04G16
  -1600623.25846  -1214277.53545  23855073.4144                   23855076.8444
        40.2504         35.5004
   3052919.59046   2672638.75845  24305899.5084                   24305904.8134
        38.5004         30.0004
 -18164334.55147 -14218011.76646  22333574.2504                   22333575.4574
        42.5004         41.5004
 -23857453.41048 -18514052.85948  20649974.4064                   20649972.1454
        49.0004         50.5004
   5808785.92646   4674163.10244  25000506.3204                   25000511.3634
        39.7504         27.0004
  -2640830.02045  -1994568.60243  25180135.0554                   25180138.2504
        35.7504         22.0004
 -13662830.05546 -10624669.16845  23811492.8054                   23811494.0634
        38.5004         31.0004
 -11626747.56647  -9016490.47746  22533628.3834                   22533625.3244
        46.5004         41.7504
 -30436161.43447 -23554030.53546  20274006.3134                   20274003.5204
        47.2504         39.7504
 -19316239.88347 -19074226.03546  20929002.2194                   20928997.7584
        47.0004         37.0004
 25  8  8  1 55 30.0000000  0 10G27G08G03G09G30G06G26G07G04G16
  -1698003.85246  -1290158.36345  23836542.2664                   23836545.0864
        40.0004         35.7504
   2939003.88746   2583873.46145  24284222.8134                   24284226.9494
        38.5004         30.7504
 -18084253.31647 -14155610.89846  22348812.7344                   22348814.3164
        42.7504         41.0004
 -23935025.57048 -18574498.67248  20635212.7894                   20635210.4144
        48.2504         50.5004
   5706978.23046   4594832.70745  24981132.2194                   24981137.6294
        41.0004         31.0004
  -2610833.40245  -1971194.71543  25185842.6954                   25185846.6214
        33.5004         22.2504
 -13585002.76246 -10564024.59045  23826302.9694                   23826304.0044
        39.2504         30.2504
 -11699290.79747  -9073017.60947  22519823.9224                   22519820.5744
        46.2504         42.0004
 -30449160.19947 -23564159.44146  20271532.8284                   20271529.9344
        47.0004         39.7504
 -19298460.48847 -19060371.95746  20932385.6094                   20932380.9694
        47.0004         36.7504
 25  8  8  1 56  0.0000000  0 10G27G08G03G09G30G06G26G07G04G16
  -1795088.94146  -1365808.98845  23818068.1414                   23818070.3364
        39.7504         35.2504
   2825115.62145   2495129.52744  24262549.6334                   24262554.0634
        35.0004         25.5004
 -18003876.94947 -14092980.07846  22364108.6724                   22364109.4884
        43.5004         41.2504
 -24012282.87548 -18634699.14848  20620511.0164                   20620509.1334
        49.5004         50.5004
   5605320.19147   4515618.91845  24961787.4144                   24961792.3364
        42.0004         31.0004
  -2580509.40645  -1947565.71543  25191613.3284                   25191617.4614
        31.2504         22.7504
 -13506904.30146 -10503168.69544  23841163.9614                   23841165.6564
        38.2504         28.5004
 -11771606.81647  -9129367.68447  22506063.0314                   22506059.4574
        47.2504         42.0004
 -30461755.27047 -23573973.79346  20269135.6414                   20269132.9414
        47.2504         39.0004
 -19280011.50447 -19045996.13746  20935895.7274                   20935891.9104
        47.2504         37.0004
 25  8  8  1 56 30.0000000  0 10G27G08G03G09G30G06G26G07G04G16
  -1891864.12946  -1441218.07445  23799652.6484                   23799654.2734
        40.7504         35.5004
   2711268.69146   2406417.87544  24240885.7194                   24240889.5944
        38.2504         29.7504
 -17923197.54347 -14030113.12146  22379461.1414                   22379461.8714
        43.2504         41.2504
 -24089212.68048 -18694644.42248  20605871.8364                   20605870.0434
        48.7504         50.5004
   5503822.68846   4436530.21945  24942473.2194                   24942477.9344
        40.0004         30.2504
  -2549849.85245  -1923675.29744  25197447.3444                   25197452.1604
        32.2504         26.0004
 -13428526.44546 -10442095.10945  23856079.2034                   23856080.6414
        40.0004         30.0004
 -11843685.07847  -9185532.50047  22492346.5234                   22492343.6994
        45.7504         42.0004
 -30473934.87947 -23583464.40246  20266818.1254                   20266815.3164
        47.0004         39.5004
 -19260883.68747 -19031091.34046  20939535.9534                   20939531.2504
        46.5004         36.2504
 25  8  8  1 57  0.0000000  0 10G27G08G03G09G30G06G26G07G04G16
  -1988334.21546  -1516389.44545  23781294.2584                   23781295.5044
        39.0004         34.0004
   2597458.41846   2317734.71545  24219228.3364                   24219232.6724
        39.0004         34.0004
 -17842225.82047 -13967018.38346  22394869.6174                   22394870.9064
        43.0004         41.0004
 -24165821.10548 -18754339.28548  20591293.5004                   20591291.7664
        48.7504         50.7504
   5402477.94946   4357560.56645  24923187.2194                   24923192.0944
        39.7504         30.7504
  -2518865.69145  -1899531.87144  25203344.9774                   25203349.0984
        30.7504         25.5004
 -13349879.95746 -10380812.20345  23871045.6724                   23871046.8714
        37.7504         30.7504
 -11915533.97747  -9241518.59047  22478673.7814                   22478671.2234
        45.7504         42.0004
 -30485706.06647 -23592636.75446  20264578.3284                   20264575.4264
        47.0004         39.5004
 -19241087.00047 -19015665.35246  20943303.1644                   20943299.5124
        46.7504         36.0004
 25  8  8  1 57 30.0000000  0  9G27G08G03G09G30G26G07G04G16
  -2084493.74646  -1591318.84045  23762996.2114                   23762997.5044
        40.2504         34.7504
   2483689.52745   2229083.87544  24197577.6644                   24197583.3984
        33.7504         28.0004
 -17760962.71947 -13903696.61346  22410333.8674                   22410334.6994
        42.5004         40.0004
 -24242104.35948 -18813780.75848  20576777.4454                   20576775.4064
        49.0004         50.7504
   5301288.07046   4278711.54745  24903931.0164                   24903935.7114
        39.7504         32.0004
 -13270965.47346 -10319320.46945  23886063.1484                   23886063.4184
        39.7504         30.0004
 -11987151.76247  -9297324.59047  22465045.6564                   22465042.6254
        46.5004         42.2504
 -30497065.94147 -23601488.60246  20262416.6414                   20262413.4024
        46.5004         39.0004
 -19220621.33647 -18999718.08246  20947197.6174                   20947193.4614
        46.2504         36.5004
 25  8  8  1 58  0.0000000  0  9G27G08G03G09G30G26G07G04G16
  -2180336.62546  -1666001.50845  23744757.6174                   23744757.8954
        40.2504         33.7504
   2369967.99246   2140469.87944  24175937.8754                   24175941.3484
        37.5004         28.0004
 -17679408.21147 -13840147.76246  22425852.8364                   22425854.1804
        42.5004         39.7504
 -24318057.71148 -18872965.17248  20562324.0474                   20562322.2114
        50.0004         51.0004
   5200256.05946   4199985.55545  24884706.0084                   24884710.1454
        40.2504         32.2504
 -13191782.85246 -10257619.77345  23901130.0864                   23901131.7934
        38.7504         31.0004
 -12058536.14847  -9352948.72347  22451461.3444                   22451458.7274
        46.0004         42.2504
 -30508010.79747 -23610017.06646  20260333.9304                   20260330.6764
        47.0004         39.5004
 -19199485.45347 -18983248.55946  20951219.5784                   20951215.2304
        46.5004         36.0004
 25  8  8  1 58 30.0000000  0  9G27G08G03G09G30G26G07G04G16
  -2275866.63746  -1740440.33645  23726578.2894                   23726579.2584
        39.5004         33.2504
   2256289.76646   2051889.59845  24154305.0864                   24154309.7544
        38.7504         32.0004
 -17597572.37547 -13776379.68746  22441426.3524                   22441427.2034
        42.2504         39.5004
 -24393686.49648 -18931896.68448  20547932.4774                   20547930.2234
        49.0004         50.7504
   5099374.91846   4121377.14545  24865508.3054                   24865512.5594
        39.5004         33.0004
 -13112341.94946 -10195717.82045  23916248.0394                   23916248.7194
        40.0004         31.0004
 -12129694.35247  -9408396.61347  22437920.5634                   22437917.8594
        46.2504         42.0004
 -30518546.80547 -23618226.94946  20258328.3134                   20258325.9924
        47.5004         39.5004
 -19177688.70347 -18966264.08246  20955367.7114                   20955362.9804
        45.5004         36.0004
 25  8  8  1 59  0.0000000  0  9G27G08G03G09G30G26G07G04G16
  -2371071.54746  -1814625.89145  23708461.8914                   23708462.3094
        40.2504         33.7504
   2142666.67246   1963352.34845  24132683.9384                   24132688.2774
        37.7504         32.5004
 -17515449.23847 -13712387.74246  22457054.0634                   22457054.4264
        42.7504         40.0004
 -24468980.00448 -18990566.93048  20533604.6884                   20533602.5634
        49.2504         50.7504
   4998653.59446   4042893.23845  24846341.5394                   24846346.2704
        38.7504         34.2504
 -13032636.52746 -10133609.75045  23931415.5554                   23931415.8404
        38.0004         31.5004
 -12200617.88347  -9463661.64547  22424424.2194                   22424421.1374
        46.5004         42.0004
 -30528664.28947 -23626110.70746  20256403.9774                   20256400.9384
        47.0004         39.7504
 -19155223.81647 -18948758.98046  20959642.5554                   20959638.4494
        46.5004         36.0004
 25  8  8  1 59 30.0000000  0  9G27G08G03G09G30G26G07G04G16
  -2465952.55546  -1888558.95745  23690405.8914                   23690407.5234
        37.7504         31.7504
   2029097.38746   1874857.04345  24111071.5084                   24111076.4454
        38.0004         30.5004
 -17433046.02347 -13648177.57046  22472735.6024                   22472736.0824
        43.0004         40.2504
 -24543940.79748 -19048977.92248  20519339.9384                   20519337.7974
        49.2504         51.0004
   4898087.83746   3964530.55645  24827203.9774                   24827209.1374
        38.5004         34.0004
 -12952673.72346 -10071301.11745  23946631.8364                   23946632.9304
        39.7504         31.0004
 -12271311.84847  -9518747.80147  22410971.6954                   22410968.9694
        46.7504         42.2504
 -30538366.80547 -23633671.10546  20254557.0704                   20254554.1844
        46.7504         39.5004
 -19132097.38747 -18930738.39145  20964043.4614                   20964038.7894
        46.5004         35.0004
 25  8  8  2  0  0.0000000  0 10G27G08G03G09G30G06G26G07G04G16
  -2560505.07046  -1962236.21945  23672414.1804                   23672413.9804
        39.7504         32.0004
   1915586.07046   1786406.75844  24089470.5004                   24089474.4344
        36.5004         27.0004
 -17350364.64147 -13583750.66446  22488469.0314                   22488470.5434
        42.7504         40.2504
 -24618566.01648 -19107127.42648  20505139.0314                   20505137.0004
        48.7504         51.0004
   4797678.65246   3886289.85545  24808097.3284                   24808101.5044
        37.5004         32.2504
   6356410.76655  -1873036.44555  25239999.3984                   25240004.0984
        34.2504         30.2504
 -12872455.19146 -10008793.23445  23961897.1414                   23961897.6414
        39.7504         31.7504
 -12341775.76647  -9573654.69147  22397562.4064                   22397559.4614
        46.2504         42.2504
 -30547652.36347 -23640906.60946  20252790.2734                   20252787.4064
        46.5004         39.5004
 -19108310.07847 -18912202.83646  20968569.8984                   20968565.3984
        47.2504         36.0004
 25  8  8  2  0 30.0000000  0 10G27G08G03G09G30G06G26G07G04G16
  -2654722.21946  -2035651.95745  23654484.7274                   23654486.8984
        40.0004         33.7504
   1802139.72746   1698007.25445  24067882.6024                   24067886.8754
        37.7504         31.5004
 -17267404.04347 -13519106.14146  22504255.6644                   22504256.0354
        42.5004         40.0004
 -24692849.84848 -19165010.91448  20491003.2424                   20491001.2854
        49.2504         51.0004
   4697430.29345   3808174.51245  24789019.3674                   24789024.8364
        35.5004         32.0004
   6389613.13745  -1847164.59844  25246317.0704                   25246322.0744
        33.7504         27.5004
 -12791979.62946  -9946085.07045  23977210.8134                   23977211.8914
        40.5004         33.0004
 -12412006.03947  -9628379.53147  22384198.2974                   22384195.2274
        46.7504         42.2504
 -30556516.21947 -23647813.51646  20251103.4534                   20251100.5204
        47.0004         39.2504
 -19083860.42647 -18893151.16846  20973222.4454                   20973218.3094
        47.7504         36.2504
 25  8  8  2  1  0.0000000  0 10G27G08G03G09G30G06G26G07G04G16
  -2748602.19546  -2108805.10244  23636618.9844                   23636619.2894
        38.5004         29.5004
   1688759.49646   1609659.25845  24046306.5004                   24046311.4964
        37.0004         30.5004
 -17184168.97346 -13454247.76246  22520095.0704                   22520096.8054
        41.5004         40.2504
 -24766792.31648 -19222628.40248  20476932.5704                   20476930.4024
        48.0004         51.0004
   4597340.87945   3730182.97745  24769973.8204                   24769978.2384
        34.7504         31.0004
   6423122.89145  -1821053.21944  25252695.2344                   25252698.4694
        33.0004         24.5004
 -12711251.58646  -9883180.14845  23992573.1954                   23992573.7424
        38.2504         31.7504
 -12482004.61347  -9682923.82047  22370878.0004                   22370874.5274
        45.7504         42.5004
 -30564959.38347 -23654392.60246  20249497.1954                   20249493.8054
        46.7504         39.2504
 -19058752.14147 -18873586.29346  20978000.4694                   20977995.5664
        47.7504         36.0004
 25  8  8  2  1 30.0000000  0 10G27G08G03G09G30G06G26G07G04G16
  -2842142.88746  -2181693.83645  23618819.5634                   23618820.2734
        39.2504         32.7504
   1575447.47746   1521364.32844  24024743.9694                   24024747.9924
        37.7504         28.5004
 -17100663.35247 -13389178.58646  22535985.4694                   22535987.4144
        42.2504         40.0004
 -24840392.69148 -19279979.32048  20462927.1254                   20462924.9964
        49.2504         51.0004
   4497409.50845   3652314.62144  24750956.6954                   24750961.4104
        33.7504         28.7504
   6456936.46554  -1794705.11353  25259129.6024                   25259133.9184
        28.0004         19.2504
 -12630274.78146  -9820081.38345  24007981.9144                   24007983.4494
        38.5004         32.0004
 -12551773.26647  -9737288.95347  22357601.2034                   22357598.6804
        46.2504         42.5004
 -30572982.05947 -23660644.03946  20247970.0864                   20247967.3834
        46.5004         39.7504
 -19032988.36347 -18853510.63346  20982903.1024                   20982898.5594
        47.0004         36.2504
 25  8  8  2  2  0.0000000  0  9G27G08G03G09G30G26G07G04G16
  -2935344.52046  -2254318.40645  23601083.2974                   23601084.0864
        40.0004         32.0004
   1462203.25446   1433122.26745  24003194.4924                   24003198.5474
        39.0004         31.5004
 -17016893.52047 -13323903.48846  22551925.9144                   22551927.9024
        43.5004         40.5004
 -24913652.47748 -19337064.84848  20448985.9924                   20448984.1334
        49.5004         51.2504
   4397632.75845   3574566.74244  24731970.3054                   24731974.3364
        32.0004         28.5004
 -12549055.30946  -9756793.52345  24023437.9454                   24023438.3794
        40.0004         31.7504
 -12621315.85247  -9791477.94147  22344367.8204                   22344364.9614
        46.7504         42.5004
 -30580586.87947 -23666569.87146  20246523.1724                   20246520.2934
        47.2504         40.0004
 -19006574.34047 -18832928.29345  20987929.3444                   20987924.9804
        47.0004         35.5004
 25  8  8  2  2 30.0000000  0  9G27G08G03G09G30G26G07G04G16
  -3028203.76646  -2326676.10545  23583412.7424                   23583414.5824
        39.5004         33.0004
   1349029.89546   1344935.50844  23981657.3914                   23981662.1644
        38.0004         29.2504
 -16932862.49647 -13258424.94146  22567917.7504                   22567918.8244
        44.0004         40.2504
 -24986569.98448 -19393883.66448  20435110.2194                   20435108.1024
        49.2504         51.2504
   4298010.67245   3496939.43044  24713011.9224                   24713016.6174
        31.7504         27.7504
 -12467595.98046  -9693318.77345  24038939.5314                   24038940.8244
        40.0004         32.5004
 -12690632.96947  -9845491.24247  22331177.1024                   22331174.3054
        47.2504         43.0004
 -30587773.10247 -23672169.52346  20245155.5474                   20245152.4654
        47.7504         39.0004
 -18979512.23047 -18811840.94945  20993079.2814                   20993074.6764
        47.2504         35.7504
 25  8  8  2  3  0.0000000  0  9G27G08G03G09G30G26G07G04G16
  -3120711.46146  -2398759.87945  23565808.8284                   23565811.4964
        37.0004         31.0004
   1235936.50446   1256810.85245  23960137.5554                   23960139.6134
        39.2504         30.2504
 -16848567.12147 -13192740.34446  22583958.8754                   22583958.3794
        42.7504         38.7504
 -25059137.35548 -19450429.63748  20421300.7034                   20421299.1914
        50.0004         51.5004
   4198549.20345   3419437.23844  24694084.7344                   24694089.2894
        33.0004         27.5004
 -12385893.38346  -9629654.45345  24054486.5394                   24054488.0904
        39.7504         32.2504
 -12759718.79747  -9899324.30947  22318030.7114                   22318027.4344
        47.5004         43.2504
 -30594533.95347 -23677437.71946  20243869.0704                   20243866.0004
        47.0004         39.5004
 -18951798.40647 -18790245.77045  20998353.0944                   20998348.6174
        47.5004         35.5004
 25  8  8  2  3 30.0000000  0  9G27G08G03G09G30G26G07G04G16
  -3212867.18446  -2470569.44145  23548272.5234                   23548274.0514
        39.7504         31.7504
   1122922.99246   1168748.64145  23938631.2114                   23938636.4534
        38.7504         33.0004
 -16764013.41847 -13126854.46946  22600048.1414                   22600050.5314
        43.2504         40.5004
 -25131355.80548 -19506703.72748  20407558.1414                   20407556.2274
        49.5004         51.2504
   4099245.64545   3342058.05144  24675188.8444                   24675192.0784
        34.5004         29.0004
 -12303953.28546  -9565805.09045  24070078.9454                   24070080.9844
        39.5004         31.7504
 -12828576.78147  -9952979.84447  22304927.2274                   22304923.9924
        47.5004         43.5004
 -30600871.65247 -23682376.18446  20242662.8914                   20242660.2034
        46.5004         39.5004
 -18923437.89147 -18768146.67245  21003749.5704                   21003745.1414
        47.0004         35.5004
 25  8  8  2  4  0.0000000  0  9G27G08G03G09G30G26G07G04G16
  -3304667.46546  -2542102.00045  23530803.3054                   23530804.4184
        39.2504         31.5004
   1009993.01246   1080751.50445  23917141.6564                   23917145.0314
        40.0004         33.2504
 -16679203.91047 -13060769.28146  22616187.2194                   22616188.4964
        43.0004         39.2504
 -25203223.10948 -19562704.19948  20393882.3364                   20393880.3634
        49.0004         51.5004
   4000100.28945   3264802.14544  24656321.6564                   24656324.8284
        34.5004         29.0004
 -12221777.88746  -9501772.36745  24085716.0784                   24085717.9304
        37.2504         31.2504
 -12897207.44547 -10006458.24247  22291867.5164                   22291864.0664
        47.2504         43.5004
 -30606784.99247 -23686983.98846  20241537.5864                   20241534.8404
        46.2504         39.5004
 -18894432.58247 -18745545.14845  21009269.2894                   21009264.9924
        47.2504         35.7504
 25  8  8  2  4 30.0000000  0  9G27G08G03G09G30G26G07G04G16
  -3396106.05546  -2613352.75045  23513403.1724                   23513404.3524
        39.7504         33.5004
    897152.52746    992823.97344  23895667.9144                   23895671.0984
        38.2504         26.7504
 -16594138.51247 -12994484.66846  22632374.6024                   22632375.4694
        43.0004         39.5004
 -25274734.44148 -19618427.28148  20380274.4454                   20380271.8484
        49.5004         51.5004
   3901116.08646   3187671.83245  24637485.4534                   24637489.2304
        37.0004         30.7504
 -12139366.93746  -9437556.11345  24101398.5234                   24101400.4734
        37.5004         30.5004
 -12965607.78548 -10059757.16447  22278851.3674                   22278847.8204
        48.0004         43.7504
 -30612270.27747 -23691258.22746  20240494.0944                   20240491.2664
        46.7504         39.5004
 -18864781.70347 -18722440.57846  21014911.8674                   21014907.5434
        47.0004         36.0004
 25  8  8  2  5  0.0000000  0  9G27G08G03G09G30G26G07G04G16
  -3487187.44546  -2684325.12945  23496072.0474                   23496071.0314
        41.2504         33.7504
    784396.84846    904962.64145  23874211.5864                   23874215.1484
        39.5004         34.2504
 -16508828.01247 -12928009.10946  22648609.2034                   22648609.6214
        43.7504         39.0004
 -25345895.82847 -19673877.69148  20366732.6724                   20366730.7504
        46.7504         51.5004
   3802285.41446   3110661.11745  24618678.0704                   24618682.1334
        36.2504         30.0004
 -12056730.91046  -9373164.44145  24117124.4384                   24117126.2664
        37.0004         30.7504
 -13033786.06247 -10112883.05947  22265877.2504                   22265873.8954
        45.2504         43.7504
 -30617334.51647 -23695204.39146  20239530.2274                   20239527.4574
        47.2504         39.0004
 -18834495.23047 -18698840.74245  21020675.1564                   21020670.7734
        47.0004         35.5004
 25  8  8  2  5 30.0000000  0  9G27G08G03G09G30G26G07G04G16
  -3577901.05146  -2755010.98845  23478808.3364                   23478809.7774
        40.0004         34.7504
    671736.49646    817175.59845  23852772.7664                   23852776.3874
        39.7504         31.7504
 -16423267.96946 -12861339.05546  22664889.2194                   22664891.8794
        41.7504         37.5004
 -25416698.03548 -19729048.21548  20353259.4534                   20353257.6054
        49.5004         51.7504
   3703615.52746   3033775.69945  24599901.8524                   24599905.6604
        37.2504         30.5004
 -11973864.95346  -9308593.60544  24132893.1954                   24132894.5634
        37.0004         29.7504
 -13101735.87147 -10165830.92247  22252947.0474                   22252943.3244
        47.7504         43.7504
 -30621969.60547 -23698816.14546  20238648.4064                   20238645.5004
        47.5004         39.5004
 -18803568.01647 -18674741.62545  21026560.0234                   21026556.2274
        47.0004         35.0004
 25  8  8  2  6  0.0000000  0  9G27G08G03G09G30G26G07G04G16
  -3668244.48446  -2825408.34845  23461617.4844                   23461616.0164
        41.0004         34.0004
    559173.66846    729464.42645  23831351.5084                   23831355.8364
        37.7504         30.5004
 -16337462.06247 -12794477.47746  22681218.2424                   22681220.1724
        43.0004         38.7504
 -25487140.03148 -19783938.05148  20339854.6484                   20339852.6134
        50.0004         51.7504
   3605105.76646   2957015.04345  24581155.6804                   24581159.8834
        38.5004         30.5004
 -11890772.69946  -9243846.44944  24148704.8984                   24148706.3714
        36.5004         29.0004
 -13169458.25048 -10218601.56247  22240059.6804                   22240056.0124
        48.5004         43.5004
 -30626175.59447 -23702093.54346  20237847.9224                   20237844.7814
        47.2504         39.5004
 -18772003.16447 -18650145.64145  21032567.0634                   21032562.7194
        46.0004         35.0004
 25  8  8  2  6 30.0000000  0  9G27G08G03G09G30G26G07G04G16
  -3758213.07446  -2895513.62546  23444496.1564                   23444498.2034
        40.5004         36.0004
    446713.16846    641833.07446  23809952.0474                   23809956.3244
        41.2504         36.5004
 -16251411.87547 -12727425.53146  22697593.6724                   22697594.9574
        43.2504         39.5004
 -25557218.65247 -19838544.74248  20326519.3284                   20326517.1454
        47.5004         51.7504
   3506757.56846   2880380.28045  24562440.8204                   24562444.4654
        38.7504         30.5004
 -11807455.21546  -9178923.80144  24164560.0634                   24164561.3794
        36.7504         29.0004
 -13236952.18047 -10271194.19147  22227216.2504                   22227212.8094
        45.5004         43.5004
 -30629950.37547 -23705034.93446  20237129.5944                   20237126.5554
        47.2504         39.5004
 -18739801.60247 -18625053.52746  21038694.5314                   21038690.1414
        47.2504         36.0004
 25  8  8  2  7  0.0000000  0  9G27G08G03G09G30G26G07G04G16
  -3847806.25846  -2965326.37945  23427446.4614                   23427447.3324
        39.7504         34.0004
    334355.09846    554281.57844  23788570.6724                   23788573.2154
        39.0004         28.7504
 -16165122.92247 -12660187.51246  22714013.7734                   22714015.6024
        42.7504         39.2504
 -25626934.60548 -19892868.84448  20313252.6804                   20313250.8754
        50.0004         51.7504
   3408568.29346   2803869.38744  24543755.2424                   24543759.5634
        39.5004         29.7504
 -11723917.88345  -9113829.82044  24180455.8674                   24180457.7624
        35.2504         27.0004
 -13304220.78947 -10323611.24247  22214415.0004                   22214411.8284
        47.5004         43.5004
 -30633295.82047 -23707641.77746  20236492.7274                   20236490.0984
        47.7504         38.7504
 -18706968.15647 -18599469.02745  21044942.9224                   21044938.4414
        47.7504         35.2504
 25  8  8  2  7 30.0000000  0  9G27G08G03G09G30G26G07G04G16
  -3937011.91446  -3034837.09845  23410472.2034                   23410473.3444
        40.5004         34.2504
    222111.98446    466819.51245  23767211.4534                   23767215.6604
        40.0004         34.2504
 -16078589.22347 -12592758.79346  22730481.8524                   22730481.6134
        44.2504         39.5004
 -25696277.16848 -19946901.98448  20300057.3134                   20300055.4344
        49.7504         51.7504
   3310546.92246   2727489.27045  24525102.5704                   24525106.7114
        39.5004         30.7504
 -11640154.37946  -9048559.63344  24196396.2034                   24196397.8364
        36.7504         28.5004
 -13371255.55947 -10375846.07847  22201658.7974                   22201655.3954
        47.0004         43.5004
 -30636202.33247 -23709906.59446  20235939.9064                   20235936.6804
        47.5004         39.7504
 -18673496.32447 -18573387.09045  21051312.4694                   21051308.0634
        46.5004         35.5004
 25  8  8  2  8  0.0000000  0  9G27G08G03G09G30G26G07G04G16
  -2450388.70346  -1876429.41045  23693365.8834                   23693366.5234
        38.7504         33.0004
   1685425.32046   1607064.03945  24045670.0084                   24045674.8554
        37.2504         31.7504
 -14416381.58647 -11297532.20346  23046788.4844                   23046790.4304
        42.5004         39.0004
 -24189807.21548 -18773029.28148  20586728.7734                   20586727.1094
        50.0004         51.7504
   4788131.77346   3878854.25845  24806277.3914                   24806281.0864
        40.7504         30.7504
  -9980735.08246  -7755505.64144  24512173.9614                   24512174.9304
        37.0004         27.7504
 -11862619.80148  -9200285.70347  22488742.4304                   22488739.6094
        48.0004         43.5004
 -29063234.07447 -22484217.05146  20535266.0004                   20535262.8204
        47.2504         38.7504
 -17063954.52347 -17319198.68045  21357597.5474                   21357593.3164
        46.0004         35.7504
 25  8  8  2  8 30.0000000  0  9G27G08G03G09G30G26G07G04G16
  -2538776.11347  -1945302.56646  23676547.6804                   23676548.9384
        42.5004         37.2504
   1573454.49246   1519814.10944  24024363.8204                   24024364.0864
        41.5004         29.2504
 -14329333.78547 -11229702.89146  23063353.5084                   23063356.2424
        43.2504         40.2504
 -24258364.11348 -18826450.22348  20573683.0234                   20573681.1214
        50.0004         52.0004
   4690479.63346   3802761.87944  24787694.7894                   24787698.3164
        40.0004         29.7504
  -9896493.60546  -7689862.97744  24528204.5634                   24528205.3364
        36.2504         26.0004
 -11929155.10947  -9252131.35247  22476081.4384                   22476078.2704
        47.2504         43.7504
 -29065227.09047 -22485770.05946  20534886.7274                   20534883.4774
        47.5004         38.7504
 -17029179.23047 -17292101.05145  21364215.1334                   21364211.3244
        46.5004         34.5004
 25  8  8  2  9  0.0000000  0  9G27G08G03G09G30G26G07G04G16
  -2626755.35947  -2013857.67646  23659805.6414                   23659805.4064
        42.5004         36.2504
   1461618.71946   1432669.68845  24003079.7734                   24003085.5664
        36.2504         31.7504
 -14242038.94146 -11161681.12946  23079964.8984                   23079967.1094
        41.5004         38.7504
 -24326531.02348 -18879567.28548  20560711.1564                   20560709.4804
        49.5004         51.7504
   4593006.53546   3726808.97745  24769146.1954                   24769149.6024
        40.7504         30.0004
  -9812022.74246  -7624041.60244  24544278.3524                   24544279.6994
        36.7504         26.5004
 -11995446.91048  -9303787.25047  22463466.3914                   22463463.0784
        48.2504         44.0004
 -29066767.99247 -22486970.77346  20534593.2974                   20534590.2624
        46.5004         39.2504
 -16993761.45347 -17264502.78545  21370954.7974                   21370951.1054
        44.5004         35.0004
 25  8  8  2  9 30.0000000  0  9G27G08G03G09G30G26G07G04G16
  -2714327.21146  -2082095.35245  23643140.1334                   23643139.8554
        38.2504         33.0004
   1349917.44146   1345629.96945  23981825.5634                   23981828.8444
        39.5004         32.2504
 -14154504.08247 -11093472.29746  23096622.1644                   23096624.2424
        42.2504         38.7504
 -24394310.23848 -18932382.25048  20547812.8984                   20547811.0004
        49.2504         51.7504
   4495708.37146   3650992.39844  24750630.6724                   24750634.1994
        39.5004         29.7504
  -9727329.21146  -7558046.62144  24560395.5944                   24560395.8954
        37.7504         26.5004
 -12061499.91048  -9355257.06647  22450897.0314                   22450893.5004
        48.0004         44.0004
 -29067860.13747 -22487821.81646  20534385.6884                   20534382.3364
        47.2504         39.5004
 -16957707.69947 -17236408.96145  21377815.6414                   21377811.8054
        46.2504         35.5004
 25  8  8  2 10  0.0000000  0  9G27G08G03G09G30G26G07G04G16
  -2801493.09846  -2150016.73445  23626553.2584                   23626555.0904
        39.0004         35.5004
   1238348.82846   1258693.50845  23960593.0164                   23960597.3134
        36.5004         30.5004
 -14066736.79747 -11025082.36746  23113324.6334                   23113325.3284
        42.5004         38.5004
 -24461704.50847 -18984897.25048  20534988.7114                   20534986.7154
        47.7504         52.0004
   4398580.51246   3575308.52044  24732148.5634                   24732151.2854
        40.5004         29.0004
  -9642420.11746  -7491883.72744  24576552.7194                   24576554.2704
        36.5004         28.0004
 -12127319.18047  -9406544.75847  22438371.8284                   22438368.4344
        44.7504         44.0004
 -29068507.45347 -22488326.23046  20534262.5084                   20534259.6484
        47.2504         39.5004
 -16921024.90247 -17207824.96545  21384796.7584                   21384792.2504
        46.7504         35.2504
 25  8  8  2 10 30.0000000  0  9G27G08G03G09G30G26G07G04G16
  -2888244.52346  -2217615.15646  23610045.0084                   23610044.9264
        41.5004         36.0004
   1126921.78546   1171867.53145  23939389.8524                   23939394.1094
        39.2504         34.5004
 -13978734.56247 -10956509.35946  23130071.3834                   23130072.8014
        43.7504         38.7504
 -24528706.59848 -19037106.67648  20522238.7504                   20522236.6174
        50.0004         51.7504
   4301628.39146   3499761.53144  24713698.7504                   24713701.7814
        40.2504         28.7504
  -9557292.70746  -7425550.69144  24592752.4384                   24592752.1414
        38.5004         28.0004
 -12192899.64847  -9457646.39847  22425892.4614                   22425889.2934
        47.5004         44.0004
 -29068703.87147 -22488479.30546  20534224.5784                   20534222.2664
        47.5004         39.5004
 -16883710.02047 -17178748.43745  21391897.2894                   21391893.1134
        47.0004         35.2504
 25  8  8  2 11  0.0000000  0  9G27G08G03G09G30G26G07G04G16
  -2974578.98046  -2284888.64146  23593615.7034                   23593616.6294
        41.0004         36.2504
   1015638.52046   1085153.40644  23918213.4924                   23918214.2974
        38.7504         29.0004
 -13890501.05947 -10887756.15246  23146861.4694                   23146863.9104
        42.5004         38.5004
 -24595315.43048 -19089009.65648  20509563.2344                   20509561.1804
        50.0004         52.0004
   4204851.37546   3424350.99644  24695282.3524                   24695285.1054
        40.2504         29.0004
  -9471950.22346  -7359050.10944  24608991.6804                   24608993.8444
        38.7504         28.2504
 -12258242.66047  -9508562.97747  22413458.0004                   22413454.4614
        47.0004         44.0004
 -29068449.47347 -22488281.09846  20534273.2664                   20534270.1884
        47.2504         38.7504
 -16845766.30547 -17149181.91045  21399117.3914                   21399113.1414
        46.7504         35.0004
 25  8  8  2 11 30.0000000  0  9G27G08G03G09G30G26G07G04G16
  -3060496.85947  -2351837.55946  23577266.6414                   23577265.5394
        43.0004         37.0004
    904498.95746    998551.39546  23897065.1024                   23897068.7584
        41.0004         36.5004
 -13802042.69146 -10818827.69546  23163694.5784                   23163696.9654
        41.5004         37.5004
 -24661532.64548 -19140607.48448  20496962.6414                   20496960.3364
        48.7504         51.7504
   4108245.78946   3349074.07444  24676899.0784                   24676901.8674
        39.5004         29.2504
  -9386398.83646  -7292386.67644  24625272.0704                   24625272.9224
        39.2504         28.7504
 -12323352.14147  -9559297.58647  22401067.8984                   22401064.7704
        47.0004         44.0004
 -29067747.08647 -22487733.80146  20534407.1484                   20534403.9774
        46.7504         39.0004
 -16807199.79747 -17119130.09445  21406456.8984                   21406452.4024
        46.0004         34.5004
 25  8  8  2 12  0.0000000  0 10G27G08G03G09G30G21G26G07G04G16
  -3145993.09446  -2418457.83646  23560996.6724                   23560999.3014
        40.2504         38.0004
    793507.94946    912065.18845  23875944.2034                   23875944.6604
        41.5004         30.5004
 -13713360.45346 -10749724.82046  23180570.0474                   23180572.2304
        41.7504         37.0004
 -24727354.46948 -19191897.21548  20484437.0234                   20484434.7894
        48.2504         52.0004
   4011813.69546   3273932.31344  24658548.5704                   24658551.2854
        39.5004         29.2504
   7740375.10256   6123161.72753  25277108.0704                   25277107.8594
        36.0004         19.7504
  -9300639.03546  -7225560.88745  24641591.8444                   24641593.0204
        39.5004         30.5004
 -12388226.47747  -9609848.97347  22388722.5554                   22388718.9804
        45.0004         44.0004
 -29066594.16447 -22486835.42646  20534626.1884                   20534623.4774
        47.2504         38.7504
 -16768010.96147 -17088593.34445  21413914.1414                   21413909.9454
        46.2504         34.2504
 25  8  8  2 12 30.0000000  0 10G27G08G03G09G30G21G26G07G04G16
  -3231077.05547  -2484756.95346  23544806.5234                   23544805.7424
        42.5004         37.0004
    682656.24646    825687.34845  23854848.2034                   23854853.5554
        38.5004         34.0004
 -13624469.90246 -10680459.61746  23197485.0864                   23197488.5824
        41.7504         38.0004
 -24792791.68448 -19242887.25448  20471984.6414                   20471982.8404
        48.2504         52.0004
   3915542.43846   3198915.88345  24640228.4144                   24640231.5234
        39.2504         30.7504
   7623508.09846   6032096.53542  25254868.8834                   25254869.5944
        37.5004         17.2504
  -9214686.18446  -7158584.64845  24657948.4144                   24657948.9304
        41.0004         30.7504
 -12452879.33247  -9660227.77047  22376419.7194                   22376416.3484
        45.0004         43.5004
 -29065002.71147 -22485595.35546  20534929.1884                   20534926.7034
        46.2504         38.5004
 -16728215.20347 -17057583.66445  21421486.7344                   21421482.9804
        46.5004         34.5004
 25  8  8  2 13  0.0000000  0 10G27G08G03G09G30G21G26G07G04G16
  -3315755.83647  -2550740.27346  23528692.3914                   23528690.8204
        42.0004         36.0004
    571936.91046    739412.83645  23833779.5784                   23833781.0084
        41.0004         33.0004
 -13535384.04347 -10611042.24246  23214438.7424                   23214440.8324
        43.0004         38.2504
 -24857852.53148 -19293584.00848  20459604.2894                   20459602.1684
        48.0004         51.7504
   3819421.93446   3124016.91845  24621936.8054                   24621939.6914
        38.7504         30.5004
   7506936.72346   5941261.72742  25232686.0944                   25232686.5744
        37.5004         16.2504
  -9128552.80146  -7091467.77345  24674338.5784                   24674339.2704
        39.0004         30.2504
 -12517320.71947  -9710441.77747  22364156.4924                   22364153.4064
        45.7504         43.5004
 -29062982.11747 -22484020.89146  20535313.8834                   20535310.7704
        47.2504         39.0004
 -16687824.47347 -17026110.37145  21429172.9384                   21429168.9224
        46.0004         34.5004
 25  8  8  2 13 30.0000000  0 10G27G08G03G09G30G21G26G07G04G16
  -3400036.60246  -2616413.52746  23512653.3284                   23512656.5984
        40.7504         38.2504
    461342.79346    653235.67245  23812732.1024                   23812736.9304
        36.5004         30.2504
 -13446116.24247 -10541483.05146  23231426.2114                   23231428.8594
        44.0004         38.2504
 -24922545.57048 -19343994.16448  20447293.5004                   20447291.1414
        48.5004         51.7504
   3723441.80946   3049227.32845  24603671.7814                   24603674.9804
        37.2504         30.5004
   7390653.172 6                  25210557.953
        37.750
  -9042251.89846  -7024220.38345  24690760.7734                   24690762.8404
        40.7504         30.7504
 -12581561.48047  -9760499.46147  22351932.2894                   22351928.7544
        46.0004         43.7504
 -29060542.23447 -22482119.69946  20535778.4144                   20535775.6414
        47.0004         39.0004
 -16646852.04347 -16994183.81245  21436969.8524                   21436965.8914
        46.5004         34.2504
 25  8  8  2 14  0.0000000  0 10G27G08G03G09G30G21G26G07G04G16
  -3483911.37146  -2681770.40245  23496692.7664                   23496691.2424
        40.7504         34.5004
    350881.97746    567162.50446  23791713.8594                   23791716.6764
        41.2504         37.2504
 -13356664.43446 -10471780.48846  23248446.5084                   23248450.9964
        39.5004         36.2504
 -24986864.13748 -19394112.52348  20435053.7114                   20435051.9654
        48.7504         51.7504
   3627606.86346   2974550.93845  24585435.8914                   24585439.0084
        37.7504         31.2504
   7274664.938 6                  25188487.031
        38.250
  -8955781.06246  -6956840.51645  24707215.6414                   24707217.1764
        38.5004         31.5004
 -12645597.58247  -9810397.66847  22339746.1804                   22339743.2234
        46.5004         43.5004
 -29057677.54747 -22479887.48446  20536323.4384                   20536320.4304
        47.2504         39.2504
 -16605295.60947 -16961802.19945  21444877.9224                   21444873.6024
        46.5004         34.0004
 25  8  8  2 14 30.0000000  0 10G27G08G03G09G30G21G26G07G04G16
  -3567365.91046  -2746799.82046  23480811.6334                   23480812.4454
        38.2504         36.0004
    240568.66046    481204.26644  23770720.7114                   23770722.6054
        37.0004         28.7504
 -13267020.44146 -10401928.22745  23265504.5084                   23265508.6524
        38.5004         35.2504
 -25050795.29348 -19443928.99648  20422888.2814                   20422886.2584
        49.0004         52.0004
   3531928.22746   2899996.25045  24567228.9774                   24567231.5434
        36.0004         31.2504
   7158985.63746   5868827.85553  25166474.1414                   25166475.2344
        39.7504         19.5004
  -8869131.76246  -6889321.62945  24723704.7504                   24723706.4064
        40.0004         30.2504
 -12709418.35947  -9860128.10547  22327601.6254                   22327598.2274
        47.5004         44.2504
 -29054376.36747 -22477315.15246  20536951.5004                   20536948.5084
        47.7504         39.0004
 -16563146.89847 -16928959.05945  21452898.3524                   21452894.1134
        46.2504         34.7504
 25  8  8  2 15  0.0000000  0 10G27G08G03G09G30G21G26G07G04G16
  -3650395.02747  -2811497.77746  23465012.6564                   23465012.5314
        42.5004         38.0004
    130408.43846    395365.25046  23749759.2344                   23749762.3364
        41.0004         38.2504
 -13177185.02046 -10331926.80545  23282601.6804                   23282603.1214
        39.0004         35.0004
 -25114334.96148 -19493440.41048  20410797.2734                   20410794.9734
        48.5004         52.0004
   3436408.01645   2825565.09844  24549050.8984                   24549054.6914
        35.0004         29.2504
   7043620.12946   5778932.65243  25144520.0634                   25144519.6604
        40.2504         18.5004
  -8782304.23046  -6821663.85244  24740227.6644                   24740229.1604
        38.5004         29.0004
 -12773021.79747  -9909689.16847  22315498.2034                   22315494.7854
        47.2504         44.0004
 -29050635.87147 -22474400.48446  20537662.8524                   20537660.0474
        47.7504         39.2504
 -16520405.74247 -16895654.27345  21461031.8134                   21461027.3404
        46.5004         34.2504
 25  8  8  2 15 30.0000000  0 10G27G08G03G09G30G21G26G07G04G16
  -3732999.32447  -2875864.63345  23449293.3984                   23449291.3404
        42.0004         35.5004
     20400.57846    309645.05145  23728823.7344                   23728825.0784
        38.2504         30.2504
 -13087164.91046 -10261781.48045  23299732.0474                   23299733.1954
        40.0004         35.0004
 -25177485.04348 -19542648.24648  20398780.0474                   20398777.7854
        49.0004         52.0004
   3341042.54745   2751254.50045  24530903.7584                   24530907.6684
        34.7504         30.7504
   6928567.21146   5689281.00442  25122626.2974                   25122625.6454
        40.0004         17.7504
  -8695304.78146  -6753872.05544  24756782.9304                   24756783.8134
        39.2504         29.2504
 -12836412.36747  -9959084.37147  22303435.3284                   22303431.9804
        47.5004         44.0004
 -29046459.27747 -22471146.01646  20538458.2664                   20538455.7114
        47.0004         39.5004
 -16477078.37547 -16861892.70745  21469276.4224                   21469272.3284
        46.5004         34.5004
 25  8  8  2 16  0.0000000  0 10G27G08G03G09G30G21G26G07G04G16
  -3815172.57846  -2939895.62546  23433655.4224                   23433655.8204
        40.2504         36.2504
    -89448.28946    224048.60946  23707920.7584                   23707925.3284
        39.7504         37.5004
 -12996959.85946 -10191492.02046  23316898.6334                   23316900.3134
        40.2504         36.5004
 -25240240.62948 -19591548.68448  20386838.4144                   20386835.6334
        48.2504         52.0004
   3245834.93445   2677066.92645  24512786.1094                   24512789.2234
        35.5004         31.0004
   6813832.72346   5599877.48843  25100793.3594                   25100791.4804
        40.0004         19.5004
  -8608132.84846  -6685945.91844  24773372.1804                   24773372.9804
        38.5004         29.7504
 -12899587.21947 -10008311.47747  22291413.9064                   22291410.1884
        46.5004         43.7504
 -29041842.85547 -22467548.80946  20539336.6414                   20539333.9774
        46.5004         39.0004
 -16433164.60247 -16827674.20745  21477633.3914                   21477629.1024
        46.5004         34.2504
 25  8  8  2 16 30.0000000  0 10G27G08G03G09G30G21G26G07G04G16
  -3896906.13746  -3003583.99646  23418101.9844                   23418104.3054
        41.0004         36.7504
   -199129.65646    138582.91845  23687049.2734                   23687052.4264
        39.7504         32.7504
 -12906567.26646 -10121056.43046  23334098.6414                   23334102.0004
        39.5004         37.0004
 -25302594.30547 -19640135.93448  20374972.4614                   20374970.4184
        47.5004         52.0004
   3150790.59846   2603006.59845  24494699.1804                   24494703.0864
        36.7504         30.7504
   6699424.83646   5510728.45743  25079022.2584                   25079021.1294
        39.5004         20.2504
  -8520785.44546  -6617883.11744  24789992.3914                   24789994.9384
        36.7504         28.0004
 -12962541.55947 -10057366.76647  22279433.7974                   22279430.5824
        45.7504         44.2504
 -29036780.51647 -22463604.13346  20540300.0164                   20540296.8324
        47.0004         38.5004
 -16388661.77747 -16792996.70745  21486102.0944                   21486097.6684
        47.5004         34.5004
 25  8  8  2 17  0.0000000  0 10G27G08G03G09G30G21G26G07G04G16
  -3978200.44146  -3066930.14846  23402631.9614                   23402632.7234
        41.0004         36.2504
   -308643.45745     53247.42245  23666208.4844                   23666212.0164
        35.2504         31.7504
 -12815993.43446 -10050479.61346  23351333.9844                   23351338.5394
        39.0004         37.0004
 -25364547.82047 -19688411.37148  20363183.3204                   20363180.5984
        47.7504         52.0004
   3055906.12545   2529070.81345  24476643.8134                   24476646.8094
        34.5004         30.7504
   6585342.51646   5421833.16443  25057313.4304                   25057311.6174
        39.2504         22.7504
  -8433268.48846  -6549688.12944  24806646.8204                   24806648.5704
        36.0004         27.0004
 -13025279.10547 -10106253.12147  22267495.4384                   22267492.0394
        45.2504         44.0004
 -29031275.23847 -22459314.31246  20541347.7344                   20541344.9454
        46.2504         39.0004
 -16343575.57847 -16757864.62545  21494681.5314                   21494677.3674
        47.0004         34.0004
 25  8  8  2 17 30.0000000  0 10G27G08G03G09G30G21G26G07G04G16
  -4059050.30946  -3129929.90645  23387246.9454                   23387245.7774
        40.5004         34.7504
   -417984.59046    -31953.12545  23645402.8754                   23645405.3954
        41.2504         35.5004
 -12725239.14846  -9979762.18046  23368604.2114                   23368608.8594
        39.2504         37.0004
 -25426097.10548 -19736371.82848  20351470.7114                   20351468.7154
        48.2504         52.0004
   2961183.63345   2455261.25445  24458617.8834                   24458621.8094
        35.2504         32.0004
   6471590.44946   5333195.24243  25035666.1484                   25035665.1724
        40.0004         22.0004
  -8345582.06645  -6481361.13344  24823332.9844                   24823334.1954
        34.2504         24.0004
 -13087798.22347 -10154969.27047  22255598.0704                   22255594.9774
        47.0004         44.2504
 -29025324.26247 -22454677.19146  20542480.0474                   20542477.1484
        47.0004         38.7504
 -16297906.28947 -16722278.20345  21503372.0164                   21503367.8094
        46.7504         34.0004
 25  8  8  2 18  0.0000000  0 10G27G08G03G09G30G21G26G07G04G16
  -4139453.16446  -3192581.34846  23371947.8054                   23371948.2304
        41.0004         36.0004
   -527150.16845   -117017.07044  23624627.5784                   23624630.3874
        35.7504         27.7504
 -12634307.84046  -9908906.78146  23385908.0474                   23385911.8874
        39.5004         38.5004
 -25487240.69948 -19784016.15648  20339835.5164                   20339833.3524
        48.7504         52.0004
   2866622.55946   2381577.49245  24440624.0554                   24440627.0864
        37.5004         32.7504
   6358170.78146   5244816.28944  25014083.5704                   25014081.8914
        41.2504         24.5004
  -8257729.50845  -6412904.57844  24840049.8984                   24840052.3054
        33.7504         26.2504
 -13150099.93447 -10203516.01647  22243742.5634                   22243739.1134
        47.5004         44.0004
 -29018927.57447 -22449692.76246  20543697.3594                   20543694.5124
        46.2504         38.7504
 -16251657.53147 -16686240.24245  21512173.2344                   21512168.8324
        47.2504         34.5004
 25  8  8  2 18 30.0000000  0 10G27G08G03G09G30G21G26G07G04G16
  -4219412.66846  -3254887.52046  23356729.8754                   23356731.7934
        37.5004         36.0004
   -636143.57046   -201946.84045  23603887.2114                   23603890.4064
        36.7504         32.7504
 -12543209.24246  -9837921.05146  23403244.0554                   23403245.7854
        39.7504         36.2504
 -25547983.87548 -19831348.46948  20328276.2274                   20328274.0594
        49.5004         52.2504
   2772216.15646   2308014.24645  24422658.5944                   24422661.8674
        38.5004         34.0004
   6245079.18046   5156693.00843  24992562.5634                   24992562.1174
        39.2504         22.2504
  -8169719.76646  -6344325.62144  24856799.9304                   24856800.4304
        36.0004         26.7504
 -13212191.53948 -10251899.04347  22231926.9844                   22231923.6134
        48.2504         44.0004
 -29012091.44547 -22444365.91846  20544998.0554                   20544995.0824
        46.5004         38.2504
 -16204838.52747 -16649757.92245  21521082.5634                   21521078.3204
        47.2504         34.5004
 25  8  8  2 19  0.0000000  0 10G27G08G03G09G30G21G26G07G04G16
  -4298913.61747  -3316836.20745  23341602.8054                   23341600.1054
        42.2504         35.0004
   -744949.48446   -286730.57045  23583182.1564                   23583183.9924
        38.5004         30.7504
 -12451933.77046  -9766797.54745  23420612.0084                   23420614.3674
        39.5004         34.2504
 -25608312.35247 -19878357.64148  20316796.2974                   20316793.8834
        47.0004         52.0004
   2677976.64146   2234581.04345  24404725.8524                   24404728.6844
        38.5004         33.7504
   6132330.93446   5068837.29344  24971107.3674                   24971106.3364
        39.2504         24.7504
  -8081543.23445  -6275616.70744  24873578.1024                   24873580.0434
        34.2504         26.0004
 -13274060.91447 -10300108.91047  22220153.6254                   22220149.9414
        45.5004         44.5004
 -29004803.00847 -22438686.62146  20546385.0784                   20546382.2544
        46.5004         38.5004
 -16157439.69547 -16612823.78945  21530102.3134                   21530097.7584
        47.2504         34.5004
