     2.11           OBSERVATION DATA    G (GPS)             RINEX VERSION / TYPE
teqc  2019Feb25                         20250819 04:15:18UTCPGM / RUN BY / DATE
Linux 2.6.32-573.12.1.x86_64|x86_64|gcc -static|Linux 64|=+ COMMENT
BIT 2 OF LLI FLAGS DATA COLLECTED UNDER A/S CONDITION       COMMENT
36453561                                                    MARKER NAME
3645                                                        MARKER NUMBER
-Unknown-           -Unknown-                               OBSERVER / AGENCY
0220263645          TRIMBLE 5700        2.32                REC # / TYPE / VERS
-Unknown-           TRM39105.00     NONE                    ANT # / TYPE
 -2372560.9194 -4591118.7239  3726563.8470                  APPROX POSITION XYZ
        0.0000        0.0000        0.0000                  ANTENNA: DELTA H/E/N
     1     1                                                WAVELENGTH FACT L1/2
     7    L1    L2    C1    P1    P2    S1    S2            # / TYPES OF OBSERV
    18                                                      LEAP SECONDS
 SNR is mapped to RINEX snr flag value [0-9]                COMMENT
  L1 & L2: min(max(int(snr_dBHz/6), 0), 9)                  COMMENT
  2025     8     7    21     3    0.0000000     GPS         TIME OF FIRST OBS
                                                            END OF HEADER
 25  8  7 21  3  0.0000000  0  6G01G02G10G28G31G32
    -94003.20357    -53806.27055  22517994.2114                   22517993.9694
        45.5004         31.7504
    -23536.66057    -13719.39856  21418751.0474                   21418746.7504
        47.7504         38.7504
     63249.23457     35796.28957  22130114.5864                   22130115.1374
        47.0004         44.7504
    -41440.98857    -23987.30156  21066242.6174                   21066240.7304
        46.2504         38.0004
   -101563.79757    -64235.22357  21965429.1804                   21965428.2854
        45.5004         43.5004
     71430.46558     42260.46958  21478107.4304                   21478106.8954
        49.2504         50.0004
 25  8  7 21  3 30.0000000  0  7G01G02G10G28G31G32G08
   -173560.49647   -115798.91045  22502854.9924                   22502854.8954
        45.2504         31.2504
    -44492.80147    -30048.87546  21414763.1414                   21414758.7384
        47.7504         38.5004
    114197.47747     75496.14847  22139809.3984                   22139809.7974
        47.0004         44.7504
    -77490.32847    -52077.66046  21059382.4844                   21059380.5314
        45.7504         38.0004
   -195820.15247   -137681.62147  21947493.1414                   21947491.4264
        46.2504         43.0004
    129433.87148     87457.90248  21489145.2034                   21489144.6994
        49.2504         49.7504
    100329.63256     57978.25054  24473253.7734                   24473261.6844
        38.5004         26.7504
 25  8  7 21  4  0.0000000  0  7G01G02G10G28G31G32G08
   -253808.48047   -178329.72345  22487584.3054                   22487583.5554
        43.5004         31.5004
    -65973.96947    -46787.46546  21410675.8834                   21410670.9694
        47.0004         37.5004
    164366.36747    114588.73447  22149356.4064                   22149356.9964
        46.0004         44.5004
   -113998.90647    -80525.89546  21052435.2114                   21052433.3794
        46.5004         39.7504
   -290768.77347   -211667.47747  21929424.6884                   21929423.2344
        45.0004         43.2504
    186608.98448    132009.89148  21500025.4844                   21500024.7854
        49.5004         50.7504
    178005.578 5                  24488035.969
        32.250
 25  8  7 21  4 30.0000000  0  8G01G02G03G10G28G31G32G08
   -334579.07847   -241267.80545  22472214.4304                   22472213.8954
        44.5004         33.0004
    -87813.78148    -63805.53146  21406519.6954                   21406515.5314
        49.2504         40.2504
    -50026.68755   -102982.60255  24281662.6644                   24281667.2814
        35.7504         31.7504
    213921.71547    153203.22347  22158786.4534                   22158787.1914
        47.5004         46.0004
   -150799.95347   -109201.98846  21045432.2894                   21045430.0164
        46.2504         39.2504
   -386241.16047   -286061.43047  21911256.4614                   21911255.4844
        46.0004         43.2504
    243119.64848    176044.17247  21510779.0394                   21510777.9534
        48.2504         47.7504
    254892.06656    148763.21554  24502666.3444                   24502673.4104
        40.5004         28.5004
 25  8  7 21  5  0.0000000  0  8G01G02G03G10G28G31G32G08
   -415777.93047   -304539.54744  22456762.0634                   22456761.4614
        44.5004         29.7504
   -109919.35948    -81030.64146  21402313.2974                   21402308.8714
        48.7504         39.2504
   -136791.77746   -170591.61345  24265151.4454                   24265156.7814
        37.0004         30.5004
    262955.89548    191411.59047  22168117.4534                   22168117.9884
        48.0004         45.2504
   -187800.21547   -138033.33246  21038391.2344                   21038389.0594
        44.5004         38.5004
   -482142.13347   -360789.29346  21893007.2814                   21893006.3834
        43.5004         40.5004
    299056.22348    219631.09048  21521423.6884                   21521422.7274
        49.0004         50.0004
    331076.37546    208127.28545  24517163.5164                   24517171.9654
        38.7504         30.7504
 25  8  7 21  5 30.0000000  0  8G01G02G03G10G28G31G32G08
   -497322.42247   -368080.67645  22441245.3914                   22441244.4574
        44.5004         32.5004
   -132209.59847    -98399.65646  21398071.6644                   21398067.0784
        47.5004         39.0004
   -224263.96546   -238751.60245  24248505.4384                   24248511.4534
        36.5004         30.5004
    311549.17647    229276.41847  22177364.4224                   22177365.1564
        47.0004         44.7504
   -224918.36747   -166956.52046  21031328.1414                   21031325.9694
        46.0004         38.2504
   -578388.88347   -435786.63747  21874692.1254                   21874690.6804
        46.5004         43.5004
    354497.11348    262831.75848  21531973.5864                   21531972.6884
        49.5004         49.7504
    406636.31346    267004.98844  24531543.0004                   24531550.2854
        41.5004         29.7504
 25  8  7 21  6  0.0000000  0  9G01G02G03G10G28G31G32G08G25
   -579150.27747   -431842.56245  22425673.8284                   22425672.9774
        44.5004         31.7504
   -154623.97748   -115865.42246  21393806.3134                   21393801.4734
        48.2504         39.5004
   -312382.86346   -307415.51644  24231736.7274                   24231742.0124
        37.0004         29.0004
    359761.70347    266844.55947  22186538.9614                   22186539.5594
        47.2504         44.7504
   -262093.36747   -195924.02746  21024253.4454                   21024251.4574
        46.0004         38.7504
   -674918.76647   -511004.60947  21856322.4694                   21856321.7584
        45.7504         43.2504
    409500.50448    305691.52048  21542440.1644                   21542439.6724
        49.2504         49.7504
    481628.90246    325440.54745  24545813.1724                   24545821.0124
        41.0004         30.5004
    -82807.71555    -54204.98453  24793351.5004                   24793355.1724
        33.0004         22.7504
 25  8  7 21  6 30.0000000  0  9G01G02G03G10G28G31G32G08G25
   -661216.94547   -495790.56245  22410056.7344                   22410056.0044
        44.7504         31.7504
   -177119.24248   -133394.20346  21389525.6094                   21389520.6454
        48.2504         38.7504
   -401106.00046   -376550.28544  24214853.2194                   24214858.8524
        37.7504         29.7504
    407635.89147    304149.05947  22195649.3594                   22195649.9104
        47.5004         45.0004
   -299281.92647   -224902.09046  21017176.8594                   21017174.5554
        46.5004         38.5004
   -771686.45747   -586407.86747  21837908.6174                   21837907.4734
        46.2504         43.5004
    464106.85548    348241.90648  21552831.3754                   21552830.7424
        48.7504         49.5004
    556093.12946    383464.36345  24559983.5784                   24559991.7664
        40.7504         30.7504
   -132316.42645    -92783.16044  24783929.8364                   24783933.8204
        34.5004         24.2504
 25  8  7 21  7  0.0000000  0  9G01G02G03G10G28G31G32G08G25
   -743478.26647   -559890.25045  22394402.6954                   22394402.0784
        44.5004         31.7504
   -199653.22348   -150953.15646  21385237.2734                   21385232.5784
        48.2504         39.0004
   -490391.09046   -446122.90644  24197862.5554                   24197867.9494
        37.5004         28.0004
    455213.72347    341222.62547  22204703.0314                   22204703.8054
        47.7504         44.7504
   -336441.20347   -253857.33646  21010105.4924                   21010103.4384
        46.7504         39.2504
   -868647.31247   -661961.67247  21819457.2584                   21819456.0474
        46.2504         44.0004
    518356.24248    390514.12948  21563155.0314                   21563154.2344
        49.0004         49.5004
    630067.84846    441106.76645  24574060.4224                   24574069.0554
        40.0004         31.2504
   -182017.74645   -131511.37944  24774472.0474                   24774475.8364
        34.2504         24.5004
 25  8  7 21  7 30.0000000  0  9G01G02G03G10G28G31G32G08G25
   -825898.19947   -624113.50845  22378718.9694                   22378717.8524
        45.5004         32.2504
   -222191.21148   -168515.22746  21380948.3984                   21380943.5234
        48.2504         39.0004
   -580204.19546   -516106.99644  24180773.1174                   24180777.7504
        38.0004         29.5004
    502529.01647    378091.63347  22213707.1024                   22213707.7344
        47.2504         44.5004
   -373536.46147   -282762.69946  21003046.7114                   21003044.6374
        47.0004         38.7504
   -965764.90247   -737637.58647  21800976.3284                   21800974.8524
        47.0004         43.7504
    572280.57848    432533.07048  21573416.1484                   21573415.6134
        49.7504         49.5004
    703583.56346    498391.48845  24588050.5944                   24588057.6914
        39.7504         30.0004
   -231875.37145   -170361.47344  24764985.1884                   24764988.3634
        33.7504         26.0004
 25  8  7 21  8  0.0000000  0  9G01G02G03G10G28G31G32G08G25
   -908441.37947   -688432.81645  22363010.9694                   22363010.3284
        45.0004         32.2504
   -244699.43448   -186054.09846  21376665.4924                   21376660.8714
        48.2504         39.0004
   -670511.89546   -586476.48844  24163586.8284                   24163591.7424
        38.0004         29.0004
    549614.99247    414781.93447  22222667.1334                   22222667.8484
        46.7504         44.5004
   -410533.71147   -311591.69546  20996006.2034                   20996004.4304
        46.5004         38.7504
  -1063003.56647   -813407.84047  21782472.1564                   21782471.1724
        46.5004         44.0004
    625911.19548    474323.12948  21583622.0944                   21583621.1454
        49.7504         49.2504
    776670.31346    555341.92645  24601959.8204                   24601966.2034
        40.7504         31.5004
   -281853.98045   -209305.73444  24755474.8524                   24755477.0354
        35.7504         25.5004
 25  8  7 21  8 30.0000000  0  9G01G02G03G10G28G31G32G08G25
   -991080.08647   -752826.55945  22347285.4614                   22347284.4924
        45.2504         33.2504
   -267151.75047   -203549.41446  21372392.3674                   21372388.0514
        47.7504         39.0004
   -761288.48446   -657211.31244  24146313.1334                   24146317.1884
        39.0004         28.7504
    596497.11347    451313.39847  22231588.7424                   22231588.8984
        47.2504         44.5004
   -447406.61347   -340323.80146  20988989.4694                   20988987.6334
        46.2504         38.0004
  -1160334.90247   -889250.32447  21763950.4924                   21763949.5784
        46.0004         44.0004
    679271.66448    515902.69548  21593776.1094                   21593775.2194
        49.0004         49.0004
    849350.31346    611975.43445  24615790.1174                   24615797.2734
        40.5004         31.2504
   -331925.78145   -248322.73443  24745945.7664                   24745949.0704
        33.2504         23.7504
 25  8  7 21  9  0.0000000  0  9G01G02G03G10G28G31G32G08G25
  -1073778.94947   -817267.17245  22331548.4924                   22331547.3484
        44.5004         32.0004
   -289514.77348   -220975.14546  21368137.4694                   21368132.9064
        48.0004         39.2504
   -852500.44546   -728285.42644  24128955.3204                   24128959.9964
        39.2504         29.7504
    643208.60547    487711.91047  22240477.4384                   22240478.0124
        46.7504         44.5004
   -484121.18047   -368932.52046  20982002.9614                   20982000.9024
        46.0004         38.2504
  -1257723.11347   -965137.10547  21745418.2424                   21745416.4924
        46.0004         44.2504
    732393.36748    557296.20348  21603884.5164                   21603884.1994
        49.2504         49.2504
    921653.52746    668315.32445  24629549.4064                   24629556.4774
        41.0004         33.0004
   -382055.11346   -287384.44944  24736406.9144                   24736410.4574
        37.0004         27.5004
 25  8  7 21  9 30.0000000  0  9G01G02G03G10G28G31G32G08G25
  -1156515.64847   -881737.26645  22315804.4144                   22315803.0784
        45.0004         32.7504
   -311767.97348   -238315.29746  21363902.4454                   21363897.7114
        48.0004         39.0004
   -944127.44546   -799682.94945  24111519.9454                   24111523.9534
        40.0004         30.2504
    689769.60947    523993.16047  22249337.5004                   22249338.4884
        47.0004         44.5004
   -520656.45347   -397401.52746  20975050.6414                   20975048.4304
        45.0004         38.2504
  -1355145.42647  -1041050.47347  21726879.4224                   21726877.9734
        45.0004         43.5004
    785294.50848    598517.84448  21613951.5474                   21613950.5354
        49.2504         49.0004
    993596.86746    724374.79345  24643239.6254                   24643247.3914
        38.5004         30.5004
   -432219.63345   -326473.64843  24726860.3594                   24726862.2504
        34.2504         22.7504
 25  8  7 21 10  0.0000000  0  9G01G02G03G10G28G31G32G08G25
  -1239262.09847   -946214.94945  22300058.5084                   22300057.0514
        43.5004         31.7504
   -333884.75847   -255549.15646  21359693.5554                   21359689.0594
        47.7504         39.0004
  -1036143.30146   -871383.47744  24094009.4774                   24094013.2274
        39.0004         29.2504
    736206.07047    560177.35947  22258174.7274                   22258175.0124
        47.0004         44.0004
   -556985.72347   -425710.02346  20968137.2664                   20968135.1764
        45.2504         38.2504
  -1452573.21947  -1116968.10247  21708339.5864                   21708337.4024
        46.7504         44.0004
    837999.20748    639586.41448  21623981.2344                   21623980.2704
        48.5004         49.0004
   1065203.16546    780171.62445  24656865.5784                   24656873.7234
        38.0004         31.2504
   -482391.02346   -365568.16044  24717313.4064                   24717317.4064
        36.5004         28.0004
 25  8  7 21 10 30.0000000  0  9G01G02G03G10G28G31G32G08G25
  -1321997.80547  -1010684.27345  22284313.8914                   22284312.8874
        44.5004         32.5004
   -355846.33648   -272662.06646  21355514.7424                   21355510.4024
        48.2504         39.5004
  -1128529.37546   -943372.48445  24076429.2894                   24076432.6994
        39.7504         31.0004
    782536.28147    596278.76647  22266990.7114                   22266991.2154
        46.5004         43.7504
   -593090.00847   -453843.19946  20961266.6884                   20961264.3014
        45.5004         38.5004
  -1549985.70347  -1192873.81247  21689802.6564                   21689800.5664
        46.5004         44.0004
    890523.92648    680514.73848  21633976.0084                   21633975.3404
        49.0004         48.7504
   1136487.46946    835717.59445  24670431.2504                   24670438.8284
        37.5004         32.0004
   -532548.85945   -404652.13743  24707768.4384                   24707771.6214
        35.2504         22.7504
 25  8  7 21 11  0.0000000  0  9G01G02G03G10G28G31G32G08G25
  -1404705.34447  -1075131.64545  22268575.0314                   22268574.3094
        45.0004         32.5004
   -377637.01647   -289641.82446  21351368.1334                   21351363.6484
        47.5004         39.0004
  -1221270.10946  -1015637.84045  24058781.4534                   24058784.9024
        40.5004         30.0004
    828775.49647    632309.27047  22275789.3134                   22275790.7894
        46.5004         43.7504
   -628953.25047   -481788.55146  20954441.9694                   20954440.0124
        45.7504         38.5004
  -1647364.88747  -1268753.59047  21671271.2734                   21671269.5864
        46.2504         44.5004
    942882.09048    721313.28148  21643939.4774                   21643938.6914
        48.2504         48.5004
   1207461.75445    891022.00044  24683936.4694                   24683944.8014
        35.0004         29.5004
   -582675.34845   -443711.77343  24698229.8984                   24698232.5784
        34.5004         23.0004
 25  8  7 21 11 30.0000000  0  9G01G02G03G10G28G31G32G08G25
  -1487371.24247  -1139546.56645  22252844.3284                   22252843.7464
        45.0004         32.5004
   -399245.11747   -306479.30546  21347256.4694                   21347251.8094
        47.7504         39.0004
  -1314353.96946  -1088170.57445  24041067.4064                   24041071.5474
        38.2504         30.0004
    874934.94147    668277.60247  22284574.0784                   22284574.4494
        46.7504         44.0004
   -664563.57047   -509536.82046  20947665.9224                   20947663.4804
        45.0004         38.5004
  -1744696.85247  -1344596.55947  21652749.6334                   21652747.8634
        47.0004         44.2504
    995083.09448    761989.35948  21653872.8364                   21653872.4104
        49.0004         48.5004
   1278134.21145    946091.18044  24697384.6724                   24697393.6954
        33.5004         28.7504
   -632757.23045   -482736.49244  24688698.7504                   24688702.9494
        35.2504         25.7504
 25  8  7 21 12  0.0000000  0  9G01G02G03G10G28G31G32G08G25
  -1569975.80547  -1203913.68745  22237125.3594                   22237124.4144
        45.0004         33.5004
   -420652.71947   -323160.56246  21343182.6334                   21343177.8634
        47.7504         39.2504
  -1407763.15246  -1160956.80945  24023292.2034                   24023295.6484
        39.0004         30.2504
    921032.11747    704197.43047  22293345.7034                   22293346.3594
        46.5004         44.0004
   -699902.78147   -537073.83646  20940940.8364                   20940938.8014
        45.5004         38.7504
  -1841961.45347  -1420387.05547  21634240.7504                   21634239.2854
        46.5004         44.5004
   1047142.59448    802555.18448  21663779.7584                   21663778.9344
        48.5004         48.5004
   1348519.07445   1000936.27744  24710777.7814                   24710787.7074
        32.0004         25.2504
   -682774.66846   -521711.14543  24679181.4454                   24679184.0554
        36.0004         22.7504
 25  8  7 21 12 30.0000000  0  9G01G02G03G10G28G31G32G08G25
  -1652508.37947  -1268224.70345  22221419.4384                   22221418.8674
        45.2504         34.0004
   -441850.89147   -339678.61746  21339148.1884                   21339143.8204
        47.5004         38.7504
  -1501488.91846  -1233989.75444  24005456.6644                   24005460.8524
        37.2504         29.0004
    967075.48447    740075.32847  22302107.5554                   22302108.0634
        47.2504         43.7504
   -734961.71947   -564392.46146  20934269.2424                   20934267.2034
        45.2504         38.2504
  -1939147.78547  -1496116.55547  21615746.8674                   21615744.9774
        46.5004         44.5004
   1099067.29748    843015.96548  21673660.4774                   21673660.0204
        48.2504         48.5004
   1418621.80155   1055561.44954  24724119.9144                   24724127.9574
        34.5004         27.5004
   -732716.95746   -560627.14844  24669677.2034                   24669680.7034
        36.2504         24.0004
 25  8  7 21 13  0.0000000  0  9G01G02G03G10G28G31G32G08G25
  -1734950.53947  -1332465.27745  22205731.2974                   22205730.5824
        45.7504         33.7504
   -462822.80548   -356020.36746  21335157.6564                   21335153.1844
        48.0004         39.0004
  -1595514.58246  -1307256.37144  23987563.9064                   23987567.9454
        37.2504         29.0004
   1013081.30147    775923.97347  22310862.2194                   22310862.9774
        46.5004         43.5004
   -769723.50047   -591479.53146  20927654.7114                   20927651.9304
        46.2504         38.7504
  -2036236.73847  -1571770.17647  21597271.6564                   21597269.4654
        47.0004         45.0004
   1150871.71148    883383.01248  21683518.8834                   21683518.0084
        48.0004         48.5004
   1488455.34045   1109976.89544  24737409.0164                   24737417.6604
        34.2504         28.2504
   -782565.41846   -599470.04744  24660192.1254                   24660194.6994
        37.0004         24.7504
 25  8  7 21 13 30.0000000  0  9G01G02G03G10G28G31G32G08G25
  -1817293.91847  -1396628.87945  22190062.3914                   22190061.1254
        44.5004         34.2504
   -483562.20747   -372180.94546  21331211.2424                   21331206.4844
        47.7504         39.7504
  -1689833.60946  -1380751.59044  23969615.7344                   23969619.1524
        37.7504         29.7504
   1059055.76247    811748.17247  22319610.7504                   22319611.4494
        46.2504         43.0004
   -804181.31247   -618329.74646  20921097.0084                   20921095.1994
        46.2504         38.5004
  -2133219.54347  -1647341.10247  21578816.3204                   21578813.9064
        46.2504         44.2504
   1202560.17648    923659.71548  21693354.6414                   21693353.7074
        48.5004         48.2504
                                  24750645.5164                   24750655.4574
        31.0004         22.2504
   -832311.80146   -638233.41444  24650725.3444                   24650728.4884
        38.0004         27.7504
 25  8  7 21 14  0.0000000  0  9G01G02G03G10G28G31G32G08G25
  -1899529.93047  -1460708.81645  22174413.1644                   22174412.1024
        45.7504         33.7504
   -504062.37948   -388155.10546  21327309.7974                   21327305.5514
        48.5004         39.2504
  -1784439.29346  -1454470.19944  23951612.2814                   23951616.9734
        36.5004         29.5004
   1105005.23447    847552.90647  22328354.8134                   22328355.2974
        46.5004         43.0004
   -838328.19947   -644937.68446  20914599.3524                   20914597.3054
        45.0004         39.0004
  -2230087.25047  -1722822.33247  21560382.4064                   21560380.8914
        45.5004         44.5004
   1254137.32848    963849.67648  21703169.3364                   21703168.6374
        48.0004         48.2504
   1627327.38345   1218188.31644  24763836.1254                   24763844.4024
        31.7504         24.5004
   -881947.40246   -676910.47344  24641280.0944                   24641283.2114
        37.5004         26.0004
 25  8  7 21 14 30.0000000  0  9G01G02G03G10G28G31G32G08G25
  -1981642.20747  -1524692.32845  22158787.4454                   22158786.1024
        45.2504         35.0004
   -524308.75848   -403931.51246  21323457.2734                   21323452.6994
        48.2504         39.0004
  -1879316.98445  -1528400.74245  23933557.9304                   23933562.4534
        35.2504         30.0004
   1150943.91047    883349.22347  22337096.6644                   22337097.2814
        47.2504         43.5004
   -872149.33647   -671291.78546  20908163.8364                   20908161.2304
        45.2504         39.0004
  -2326823.18447  -1798200.88747  21541974.1644                   21541972.5784
        45.5004         44.2504
   1305615.59048   1003962.58248  21712965.5864                   21712964.9304
        48.5004         48.2504
   1696380.20755   1271995.46555  24776975.3674                   24776984.6294
        35.5004         30.0004
   -931455.96146   -715488.44944  24631859.0234                   24631860.4734
        38.0004         25.5004
 25  8  7 21 15  0.0000000  0  9G01G02G03G10G28G31G32G08G25
  -2063620.61747  -1588571.53545  22143187.4614                   22143186.3054
        46.0004         34.5004
   -544292.93447   -419503.59046  21319654.6884                   21319649.8714
        47.5004         38.7504
  -1974458.44145  -1602536.82045  23915452.6724                   23915457.4654
        34.2504         30.5004
   1196879.69147    919143.28547  22345838.0944                   22345838.5864
        47.0004         44.0004
   -905636.24247   -697385.45746  20901791.0004                   20901788.7304
        47.0004         38.0004
  -2423416.69947  -1873468.47347  21523593.0944                   21523591.4614
        46.0004         44.5004
   1357001.18048   1044003.27748  21722743.8754                   21722743.0044
        48.5004         48.0004
   1765186.08245   1325610.06645  24790070.1884                   24790078.4264
        35.5004         30.5004
   -980827.05545   -753959.38344  24622463.2734                   24622465.9064
        35.7504         26.0004
 25  8  7 21 15 30.0000000  0  9G01G02G03G10G28G31G32G08G25
  -2145452.69947  -1652336.73045  22127615.6564                   22127614.0164
        46.2504         34.7504
   -564004.16448   -434862.99646  21315903.4844                   21315898.6024
        48.0004         39.2504
  -2069852.75845  -1676869.91445  23897300.9454                   23897304.6174
        34.2504         31.2504
   1242822.96147    954943.17647  22354581.0704                   22354581.8164
        46.5004         43.5004
   -938778.04347   -723210.21146  20895484.4064                   20895482.0784
        47.2504         39.5004
  -2519854.53547  -1948614.75047  21505241.4924                   21505239.5204
        45.2504         44.5004
   1408302.69548   1083978.46548  21732506.2424                   21732505.5664
        48.5004         48.0004
   1833752.27046   1379038.07045  24803117.6414                   24803126.1054
        37.0004         30.0004
  -1030048.34046   -792313.50444  24613096.6804                   24613100.4344
        37.5004         27.0004
 25  8  7 21 16  0.0000000  0  9G01G02G03G10G28G31G32G08G25
  -2227126.98447  -1715978.96145  22112072.7894                   22112071.3954
        46.0004         33.7504
   -583433.07447   -450002.41446  21312206.3524                   21312201.6644
        47.5004         39.0004
  -2165490.41845  -1751392.60544  23879100.5004                   23879104.6174
        34.5004         29.7504
   1288782.93447    990756.08247  22363326.7734                   22363327.6724
        47.0004         43.2504
   -971564.95747   -748758.43046  20889244.8364                   20889243.0704
        47.0004         38.5004
  -2616124.87147  -2023630.53147  21486921.7034                   21486919.7274
        45.0004         44.0004
   1459527.66048   1123893.99647  21742254.0394                   21742253.5234
        48.5004         47.5004
   1902084.92645   1432283.95744  24816121.0084                   24816129.8484
        35.5004         29.2504
  -1079108.29746   -830542.02743  24603760.6884                   24603763.3524
        36.0004         22.5004
 25  8  7 21 16 30.0000000  0  9G01G02G03G10G28G31G32G08G25
  -2308636.92647  -1779493.13745  22096561.8524                   22096561.0944
        45.5004         33.7504
   -602574.95747   -464918.18046  21308563.8444                   21308559.1334
        47.7504         39.2504
  -2261366.56245  -1826101.13745  23860855.7894                   23860859.6884
        33.5004         30.2504
   1334763.98847   1026585.42247  22372076.6724                   22372077.6524
        46.5004         42.7504
  -1003992.15248   -774026.34046  20883074.7194                   20883071.8484
        48.2504         38.5004
  -2712220.97347  -2098510.53947  21468634.9694                   21468633.2344
        46.0004         44.2504
   1510678.71947   1163751.94947  21751987.7194                   21751986.9734
        47.5004         47.5004
   1970185.25846   1485348.86745  24829079.6094                   24829089.0704
        39.0004         32.2504
  -1128000.38346   -868639.64844  24594457.3284                   24594461.5004
        38.0004         28.2504
 25  8  7 21 17  0.0000000  0  9G01G02G03G10G28G31G32G08G25
  -2389970.52047  -1842869.89145  22081085.0314                   22081084.0354
        44.7504         34.0004
   -621419.77047   -479602.46146  21304977.7274                   21304973.3444
        47.0004         39.0004
  -2357470.87545  -1900987.45345  23842568.0314                   23842571.9144
        35.2504         30.5004
   1380775.85247   1062438.75847  22380832.4924                   22380832.8984
        46.5004         42.7504
  -1036049.34447   -799005.94546  20876974.5234                   20876971.9414
        47.2504         38.0004
  -2808130.60947  -2173245.24247  21450384.5004                   21450382.3444
        45.7504         44.5004
   1561763.94948   1203558.60247  21761709.0164                   21761708.3094
        48.7504         47.5004
   2038060.12946   1538238.11745  24841995.9144                   24842005.7504
        39.2504         32.0004
  -1176712.64846   -906597.17643  24585187.7894                   24585189.7274
        37.2504         22.0004
 25  8  7 21 17 30.0000000  0  9G01G02G03G10G28G31G32G08G25
  -2471112.20747  -1906097.11745  22065644.0944                   22065642.7894
        46.0004         33.7504
   -639953.70747   -494044.50446  21301450.9614                   21301445.8954
        47.7504         39.2504
  -2453789.52746  -1976040.77345  23824238.5164                   23824243.0594
        36.0004         30.7504
   1426831.99247   1098326.60547  22389596.6954                   22389597.3484
        46.5004         43.2504
  -1067722.62947   -823686.39546  20870946.9534                   20870944.8794
        47.5004         39.2504
  -2903837.72347  -2247822.13747  21432171.8204                   21432170.1294
        46.5004         45.0004
   1612795.09848   1243323.11348  21771419.9304                   21771419.4574
        48.2504         48.0004
   2105719.77346   1590959.64544  24854871.7274                   24854881.0394
        37.5004         26.7504
  -1225229.49246   -944402.50444  24575955.6884                   24575958.0824
        38.7504         25.5004
 25  8  7 21 18  0.0000000  0  9G01G02G03G10G28G31G32G08G25
  -2552066.60947  -1969178.41845  22050238.9774                   22050237.6804
        45.0004         34.0004
   -658183.39147   -508249.47346  21297982.1414                   21297977.2974
        47.7504         38.7504
  -2550328.86746  -2051266.09045  23805867.7504                   23805871.5124
        37.0004         32.5004
   1472925.51647   1134243.58647  22398367.8754                   22398368.6174
        47.0004         43.0004
  -1099018.45747   -848072.73446  20864991.6254                   20864989.0044
        46.7504         39.2504
  -2999346.41447  -2322244.42247  21413996.8594                   21413994.9024
        47.5004         45.2504
   1663763.62548   1283038.82447  21781118.7734                   21781118.6294
        48.5004         47.7504
   2173154.29345   1643505.74243  24867705.5084                   24867714.0944
        35.2504         22.7504
  -1273555.54746   -982059.06243  24566758.5004                   24566761.2194
        37.5004         22.2504
 25  8  7 21 18 30.0000000  0  9G01G02G03G10G28G31G32G08G25
  -2632820.39547  -2032103.38345  22034871.7974                   22034871.0004
        45.5004         34.7504
   -676097.38347   -522208.43446  21294573.0234                   21294568.1804
        47.5004         39.5004
  -2647077.26246  -2126654.30145  23787456.2814                   23787460.8794
        38.2504         33.5004
   1519067.58247   1170198.38347  22407148.7034                   22407149.2304
        46.2504         42.7504
  -1129925.16047   -872155.85546  20859110.0004                   20859107.5904
        47.5004         39.0004
  -3094642.75847  -2396501.24247  21395862.6884                   21395860.4144
        47.5004         45.2504
   1714679.08648   1322713.18447  21790807.9304                   21790807.2894
        48.5004         47.7504
   2240371.93845   1695882.84843  24880495.8134                   24880505.1994
        30.7504         18.2504
  -1321677.57046  -1019556.69144  24557601.8134                   24557602.8324
        38.0004         24.5004
 25  8  7 21 19  0.0000000  0  9G01G02G03G10G28G31G32G08G25
  -2713366.85247  -2094866.78145  22019544.4064                   22019543.4104
        45.5004         33.5004
   -693691.03547   -535917.78146  21291224.8984                   21291220.4774
        47.5004         39.0004
  -2744029.57446  -2202201.39845  23769007.4064                   23769011.3954
        38.2504         34.0004
   1565262.79347   1206194.59047  22415939.2894                   22415940.3554
        46.2504         42.7504
  -1160437.82847   -895931.93746  20853303.8754                   20853301.4064
        47.5004         39.0004
  -3189719.94547  -2470587.28147  21377769.8984                   21377767.9184
        46.7504         45.0004
   1765544.32448   1362348.42247  21800487.3204                   21800486.5904
        49.0004         47.7504
                                  24893247.906
        26.250
  -1369588.77046  -1056890.02744  24548484.4774                   24548487.8484
        37.7504         26.0004
 25  8  7 21 19 30.0000000  0  8G01G02G03G10G28G31G32G25
  -2793693.65647  -2157459.04345  22004258.6804                   22004257.5274
        45.0004         34.2504
   -710953.93447   -549369.40246  21287939.8834                   21287935.5664
        47.0004         39.5004
  -2841175.21946  -2277899.16845  23750520.7274                   23750524.9694
        38.2504         34.5004
   1611521.17247   1242240.01647  22424741.9534                   22424742.7074
        45.0004         42.7504
  -1190545.94547   -919392.77746  20847574.1644                   20847571.6954
        47.5004         39.0004
  -3284565.38347  -2544492.75047  21359721.3754                   21359719.5234
        47.5004         44.7504
   1816367.87548   1401951.16847  21810158.9224                   21810157.8054
        49.2504         47.7504
  -1417276.96546  -1094049.57443  24539410.0084                   24539411.0434
        39.0004         23.2504
 25  8  7 21 20  0.0000000  0  8G01G02G03G10G28G31G32G25
  -2873794.34847  -2219875.11745  21989015.3594                   21989014.3554
        44.7504         33.5004
   -727881.49247   -562559.71946  21284718.6334                   21284714.2504
        46.5004         39.2504
  -2938509.35546  -2353743.81245  23731999.3204                   23732002.6644
        38.7504         35.5004
   1657847.09047   1278338.07447  22433557.1254                   22433558.6054
        45.0004         42.5004
  -1220244.86348   -942534.75846  20841922.5554                   20841920.0594
        48.0004         39.0004
  -3379171.98447  -2618212.10247  21341718.6024                   21341716.2774
        46.7504         45.2504
   1867152.40648   1441523.51647  21819822.5704                   21819821.4734
        48.7504         47.7504
  -1464735.60246  -1131030.31644  24530378.1804                   24530380.9614
        37.2504         25.2504
 25  8  7 21 20 30.0000000  0  8G01G02G03G10G28G31G32G25
  -2953661.68047  -2282109.35245  21973817.4614                   21973815.7424
        46.0004         33.2504
   -744468.76647   -575484.87946  21281562.3054                   21281557.6804
        47.7504         39.2504
  -3036026.33646  -2429730.91845  23713442.0634                   23713445.9494
        39.2504         35.5004
   1704245.57447   1314492.66447  22442387.0164                   22442387.8244
        45.0004         42.2504
  -1249529.13347   -965353.64146  20836350.4144                   20836347.7584
        47.5004         39.0004
  -3473532.06648  -2691739.35947  21323762.0084                   21323760.1484
        48.2504         45.5004
   1917901.37548   1481068.15247  21829479.7344                   21829479.3754
        48.2504         47.5004
  -1511957.67646  -1167826.67644  24521392.0864                   24521394.0354
        38.7504         24.0004
 25  8  7 21 21  0.0000000  0  8G01G02G03G10G28G31G32G25
  -3033284.45747  -2344153.02045  21958665.8674                   21958664.6954
        45.7504         33.5004
   -760706.13347   -588137.38346  21278472.0634                   21278467.7894
        47.0004         39.2504
  -3133716.58246  -2505853.04745  23694852.2734                   23694855.6884
        40.2504         34.5004
   1750725.63347   1350710.83247  22451231.9064                   22451232.7894
        45.0004         42.0004
  -1278389.48047   -987842.19546  20830858.2664                   20830855.6804
        47.7504         39.2504
  -3567633.87547  -2765065.35947  21305854.8984                   21305853.1334
        47.7504         45.2504
   1968622.19548   1520590.85547  21839131.8134                   21839131.0204
        48.0004         47.5004
  -1558931.87146  -1204429.98844  24512453.4144                   24512455.9104
        37.7504         25.2504
 25  8  7 21 21 30.0000000  0  8G01G02G03G10G28G31G32G25
  -3112655.06647  -2406000.19545  21943561.8204                   21943560.5824
        45.2504         34.0004
   -776588.58247   -600513.32446  21275449.9924                   21275445.6684
        47.7504         39.0004
  -3231574.16446  -2582105.56645  23676230.3594                   23676233.8634
        38.7504         34.0004
   1797292.66447   1386996.76247  22460093.4384                   22460094.1254
        43.7504         42.0004
  -1306820.11347  -1009995.90646  20825447.7344                   20825445.2114
        47.7504         38.7504
  -3661469.85948  -2838184.22347  21287998.7664                   21287996.3284
        48.5004         46.0004
   2019318.68848   1560094.59847  21848779.0004                   21848778.2974
        48.0004         47.5004
  -1605650.74246  -1240834.23844  24503562.6484                   24503567.2194
        37.7504         26.7504
 25  8  7 21 22  0.0000000  0  8G01G02G03G10G28G31G32G25
  -3191770.88747  -2467648.83245  21928506.6254                   21928505.4144
        45.5004         34.5004
   -792115.18447   -612611.98046  21272495.4844                   21272491.0514
        47.7504         39.7504
  -3329597.85546  -2658487.52045  23657576.7584                   23657580.4884
        40.0004         34.2504
   1843947.18047   1423350.88746  22468971.6564                   22468972.0664
        45.0004         41.5004
  -1334820.27748  -1031814.19146  20820119.9384                   20820117.3714
        48.0004         38.7504
  -3755036.69148  -2911093.36347  21270193.2424                   21270191.2344
        48.7504         46.0004
   2069989.78948   1599578.56347  21858421.1644                   21858420.3674
        48.7504         47.5004
  -1652111.73846  -1277037.63344  24494722.3674                   24494724.4144
        37.7504         26.0004
 25  8  7 21 22 30.0000000  0  8G01G02G03G10G28G31G32G25
  -3270629.26647  -2529096.85945  21913500.3134                   21913499.0554
        45.5004         34.5004
   -807285.11347   -624432.71946  21269608.7664                   21269604.5864
        47.2504         40.0004
  -3427786.65646  -2734998.13745  23638892.9384                   23638895.4414
        40.0004         33.0004
   1890689.61347   1459773.51646  22477865.3754                   22477866.3834
        44.0004         41.0004
  -1362389.22748  -1053296.46146  20814873.6414                   20814871.1094
        48.0004         38.7504
  -3848331.36748  -2983790.44147  21252439.7814                   21252437.8674
        48.2504         45.5004
   2120634.39148   1639041.87147  21868058.6884                   21868057.9024
        49.0004         47.2504
  -1698312.21146  -1313037.99644  24485930.0084                   24485932.7774
        38.5004         27.0004
 25  8  7 21 23  0.0000000  0  8G01G02G03G10G28G31G32G25
  -3349229.24647  -2590343.54745  21898543.3674                   21898542.0904
        45.2504         35.0004
   -822099.78947   -635976.62946  21266789.4454                   21266785.2114
        47.2504         39.2504
  -3526141.10546  -2811637.85545  23620175.9454                   23620178.8984
        40.5004         32.2504
   1937518.82847   1496263.74646  22486777.8834                   22486778.5744
        43.7504         41.5004
  -1389527.96947  -1074443.51246  20809709.1564                   20809706.8444
        47.5004         39.0004
  -3941352.79348  -3056274.58247  21234738.4384                   21234735.8014
        48.5004         45.5004
   2171249.75048   1678482.39147  21877690.1564                   21877689.7464
        48.2504         47.2504
  -1744251.24246  -1348834.54344  24477188.0704                   24477192.3834
        37.5004         28.5004
 25  8  7 21 23 30.0000000  0  8G01G02G03G10G28G31G32G25
  -3427565.82847  -2651384.98845  21883636.5554                   21883635.4454
        45.5004         34.2504
   -836556.25447   -647241.41846  21264038.7734                   21264034.2854
        47.0004         39.0004
  -3624657.78946  -2888403.98445  23601428.8754                   23601431.7234
        39.7504         32.2504
   1984437.52747   1532823.69146  22495706.0704                   22495707.2814
        44.7504         41.2504
  -1416233.45748  -1095252.94946  20804627.2894                   20804624.5234
        48.0004         39.0004
  -4034095.61348  -3128541.62547  21217090.1564                   21217087.8874
        48.5004         45.7504
   2221837.13748   1717901.12147  21887316.7344                   21887316.1884
        48.0004         47.2504
  -1789924.15645  -1384423.89144  24468496.5554                   24468498.8714
        35.0004         25.0004
 25  8  7 21 24  0.0000000  0  8G01G02G03G10G28G31G32G25
  -3505627.05547  -2712211.87145  21868781.5634                   21868780.5124
        45.7504         35.0004
   -850644.41847   -658219.21946  21261357.9694                   21261353.5944
        47.2504         39.5004
  -3723326.19946  -2965288.35245  23582652.8594                   23582656.1604
        40.7504         33.0004
   2031455.54747   1569461.03146  22504654.0784                   22504654.2624
        43.2504         41.7504
  -1442495.60547  -1115716.94146  20799629.4534                   20799627.0164
        47.7504         39.5004
  -4126547.23447  -3200581.76247  21199496.3204                   21199494.6094
        47.7504         46.0004
   2272404.85947   1757304.53147  21896939.5944                   21896939.0164
        46.5004         47.0004
  -1835318.87146  -1419796.37544  24459859.6094                   24459861.3834
        36.7504         26.0004
 25  8  7 21 24 30.0000000  0  8G01G02G03G10G28G31G32G25
  -3583412.03947  -2772823.48845  21853979.8594                   21853978.5784
        46.0004         34.7504
   -864365.68447   -668911.12546  21258746.9844                   21258742.2664
        45.5004         39.5004
  -3822146.98446  -3042291.44945  23563847.5864                   23563850.8014
        39.5004         32.0004
   2078571.63347   1606174.80546  22513618.7734                   22513620.2114
        44.0004         41.5004
  -1468315.57048  -1135836.36746  20794716.3284                   20794714.0664
        48.5004         39.0004
  -4218706.48447  -3272394.07847  21181959.6414                   21181957.5474
        47.0004         46.0004
   2322950.12947   1796690.43447  21906558.3524                   21906557.3794
        47.5004         47.0004
  -1880434.74645  -1454951.46543  24451272.8984                   24451276.6054
        33.7504         23.5004
 25  8  7 21 25  0.0000000  0  8G01G02G03G10G28G31G32G25
  -3660897.96947  -2833202.08645  21839234.3674                   21839233.3284
        45.5004         34.7504
   -877699.27347   -679300.94946  21256209.4614                   21256205.0824
        45.5004         39.2504
  -3921098.72346  -3119396.57845  23545017.9224                   23545020.7734
        38.5004         31.0004
   2125806.34847   1642981.00846  22522607.8914                   22522608.9734
        44.0004         41.5004
  -1493672.50447  -1155594.98446  20789890.6644                   20789888.7544
        47.5004         39.2504
  -4310550.34048  -3343960.62147  21164482.6334                   21164479.8984
        48.2504         46.2504
   2373492.13747   1836073.80947  21916175.7194                   21916175.2624
        47.5004         47.0004
  -1925248.91446  -1489871.62544  24442746.0704                   24442746.6994
        37.0004         24.5004
 25  8  7 21 25 30.0000000  0  8G01G02G03G10G28G31G32G25
  -3738078.60547  -2893342.79345  21824547.6644                   21824546.3794
        46.0004         34.2504
   -890641.10247   -689385.50046  21253746.8204                   21253742.2154
        46.5004         39.0004
  -4020176.64546  -3196600.03545  23526163.3524                   23526166.4774
        39.0004         30.0004
   2173163.85247   1679882.90246  22531619.6334                   22531620.5554
        42.7504         41.0004
  -1518562.14848  -1174989.49646  20785154.7584                   20785152.1844
        48.2504         38.7504
  -4402071.92248  -3415276.05547  21147065.6644                   21147064.0434
        48.2504         46.0004
   2424033.47747   1875456.65247  21925793.5394                   21925793.3634
        47.0004         46.7504
  -1969755.43045  -1524552.07844  24434276.6254                   24434278.1484
        35.7504         24.5004
 25  8  7 21 26  0.0000000  0  8G01G02G03G10G28G31G32G25
  -3814948.05947  -2953241.01645  21809920.2194                   21809918.1334
        45.2504         35.5004
   -903187.19947   -699161.69546  21251359.1804                   21251354.8054
        46.2504         39.5004
  -4119376.29746  -3273898.34444  23507286.4844                   23507289.3284
        37.7504         29.2504
   2220647.87147   1716883.35946  22540655.6884                   22540656.3284
        43.5004         40.7504
  -1542980.63747  -1194016.86746  20780507.7114                   20780505.3244
        47.7504         39.0004
  -4493265.32448  -3486335.75847  21129712.8054                   21129710.3554
        48.5004         46.2504
   2474576.44547   1914840.76647  21935411.4454                   21935411.1644
        47.0004         46.7504
  -2013948.50445  -1558988.15643  24425865.3914                   24425870.3364
        31.7504         23.5004
 25  8  7 21 26 30.0000000  0  8G01G02G03G10G28G31G32G25
  -3891483.93747  -3012879.31645  21795355.7344                   21795354.0744
        46.2504         34.5004
   -915317.48047   -708613.87946  21249050.8984                   21249046.3484
        46.5004         39.0004
  -4218676.66046  -3351275.12145  23488390.8444                   23488393.1254
        37.5004         31.2504
   2268278.57047   1753998.11346  22549719.7584                   22549720.4184
        44.0004         41.0004
  -1566907.66048  -1212661.27746  20775955.2274                   20775952.0594
        48.0004         39.0004
  -4584107.69948  -3557121.93447  21112425.4304                   21112423.3834
        48.5004         46.2504
   2525139.79748   1954240.76647  21945033.7274                   21945032.7544
        48.5004         46.5004
  -2057805.93446  -1593162.72744  24417522.0634                   24417523.1374
        36.5004         25.5004
 25  8  7 21 27  0.0000000  0  8G01G02G03G10G28G31G32G25
  -3967684.20747  -3072256.08645  21780854.7734                   21780853.3484
        46.0004         35.0004
   -927032.25847   -717742.29346  21246821.7344                   21246817.4774
        46.5004         39.5004
  -4318077.21146  -3428729.96145  23469475.3834                   23469477.7464
        37.7504         30.7504
   2316055.82047   1791227.06646  22558811.3914                   22558811.9454
        45.0004         41.0004
  -1590343.26247  -1230922.77046  20771495.2424                   20771492.6134
        47.5004         38.5004
  -4674596.78948  -3627632.82047  21095206.2664                   21095203.6644
        49.0004         46.0004
   2575721.99248   1993655.44547  21954658.8984                   21954658.1484
        48.0004         46.0004
  -2101325.81245  -1627074.34844  24409238.4454                   24409240.9964
        32.0004         24.0004
 25  8  7 21 27 30.0000000  0  8G01G02G03G10G28G31G32G25
  -4043538.51647  -3131363.28945  21766420.4144                   21766418.9144
        46.2504         35.0004
   -938323.30547   -726540.53546  21244673.2894                   21244668.5204
        46.7504         39.7504
  -4417568.86746  -3506255.82445  23450541.3754                   23450545.0044
        37.5004         31.5004
   2363987.81347   1828576.59446  22567932.4924                   22567933.6454
        44.5004         41.5004
  -1613279.11348  -1248794.83646  20767130.2344                   20767127.8524
        48.0004         38.7504
  -4764721.63748  -3697859.88747  21078055.4614                   21078053.3874
        48.0004         45.5004
   2626329.76647   2033090.05547  21964289.4924                   21964288.5594
        47.2504         46.0004
  -2144497.84845  -1660714.85943  24401022.9924                   24401026.5164
        32.0004         23.2504
 25  8  7 21 28  0.0000000  0  8G01G02G03G10G28G31G32G25
  -4119041.03547  -3190196.37145  21752053.1884                   21752051.1804
        45.5004         34.5004
   -949186.84447   -735005.64846  21242605.5164                   21242601.6484
        46.2504         39.2504
  -4517147.04746  -3583849.08645  23431591.9774                   23431596.1094
        36.7504         31.7504
   2412078.36347   1866049.67246  22577084.0164                   22577085.0784
        45.0004         41.7504
  -1635711.39547  -1266274.50446  20762862.1564                   20762859.3244
        47.7504         38.5004
  -4854476.31648  -3767798.50847  21060976.4844                   21060974.1024
        48.2504         45.7504
   2676965.57447   2072546.50847  21973924.9384                   21973924.2114
        47.5004         46.2504
  -2187316.36345  -1694079.89544  24392874.9304                   24392878.6134
        32.2504         24.5004
 25  8  7 21 28 30.0000000  0  8G01G02G03G10G28G31G32G25
  -4194180.93747  -3248746.89545  21737753.9224                   21737752.5704
        46.0004         35.5004
   -959614.14147   -743130.83646  21240621.3054                   21240617.3984
        46.7504         39.0004
  -4616802.39546  -3661502.47745  23412628.1094                   23412631.5944
        36.7504         33.0004
   2460336.02047   1903652.95346  22586267.4384                   22586268.4184
        44.7504         41.5004
  -1657631.47747  -1283355.07046  20758690.7194                   20758687.9064
        47.5004         39.0004
  -4943849.51248  -3837439.87147  21043969.0084                   21043966.7734
        48.0004         45.7504
   2727636.57048   2112030.37947  21983567.3674                   21983566.7074
        48.0004         46.2504
  -2229770.74245  -1727161.16443  24384795.9144                   24384799.1564
        31.7504         22.7504
 25  8  7 21 29  0.0000000  0  8G01G02G03G10G28G31G32G25
  -4268950.42647  -3307008.80145  21723525.9924                   21723524.3594
        45.5004         35.5004
   -969599.57847   -750911.72346  21238721.2034                   21238716.9964
        46.0004         39.0004
  -4716528.39546  -3739210.93445  23393652.0944                   23393654.7504
        39.0004         32.5004
   2508766.50847   1941390.93046  22595483.0234                   22595484.2114
        44.2504         41.5004
  -1679033.67647  -1300032.08646  20754617.6414                   20754615.2464
        47.5004         38.2504
  -5032833.19947  -3906777.73047  21027035.5634                   21027033.4224
        47.5004         46.5004
   2778347.03548   2151545.00447  21993217.2664                   21993216.9344
        48.5004         46.5004
  -2271853.41854  -1759952.81253  24376786.1804                   24376790.6134
        28.5004         21.5004
 25  8  7 21 29 30.0000000  0  8G01G02G03G10G28G31G32G25
  -4343337.84447  -3364972.98045  21709370.4534                   21709369.1094
        45.5004         35.5004
   -979133.91447   -758341.09046  21236907.2424                   21236902.8054
        45.5004         39.5004
  -4816314.68746  -3816966.35545  23374662.9774                   23374665.6454
        38.7504         34.5004
   2557379.40247   1979271.01246  22604733.9774                   22604734.8874
        43.7504         41.0004
  -1699908.46547  -1316298.12546  20750645.7194                   20750642.7504
        47.7504         39.0004
  -5121415.52348  -3975802.83247  21010179.4534                   21010176.8444
        49.2504         46.5004
   2829105.25448   2191096.84847  22002876.5394                   22002875.8134
        48.0004         46.5004
  -2313552.73045  -1792445.75444  24368852.3284                   24368856.5944
        32.0004         24.7504
 25  8  7 21 30  0.0000000  0  8G01G02G03G10G28G31G32G25
  -4417344.90247  -3422640.77346  21695287.1724                   21695285.9844
        46.0004         36.5004
   -988220.96547   -765421.94146  21235178.2814                   21235173.5864
        47.0004         39.0004
  -4916164.26246  -3894771.09445  23355661.5784                   23355664.7034
        38.2504         34.5004
   2606170.66047   2017290.08646  22614018.5554                   22614019.8364
        42.5004         41.5004
  -1720259.70347  -1332156.19546  20746772.6024                   20746770.3204
        47.7504         39.0004
  -5209597.74247  -4044516.17247  20993398.6094                   20993396.5004
        47.7504         46.7504
   2879905.89547   2230681.73847  22012543.4224                   22012542.9774
        47.0004         46.5004
  -2354870.74645  -1824641.54344  24360990.6254                   24360994.0634
        30.7504         24.7504
 25  8  7 21 30 30.0000000  0  8G01G02G03G10G28G31G32G25
  -4490961.81647  -3480004.55945  21681278.4224                   21681277.1764
        45.7504         35.7504
   -996853.01247   -772148.22746  21233535.2664                   21233530.8164
        47.0004         39.0004
  -5016068.54346  -3972618.47346  23336650.5784                   23336653.9064
        39.5004         36.2504
   2655148.09047   2055454.23446  22623339.0944                   22623339.8984
        44.5004         41.2504
  -1740079.73447  -1347600.35246  20743000.8284                   20742998.2234
        47.5004         39.2504
  -5297369.65648  -4112909.79347  20976695.9064                   20976693.8094
        48.7504         47.0004
   2930755.43447   2270304.72347  22022220.0394                   22022219.4534
        47.7504         46.5004
  -2395797.86755  -1856532.74254  24353202.1414                   24353204.6094
        30.5004         24.5004
 25  8  7 21 31  0.0000000  0  8G01G02G03G10G28G31G32G25
  -4564186.27747  -3537062.53946  21667343.7424                   21667342.7664
        45.5004         36.2504
  -1005029.96548   -778519.90646  21231979.4304                   21231974.7854
        48.2504         40.0004
  -5116026.49246  -4050507.64846  23317629.1884                   23317632.3324
        39.0004         36.0004
   2704311.86747   2093763.59046  22632694.6254                   22632695.6334
        44.0004         41.7504
  -1759368.45748  -1362630.50446  20739330.8284                   20739327.7424
        48.0004         40.0004
  -5384728.69148  -4180981.69147  20960071.8204                   20960069.7584
        49.0004         47.0004
   2981652.62547   2309964.85547  22031905.1724                   22031904.7034
        47.7504         46.2504
  -2436331.91845  -1888117.62544  24345488.7814                   24345491.9924
        33.5004         26.0004
 25  8  7 21 31 30.0000000  0  8G01G02G03G10G28G31G32G25
  -4637023.09447  -3593818.45745  21653483.7114                   21653482.2114
        45.5004         35.5004
  -1012759.14847   -784542.66846  21230508.6024                   21230503.7664
        45.7504         39.2504
  -5216044.01246  -4128443.23446  23298596.4224                   23298599.2304
        40.7504         37.2504
   2753655.05947   2132212.75446  22642084.2114                   22642085.5044
        44.5004         41.5004
  -1778132.85548  -1377252.07846  20735760.0234                   20735757.5314
        48.0004         39.2504
  -5471679.36348  -4248735.38747  20943525.9064                   20943523.5004
        48.7504         47.0004
   3032589.33247   2349655.76247  22041597.8834                   22041597.6174
        47.0004         45.7504
  -2476477.87945  -1919400.13344  24337849.7584                   24337852.2704
        33.5004         25.5004
 25  8  7 21 32  0.0000000  0  8G01G02G03G10G28G31G32G25
  -4709466.86347  -3650268.10545  21639698.0704                   21639696.7894
        45.0004         35.5004
  -1020037.34847   -790214.01246  21229123.4144                   21229119.0044
        46.7504         39.0004
  -5316117.05146  -4206422.09846  23279553.4224                   23279556.0204
        40.2504         37.5004
   2803180.87947   2170804.21547  22651508.2274                   22651509.9884
        43.5004         42.0004
  -1796369.72747  -1391462.60246  20732289.0554                   20732287.0314
        47.5004         39.7504
  -5558216.12548  -4316166.57047  20927058.3754                   20927056.0234
        49.2504         47.0004
   3083567.49647   2389378.98447  22051299.1564                   22051298.7814
        47.0004         46.0004
  -2516230.82845  -1950376.32444  24330283.6644                   24330287.6564
        32.5004         24.2504
 25  8  7 21 32 30.0000000  0  8G01G02G03G10G28G31G32G25
  -4781520.46147  -3706413.72346  21625987.0634                   21625985.2464
        45.0004         36.2504
  -1026869.53547   -795537.81646  21227823.3594                   21227819.3444
        47.0004         39.2504
  -5416249.53946  -4284447.27046  23260497.9774                   23260501.3524
        41.2504         37.5004
   2852884.41447   2209534.15246  22660967.3054                   22660968.2344
        42.7504         41.5004
  -1814084.13347  -1405266.01246  20728918.6174                   20728915.9534
        47.2504         39.0004
  -5644341.46948  -4383277.14847  20910669.0704                   20910666.9264
        48.5004         47.2504
   3134580.91847   2429129.68047  22061006.5784                   22061006.1174
        46.5004         45.7504
  -2555593.54345  -1981048.54744  24322795.0314                   24322796.0394
        33.7504         26.2504
 25  8  7 21 33  0.0000000  0  8G01G02G03G10G28G31G32G25
  -4853191.22347  -3762261.02045  21612347.9844                   21612346.4734
        45.5004         34.7504
  -1033265.35547   -800521.59046  21226606.3594                   21226602.0594
        47.0004         39.2504
  -5516450.05146  -4362525.46146  23241430.1954                   23241433.5744
        40.0004         38.0004
   2902756.10247   2248395.12546  22670457.0234                   22670458.6484
        43.0004         41.5004
  -1831285.76247  -1418669.85546  20725644.9694                   20725642.4924
        47.5004         39.5004
  -5730062.49648  -4450072.68447  20894356.9224                   20894354.8204
        49.0004         47.0004
   3185618.85247   2468899.47747  22070718.8594                   22070718.4694
        47.0004         45.5004
  -2594573.82045  -2011422.68044  24315376.1174                   24315379.4734
        33.2504         26.2504
 25  8  7 21 33 30.0000000  0  8G01G02G03G10G28G31G32G25
  -4924469.90247  -3817802.80545  21598784.2664                   21598782.8014
        44.7504         35.0004
  -1039218.13747   -805160.14846  21225473.5474                   21225469.1764
        47.7504         39.2504
  -5616710.40646  -4440650.27346  23222352.1484                   23222354.7074
        40.5004         38.0004
   2952803.28547   2287392.82446  22679981.3834                   22679982.5904
        43.7504         41.0004
  -1847967.52048  -1431668.60946  20722470.5784                   20722468.3404
        48.0004         39.5004
  -5815369.47748  -4516545.58647  20878123.6414                   20878120.9844
        49.2504         47.2504
   3236687.23047   2508693.00047  22080436.8284                   22080436.1724
        47.0004         45.5004
  -2633162.50445  -2041491.69544  24308034.3054                   24308036.3014
        34.5004         28.2504
 25  8  7 21 34  0.0000000  0  8G01G02G03G10G28G31G32G25
  -4995355.23847  -3873038.08646  21585295.1484                   21585293.4734
        45.2504         36.0004
  -1044728.66047   -809454.07846  21224424.9924                   21224420.6214
        47.7504         39.7504
  -5717030.49646  -4518821.65646  23203261.3204                   23203264.1054
        41.0004         37.2504
   3003024.95747   2326526.52046  22689537.3444                   22689539.6764
        43.7504         41.0004
  -1864130.43447  -1444263.06646  20719395.0634                   20719392.2154
        47.7504         39.0004
  -5900260.97748  -4582694.75447  20861969.7034                   20861966.5554
        48.5004         47.0004
   3287784.01247   2548508.65647  22090160.0784                   22090159.5354
        47.0004         45.2504
  -2671358.62545  -2071254.84444  24300764.3134                   24300766.7544
        33.2504         27.5004
 25  8  7 21 34 30.0000000  0  8G01G02G03G10G28G31G32G25
  -5065847.03947  -3927966.71946  21571880.6174                   21571879.0044
        45.5004         36.0004
  -1049799.00847   -813405.02346  21223460.3204                   21223455.5514
        46.7504         39.5004
  -5817411.15246  -4597040.20746  23184159.4144                   23184162.3984
        40.7504         37.7504
   3053419.22347   2365794.67646  22699128.1174                   22699129.2734
        45.2504         40.2504
  -1879776.62547  -1456454.88346  20716417.3754                   20716414.6024
        46.7504         39.5004
  -5984736.56647  -4648519.82047  20845894.1334                   20845891.5784
        47.7504         47.0004
   3338906.05147   2588343.98447  22099888.2974                   22099887.4104
        46.2504         45.2504
  -2709162.31245  -2100712.12944  24293570.6724                   24293573.3094
        33.5004         26.5004
 25  8  7 21 35  0.0000000  0  8G01G02G03G10G28G31G32G25
  -5135946.47747  -3982589.61345  21558541.7194                   21558540.0044
        45.7504         35.5004
  -1054432.60548   -817015.63346  21222578.6644                   21222574.3164
        48.5004         39.5004
  -5917854.55546  -4675307.65246  23165045.2504                   23165048.2544
        39.7504         37.0004
   3103982.89147   2405194.86746  22708749.5704                   22708751.4454
        44.0004         40.0004
  -1894909.46547  -1468246.68746  20713537.5784                   20713535.1334
        44.7504         39.0004
  -6068796.94548  -4714021.34447  20829897.6174                   20829895.1644
        48.5004         47.0004
   3390048.96947   2628195.58247  22109620.5944                   22109619.7504
        47.7504         45.5004
  -2746574.79745  -2129864.68444  24286451.9614                   24286454.1844
        34.2504         27.7504
 25  8  7 21 35 30.0000000  0  8G01G02G03G10G28G31G32G25
  -5205650.78147  -4036904.60945  21545277.3284                   21545275.6334
        46.5004         35.5004
  -1058629.00048   -820285.56246  21221779.4924                   21221775.7304
        48.5004         40.2504
  -6018359.13246  -4753622.77146  23145920.5474                   23145922.7814
        39.5004         36.5004
   3154716.64547   2444727.56646  22718404.2424                   22718405.2424
        43.5004         40.0004
  -1909528.52747  -1479638.14146  20710755.8284                   20710753.2854
        46.0004         39.5004
  -6152439.21948  -4779197.07447  20813980.9924                   20813978.3914
        48.5004         47.5004
   3441212.25847   2668063.06347  22119356.7114                   22119356.1454
        47.7504         45.2504
  -2783593.82845  -2158710.57444  24279405.3204                   24279409.5124
        31.7504         27.0004
 25  8  7 21 36  0.0000000  0  9G01G02G03G10G28G31G32G25G04
  -5274973.07847  -4090921.92646  21532085.8834                   21532084.2664
        46.0004         36.2504
  -1062403.88348   -823227.05146  21221061.8594                   21221057.0044
        48.0004         39.5004
  -6118938.88746  -4831996.45345  23126779.1334                   23126782.8714
        38.7504         34.7504
   3205605.23847   2484380.93446  22728087.8284                   22728089.0274
        44.2504         40.5004
  -1923649.25848  -1490641.29346  20708068.8284                   20708065.9964
        48.5004         39.2504
  -6235676.33648  -4844057.09847  20798141.4614                   20798138.9414
        48.0004         47.7504
   3492379.46148   2707933.58247  22129093.1954                   22129092.9534
        48.0004         45.2504
  -2820232.72745  -2187260.30144  24272434.2974                   24272436.6374
        33.2504         27.7504
   -223180.99255    -11488.83253  24524414.1414                   24524419.3164
        33.5004         19.2504
 25  8  7 21 36 30.0000000  0  9G01G02G03G10G28G31G32G25G04
  -5343903.98047  -4144634.27046  21518968.0474                   21518966.6804
        46.5004         36.0004
  -1065750.10948   -825834.51246  21220424.8204                   21220420.6374
        48.5004         40.0004
  -6219585.44946  -4910422.21145  23107627.8834                   23107630.1994
        38.7504         34.2504
   3256655.97347   2524160.64146  22737802.2734                   22737803.9184
        43.5004         40.0004
  -1937264.57047  -1501250.60246  20705478.0634                   20705475.1414
        47.7504         39.7504
  -6318498.58648  -4908593.83647  20782381.0314                   20782378.6374
        49.5004         47.7504
   3543556.84848   2747812.03147  22138832.0554                   22138831.7464
        48.5004         45.5004
  -2856482.26245  -2215506.66044  24265536.3134                   24265539.2194
        32.5004         27.0004
   -319315.12946    -86398.42243  24506120.1724                   24506126.5434
        36.0004         19.0004
 25  8  7 21 37  0.0000000  0  9G01G02G03G10G28G31G32G25G04
  -5412461.00847  -4198055.28945  21505922.2424                   21505920.5984
        46.0004         35.5004
  -1068687.30948   -828123.26246  21219865.8984                   21219861.5354
        48.7504         39.5004
  -6320317.30946  -4988914.43445  23088458.1884                   23088461.5354
        38.5004         34.7504
   3307849.43047   2564051.52746  22747545.3054                   22747546.1994
        44.5004         40.2504
  -1950394.27748  -1511481.52346  20702979.2894                   20702976.6994
        48.5004         39.2504
  -6400923.04348  -4972820.62147  20766695.7424                   20766693.6914
        48.7504         47.5004
   3594723.71947   2787682.29347  22148568.8134                   22148568.4884
        47.5004         45.5004
  -2892360.32455  -2243463.50454  24258707.8834                   24258711.8204
        33.0004         26.5004
   -415431.90246   -161294.45743  24487829.5784                   24487836.5984
        38.0004         22.0004
 25  8  7 21 37 30.0000000  0  9G01G02G03G10G28G31G32G25G04
  -5480653.19947  -4251192.01245  21492945.5944                   21492944.0084
        46.0004         35.7504
  -1071227.03948   -830102.28946  21219382.6484                   21219378.1094
        48.7504         39.5004
  -6421144.55546  -5067480.99245  23069272.4534                   23069274.8054
        38.5004         34.0004
   3359174.26647   2604044.84046  22757311.2274                   22757313.3404
        43.2504         40.0004
  -1963049.89547  -1521343.03946  20700571.1954                   20700568.3874
        47.5004         39.0004
  -6482958.79348  -5036744.52047  20751084.8054                   20751082.5394
        48.5004         47.2504
   3645867.78547   2827534.78547  22158301.5474                   22158300.8524
        47.7504         45.2504
  -2927876.21945  -2271138.19544  24251950.7894                   24251953.1214
        34.2504         27.5004
   -511542.12946   -236185.39844  24469539.6024                   24469547.4384
        37.5004         25.2504
 25  8  7 21 38  0.0000000  0  9G01G02G03G10G28G31G32G25G04
  -5548483.33647  -4304046.62545  21480038.2274                   21480036.3594
        46.2504         35.7504
  -1073374.43748   -831775.60246  21218974.3364                   21218969.6254
        48.5004         39.2504
  -6522070.70746  -5146124.63345  23050066.9224                   23050069.0394
        39.5004         33.7504
   3410625.80547   2644136.83646  22767102.9224                   22767104.0554
        43.7504         40.5004
  -1975236.44147  -1530839.02746  20698252.2584                   20698249.3284
        45.0004         38.7504
  -6564608.02348  -5100367.23447  20735547.6024                   20735545.2894
        48.7504         47.0004
   3696983.22747   2867364.96147  22168028.3834                   22168027.8094
        47.5004         45.5004
  -2963033.10545  -2298533.16044  24245261.6414                   24245262.2734
        34.0004         26.2504
   -607650.13745   -311074.56643  24451251.6414                   24451258.4304
        35.5004         22.5004
 25  8  7 21 38 30.0000000  0  9G01G02G03G10G28G31G32G25G04
  -5615953.58647  -4356620.80946  21467199.1334                   21467197.8674
        46.2504         36.5004
  -1075133.96148   -833146.67646  21218639.3134                   21218634.8244
        48.0004         39.2504
  -6623098.93046  -5224847.81245  23030841.0164                   23030843.8524
        38.7504         34.2504
   3462199.71947   2684324.21946  22776916.9384                   22776918.6134
        44.0004         40.0004
  -1986958.50047  -1539973.09046  20696021.1564                   20696018.4844
        45.0004         39.2504
  -6645872.91048  -5163690.45747  20720083.3914                   20720080.8244
        48.0004         47.2504
   3748064.70347   2907168.68047  22177748.7894                   22177748.1804
        46.5004         45.0004
  -2997833.37145  -2325650.19544  24238637.7274                   24238640.5704
        33.2504         26.0004
   -703759.94545   -385965.11343  24432962.5164                   24432968.5204
        34.5004         20.2504
 25  8  7 21 39  0.0000000  0  9G01G02G03G10G28G31G32G25G04
  -5683059.91847  -4408911.41445  21454429.2274                   21454427.5204
        45.7504         35.5004
  -1076504.02748   -834214.27746  21218378.4064                   21218373.7974
        49.0004         39.5004
  -6724226.05546  -5303648.06645  23011597.4694                   23011599.3594
        38.7504         33.7504
   3513898.12147   2724608.59846  22786754.3984                   22786756.1914
        43.5004         39.5004
  -1998214.39547  -1548743.89846  20693879.3834                   20693876.9614
        46.2504         40.0004
  -6726749.03948  -5226710.75447  20704693.2974                   20704690.5044
        49.0004         47.5004
   3799113.11747   2946946.63347  22187463.2814                   22187462.6024
        47.0004         44.7504
  -3032273.28545  -2352486.45344  24232084.5084                   24232087.6804
        34.5004         27.7504
   -799869.05545   -460855.14843  24414672.9774                   24414679.7194
        33.0004         20.5004
 25  8  7 21 39 30.0000000  0  9G01G02G03G10G28G31G32G25G04
  -4174379.64547  -3233316.35546  21741521.1254                   21741519.7384
        45.5004         36.0004
    497933.39848    392620.06646  21517983.6414                   21517979.4964
        48.0004         39.5004
  -5250029.08646  -4154923.03945  23292127.0004                   23292129.8404
        38.7504         33.0004
   5141137.62547   3992587.34046  23096407.6174                   23096409.8634
        42.5004         39.7504
   -433585.70347   -329552.69146  20991618.3204                   20991615.4304
        46.5004         39.0004
  -5231813.21548  -4061825.63347  20989170.1954                   20989167.5704
        48.7504         47.5004
   5425544.18447   4214295.48447  22496963.1094                   22496962.1644
        46.5004         44.7504
  -1490931.51645  -1151440.84043  24525390.7894                   24525394.3204
        32.5004         22.5004
    679444.33245    691856.83642  24696176.8134                   24696183.2664
        31.5004         17.2504
 25  8  7 21 40  0.0000000  0  9G01G02G03G10G28G31G32G25G04
  -4240751.84047  -3285034.91046  21728891.1484                   21728889.3324
        45.5004         36.0004
    497341.32048    392158.68046  21517871.3984                   21517866.8404
        48.7504         39.5004
  -5351350.21946  -4233874.47345  23272846.6644                   23272848.6844
        39.2504         33.2504
   5193085.06347   4033065.75846  23106293.2974                   23106295.1454
        43.5004         39.7504
   -443910.21947   -337597.75446  20989653.7664                   20989650.7304
        46.5004         39.0004
  -5311904.89848  -4124234.66847  20973928.8754                   20973925.8914
        48.7504         47.5004
   5476523.58247   4254019.67247  22506663.3284                   22506663.2074
        47.2504         44.7504
  -1524645.34845  -1177711.34844  24518975.9844                   24518978.0704
        35.5004         26.2504
    583337.66045    616968.66442  24677888.1254                   24677895.0434
        31.5004         16.7504
 25  8  7 21 40 30.0000000  0  9G01G02G03G10G28G31G32G25G04
  -4306751.48047  -3336463.17245  21716332.1254                   21716330.3634
        46.0004         35.2504
    497140.35948    392002.06646  21517833.6174                   21517828.6994
        48.0004         39.0004
  -5452764.06246  -4312898.13745  23253548.0164                   23253550.3484
        38.7504         33.2504
   5245159.45747   4073643.11346  23116203.2194                   23116204.3834
        42.5004         39.5004
   -453767.13347   -345278.44146  20987777.6254                   20987775.5044
        47.0004         39.0004
  -5391598.76247  -4186333.71947  20958763.8204                   20958761.2234
        47.5004         47.7504
   5527469.42247   4293717.69547  22516358.4224                   22516357.9964
        45.7504         44.5004
  -1557991.13345  -1203695.00844  24512631.3444                   24512633.9454
        35.2504         28.0004
    487235.18055    542083.94952  24659599.5004                   24659607.6764
        33.0004         17.2504
 25  8  7 21 41  0.0000000  0  9G01G02G03G10G28G31G32G25G04
  -4372376.74647  -3387599.70746  21703843.4144                   21703841.9654
        46.0004         36.0004
    497329.81648    392149.67246  21517868.7344                   21517864.8164
        48.7504         39.2504
  -5554269.54346  -4391993.22345  23234231.9064                   23234234.8284
        40.0004         34.5004
   5297360.66847   4114319.27346  23126137.1094                   23126137.9064
        43.5004         39.7504
   -463157.10247   -352595.28146  20985990.7974                   20985988.0514
        46.7504         38.7504
  -5470892.41848  -4248120.92247  20943674.8204                   20943671.9734
        48.5004         47.7504
   5578380.46947   4333388.60947  22526046.7584                   22526045.6334
        46.7504         44.0004
  -1590967.40245  -1229390.68444  24506355.3984                   24506358.2734
        34.2504         26.0004
    391137.24255    467202.70352  24641312.4924                   24641320.0664
        33.0004         17.7504
 25  8  7 21 41 30.0000000  0 10G01G02G03G10G28G31G32G26G25G04
  -4437620.42247  -3438438.90246  21691428.6024                   21691426.4224
        47.0004         36.2504
    497914.42648    392605.18446  21517980.4924                   21517976.1134
        48.0004         39.5004
  -5655860.32446  -4471154.76645  23214899.4224                   23214902.2504
        39.7504         35.0004
   5349693.82047   4155098.26246  23136095.6724                   23136096.2114
        43.7504         40.0004
   -472075.27747   -359544.49646  20984293.7194                   20984291.4384
        47.0004         39.2504
  -5549778.60548  -4309590.61347  20928663.1484                   20928660.4104
        48.2504         47.5004
   5629260.92647   4373035.69547  22535728.8834                   22535727.9804
        47.2504         44.5004
                                  25173464.8134                   25173476.0434
        26.7504         22.5004
  -1623567.35245  -1254793.21144  24500151.8364                   24500154.5004
        33.5004         27.5004
    295049.40245    392329.23443  24623027.5004                   24623034.4104
        32.5004         19.5004
 25  8  7 21 42  0.0000000  0 10G01G02G03G10G28G31G32G26G25G04
  -4502487.83647  -3488984.90246  21679084.2034                   21679082.1254
        46.5004         36.0004
    498886.72748    393362.80946  21518165.2814                   21518160.6884
        48.2504         39.5004
  -5757542.27746  -4550387.35245  23195550.5004                   23195552.9344
        41.2504         35.7504
   5402151.68847   4195974.41046  23146077.3914                   23146079.4384
        43.0004         40.7504
   -480529.43747   -366132.13346  20982685.3054                   20982682.7664
        45.7504         39.2504
  -5628262.29748  -4370746.66447  20913728.0634                   20913725.2934
        48.2504         47.5004
   5680102.55547   4412652.53147  22545403.6884                   22545403.6604
        47.2504         44.5004
   1268215.86755   1009872.52354  25153843.7034                   25153854.4344
        35.0004         24.0004
  -1655796.48045  -1279906.77344  24494019.3204                   24494020.8754
        34.7504         27.0004
    198964.62945    317458.18443  24604743.6414                   24604749.7934
        35.2504         20.2504
 25  8  7 21 42 30.0000000  0 10G01G02G03G10G28G31G32G26G25G04
  -4566976.37547  -3539235.67646  21666812.5864                   21666810.4924
        47.0004         36.2504
    500246.47348    394422.32046  21518424.6334                   21518419.6644
        49.0004         39.5004
  -5859313.59446  -4629689.58246  23176184.0234                   23176186.5004
        41.2504         36.0004
   5454734.84847   4236948.19946  23156084.3444                   23156085.8324
        44.0004         40.2504
   -488519.47347   -372358.11746  20981164.5394                   20981162.0434
        47.0004         39.2504
  -5706340.66048  -4431586.87547  20898870.0864                   20898867.4494
        48.5004         47.5004
   5730905.00847   4452238.82847  22555071.1484                   22555070.5864
        47.0004         44.7504
   1164859.58646    929335.41844  25134176.5084                   25134186.0784
        36.5004         26.5004
  -1687652.73045  -1304729.71544  24487957.0004                   24487959.4574
        34.7504         25.5004
    102883.98045    242590.37943  24586459.3674                   24586466.2854
        34.7504         20.0004
 25  8  7 21 43  0.0000000  0 10G01G02G03G10G28G31G32G26G25G04
  -4631078.08247  -3589185.02346  21654614.2274                   21654612.3484
        47.0004         36.5004
    501999.54348    395788.32446  21518757.6254                   21518753.8714
        48.7504         40.0004
  -5961166.99646  -4709055.77346  23156802.2814                   23156804.5824
        41.5004         36.5004
   5507449.25447   4278024.25446  23166115.5554                   23166117.3794
        42.7504         39.7504
   -496039.87547   -378218.16046  20979733.3984                   20979731.0634
        46.2504         39.5004
  -5784005.55148  -4492104.91047  20884091.0784                   20884088.4064
        48.0004         47.5004
   5781673.33647   4491798.53947  22564731.9224                   22564731.3524
        45.5004         44.5004
   1061263.50845    848611.35544  25114462.5704                   25114472.1884
        33.0004         25.2504
  -1719128.34445  -1329256.14544  24481966.8054                   24481969.0124
        32.7504         26.0004
      6813.80146    167730.69943  24568177.1954                   24568184.7584
        37.0004         21.0004
 25  8  7 21 43 30.0000000  0 10G01G02G03G10G28G31G32G26G25G04
  -4694795.41447  -3638834.85545  21642489.3284                   21642487.4264
        46.2504         35.5004
    504141.11348    397457.05546  21519165.3444                   21519161.0904
        48.7504         39.0004
  -6063105.53946  -4788488.30546  23137403.5004                   23137406.0004
        41.7504         37.0004
   5560290.50047   4319199.14546  23176170.3984                   23176172.5594
        43.2504         39.5004
   -503095.52347   -383716.05146  20978391.1254                   20978388.3484
        46.2504         39.5004
  -5861259.25447  -4552302.53147  20869390.1094                   20869387.2344
        47.7504         47.5004
   5832402.16047   4531327.46947  22574385.0784                   22574384.7974
        46.5004         44.7504
    957425.75845    767699.06643  25094702.8134                   25094712.3284
        33.2504         22.2504
  -1750226.23046  -1353488.15644  24476049.7584                   24476052.8324
        36.0004         28.0004
    -89249.99646     92876.00043  24549897.5314                   24549904.7034
        38.2504         20.0004
 25  8  7 21 44  0.0000000  0 10G01G02G03G10G28G31G32G26G25G04
  -4758123.16047  -3688181.11746  21630438.6644                   21630436.4844
        47.0004         36.2504
    506673.74648    399430.50046  21519647.5394                   21519643.3244
        48.5004         39.5004
  -6165124.71146  -4867983.67246  23117990.4304                   23117992.4964
        41.2504         38.0004
   5613261.79347   4360475.36746  23186251.3594                   23186253.7074
        44.5004         39.5004
   -509683.76247   -388849.73846  20977137.5704                   20977134.6914
        46.2504         39.5004
  -5938096.40247  -4612175.56647  20854768.2734                   20854765.4064
        47.7504         47.5004
   5883093.80147   4570827.43047  22584031.3594                   22584031.4844
        45.7504         44.5004
    853352.38745    686603.20744  25074897.7034                   25074908.2424
        34.5004         24.7504
  -1780941.62545  -1377422.23044  24470204.1804                   24470206.7194
        32.7504         26.5004
   -185303.71546     18029.17243  24531618.7034                   24531625.4694
        38.0004         19.7504
 25  8  7 21 44 30.0000000  0 10G01G02G03G10G28G31G32G26G25G04
  -4821058.55547  -3737221.64845  21618462.1254                   21618459.7584
        47.5004         35.7504
    509597.91848    401709.05146  21520203.9614                   21520199.9574
        48.2504         39.2504
  -6267222.23446  -4947540.07446  23098561.4384                   23098563.9964
        41.2504         37.5004
   5666363.93047   4401853.52746  23196355.9304                   23196358.2194
        42.5004         39.2504
   -515804.21947   -393618.91846  20975972.8674                   20975969.5634
        46.5004         39.5004
  -6014513.79747  -4671721.52347  20840226.4844                   20840223.6684
        47.7504         47.5004
   5933748.21147   4610298.36747  22593671.3444                   22593670.6484
        46.5004         44.2504
    749046.97346    605326.45344  25055048.3284                   25055059.3874
        36.2504         25.7504
  -1811271.89545  -1401056.18044  24464432.5394                   24464435.4844
        35.0004         27.7504
   -281346.23446    -56808.95743  24513342.2974                   24513349.2114
        38.2504         20.0004
 25  8  7 21 45  0.0000000  0 10G01G02G03G10G28G31G32G26G25G04
  -4883598.46547  -3785954.00046  21606561.2114                   21606559.4614
        46.5004         36.5004
    512914.09448    404293.06346  21520835.2194                   21520830.5274
        48.7504         39.0004
  -6369395.67646  -5027155.63346  23079117.7894                   23079120.3794
        41.7504         38.0004
   5719598.18847   4443334.63346  23206486.8754                   23206488.4064
        43.5004         38.7504
   -521456.31647   -398023.12546  20974896.9614                   20974893.8324
        46.5004         39.7504
  -6090508.28948  -4730937.94547  20825765.3134                   20825762.0634
        48.0004         47.7504
   5984365.68047   4649740.53147  22603302.9144                   22603302.7464
        47.2504         44.5004
    644513.30545    523871.86344  25035156.3284                   25035166.5514
        35.7504         24.7504
  -1841214.52045  -1424388.06644  24458734.7114                   24458736.5784
        34.5004         26.2504
   -377375.84046   -131637.00443  24495068.2344                   24495074.3674
        38.7504         19.2504
 25  8  7 21 45 30.0000000  0 10G01G02G03G10G28G31G32G26G25G04
  -4945737.09447  -3834373.68446  21594736.8134                   21594734.8874
        47.2504         36.5004
    516625.91448    407185.36346  21521541.3364                   21521536.8914
        48.0004         39.2504
  -6471639.62146  -5106826.12946  23059661.5314                   23059664.1524
        40.5004         38.0004
   5772968.27747   4484921.63346  23216642.4144                   23216644.4614
        43.0004         39.7504
   -526636.72747   -402059.80146  20973911.2504                   20973908.2624
        46.7504         38.5004
  -6166074.06248  -4789820.29747  20811385.2664                   20811382.5234
        48.5004         47.5004
   6034949.22347   4689156.25447  22612928.8444                   22612928.4964
        47.5004         44.2504
    539758.23045    442244.78144  25015222.1644                   25015232.2774
        35.0004         24.5004
  -1870763.92245  -1447413.56244  24453112.1254                   24453114.4614
        34.7504         28.5004
   -473388.35246   -206451.72343  24476797.9144                   24476804.0744
        40.2504         20.5004
 25  8  7 21 46  0.0000000  0 10G01G02G03G10G28G31G32G26G25G04
  -5007471.94147  -3882478.72346  21582988.8594                   21582986.6844
        47.0004         36.7504
    520733.28548    410385.88346  21522323.1484                   21522318.5634
        48.2504         39.0004
  -6573952.24646  -5186550.12546  23040192.4614                   23040194.5164
        40.5004         38.2504
   5826474.84847   4526614.93846  23226825.3054                   23226826.6024
        45.0004         40.0004
   -531345.49647   -405728.95746  20973015.1644                   20973012.5084
        47.0004         38.5004
  -6241208.12948  -4848366.27347  20797087.8754                   20797085.1214
        48.5004         47.5004
   6085498.53547   4728545.29747  22622547.8364                   22622547.8594
        47.0004         44.2504
    434784.83245    360447.62944  24995245.9774                   24995256.3984
        35.7504         26.5004
  -1899918.14545  -1470131.06644  24447564.3134                   24447565.9534
        34.7504         27.5004
   -569382.85546   -281252.40643  24458530.2584                   24458535.7704
        40.5004         18.5004
 25  8  7 21 46 30.0000000  0 10G01G02G03G10G28G31G32G26G25G04
  -5068807.15647  -3930272.36746  21571316.3754                   21571315.1844
        47.0004         36.0004
    525229.77047    413889.60946  21523178.2274                   21523173.9414
        47.7504         39.2504
  -6676338.07046  -5266331.16846  23020709.0314                   23020710.8364
        40.7504         37.5004
   5880111.83647   4568409.89146  23237030.9844                   23237033.8014
        44.0004         39.2504
   -535589.20747   -409035.72746  20972207.7584                   20972204.9494
        47.0004         38.7504
  -6315914.54748  -4906579.01247  20782871.7504                   20782868.6604
        48.2504         47.7504
   6136006.78147   4767902.34847  22632159.5394                   22632158.9414
        46.5004         44.0004
    329590.16046    278478.02744  24975227.7734                   24975237.8094
        37.2504         28.2504
  -1928681.57045  -1492544.10944  24442089.8204                   24442092.7344
        33.2504         25.7504
   -665364.91446   -356043.37942  24440265.6884                   24440271.1484
        40.2504         17.7504
 25  8  7 21 47  0.0000000  0 10G01G02G03G10G28G31G32G26G25G04
  -5129738.13747  -3977751.02746  21559722.2974                   21559720.1564
        46.5004         36.5004
    530117.22348    417697.98446  21524108.6334                   21524104.3094
        48.0004         39.5004
  -6778792.94546  -5346166.00446  23001212.7194                   23001214.2854
        40.7504         38.0004
   5933881.88346   4610308.50046  23247263.3364                   23247265.3914
        40.7504         39.0004
   -539365.83247   -411978.53146  20971488.3674                   20971486.2154
        46.0004         38.7504
  -6390188.60947  -4964454.84047  20768737.9144                   20768735.0704
        46.7504         47.7504
   6186475.77747   4807228.81347  22641763.6094                   22641762.7464
        46.5004         43.5004
    224179.63746    196340.21544  24955168.5394                   24955179.3404
        37.2504         29.7504
  -1957050.06245  -1514649.38344  24436692.7584                   24436694.8874
        33.7504         27.0004
   -761331.52346   -430822.34843  24422004.1884                   24422009.0394
        41.0004         19.2504
 25  8  7 21 47 30.0000000  0 10G01G02G03G10G28G31G32G26G25G04
  -5190262.43747  -4024912.78946  21548204.9844                   21548202.9344
        46.5004         37.0004
    535395.78148    421811.11346  21525112.8284                   21525108.8164
        48.5004         39.7504
  -6881314.96946  -5426053.16446  22981702.7814                   22981705.0354
        40.0004         37.7504
   5987785.56646   4652311.24646  23257520.5554                   23257522.8284
        41.7504         38.0004
   -542675.41847   -414557.41446  20970859.1254                   20970856.5554
        47.2504         39.2504
  -6464027.57848  -5021991.64147  20754686.6724                   20754683.5664
        48.0004         47.7504
   6236905.32847   4846524.53547  22651359.5784                   22651359.5394
        46.7504         43.5004
    118556.55545    114036.79343  24935068.8674                   24935078.9414
        31.0004         21.2504
  -1985021.61745  -1536445.34444  24431369.2584                   24431371.1174
        34.0004         27.0004
   -857281.58646   -505588.41043  24403744.7504                   24403750.6254
        39.2504         18.5004
 25  8  7 21 48  0.0000000  0 10G01G02G03G10G28G31G32G26G25G04
  -5250373.62947  -4071752.66046  21536766.1334                   21536764.1414
        47.2504         36.2504
    541069.74648    426232.35546  21526192.8134                   21526188.5354
        48.5004         39.2504
  -6983898.04746  -5505987.89146  22962181.4224                   22962183.9534
        41.2504         38.0004
   6041827.39847   4694421.63746  23267805.9384                   23267806.2114
        43.2504         38.0004
   -545514.09847   -416769.34846  20970318.9064                   20970316.0554
        46.7504         39.0004
  -6537424.75047  -5079184.17648  20740719.5944                   20740716.6214
        47.7504         48.0004
   6287299.16847   4885792.43847  22660949.0784                   22660949.2704
        45.5004         43.7504
     12728.38746     31573.56344  24914929.9924                   24914941.0744
        38.5004         27.0004
  -2012590.17245  -1557927.27744  24426122.5234                   24426125.1994
        34.2504         26.7504
   -953210.33246   -580337.86343  24385489.8674                   24385495.2894
        39.5004         20.2504
 25  8  7 21 48 30.0000000  0 10G01G02G03G10G28G31G32G26G25G04
  -5310076.90247  -4118274.66046  21525404.6254                   21525403.4614
        46.0004         36.2504
    547131.08648    430955.43846  21527346.6254                   21527341.8404
        48.5004         39.2504
  -7086547.81646  -5585974.59446  22942648.2814                   22942649.9734
        40.2504         38.0004
   6096000.26247   4736634.14846  23278113.4384                   23278114.9304
        43.2504         37.7504
   -547889.62947   -418620.38746  20969866.3754                   20969864.0434
        46.7504         39.0004
  -6610385.26647  -5136036.46548  20726835.4304                   20726832.3524
        47.5004         48.0004
   6337649.44147   4925026.38347  22670530.7894                   22670530.8364
        46.0004         43.5004
    -93308.89546    -51052.62145  24894753.4774                   24894762.5594
        38.0004         31.5004
  -2039761.28145  -1579099.52044  24420951.9064                   24420954.9344
        33.0004         26.0004
  -1049124.41846   -655075.89543  24367238.0084                   24367243.3364
        39.7504         19.5004
 25  8  7 21 49  0.0000000  0 10G01G02G03G10G28G31G32G26G25G04
  -5369364.42247  -4164472.70746  21514122.6414                   21514120.9574
        47.0004         36.5004
    553585.09848    435984.50046  21528575.0084                   21528570.4574
        48.5004         38.7504
  -7189256.71546  -5666007.35946  22923103.7034                   22923104.9964
        41.0004         38.5004
   6150310.16047   4778953.42246  23288448.1174                   23288450.0784
        42.7504         37.5004
   -549796.68047   -420106.38746  20969503.5704                   20969500.9304
        47.2504         39.2504
  -6682901.24647  -5192542.37148  20713036.2504                   20713033.4574
        47.7504         48.2504
   6387961.37147   4964230.44947  22680105.0314                   22680104.7704
        46.5004         43.5004
   -199546.66446   -133834.94144  24874535.5004                   24874545.3594
        37.5004         27.0004
  -2066527.56645  -1599956.35244  24415858.4774                   24415860.6134
        33.0004         27.5004
  -1145017.39546   -729797.43443  24348989.6644                   24348995.2894
        39.7504         18.5004
 25  8  7 21 49 30.0000000  0 10G01G02G03G10G28G31G32G26G25G04
  -5428236.21547  -4210346.81246  21502919.6804                   21502918.1914
        47.0004         36.2504
    560429.56348    441317.82046  21529877.2584                   21529872.9414
        48.7504         39.5004
  -7292025.19146  -5746086.55946  22903547.2274                   22903549.0704
        40.7504         38.5004
   6204755.20747   4821377.96146  23298810.2114                   23298810.8874
        43.7504         37.2504
   -551237.80547   -421229.32046  20969229.6254                   20969226.9694
        47.7504         39.0004
  -6754972.30548  -5248701.58648  20699321.7344                   20699318.7304
        48.2504         48.5004
   6438232.37147   5003402.63747  22689670.9774                   22689670.5314
        46.0004         43.2504
   -305983.78146   -216772.68743  24854280.5084                   24854289.9144
        38.5004         22.5004
  -2092889.50445  -1620498.01644  24410842.2664                   24410844.5664
        34.5004         27.5004
  -1240890.68746   -804503.67643  24330745.1174                   24330751.2774
        38.7504         18.2504
 25  8  7 21 50  0.0000000  0 10G01G02G03G10G28G31G32G26G25G04
  -5486683.59047  -4255890.19946  21491797.8444                   21491795.8444
        46.7504         37.0004
    567670.72348    446960.25046  21531254.8984                   21531250.7734
        48.5004         39.0004
  -7394844.73846  -5826205.56246  22883981.4844                   22883983.0204
        40.5004         38.0004
   6259342.22747   4863913.19946  23309197.1724                   23309199.1524
        43.7504         38.2504
   -552206.90247   -421984.43446  20969044.9924                   20969042.4024
        46.5004         38.7504
  -6826589.68048  -5304507.27748  20685693.4064                   20685690.4654
        48.5004         48.5004
   6488468.56647   5042547.68847  22699230.5474                   22699230.2704
        46.0004         43.2504
   -412610.42646   -299858.01644  24833990.4924                   24834000.4654
        38.2504         29.5004
  -2118838.73045  -1640718.17644  24405904.6414                   24405906.8134
        35.5004         29.2504
  -1336737.11346   -879189.00843  24312506.7814                   24312512.3134
        38.7504         19.2504
 25  8  7 21 50 30.0000000  0 10G01G02G03G10G28G31G32G26G25G04
  -5544711.47347  -4301106.71546  21480755.2584                   21480753.6374
        47.0004         36.7504
    575300.90648    452905.80546  21532707.1644                   21532702.6134
        48.2504         39.2504
  -7497720.63346  -5906368.46546  22864404.9144                   22864406.2504
        40.7504         38.0004
   6314064.28147   4906553.61746  23319611.2274                   23319612.6134
        44.5004         38.5004
   -552711.53147   -422377.64146  20968948.8284                   20968946.5634
        47.7504         38.5004
  -6897758.45348  -5359963.41448  20672150.2034                   20672147.2774
        48.0004         48.5004
   6538662.40247   5081659.74647  22708782.4064                   22708781.9384
        46.0004         42.7504
   -519430.59446   -383094.14144  24813662.0314                   24813673.0554
        36.5004         28.2504
  -2144380.78946  -1660620.98844  24401043.9144                   24401045.8634
        36.7504         28.0004
  -1432563.10946   -953858.41843  24294272.0784                   24294276.6024
        39.0004         19.0004
 25  8  7 21 51  0.0000000  0 10G01G02G03G10G28G31G32G26G25G04
  -5602320.32447  -4345996.69546  21469792.7734                   21469790.5594
        46.2504         36.2504
    583317.21548    459152.25046  21534232.8054                   21534228.2934
        48.5004         39.5004
  -7600653.53146  -5986575.80146  22844816.7274                   22844818.9264
        41.0004         37.5004
   6368919.24247   4949297.65646  23330047.7114                   23330051.8324
        43.5004         38.0004
   -552754.64147   -422411.21146  20968940.7034                   20968938.0314
        47.7504         38.7504
  -6968478.34448  -5415069.77048  20658692.6094                   20658689.4264
        48.5004         48.5004
   6588811.01647   5120736.56347  22718325.2274                   22718324.9614
        46.0004         43.2504
   -626443.50446   -466480.42244  24793299.3054                   24793308.7274
        37.5004         28.0004
  -2169516.46145  -1680207.18044  24396260.9614                   24396261.8984
        35.2504         28.5004
  -1528370.41446  -1028513.27743  24276039.2814                   24276045.2274
        38.0004         20.2504
 25  8  7 21 51 30.0000000  0 10G01G02G03G10G28G31G32G26G25G04
  -5659502.84447  -4390554.49246  21458910.8444                   21458909.1294
        46.0004         36.7504
    591724.71947    465703.51646  21535832.2974                   21535828.4224
        47.5004         38.5004
  -7703636.42246  -6066822.08246  22825219.6954                   22825221.9104
        41.5004         38.0004
   6423912.55147   4992149.45346  23340513.7894                   23340517.6884
        44.7504         38.5004
   -552331.49247   -422081.47346  20969021.1804                   20969018.4884
        46.2504         38.5004
  -7038742.25848  -5469820.83248  20645321.8674                   20645318.4614
        49.0004         48.5004
   6638919.13747   5159781.82847  22727860.5474                   22727860.1094
        46.7504         42.5004
   -733640.69946   -550010.48444  24772899.4924                   24772908.1724
        37.5004         24.5004
  -2194239.00446  -1699471.38744  24391556.2664                   24391558.8674
        36.2504         26.5004
  -1624153.10946  -1103148.92243  24257813.3754                   24257817.7854
        37.5004         19.5004
 25  8  7 21 52  0.0000000  0 10G01G02G03G10G28G31G32G26G25G04
  -5716252.71147  -4434775.14546  21448112.2424                   21448110.1804
        46.0004         36.5004
    600527.03548    472562.42246  21537507.3914                   21537503.3484
        48.0004         38.5004
  -7806663.14546  -6147102.52746  22805613.7344                   22805616.0164
        41.5004         37.5004
   6479048.68446   5035112.54346  23351005.6334                   23351009.2424
        41.7504         38.2504
   -551438.38747   -421385.53546  20969190.9224                   20969188.2384
        47.5004         38.7504
  -7108543.89148  -5524211.66048  20632039.0784                   20632035.9454
        49.2504         48.7504
   6688990.64547   5198798.56647  22737388.5784                   22737388.3524
        45.7504         42.2504
   -841014.72346   -633678.17244  24752466.3444                   24752476.3834
        36.0004         29.2504
  -2218542.43046  -1718409.09044  24386931.2034                   24386933.9264
        36.0004         29.5004
  -1719906.30945  -1177761.61343  24239590.9384                   24239596.4654
        34.0004         19.7504
 25  8  7 21 52 30.0000000  0 10G01G02G03G10G28G31G32G26G25G04
  -5772566.94547  -4478656.34846  21437395.6484                   21437393.8674
        46.5004         36.2504
    609724.82447    479729.49646  21539257.8364                   21539253.3714
        47.7504         38.7504
  -7909730.81246  -6227414.88746  22786000.9614                   22786002.6094
        40.7504         37.0004
   6534328.84847   5078187.88746  23361524.6564                   23361528.1134
        42.0004         37.2504
   -550074.83647   -420323.02046  20969450.6024                   20969448.2934
        47.5004         39.0004
  -7177879.78948  -5578239.59048  20618844.7814                   20618841.6994
        48.7504         48.5004
   6739026.12547   5237787.23846  22746910.3204                   22746909.6994
        46.0004         41.7504
   -948561.25446   -717480.23044  24732001.7974                   24732010.1294
        36.5004         29.0004
  -2242424.12946  -1737018.18444  24382386.3444                   24382388.2854
        37.2504         29.7504
  -1815628.38745  -1252350.10243  24221375.4534                   24221381.2154
        35.5004         20.0004
 25  8  7 21 53  0.0000000  0 10G01G02G03G10G28G31G32G26G25G04
  -5828453.85247  -4522204.57046  21426760.9534                   21426758.7584
        46.7504         36.5004
    619307.20348    487196.25046  21541081.4694                   21541077.0704
        48.0004         39.2504
  -8012847.96546  -6307765.81246  22766378.5004                   22766379.9104
        41.5004         37.0004
   6589742.86347   5121367.46946  23372071.3524                   23372072.5394
        42.5004         37.0004
   -548251.83647   -418902.48846  20969797.8284                   20969795.1604
        46.5004         38.5004
  -7246758.41848  -5631911.19948  20605737.0554                   20605734.3364
        48.7504         48.5004
   6789014.84447   5276739.46946  22756422.9844                   22756422.5004
        46.0004         41.7504
  -1056287.51645   -801422.55543  24711501.5474                   24711509.5044
        34.5004         22.5004
  -2265893.15245  -1755305.66044  24377921.1564                   24377922.6884
        35.2504         28.5004
  -1911328.97346  -1326921.79743  24203164.2344                   24203170.0984
        36.2504         21.0004
 25  8  7 21 53 30.0000000  0 10G01G02G03G10G28G31G32G26G25G04
  -5883904.03147  -4565412.48446  21416208.8984                   21416207.3284
        46.2504         36.5004
    629281.03947    494968.03546  21542979.2344                   21542975.2464
        47.0004         39.2504
  -8116005.21947  -6388147.98446  22746747.7194                   22746749.9454
        42.0004         37.5004
   6645298.40647   5164657.33646  23382644.6954                   23382644.0044
        43.0004         36.7504
   -545962.47747   -417118.55546  20970233.5634                   20970230.9414
        47.5004         38.7504
  -7315169.89848  -5685218.79748  20592719.0474                   20592716.0234
        48.0004         48.5004
   6838963.82047   5315660.74647  22765927.3284                   22765927.8204
        45.5004         42.0004
  -1164182.72345   -885496.39844  24690969.2664                   24690978.5634
        31.5004         24.0004
  -2288940.34845  -1773264.46544  24373534.4844                   24373537.2664
        34.7504         28.2504
  -2006999.98046  -1401470.45743  24184958.2114                   24184964.3364
        36.2504         20.0004
 25  8  7 21 54  0.0000000  0 10G01G02G03G10G28G31G32G26G25G04
  -5938926.83647  -4608287.37946  21405738.1334                   21405736.5864
        44.7504         36.5004
    639634.59847    503035.69546  21544949.5944                   21544945.4384
        47.0004         38.7504
  -8219211.98847  -6468568.74646  22727108.6884                   22727109.8404
        42.5004         38.0004
   6700984.27347   5208048.79746  23393240.8444                   23393241.7664
        44.0004         36.2504
   -543218.73047   -414980.55546  20970755.4924                   20970752.8444
        47.2504         38.5004
  -7383123.33247  -5738169.47348  20579787.6804                   20579784.8874
        47.7504         48.5004
   6888861.38347   5354541.94946  22775422.8594                   22775422.3674
        45.7504         41.5004
  -1272254.94945   -969708.15245  24670402.3914                   24670412.5474
        35.7504         30.0004
  -2311575.57445  -1790902.25044  24369227.5234                   24369228.9844
        35.7504         29.5004
  -2102652.03546  -1476004.34043  24166757.1334                   24166761.7074
        37.7504         21.0004
 25  8  7 21 54 30.0000000  0 10G01G02G03G10G28G31G32G26G25G04
  -5993516.42647  -4650824.69546  21395350.2274                   21395348.6374
        45.5004         36.2504
    650371.23447    511401.86346  21546992.7274                   21546988.3794
        47.5004         38.7504
  -8322462.53947  -6549023.62946  22707460.3054                   22707462.1094
        42.7504         38.2504
   6756804.58647   5251545.04346  23403862.4534                   23403864.6684
        43.0004         37.7504
   -540017.34447   -412485.95346  20971364.8284                   20971361.5984
        46.5004         39.2504
  -7450613.29348  -5790759.00448  20566944.9534                   20566942.1484
        48.0004         48.5004
   6938710.94947   5393385.75846  22784909.0164                   22784909.0634
        45.0004         41.5004
  -1380496.98446  -1054052.25044  24649805.4614                   24649814.3484
        36.7504         28.2504
  -2333793.44946  -1808214.82044  24364998.6254                   24365001.1174
        36.5004         28.7504
  -2198280.55146  -1550519.91443  24148558.9774                   24148564.0394
        36.5004         21.7504
 25  8  7 21 55  0.0000000  0 10G01G02G03G10G28G31G32G26G25G04
  -6047669.80147  -4693022.11346  21385045.2664                   21385043.1374
        45.7504         36.7504
    661491.63347    520067.07846  21549108.7734                   21549104.6174
        47.2504         38.0004
  -8425753.85247  -6629510.27046  22687804.5474                   22687806.4734
        43.0004         38.7504
   6812760.59047   5295147.00846  23414511.2194                   23414512.9384
        43.0004         37.5004
   -536357.96547   -409634.47346  20972061.1094                   20972058.3674
        47.0004         39.5004
  -7517636.43448  -5842984.76648  20554190.7504                   20554188.0744
        48.2504         48.5004
   6988513.28547   5432192.75447  22794386.6644                   22794385.9024
        46.2504         42.0004
  -1488904.63345  -1138525.47743  24629175.5474                   24629184.3244
        35.0004         23.5004
  -2355591.44145  -1825200.21544  24360850.4534                   24360853.5984
        35.0004         28.5004
  -2293883.98046  -1625015.91443  24130366.1484                   24130371.0704
        37.5004         22.5004
 25  8  7 21 55 30.0000000  0 10G01G02G03G10G28G31G32G26G25G04
  -6101376.48447  -4734871.45746  21374825.3914                   21374823.1334
        46.0004         36.0004
    673003.62947    529037.43046  21551299.6724                   21551295.3874
        47.0004         38.5004
  -8529075.35247  -6710020.44546  22668143.1564                   22668144.6094
        42.2504         38.7504
   6868861.03147   5338861.57446  23425185.7974                   23425187.4964
        43.5004         37.0004
   -532232.60248   -406419.88746  20972845.9924                   20972843.1094
        48.0004         39.0004
  -7584182.08647  -5894838.47748  20541527.4384                   20541524.4454
        47.7504         48.5004
   7038276.66047   5470969.41047  22803856.0864                   22803856.2154
        46.2504         42.2504
  -1597465.65646  -1223118.23045  24608518.3364                   24608526.4414
        37.5004         31.5004
  -2376959.55146  -1841850.66444  24356785.0004                   24356787.1844
        36.0004         27.5004
  -2389452.94146  -1699485.04343  24112179.9224                   24112184.5354
        38.5004         22.7504
 25  8  7 21 56  0.0000000  0 10G01G02G03G10G28G31G32G26G25G04
  -6154644.01247  -4776378.59845  21364688.8984                   21364686.7194
        46.5004         35.7504
    684897.03547    538304.98446  21553562.7194                   21553558.5594
        47.0004         38.5004
  -8632434.62547  -6790560.05146  22648474.3754                   22648476.0274
        43.5004         38.7504
   6925096.62146   5382681.37545  23435886.7584                   23435889.1254
        41.2504         35.2504
   -527651.44947   -402850.14546  20973717.8594                   20973715.1254
        47.5004         39.7504
  -7650257.68048  -5946325.89548  20528954.1024                   20528950.5434
        48.5004         48.5004
   7087991.21947   5509708.00847  22813316.4774                   22813315.8484
        46.2504         42.2504
  -1706186.55946  -1307835.46145  24587828.8444                   24587837.8244
        37.7504         33.0004
  -2397905.78145  -1858172.41444  24352799.1174                   24352801.3444
        33.2504         27.2504
  -2484996.29846  -1773934.19044  24093999.3594                   24094003.8874
        40.0004         24.0004
 25  8  7 21 56 30.0000000  0 10G01G02G03G10G28G31G32G26G25G04
  -6207466.93047  -4817539.29346  21354636.5394                   21354634.7814
        46.5004         36.5004
    697174.93448    547872.14146  21555899.0864                   21555895.0394
        48.0004         38.5004
  -8735826.13347  -6871124.77046  22628799.7194                   22628801.2424
        42.7504         39.0004
   6981471.10546   5426609.39845  23446615.7894                   23446616.4574
        41.5004         35.7504
   -522611.63347   -398923.00046  20974676.5864                   20974673.7734
        47.7504         39.0004
  -7715857.55547  -5997442.62548  20516470.5314                   20516467.4414
        47.7504         48.5004
   7137660.20347   5548411.10247  22822768.0704                   22822767.6254
        46.7504         42.2504
  -1815060.19546  -1392671.72345  24567109.8364                   24567118.2114
        38.2504         30.0004
  -2418425.23845  -1874161.55944  24348893.6884                   24348896.5124
        32.7504         27.5004
  -2580509.84046  -1848360.12144  24075822.1724                   24075827.6884
        40.2504         25.0004
 25  8  7 21 57  0.0000000  0 10G01G02G03G10G28G31G32G26G25G04
  -6259837.07847  -4858347.19146  21344671.0314                   21344669.4304
        46.0004         36.7504
    709843.34847    557743.60246  21558309.8834                   21558305.6054
        47.7504         38.5004
  -8839241.53547  -6951708.11346  22609120.6024                   22609121.7934
        42.5004         39.2504
   7037990.86747   5470650.63345  23457371.5864                   23457372.0314
        44.5004         35.5004
   -517107.62947   -394634.15246  20975724.4454                   20975721.2584
        47.0004         39.0004
  -7780973.67648  -6048182.40248  20504079.1254                   20504076.0664
        48.7504         48.5004
   7187289.63747   5587083.38347  22832212.3674                   22832211.9804
        47.5004         43.0004
  -1924077.08645  -1477619.83244  24546364.3444                   24546373.3484
        32.2504         27.0004
  -2438510.25045  -1889812.16844  24345072.1954                   24345074.1684
        33.2504         26.0004
  -2675986.59446  -1922757.34844  24057653.8674                   24057659.0164
        40.5004         24.2504
 25  8  7 21 57 30.0000000  0 10G01G02G03G10G28G31G32G26G25G04
  -6311762.74247  -4898808.72746  21334790.2974                   21334788.1024
        46.2504         36.7504
    722891.00447    567910.57446  21560793.0784                   21560788.6054
        47.5004         38.5004
  -8942689.01647  -7032316.45746  22589434.9614                   22589436.2854
        43.2504         39.2504
   7094645.98046   5514797.37145  23468150.8364                   23468153.6764
        41.7504         35.7504
   -511150.26647   -389992.04346  20976857.8284                   20976855.1484
        47.7504         38.5004
  -7845614.07848  -6098551.49648  20491778.5554                   20491775.2194
        48.7504         48.5004
   7236869.02047   5625716.65647  22841646.9384                   22841646.7774
        46.7504         42.5004
  -2033243.85546  -1562684.45745  24525591.0314                   24525599.6644
        37.2504         34.0004
  -2458169.52745  -1905131.05544  24341330.5944                   24341333.3324
        34.0004         26.7504
  -2771436.05946  -1997133.32043  24039490.1644                   24039494.9804
        40.5004         23.7504
 25  8  7 21 58  0.0000000  0 10G01G02G03G10G28G31G32G26G25G04
  -6363233.41447  -4938915.73446  21324995.7194                   21324993.4184
        45.2504         36.0004
    736326.19547    578379.52746  21563349.5474                   21563345.1604
        46.2504         38.0004
  -9046157.88747  -7112941.47346  22569745.2584                   22569746.7814
        42.0004         39.2504
   7151445.25447   5559056.38346  23478960.3524                   23478963.9734
        43.0004         36.2504
   -504731.65647   -384990.52346  20978079.4774                   20978076.5944
        47.0004         39.0004
  -7909767.94948  -6148541.47748  20479570.4454                   20479567.4304
        48.5004         48.5004
   7286406.85947   5664317.54347  22851073.4614                   22851073.1884
        46.5004         42.5004
  -2142548.39146  -1647856.57445  24504791.0314                   24504798.4924
        38.0004         31.7504
  -2477393.01245  -1920110.36744  24337672.8134                   24337674.9024
        31.7504         26.0004
  -2866848.91446  -2071480.72944  24021333.2664                   24021338.3324
        40.7504         24.2504
 25  8  7 21 58 30.0000000  0 10G01G02G03G10G28G31G32G26G25G04
  -6414253.68047  -4978671.77346  21315286.3914                   21315284.2734
        45.7504         36.0004
    750141.82847    589144.92646  21565978.6644                   21565974.3444
        47.2504         38.0004
  -9149652.53547  -7193586.56646  22550050.8984                   22550052.2464
        42.0004         39.2504
   7208382.39847   5603422.92646  23489794.3364                   23489798.5904
        43.0004         37.0004
   -497858.98447   -379635.18046  20979386.8204                   20979383.9264
        47.0004         38.5004
  -7973440.26648  -6198156.21948  20467454.0394                   20467451.0394
        49.0004         48.5004
   7335896.32047   5702880.74247  22860490.9144                   22860490.7894
        46.5004         42.2504
  -2251993.97745  -1733138.60944  24483962.9064                   24483970.4884
        34.5004         25.5004
  -2496185.94145  -1934754.20744  24334095.8674                   24334099.4574
        32.7504         26.7504
  -2962230.99246  -2145804.17244  24003182.3284                   24003187.2504
        40.7504         24.7504
 25  8  7 21 59  0.0000000  0 10G01G02G03G10G28G31G32G26G25G04
  -6464816.65647  -5018071.47346  21305665.2814                   21305662.8634
        45.5004         36.2504
    764342.20747    600210.11746  21568681.0084                   21568676.6374
        47.0004         38.0004
  -9253165.85546  -7274246.21946  22530353.1724                   22530354.2344
        41.5004         39.0004
   7265462.69947   5647900.94545  23500657.3054                   23500659.0044
        42.2504         35.0004
   -490527.91047   -373922.64546  20980781.8834                   20980779.4304
        47.5004         39.2504
  -8036623.64848  -6247389.97348  20455430.7814                   20455427.6254
        49.0004         48.7504
   7385342.31347   5741410.07047  22869900.3834                   22869900.4064
        47.0004         42.5004
  -2361571.94946  -1818523.79745  24463111.0784                   24463119.3634
        39.0004         33.2504
  -2514541.77045  -1949057.39544  24330604.3594                   24330606.4064
        33.0004         26.5004
  -3057576.49246  -2220099.09844  23985038.8834                   23985043.6914
        40.5004         24.0004
 25  8  7 21 59 30.0000000  0 10G01G02G03G10G28G31G32G26G25G04
  -6514917.62947  -5057111.18046  21296130.7194                   21296129.0514
        45.5004         36.5004
    778929.69547    611576.96146  21571456.2584                   21571452.1414
        46.7504         38.2504
  -9356692.87147  -7354916.52746  22510652.2734                   22510653.4344
        42.5004         39.0004
   7322689.14147   5692492.78146  23511546.9454                   23511549.9264
        43.2504         36.2504
   -482736.41847   -367851.33246  20982264.6414                   20982262.0084
        47.0004         39.0004
  -8099313.39148  -6296239.07448  20443501.2504                   20443497.9414
        49.0004         48.7504
   7434747.46947   5779907.57046  22879301.8054                   22879301.4454
        45.7504         41.7504
  -2471275.94946  -1904007.09044  24442234.1954                   24442244.0944
        36.0004         29.5004
  -2532456.37945  -1963016.86344  24327194.2814                   24327196.5274
        33.5004         25.7504
  -3152881.88346  -2294362.73044  23966903.0704                   23966907.3364
        40.7504         24.0004
 25  8  7 22  0  0.0000000  0 10G01G02G03G10G28G31G32G26G25G04
  -6564566.52347  -5095798.61746  21286683.2274                   21286680.8094
        46.5004         36.7504
    793892.05548    623235.91046  21574303.9304                   21574300.2194
        48.0004         38.0004
  -9460243.20746  -7435604.99646  22490947.4224                   22490948.2704
        41.7504         40.2504
   7380050.23447   5737189.62946  23522462.6644                   23522465.8014
        43.5004         38.0004
   -474496.95347   -361430.96546  20983832.9064                   20983829.9964
        46.7504         39.0004
  -8161519.27348  -6344711.13748  20431663.6644                   20431660.2504
        49.0004         48.7504
   7484099.84447   5818363.94146  22888693.5864                   22888693.1174
        46.0004         41.7504
  -2581114.36346  -1989595.23043  24421333.6334                   24421340.0824
        37.5004         22.7504
  -2549940.14145  -1976640.53944  24323866.4614                   24323870.0554
        32.0004         26.5004
  -3248158.18746  -2368603.72344  23948772.5944                   23948776.7544
        41.0004         24.0004
 25  8  7 22  0 30.0000000  0 10G01G02G03G10G28G31G32G26G25G04
  -6613759.99647  -5134131.17646  21277321.9384                   21277319.6214
        45.2504         37.2504
    809229.78547    635187.35246  21577222.8364                   21577218.6054
        47.7504         38.0004
  -9563813.17247  -7516308.78146  22471238.2274                   22471239.4574
        42.5004         39.2504
   7437547.74647   5781992.75846  23533405.2664                   23533405.7504
        43.2504         36.7504
   -465808.77347   -354660.93046  20985486.1414                   20985483.2114
        45.7504         39.0004
  -8223237.82048  -6392803.46548  20419918.9924                   20419915.7814
        49.0004         48.7504
   7533400.84847   5856780.27746  22898074.7584                   22898074.7114
        46.0004         41.7504
  -2691081.97346  -2075284.07845  24400406.9304                   24400415.7664
        38.5004         33.0004
  -2566990.35545  -1989926.37944  24320622.9694                   24320625.0554
        33.7504         26.0004
  -3343403.23447  -2442820.34044  23930647.7424                   23930651.5944
        42.2504         24.7504
 25  8  7 22  1  0.0000000  0 10G01G02G03G10G28G31G32G26G25G04
  -6662491.25847  -5172103.58246  21268048.6094                   21268046.5314
        45.5004         36.5004
    824947.39848    647434.81346  21580213.5084                   21580209.9184
        48.0004         38.0004
  -9667395.69947  -7597022.34446  22451527.6174                   22451528.9064
        42.5004         40.0004
   7495186.72747   5826906.00846  23544373.7194                   23544375.0474
        43.0004         36.0004
   -456667.75047   -347538.03946  20987225.6644                   20987222.5944
        46.5004         38.5004
  -8284462.28548  -6440510.78948  20408268.3834                   20408265.1844
        48.7504         49.0004
   7582655.32447   5895160.35546  22907448.1094                   22907447.9574
        45.7504         41.5004
  -2801170.59045  -2161066.97344  24379456.4774                   24379466.5984
        34.5004         28.5004
  -2583600.50845  -2002869.32044  24317463.1334                   24317464.2544
        33.7504         26.5004
  -3438611.27046  -2517008.16844  23912529.2034                   23912533.5354
        40.5004         24.0004
 25  8  7 22  1 30.0000000  0 10G01G02G03G10G28G31G32G26G25G04
  -6710762.82847  -5209717.77346  21258863.0704                   21258861.1564
        45.7504         37.2504
    841039.91447    659974.39546  21583275.8754                   21583272.1454
        47.5004         38.0004
  -9770992.85547  -7677747.30146  22431813.5164                   22431814.5354
        43.0004         39.2504
   7552963.09047   5871926.40646  23555369.0554                   23555371.0044
        42.5004         37.2504
   -447078.92247   -340066.21146  20989050.4144                   20989047.2894
        46.2504         38.7504
  -8345195.14848  -6487835.05548  20396711.2584                   20396708.0204
        48.2504         49.0004
   7631858.79347   5933500.69547  22916811.1334                   22916810.7774
        45.5004         42.0004
  -2911380.60246  -2246944.85944  24358485.0704                   24358490.3284
        40.0004         24.5004
  -2599773.87945  -2015471.91444  24314384.6094                   24314386.6724
        33.7504         27.7504
  -3533785.92646  -2591169.90643  23894418.7504                   23894422.5664
        41.2504         22.7504
 25  8  7 22  2  0.0000000  0 10G01G02G03G10G28G31G32G26G25G04
  -6758570.09047  -5246970.18046  21249765.4384                   21249763.2384
        45.5004         36.7504
    857509.57848    672807.86346  21586410.0084                   21586406.0394
        48.0004         38.2504
  -9874599.61747  -7758479.75446  22412097.4614                   22412098.8674
        43.0004         39.7504
   7610879.78146   5917056.21546  23566388.7584                   23566391.5744
        41.7504         36.2504
   -437040.31647   -332243.90646  20990959.8524                   20990957.5204
        45.7504         39.0004
  -8405431.82048  -6534772.67248  20385248.1954                   20385245.4184
        48.5004         49.0004
   7681013.97347   5971803.39847  22926164.9844                   22926164.6564
        46.5004         42.7504
  -3021705.86345  -2332912.30545  24337489.8674                   24337499.5084
        35.2504         30.7504
  -2615506.28945  -2027730.89844  24311390.2194                   24311392.8134
        34.0004         28.2504
  -3628923.67246  -2665302.94143  23876314.0784                   23876318.1484
        41.2504         22.7504
 25  8  7 22  2 30.0000000  0 10G01G02G03G10G28G31G32G26G25G04
  -6805916.13747  -5283863.18746  21240755.7194                   21240753.4654
        46.0004         36.7504
    874350.65247    685930.75046  21589614.9844                   21589610.7274
        47.2504         37.2504
  -9978218.59847  -7839221.71946  22392379.1884                   22392380.3054
        43.0004         40.0004
   7668932.23446   5962291.75845  23577434.5004                   23577437.6374
        39.0004         33.7504
   -426557.59047   -324075.53146  20992954.7034                   20992952.5554
        46.2504         37.7504
  -8465175.16448  -6581325.88348  20373879.5164                   20373876.2974
        48.7504         49.0004
   7730115.92647   6010064.62946  22935508.4694                   22935508.5944
        45.0004         41.5004
  -3132147.69946  -2418970.44545  24316473.9924                   24316483.3404
        40.2504         33.5004
  -2630801.35245  -2039649.13744  24308480.3984                   24308482.0664
        32.2504         27.5004
  -3724028.55146  -2739410.37543  23858215.9384                   23858220.1334
        40.7504         22.5004
 25  8  7 22  3  0.0000000  0 10G01G02G03G10G28G31G32G26G25G04
  -6852794.66447  -5320391.89546  21231835.0704                   21231833.0274
        46.0004         36.5004
    891567.19947    699346.20746  21592890.9534                   21592887.0234
        47.0004         37.7504
 -10081843.08647  -7919967.97746  22372660.2974                   22372661.6684
        42.2504         40.2504
   7727125.26246   6007636.80945  23588508.7814                   23588512.8594
        40.0004         35.0004
   -415626.98447   -315558.16846  20995034.8914                   20995032.4184
        46.0004         38.7504
  -8524418.82448  -6627489.72748  20362605.6954                   20362602.5984
        48.7504         49.0004
   7779169.21947   6048287.93446  22944843.3284                   22944843.3484
        45.2504         41.5004
  -3242697.78946  -2505113.27344  24295436.9224                   24295443.1024
        37.2504         26.5004
  -2645653.32845  -2051222.08244  24305654.3594                   24305656.0864
        33.2504         26.5004
  -3819095.33646  -2813488.12143  23840124.5314                   23840129.4024
        39.7504         21.7504
 25  8  7 22  3 30.0000000  0 10G01G02G03G10G28G31G32G26G25G04
  -6899206.55147  -5356556.98446  21223003.1954                   21223000.8754
        46.2504         37.0004
    909155.73847    713051.52746  21596237.9924                   21596233.8404
        47.0004         37.7504
 -10185473.41847  -8000718.78946  22352939.8594                   22352940.8134
        42.7504         40.2504
   7785456.34446   6053089.50446  23599609.1174                   23599613.7344
        41.5004         37.5004
   -404252.02747   -306694.55146  20997199.6564                   20997196.7814
        47.0004         39.0004
  -8583163.38348  -6673264.65648  20351427.3284                   20351423.9774
        48.5004         49.0004
   7828171.06647   6086471.15646  22954167.7034                   22954168.3364
        45.0004         41.2504
  -3353355.47345  -2591339.70744  24274378.3914                   24274387.7774
        35.2504         28.7504
  -2660063.52745  -2062450.78544  24302912.0944                   24302913.8984
        33.5004         27.5004
  -3914125.92246  -2887537.66043  23822041.6644                   23822044.9264
        39.7504         21.2504
 25  8  7 22  4  0.0000000  0 10G01G02G03G10G28G31G32G26G25G04
  -6945150.07047  -5392357.10946  21214260.3524                   21214258.4774
        46.2504         36.5004
    927115.61348    727046.19946  21599655.9454                   21599651.8524
        48.2504         38.2504
 -10289107.31247  -8081472.37946  22333219.1414                   22333220.0984
        43.0004         40.0004
   7843925.65247   6098649.84446  23610736.4614                   23610738.1524
        43.0004         36.7504
   -392433.57047   -297485.34846  20999448.5554                   20999445.6684
        46.5004         38.7504
  -8641407.33248  -6718649.51248  20340343.7814                   20340340.2544
        48.5004         49.0004
   7877121.45747   6124614.28546  22963482.8754                   22963483.2304
        44.7504         41.2504
  -3464116.69546  -2677646.89545  24253302.6724                   24253309.9064
        40.0004         34.0004
  -2674030.89845  -2073334.42644  24300254.7034                   24300255.7774
        33.0004         27.5004
  -4009119.53546  -2961558.39843  23803963.1954                   23803967.9494
        39.7504         20.0004
 25  8  7 22  4 30.0000000  0 10G01G02G03G10G28G31G32G26G25G04
  -6990616.96147  -5427785.83646  21205608.5084                   21205606.3794
        46.0004         37.0004
    945452.63747    741334.75446  21603145.2584                   21603140.9224
        47.7504         37.7504
 -10392735.92647  -8162221.85546  22313499.1334                   22313500.2664
        42.5004         40.5004
   7902540.01647   6144323.15646  23621891.7194                   23621894.8204
        44.0004         39.0004
   -380165.88747   -287926.10246  21001782.8364                   21001780.0944
        46.5004         38.5004
  -8699142.34848  -6763637.78948  20329357.0004                   20329353.7774
        48.5004         49.0004
   7926026.89547   6162722.38746  22972789.4144                   22972789.3204
        44.7504         40.7504
  -3574971.62945  -2764027.18743  24232204.5084                   24232212.4614
        32.7504         20.2504
  -2687547.55945  -2083866.85244  24297681.6254                   24297684.2154
        33.5004         27.5004
  -4104068.91846  -3035544.67243  23785895.8054                   23785899.1214
        39.0004         19.7504
 25  8  7 22  5  0.0000000  0 10G01G02G03G10G28G31G32G26G25G04
  -7035617.58247  -5462851.23446  21197044.6954                   21197042.5124
        46.0004         36.7504
    964154.09047    755907.28546  21606703.8524                   21606700.0124
        47.2504         37.7504
 -10496368.96947  -8242974.78546  22293777.8284                   22293779.1644
        43.5004         40.5004
   7961287.53947   6190100.33246  23633069.8674                   23633073.3204
        43.0004         37.7504
   -367461.95747   -278026.92246  21004200.4614                   21004198.0354
        45.7504         38.5004
  -8756378.52348  -6808237.35948  20318465.3914                   20318461.9304
        48.7504         49.0004
   7974875.32047   6200786.06646  22982084.7734                   22982085.1644
        43.7504         41.0004
  -3685928.40246  -2850486.74245  24211093.1644                   24211100.2544
        40.7504         34.0004
  -2700624.48445  -2094056.64544  24295193.4534                   24295195.3404
        34.2504         27.7504
  -4198985.28946  -3109505.22743  23767833.2344                   23767836.7894
        38.5004         20.0004
 25  8  7 22  5 30.0000000  0 10G01G02G03G10G28G31G32G26G25G04
  -7080144.29747  -5497547.35546  21188571.9304                   21188569.6334
        45.7504         36.7504
    983224.85947    770767.58646  21610333.2194                   21610328.9064
        47.2504         37.7504
 -10599998.19947  -8323724.75446  22274058.0004                   22274059.1174
        42.7504         40.7504
   8020174.29347   6235985.92646  23644276.3134                   23644277.5044
        43.5004         37.0004
   -354316.68047   -267783.84046  21006701.7664                   21006699.5274
        46.7504         38.5004
  -8813108.43048  -6852442.43748  20307669.8364                   20307666.7034
        49.0004         49.0004
   8023672.71147   6238809.96546  22991370.5394                   22991370.6684
        44.0004         40.7504
  -3796977.69545  -2937018.29343  24189958.8754                   24189967.5164
        33.0004         23.5004
  -2713254.58645  -2103898.25444  24292789.6174                   24292791.6954
        32.2504         25.7504
  -4293862.01246  -3183434.88343  23749778.9534                   23749782.3984
        38.5004         20.0004
 25  8  7 22  6  0.0000000  0 10G01G02G03G10G28G31G32G26G25G04
  -7124192.32847  -5531870.48846  21180189.6024                   21180188.0234
        46.0004         37.0004
   1002667.44147    785917.61346  21614032.9144                   21614028.9884
        47.7504         37.5004
 -10703618.16047  -8404467.48846  22254339.6094                   22254340.8284
        43.0004         40.2504
   8079203.64847   6281982.67246  23655508.1644                   23655512.7584
        42.0004         37.5004
   -340727.85247   -257195.12946  21009287.8444                   21009285.0234
        46.2504         38.2504
  -8869327.09448  -6896249.15248  20296971.9304                   20296968.9304
        48.5004         49.0004
   8072422.17647   6276796.52346  23000647.9534                   23000647.4654
        44.5004         41.0004
  -3908112.33646  -3023616.60544  24168812.0554                   24168818.5704
        39.7504         29.2504
  -2725433.50845  -2113388.29344  24290472.4774                   24290474.2344
        34.7504         27.2504
  -4388695.16046  -3257330.64543  23731731.7274                   23731736.1254
        38.5004         19.7504
 25  8  7 22  6 30.0000000  0 10G01G02G03G10G28G31G32G26G25G04
  -7167755.55947  -5565815.84446  21171899.7584                   21171897.9654
        46.2504         36.2504
   1022485.62547    801360.32846  21617804.3754                   21617799.9614
        47.7504         38.0004
 -10807222.01647  -8485197.66046  22234624.6174                   22234626.1564
        43.0004         40.0004
   8138380.29347   6328094.21546  23666769.4224                   23666773.1254
        43.0004         37.0004
   -326691.88747   -246258.00446  21011958.8204                   21011955.9104
        46.5004         38.0004
  -8925028.32048  -6939652.65648  20286372.7504                   20286368.9184
        49.0004         49.0004
   8121128.30147   6314749.32846  23009915.8914                   23009915.8874
        44.0004         40.5004
  -4019324.37145  -3110275.03544  24147647.6644                   24147656.7814
        35.7504         29.5004
  -2737155.77745  -2122522.54344  24288242.1094                   24288243.3874
        34.2504         27.0004
  -4483479.50446  -3331188.32043  23713694.6724                   23713698.7774
        38.7504         19.7504
 25  8  7 22  7  0.0000000  0 10G01G02G03G10G28G31G32G26G25G04
  -7210840.34047  -5599388.39546  21163700.8754                   21163698.7894
        46.0004         37.0004
   1042670.60547    817088.84846  21621645.1254                   21621641.3164
        47.5004         37.5004
 -10910815.43047  -8565919.70746  22214910.9304                   22214912.4344
        42.5004         40.2504
   8197696.35247   6374314.35546  23678058.3054                   23678059.7114
        44.5004         37.5004
   -312217.75047   -234979.44546  21014713.2584                   21014710.3834
        46.0004         38.5004
  -8980218.38748  -6982657.85248  20275869.9614                   20275866.7114
        48.7504         49.2504
   8169783.03947   6352662.08646  23019174.3364                   23019174.6604
        42.7504         40.0004
  -4130618.13346  -3196997.11744  24126469.2504                   24126476.3134
        38.5004         26.5004
  -2748428.32445  -2131306.30544  24286097.1094                   24286098.2894
        33.2504         26.2504
  -4578222.28946  -3405013.63343  23695665.8594                   23695669.8244
        37.5004         21.0004
 25  8  7 22  7 30.0000000  0 10G01G02G03G10G28G31G32G26G25G04
  -7253445.49247  -5632587.20746  21155593.5554                   21155591.4884
        45.5004         37.0004
   1063221.32847    833102.35546  21625556.2894                   21625551.8444
        47.0004         37.5004
 -11014396.46147  -8646632.10546  22195200.5394                   22195201.3914
        43.0004         40.5004
   8257151.62547   6420642.97746  23689372.0784                   23689374.5234
        43.7504         37.2504
   -297306.75847   -223360.48046  21017550.8284                   21017547.9654
        47.0004         38.2504
  -9034896.21548  -7025263.91048  20265465.4304                   20265461.4734
        48.5004         49.0004
   8218386.08647   6390534.54746  23028423.4844                   23028423.6484
        43.0004         40.5004
  -4241990.17245  -3283780.37144  24105275.2504                   24105283.7114
        33.2504         27.5004
  -2759250.39845  -2139739.08244  24284037.6804                   24284038.1374
        34.2504         26.5004
  -4672923.16846  -3478806.27343  23677645.7344                   23677648.3134
        39.2504         22.0004
 25  8  7 22  8  0.0000000  0 10G01G02G03G10G28G31G32G26G25G04
  -7295568.90647  -5665410.62546  21147578.1644                   21147575.6844
        46.0004         37.0004
   1084137.27347    849400.45346  21629535.7504                   21629532.1684
        47.2504         38.2504
 -11117962.14847  -8727332.55546  22175492.6024                   22175493.1254
        43.5004         40.5004
   8316746.69547   6467080.53945  23700711.5864                   23700714.2464
        42.2504         35.5004
   -281959.36747   -211401.46946  21020470.8834                   21020468.8204
        46.5004         38.0004
  -9089059.46948  -7067468.99248  20255157.7664                   20255154.2584
        48.2504         49.0004
   8266937.96947   6428367.13746  23037663.2424                   23037662.8134
        43.7504         40.5004
  -4353436.44546  -3370621.19145  24084068.0944                   24084075.8834
        36.7504         31.0004
  -2769620.52745  -2147819.68744  24282063.1414                   24282066.5044
        33.5004         26.5004
  -4767580.84446  -3552565.27343  23659632.6094                   23659635.7274
        40.2504         22.7504
 25  8  7 22  8 30.0000000  0 10G01G02G03G10G28G31G32G26G25G04
  -7337212.53547  -5697860.19146  21139653.3984                   21139651.2074
        45.7504         37.0004
   1105414.12547    865979.77046  21633585.1804                   21633581.3484
        46.5004         38.0004
 -11221513.58647  -8808021.88746  22155787.4454                   22155788.3204
        43.5004         40.7504
   8376478.25847   6513624.42246  23712078.3984                   23712082.0864
        43.7504         36.5004
   -266180.04747   -199105.87546  21023474.0084                   21023470.8204
        45.5004         38.0004
  -9142710.25048  -7109274.75048  20244948.5394                   20244945.4534
        48.0004         49.2504
   8315435.26247   6466157.21146  23046891.2034                   23046891.0394
        42.5004         39.5004
  -4464956.45345  -3457519.79344  24062846.5704                   24062852.5554
        35.0004         25.7504
  -2779541.19546  -2155550.09044  24280176.6564                   24280177.0314
        36.0004         25.5004
  -4862198.10246  -3626292.78543  23641626.6094                   23641630.6844
        39.5004         22.5004
 25  8  7 22  9  0.0000000  0 10G01G02G03G10G28G31G32G26G25G04
  -7378367.13747  -5729928.70346  21131821.5864                   21131819.2734
        46.0004         37.0004
   1127058.73048    882845.65646  21637703.9304                   21637700.1254
        48.0004         38.0004
 -11325040.71147  -8888692.28546  22136086.5084                   22136087.9614
        43.7504         40.2504
   8436354.23847   6560280.89846  23723473.0634                   23723476.3634
        44.5004         37.2504
   -249962.13347   -186468.53546  21026560.0944                   21026557.3484
        47.0004         38.0004
  -9195839.15247  -7150673.84448  20234838.2114                   20234834.8244
        47.5004         49.0004
   8363885.80547   6503910.84046  23056111.2814                   23056111.1024
        43.7504         39.0004
  -4576539.14146  -3544466.97345  24041613.2894                   24041621.0904
        37.7504         33.2504
  -2789003.80145  -2162923.52744  24278374.1804                   24278377.2464
        32.5004         25.2504
  -4956766.54346  -3699982.24244  23623631.3914                   23623634.7234
        40.0004         24.7504
 25  8  7 22  9 30.0000000  0 10G01G02G03G10G28G31G32G26G25G04
  -7419033.66447  -5761616.89146  21124083.4064                   21124081.1134
        45.5004         36.7504
   1149067.87547    899995.59046  21641892.1024                   21641888.3204
        47.0004         38.5004
 -11428543.62547  -8969343.81646  22116390.1254                   22116392.1914
        43.5004         40.5004
   8496372.20747   6607047.98045  23734894.6334                   23734896.0664
        43.7504         34.7504
   -233309.05947   -173492.09846  21029729.2344                   21029726.1564
        47.0004         38.0004
  -9248446.92648  -7191666.86348  20224827.5634                   20224823.7974
        48.0004         49.0004
   8412287.17247   6541626.15646  23065322.4304                   23065321.6764
        44.2504         40.2504
  -4688182.82845  -3631461.73044  24020366.7344                   24020375.0044
        35.0004         27.2504
  -2798009.66845  -2169941.09443  24276661.5314                   24276663.2814
        34.5004         23.0004
  -5051287.81246  -3773634.94944  23605643.7974                   23605646.8164
        40.2504         24.0004
 25  8  7 22 10  0.0000000  0 10G01G02G03G10G28G31G32G26G25G04
  -7459213.88747  -5792926.15646  21116437.5314                   21116434.7974
        46.0004         37.2504
   1171437.04348    917426.05946  21646149.0554                   21646145.4804
        48.0004         37.5004
 -11532023.06247  -9049977.05546  22096699.3054                   22096700.2624
        43.0004         40.7504
   8556529.08647   6653923.27746  23746341.3754                   23746345.7114
        42.7504         37.2504
   -216225.13747   -160179.94146  21032979.9534                   21032977.1724
        47.0004         38.2504
  -9300535.80948  -7232255.55548  20214915.4454                   20214911.7274
        48.7504         49.0004
   8460636.19547   6579300.68446  23074522.6094                   23074522.5204
        43.5004         40.5004
  -4799887.29746  -3718503.98045  23999111.5164                   23999117.9104
        39.7504         32.0004
  -2806561.18745  -2176604.57444  24275034.2974                   24275036.0314
        34.2504         25.5004
  -5145764.43746  -3847252.88743  23587665.1724                   23587669.0124
        40.0004         23.2504
 25  8  7 22 10 30.0000000  0 10G01G02G03G10G28G31G32G26G25G04
  -7498903.33247  -5823852.98446  21108884.4694                   21108882.3674
        45.0004         37.0004
   1194168.81347    935139.08646  21650475.1024                   21650470.9184
        47.5004         38.0004
 -11635473.57047  -9130587.74646  22077013.3674                   22077013.7774
        43.7504         40.7504
   8616828.05547   6700909.34445  23757815.9534                   23757819.3674
        42.0004         34.7504
   -198708.40647   -146530.52746  21036313.0784                   21036310.3674
        46.2504         37.7504
  -9352100.87148  -7272436.07448  20205102.4534                   20205099.2194
        48.5004         49.0004
   8508935.98447   6616936.84046  23083713.1024                   23083713.6024
        43.7504         40.0004
  -4911645.66446  -3805588.09045  23977842.3984                   23977850.7894
        37.0004         31.7504
  -2814654.41445  -2182911.04343  24273493.1644                   24273496.0864
        33.0004         22.7504
  -5240192.64546  -3920833.09844  23569696.3444                   23569699.6604
        40.5004         25.5004
 25  8  7 22 11  0.0000000  0 10G01G02G03G10G28G31G32G26G25G04
  -7538103.95347  -5854398.91446  21101424.9774                   21101422.7344
        45.2504         36.5004
   1217258.55947    953131.05146  21654868.4384                   21654864.4804
        47.5004         38.0004
 -11738896.15647  -9211176.69146  22057331.9454                   22057333.2194
        44.0004         40.5004
   8677265.70746   6748003.41445  23769316.9774                   23769321.4304
        41.0004         33.5004
   -180763.32447   -132547.33646  21039728.2504                   21039725.2814
        46.7504         38.2504
  -9403144.25848  -7312210.09448  20195389.3754                   20195385.9414
        48.5004         49.5004
   8557183.30947   6654532.11346  23092894.7974                   23092894.7854
        43.5004         39.5004
  -5023457.63346  -3892714.05945  23956566.6884                   23956571.6764
        40.2504         30.7504
  -2822292.00445  -2188862.37144  24272040.3204                   24272042.0514
        32.5004         24.7504
  -5334575.19946  -3994377.76244  23551735.9534                   23551739.3524
        40.7504         26.5004
 25  8  7 22 11 30.0000000  0 10G01G02G03G10G28G31G32G26G25G04
  -7576806.02047  -5884556.36346  21094060.2504                   21094058.2114
        47.0004         37.5004
   1240713.78547    971407.80146  21659332.0084                   21659328.2074
        47.5004         38.0004
 -11842280.11347  -9291735.52346  22037659.0234                   22037659.8524
        43.7504         40.5004
   8737850.50046   6795212.16445  23780846.3674                   23780849.8914
        40.2504         33.7504
   -162382.69147   -118224.76246  21043225.6024                   21043222.7074
        47.7504         37.7504
  -9453656.32048  -7351570.10248  20185777.3134                   20185773.8874
        48.5004         49.2504
   8605386.47747   6692092.98846  23102068.2344                   23102067.6054
        44.5004         39.7504
  -5135311.13346  -3979872.37145  23935280.8674                   23935289.0124
        38.0004         33.2504
  -2829464.60945  -2194451.48044  24270675.5314                   24270678.2584
        35.0004         26.5004
  -5428903.01246  -4067879.75844  23533785.9614                   23533789.0274
        40.5004         27.5004
 25  8  7 22 12  0.0000000  0 10G01G02G03G10G28G31G32G26G25G04
  -7615016.66047  -5914330.88346  21086789.1724                   21086786.6844
        46.2504         37.5004
   1264524.85947    989961.84046  21663863.2974                   21663859.3284
        47.5004         37.7504
 -11945631.37947  -9372268.88346  22017991.6094                   22017992.9384
        44.0004         41.2504
   8798574.05146   6842529.01645  23792401.2734                   23792404.7424
        39.5004         31.2504
   -143576.07447   -103570.25846  21046804.3364                   21046801.4884
        47.0004         37.7504
  -9503643.99647  -7390521.49248  20176264.8364                   20176261.5634
        47.7504         49.2504
   8653537.23447   6729613.03546  23111230.3134                   23111230.0474
        45.0004         40.0004
  -5247210.85546  -4067066.62945  23913987.7894                   23913994.0044
        40.2504         33.2504
  -2836179.98845  -2199684.19944  24269397.2894                   24269399.2424
        33.5004         24.7504
  -5523183.79746  -4141345.10544  23515844.0554                   23515848.1094
        41.2504         27.0004
 25  8  7 22 12 30.0000000  0 10G01G02G03G10G28G31G32G26G25G04
  -7652724.56247  -5943713.65646  21079613.1484                   21079611.3094
        46.2504         37.5004
   1288700.87947   1008800.25046  21668463.2734                   21668459.6334
        46.7504         37.2504
 -12048937.61347  -9452767.16046  21998333.0474                   21998334.3204
        43.7504         41.5004
   8859446.33246   6889961.80545  23803984.7734                   23803989.9774
        40.0004         32.7504
   -124334.69147    -88576.96146  21050465.9224                   21050463.1724
        46.5004         38.0004
  -9553095.71547  -7429055.25048  20166854.5164                   20166851.2934
        47.7504         49.5004
   8701645.52747   6767099.98046  23120385.4534                   23120385.0904
        44.7504         40.2504
  -5359143.12146  -4154286.43045  23892686.7194                   23892692.9454
        38.0004         32.0004
  -2842427.35255  -2204552.30954  24268209.7344                   24268211.1684
        34.7504         27.2504
  -5617406.98446  -4214765.58244  23497914.6254                   23497917.6294
        41.5004         27.0004
 25  8  7 22 13  0.0000000  0 10G01G02G03G10G28G31G32G26G25G04
  -7689929.50047  -5972704.51646  21072533.5704                   21072531.1764
        46.0004         37.2504
   1313239.70347   1027921.35946  21673132.8754                   21673129.5554
        47.7504         37.5004
 -12152197.48847  -9533229.30947  21978683.3834                   21978684.4144
        44.2504         42.0004
   8920466.27747   6937509.68045  23815597.3054                   23815599.5354
        42.2504         32.0004
   -104660.77347    -73246.63746  21054210.1804                   21054206.8754
        46.7504         38.0004
  -9602011.54748  -7467171.44148  20157546.2114                   20157542.5394
        49.0004         49.5004
   8749710.48047   6804553.14546  23129531.8674                   23129531.6484
        43.7504         40.0004
  -5471105.21546  -4241529.28545  23871380.9454                   23871387.9924
        40.5004         35.5004
  -2848207.12945  -2209056.06244  24267108.6024                   24267110.6214
        33.0004         24.2504
  -5711572.87946  -4288141.41844  23479994.8754                   23479997.6024
        41.2504         26.2504
 25  8  7 22 13 30.0000000  0 10G01G02G03G10G28G31G32G26G25G04
  -7726636.70747  -6001307.53546  21065548.2504                   21065546.1724
        46.0004         37.5004
   1338133.86347   1047319.35246  21677870.4614                   21677866.7304
        46.0004         38.0004
 -12255415.09847  -9613658.52746  21959041.7424                   21959042.6134
        44.5004         41.5004
   8981627.46546   6985167.53545  23827235.6724                   23827240.1024
        41.5004         33.2504
    -84562.03947    -57585.29346  21058034.6954                   21058031.3094
        45.7504         38.0004
  -9650396.67648  -7504874.10548  20148339.0084                   20148335.2384
        48.7504         49.5004
   8797725.59847   6841967.48446  23138668.6254                   23138668.8484
        44.5004         39.5004
  -5583099.93046  -4328797.65245  23850068.6414                   23850074.4844
        39.0004         31.0004
  -2853525.04345  -2213199.90644  24266097.6724                   24266098.9024
        34.5004         26.7504
  -5805687.44146  -4361477.24244  23462084.9614                   23462088.1414
        40.5004         27.0004
 25  8  7 22 14  0.0000000  0 10G01G02G03G10G28G31G32G26G25G04
  -7762849.16047  -6029525.02346  21058657.1724                   21058655.2854
        46.5004         37.7504
   1363377.79347   1066989.89146  21682674.0784                   21682670.4024
        47.5004         38.2504
 -12358592.09447  -9694056.09447  21939408.1254                   21939408.5514
        45.0004         42.5004
   9042925.70746   7032932.24245  23838900.2894                   23838904.4224
        41.2504         32.0004
    -64043.87547    -41597.11346  21061938.8914                   21061935.9144
        46.7504         38.5004
  -9698253.96948  -7542165.46148  20139231.7974                   20139228.0274
        48.2504         49.5004
   8845686.80947   6879339.84046  23147795.3524                   23147795.5514
        45.0004         39.7504
  -5695127.71146  -4416091.73445  23828749.9924                   23828757.9964
        40.5004         35.2504
  -2858384.54345  -2216986.52744  24265172.0314                   24265175.2934
        33.0004         26.2504
  -5899754.12146  -4434775.77044  23444184.9384                   23444187.5824
        40.7504         26.5004
 25  8  7 22 14 30.0000000  0 10G01G02G03G10G28G31G32G26G25G04
  -7798564.09047  -6057354.84446  21051860.8674                   21051859.0474
        46.5004         36.7504
   1388972.20347   1086933.53546  21687544.7344                   21687541.1454
        46.5004         38.0004
 -12461724.55947  -9774418.97347  21919781.9064                   21919783.3204
        45.2504         42.7504
   9104362.37546   7080804.80545  23850591.4614                   23850595.8324
        41.5004         31.7504
    -43106.05147    -25281.92646  21065923.2814                   21065920.2274
        46.0004         37.7504
  -9745580.96148  -7579043.59448  20130225.8524                   20130222.0824
        48.0004         49.5004
   8893595.71547   6916671.41446  23156911.8204                   23156912.7234
        44.5004         39.5004
  -5807183.26246  -4503407.48445  23807426.2664                   23807432.6954
        37.5004         31.0004
  -2862783.53945  -2220414.34444  24264335.7114                   24264337.6294
        34.7504         26.0004
  -5993770.75046  -4508035.28144  23426294.0704                   23426296.9454
        41.5004         27.5004
 25  8  7 22 15  0.0000000  0 10G01G02G03G10G28G31G32G26G25G04
  -7833775.56247  -6084792.34446  21045160.4064                   21045158.0044
        46.5004         37.0004
   1414920.38347   1107152.84446  21692482.6094                   21692478.7384
        47.0004         38.0004
 -12564805.28547  -9854741.53147  21900166.6644                   21900167.5124
        45.0004         42.2504
   9165942.40247   7128789.02345  23862311.1334                   23862314.4734
        42.0004         33.5004
    -21744.95747     -8636.91846  21069988.2114                   21069985.1094
        47.0004         38.0004
  -9792371.62148  -7615503.81248  20121321.6804                   20121318.3524
        48.7504         49.5004
   8941457.28147   6953966.09846  23166019.4534                   23166019.9224
        44.5004         39.0004
  -5919258.14846  -4590738.31245  23786100.5944                   23786105.2774
        40.7504         34.5004
  -2866716.59046  -2223479.00044  24263587.9844                   24263588.7234
        36.5004         27.2504
  -6087731.97746  -4581251.61344  23408413.6564                   23408416.2974
        41.7504         27.0004
 25  8  7 22 15 30.0000000  0 10G01G02G03G10G28G31G32G26G25G04
  -7868480.73047  -6111835.32446  21038556.1724                   21038554.0984
        46.0004         37.5004
   1441223.25847   1127648.54346  21697487.4534                   21697484.0984
        47.5004         37.2504
 -12667830.07847  -9935020.51247  21880561.3914                   21880562.3164
        44.5004         42.2504
   9227667.34446   7176886.16845  23874056.7194                   23874059.8954
        40.7504         32.2504
        39.73847      8338.15646  21074133.9924                   21074130.9614
        47.2504         37.5004
  -9838622.99648  -7651543.80948  20112520.2734                   20112516.8874
        48.5004         49.7504
   8989273.20747   6991225.21146  23175119.4694                   23175119.0784
        45.2504         39.5004
  -6031346.87146  -4678079.87145  23764767.6724                   23764776.4884
        36.0004         32.0004
  -2870181.42246  -2226178.92244  24262928.2894                   24262929.8404
        36.0004         28.5004
  -6181635.36746  -4654422.90244  23390544.0704                   23390547.4884
        40.7504         26.0004
 25  8  7 22 16  0.0000000  0 10G01G02G03G10G28G31G32G26G25G04
  -7902682.85247  -6138486.32046  21032048.0314                   21032045.8054
        47.0004         37.0004
   1467875.09447   1148416.14846  21702559.4304                   21702555.9654
        47.5004         37.7504
 -12770800.93447 -10015257.45747  21860966.7894                   21860967.3324
        45.2504         42.2504
   9289532.70746   7225092.72345  23885828.5634                   23885833.1604
        39.7504         33.5004
     22242.38347     25638.91846  21078358.9694                   21078355.9964
        46.5004         37.2504
  -9884338.18448  -7687165.98848  20103820.9384                   20103817.4534
        49.0004         49.7504
   9037039.26647   7028445.49646  23184207.9924                   23184208.8754
        43.2504         39.5004
  -6143450.13746  -4765432.78145  23743437.4614                   23743442.7664
        41.0004         33.7504
  -2873181.90645  -2228516.93744  24262356.1564                   24262358.2304
        35.7504         26.0004
  -6275484.78146  -4727552.10244  23372685.2194                   23372687.9384
        41.5004         26.5004
 25  8  7 22 16 30.0000000  0 10G01G02G03G10G28G31G32G26G25G04
  -7936380.55147  -6164744.26646  21025635.7664                   21025633.3364
        47.5004         37.0004
   1494874.82447   1169454.84446  21707697.1484                   21707694.0514
        47.7504         37.0004
 -12873715.08647 -10095450.21547  21841382.4384                   21841383.2234
        45.0004         42.5004
   9351538.80547   7273408.96546  23897629.6724                   23897633.1334
        42.0004         36.0004
     44861.91047     43264.51246  21082663.2734                   21082660.1254
        46.7504         37.7504
  -9929516.00448  -7722369.44948  20095224.1804                   20095220.3524
        48.7504         49.5004
   9084755.80947   7065627.17646  23193288.7344                   23193288.5594
        44.0004         39.0004
  -6255563.83246  -4852793.80145  23722101.3834                   23722107.8164
        37.2504         30.7504
  -2875717.20346  -2230492.49644  24261874.6804                   24261875.9844
        37.5004         28.0004
  -6369279.27346  -4800638.50844  23354836.6024                   23354838.9774
        40.7504         25.5004
 25  8  7 22 17  0.0000000  0 10G01G02G03G10G28G31G32G26G25G04
  -7969568.03147  -6190604.62946  21019320.0554                   21019317.8714
        47.0004         37.0004
   1522226.20747   1190767.54746  21712902.6484                   21712898.8444
        47.5004         37.0004
 -12976565.27347 -10175593.12947  21821810.7504                   21821811.1844
        45.5004         42.2504
   9413690.26646   7321838.43845  23909455.7664                   23909460.3634
        40.2504         34.7504
     67901.76648     61217.64846  21087047.2894                   21087044.5004
        48.0004         38.0004
  -9974150.60248  -7757149.61748  20086729.9694                   20086726.5514
        48.5004         49.5004
   9132427.77347   7102774.11746  23202361.0004                   23202360.2384
        44.5004         39.0004
  -6367679.41846  -4940156.36345  23700767.3134                   23700772.6884
        38.2504         31.2504
  -2877782.02046  -2232101.46144  24261480.8364                   24261483.5984
        36.0004         27.0004
  -6463013.48446  -4873677.94944  23336998.9454                   23337001.9264
        39.7504         25.5004
 25  8  7 22 17 30.0000000  0 10G01G02G03G10G28G31G32G26G25G04
  -8002246.96947  -6216068.73046  21013101.3674                   21013099.4654
        47.5004         37.5004
   1549925.50847   1212351.36346  21718173.2734                   21718169.4184
        46.7504         37.2504
 -13079351.77347 -10255686.41447  21802251.2114                   21802251.4144
        44.5004         42.5004
   9475984.21546   7370379.03546  23921310.1884                   23921314.0704
        40.2504         36.0004
     91357.88747     79495.14546  21091510.8204                   21091507.9494
        46.5004         38.0004
 -10018243.70748  -7791507.84048  20078339.3444                   20078335.9454
        48.0004         49.7504
   9180052.52347   7139884.28146  23211423.5394                   23211423.5204
        43.2504         39.5004
  -6479796.08246  -5027519.73445  23679431.5704                   23679438.1644
        39.5004         32.0004
  -2879378.65645  -2233345.60244  24261177.5394                   24261179.8204
        35.7504         26.7504
  -6556689.55946  -4946672.09044  23319173.0394                   23319175.8524
        39.5004         24.2504
 25  8  7 22 18  0.0000000  0 10G01G02G03G10G28G31G32G26G25G04
  -8034418.03547  -6241137.09446  21006979.2194                   21006977.2934
        47.2504         37.7504
   1577969.71947   1234203.94546  21723509.8444                   21723506.7464
        47.5004         37.5004
 -13182073.76647 -10335729.44147  21782703.7424                   21782703.9844
        45.5004         42.5004
   9538419.08647   7419029.32846  23933192.1484                   23933195.7384
        42.7504         37.5004
    115227.27747     98094.66846  21096053.1094                   21096050.3094
        47.2504         37.5004
 -10061795.85548  -7825444.53548  20070051.9924                   20070048.0354
        49.0004         50.0004
   9227628.56647   7176956.48846  23220476.8834                   23220476.7664
        44.5004         39.2504
  -6591911.46946  -5114882.07444  23658096.0864                   23658102.8054
        36.5004         27.2504
  -2880508.28146  -2234225.82044  24260962.8134                   24260964.5904
        36.2504         27.2504
  -6650308.41446  -5019621.64144  23301358.2894                   23301360.6374
        40.5004         26.5004
 25  8  7 22 18 30.0000000  0 10G01G02G03G10G28G31G32G26G25G04
  -8066081.72747  -6265810.10246  21000953.4534                   21000952.0664
        47.7504         36.7504
   1606355.87147   1256322.96946  21728912.0474                   21728907.8834
        47.7504         37.0004
 -13284730.29747 -10415721.45347  21763169.5314                   21763169.2344
        45.5004         42.5004
   9600993.08247   7467788.04346  23945099.2584                   23945102.6564
        42.5004         36.7504
    139506.99247    117013.92246  21100673.3754                   21100670.7384
        47.5004         37.5004
 -10104807.71548  -7858960.22748  20061867.3284                   20061863.3284
        48.7504         50.0004
   9275154.48847   7213989.64146  23229520.3444                   23229520.2234
        44.2504         39.2504
  -6704023.48046  -5202241.92645  23636762.8524                   23636768.3054
        39.5004         32.0004
  -2881171.94145  -2234742.94544  24260835.4844                   24260837.3404
        34.7504         24.5004
  -6743871.14546  -5092527.46543  23283554.0474                   23283555.9884
        39.0004         22.5004
 25  8  7 22 19  0.0000000  0 10G01G02G03G10G28G31G32G26G25G04
  -8097239.34447  -6290088.76246  20995025.0474                   20995022.8164
        47.0004         37.5004
   1635080.16447   1278705.47346  21734378.4064                   21734374.0124
        47.2504         37.2504
 -13387321.18047 -10495662.32047  21743646.1884                   21743647.3324
        46.0004         42.5004
   9663703.78546   7516653.32046  23957032.3204                   23957036.9414
        41.2504         37.0004
    164193.38347    136250.07046  21105371.1644                   21105368.4414
        46.5004         38.0004
 -10147280.59448  -7892055.93748  20053784.1484                   20053780.8984
        49.2504         50.0004
   9322628.16847   7250982.09046  23238554.3914                   23238554.4844
        44.7504         39.0004
  -6816130.58245  -5289597.74244  23615426.7344                   23615436.0164
        35.0004         28.2504
  -2881371.58245  -2234898.49244  24260798.0084                   24260799.3364
        35.0004         26.2504
  -6837379.31646  -5165390.78144  23265759.4774                   23265761.5274
        39.2504         25.0004
 25  8  7 22 19 30.0000000  0 10G01G02G03G10G28G31G32G26G25G04
  -8127886.82447  -6313969.91446  20989192.6724                   20989190.9454
        47.0004         37.0004
   1664145.01247   1301353.35946  21739909.2584                   21739904.9064
        47.0004         37.5004
 -13489840.69147 -10575547.56247  21724137.5314                   21724137.9694
        45.2504         42.5004
   9726554.36747   7565627.56346  23968993.5314                   23968998.1914
        42.7504         38.2504
    189288.13347    155804.41846  21110146.4614                   21110143.4304
        47.0004         37.5004
 -10189210.43448  -7924728.50048  20045805.3134                   20045801.7814
        48.7504         49.7504
   9370052.85547   7287936.35546  23247579.6954                   23247579.7934
        45.0004         39.2504
  -6928225.78146  -5376944.58244  23594097.5004                   23594100.7504
        39.2504         29.7504
  -2881103.72746  -2234689.77344  24260848.9534                   24260852.4184
        37.0004         27.5004
  -6930829.27346  -5238208.74643  23247975.2034                   23247978.4804
        39.5004         22.5004
 25  8  7 22 20  0.0000000  0 10G01G02G03G10G28G31G32G26G25G04
  -8158030.24647  -6337458.30146  20983456.7664                   20983454.2384
        47.2504         37.5004
   1693541.99647   1324260.04346  21745502.6724                   21745499.1374
        47.2504         38.0004
 -13592293.40247 -10655380.76247  21704641.0864                   21704641.4264
        45.5004         43.0004
   9789537.55546   7614705.15245  23980977.3594                   23980982.1764
        39.2504         33.7504
    214782.87547    175670.44146  21114998.0394                   21114994.7344
        46.5004         37.7504
 -10230603.29748  -7956982.63748  20037928.5234                   20037925.1054
        48.7504         50.0004
   9417421.76247   7324847.14846  23256594.1334                   23256594.0354
        44.5004         39.5004
  -7040312.48846  -5464284.49645  23572767.0944                   23572774.8714
        37.2504         31.2504
  -2880374.91445  -2234121.89844  24260988.5784                   24260990.0554
        35.0004         27.2504
  -7024227.33246  -5310986.26643  23230203.3204                   23230205.4774
        40.0004         22.5004
 25  8  7 22 20 30.0000000  0 10G01G02G03G10G28G31G32G26G25G04
  -8187667.92247  -6360552.58646  20977816.6174                   20977814.8954
        46.7504         37.0004
   1723270.50048   1347425.05946  21751160.2114                   21751156.5124
        48.0004         37.7504
 -13694675.89547 -10735159.23847  21685158.6414                   21685159.0824
        45.5004         43.5004
   9852654.12546   7663886.69546  23992989.1884                   23992993.4184
        41.2504         36.0004
    240676.94548    195847.63746  21119925.7114                   21119922.5784
        48.2504         37.5004
 -10271457.52048  -7988817.05948  20030154.1724                   20030150.8914
        48.2504         50.0004
   9464735.85247   7361715.22746  23265597.2114                   23265597.4224
        44.2504         39.5004
  -7152385.85246  -5551614.24245  23551441.8524                   23551445.9694
        39.0004         30.2504
  -2879184.06646  -2233193.93444  24261215.1484                   24261214.9224
        37.7504         27.0004
  -7117572.20746  -5383722.37544  23212439.6954                   23212442.2274
        39.5004         24.2504
 25  8  7 22 21  0.0000000  0 10G01G02G03G10G28G31G32G26G25G04
  -8216795.47347  -6383249.38746  20972273.6884                   20972271.9454
        47.0004         37.5004
   1753332.74647   1370850.12146  21756880.8754                   21756877.4804
        47.2504         37.2504
 -13796982.10947 -10814878.28547  21665690.5634                   21665690.6134
        45.0004         42.7504
   9915907.39146   7713174.66045  24005026.0394                   24005031.4184
        39.5004         35.5004
    266972.44947    216337.63346  21124929.4924                   21124926.2584
        47.7504         37.5004
 -10311768.84848  -8020228.44948  20022483.7814                   20022479.6804
        48.7504         50.0004
   9511998.85247   7398543.49246  23274590.4384                   23274590.7584
        43.2504         39.0004
  -7264438.79346  -5638927.94545  23530117.6334                   23530124.1214
        39.5004         33.0004
  -2877527.37146  -2231902.94144  24261530.5474                   24261532.0354
        37.2504         28.2504
  -7210859.64146  -5456413.70743  23194687.0234                   23194690.0474
        40.0004         23.7504
 25  8  7 22 21 30.0000000  0 10G01G02G03G10G28G31G32G26G25G04
  -6669985.06247  -5177942.57846  21266622.0634                   21266619.9574
        47.0004         37.5004
   3359152.35947   2622138.08246  22062458.0234                   22062454.3634
        47.0004         37.0004
 -12323780.14147  -9666928.61347  21946031.4064                   21946031.4964
        45.2504         42.7504
  11554721.09446   8990172.18045  24316881.2664                   24316886.2934
        39.0004         33.5004
   1869093.08647   1464743.31346  21429802.7894                   21429799.6954
        47.5004         37.5004
  -8776109.05148  -6823610.39548  20314709.6954                   20314706.3714
        48.5004         50.0004
  11134635.31347   8662935.47746  23583368.5634                   23583368.9574
        42.7504         39.7504
  -5801037.64846  -4498615.14544  23808592.3834                   23808597.5824
        36.2504         27.5004
  -1299978.61346  -1002644.19144  24561727.5704                   24561730.9304
        36.5004         28.7504
  -5728660.07046  -4301452.82844  23476741.1024                   23476742.7814
        40.7504         24.2504
 25  8  7 22 22  0.0000000  0 10G01G02G03G10G28G31G32G26G25G04
  -6698079.80147  -5199834.58646  21261275.8674                   21261273.8594
        46.5004         36.7504
   3389887.96947   2646087.84046  22068307.1954                   22068303.5004
        47.5004         37.0004
 -12425916.16447  -9746515.03947  21926595.4144                   21926595.7974
        46.0004         43.2504
  11618257.41046   9039680.75845  24328973.2344                   24328977.4064
        40.0004         33.5004
   1896197.19948   1485863.40646  21434960.3364                   21434957.7814
        48.2504         37.2504
  -8815321.67248  -6854165.65648  20307247.3364                   20307243.8674
        48.7504         49.7504
  11181806.69147   8699692.34846  23592344.4844                   23592345.0394
        44.2504         39.2504
  -5913028.01246  -4585880.14845  23787282.4064                   23787289.8134
        40.5004         35.0004
  -1297379.24245  -1000618.71944  24562221.1024                   24562223.8324
        34.5004         26.0004
  -5821820.95846  -4374045.57744  23459012.4384                   23459014.8874
        41.0004         26.0004
 25  8  7 22 22 30.0000000  0 10G01G02G03G10G28G31G32G26G25G04
  -6725664.05947  -5221328.82846  21256027.3914                   21256024.7704
        47.0004         36.2504
   3420951.23047   2670292.91846  22074218.7194                   22074214.7424
        47.5004         37.0004
 -12527970.45747  -9826037.78147  21907175.0394                   21907175.7974
        45.7504         43.0004
  11681927.88046   9089293.90845  24341088.9454                   24341093.6604
        38.5004         31.7504
   1923696.18447   1507291.17246  21440193.5394                   21440190.8794
        47.0004         37.2504
  -8853991.18048  -6884297.70748  20299889.0864                   20299885.7664
        48.7504         50.0004
  11228925.42247   8736408.20346  23601310.9064                   23601311.5824
        44.0004         38.7504
  -6024988.66846  -4673121.93445  23765977.0234                   23765980.7854
        40.2504         30.7504
  -1294315.34046   -998231.29344  24562806.2504                   24562807.0634
        37.0004         28.5004
  -5914924.80946  -4446593.88344  23441295.2974                   23441297.6294
        40.0004         25.5004
 25  8  7 22 23  0.0000000  0 10G01G02G03G10G28G31G32G26G25G04
  -6752733.51247  -5242421.91846  21250875.9224                   21250873.6414
        47.0004         37.0004
   3452344.16847   2694754.89846  22080191.9614                   22080188.2894
        47.5004         37.0004
 -12629936.74247  -9905491.94947  21887771.8204                   21887771.7114
        46.2504         43.2504
  11745735.81646   9139014.13745  24353231.6254                   24353237.1564
        39.0004         33.0004
   1951592.22747   1529028.35246  21445501.5234                   21445498.8554
        47.7504         37.5004
  -8892113.12548  -6914003.09448  20292634.4614                   20292630.9454
        49.2504         49.7504
  11275995.30547   8773085.97746  23610268.5554                   23610268.5744
        43.2504         38.0004
  -6136911.94946  -4760334.71945  23744677.5864                   23744685.2774
        36.2504         33.2504
  -1290783.16845   -995478.95344  24563477.9064                   24563478.3014
        35.0004         25.7504
  -6007967.43046  -4519094.48044  23423589.8674                   23423591.9264
        40.5004         24.2504
 25  8  7 22 23 30.0000000  0 10G01G02G03G10G28G31G32G26G25G04
  -6779292.27347  -5263117.06246  21245821.6024                   21245819.6134
        46.2504         37.2504
   3484060.50847   2719468.86746  22086227.5004                   22086223.6024
        46.5004         36.5004
 -12731817.44147  -9984879.42247  21868384.0164                   21868384.1954
        46.5004         43.2504
  11809676.29746   9188837.65245  24365399.1094                   24365403.4104
        38.7504         31.5004
   1979878.91847   1551069.92246  21450885.0004                   21450881.8404
        47.7504         37.2504
  -8929691.70748  -6943285.08648  20285483.6094                   20285480.0594
        49.0004         50.0004
  11323011.73447   8809722.08646  23619215.1174                   23619215.9384
        43.0004         37.7504
  -6248799.12546  -4847519.25845  23723387.0004                   23723390.6684
        40.5004         33.0004
  -1286787.37145   -992365.30544  24564237.7894                   24564238.1994
        34.2504         25.0004
  -6100953.14846  -4591550.73044  23405895.4384                   23405897.4884
        41.2504         25.5004
 25  8  7 22 24  0.0000000  0 10G01G02G03G10G28G31G32G26G25G04
  -6805336.16847  -5283411.01646  21240865.5314                   21240863.6214
        46.5004         37.2504
   3516102.19947   2744436.35946  22092324.8134                   22092321.6844
        47.0004         37.5004
 -12833606.44547 -10064195.43747  21849014.2504                   21849015.0004
        46.0004         43.5004
  11873752.38746   9238766.88744  24377591.1334                   24377597.6524
        37.5004         29.5004
   2008558.14147   1573417.36346  21456342.1644                   21456339.1804
        47.5004         37.0004
  -8966722.87148  -6972140.51648  20278436.7344                   20278433.2424
        49.0004         50.0004
  11369978.28147   8846319.32846  23628152.1954                   23628152.9884
        43.2504         38.0004
  -6360642.93446  -4934670.06245  23702103.0164                   23702110.3054
        39.7504         35.5004
  -1282324.15245   -988887.49244  24565086.9924                   24565088.8164
        33.0004         25.5004
  -6193877.93446  -4663959.50844  23388212.6724                   23388213.9414
        41.5004         26.2504
 25  8  7 22 24 30.0000000  0 10G01G02G03G10G28G31G32G26G25G04
  -6830867.24647  -5303305.36346  21236007.5004                   21236005.5394
        45.0004         36.7504
   3548465.37547   2769654.35246  22098483.5084                   22098479.8914
        45.7504         36.2504
 -12935303.91847 -10143440.13347  21829661.5704                   21829662.3914
        46.0004         43.2504
  11937961.39546   9288799.62545  24389810.9844                   24389816.0204
        37.7504         30.0004
   2037625.68447   1596067.39846  21461873.5084                   21461870.3914
        44.7504         36.7504
  -9003208.61748  -7000570.93748  20271493.7504                   20271490.3054
        49.2504         49.7504
  11416892.53547   8882875.82846  23637080.4064                   23637080.3594
        44.0004         37.2504
  -6472442.12946  -5021786.10945  23680827.8754                   23680832.2344
        39.0004         31.7504
  -1277396.28145   -985047.63744  24566024.8594                   24566027.6054
        35.0004         26.7504
  -6286743.91046  -4736322.45744  23370540.4614                   23370542.7344
        41.5004         27.0004
 25  8  7 22 25  0.0000000  0 10G01G02G03G10G28G31G32G26G25G04
  -6855889.19947  -5322802.99246  21231245.3984                   21231243.5594
        46.0004         36.5004
   3581144.24647   2795118.35546  22104702.0084                   22104698.0634
        46.5004         37.0004
 -13036911.62547 -10222614.88747  21810326.0084                   21810326.7664
        46.7504         43.5004
  12002298.51646   9338932.25844  24402054.4924                   24402059.0664
        37.2504         29.5004
   2067075.63348   1619015.40646  21467477.4224                   21467474.7664
        48.0004         37.5004
  -9039152.58648  -7028579.19948  20264653.8914                   20264650.2344
        49.2504         50.0004
  11463750.31347   8919388.33246  23645996.6804                   23645997.2584
        43.0004         37.0004
  -6584197.43146  -5108867.95546  23659561.9774                   23659568.4344
        40.2504         36.7504
  -1272008.06646   -980849.06944  24567051.7814                   24567052.5394
        38.5004         28.2504
  -6379554.83246  -4808642.51244  23352878.6954                   23352880.7304
        41.2504         26.2504
 25  8  7 22 25 30.0000000  0 10G01G02G03G10G28G31G32G26G25G04
  -6880399.92647  -5341902.26646  21226582.2894                   21226579.5474
        46.0004         37.2504
   3614138.84047   2820828.36346  22110981.4064                   22110977.1454
        46.5004         36.5004
 -13138425.44147 -10301716.48847  21791009.0634                   21791009.3674
        46.2504         43.7504
  12066765.09846   9389165.71945  24414322.0554                   24414326.7894
        38.2504         30.0004
   2096907.95347   1642261.37946  21473154.8754                   21473151.8594
        47.2504         37.2504
  -9074552.97748  -7056163.89848  20257917.3524                   20257914.4304
        48.5004         50.0004
  11510553.34447   8955858.17246  23654903.3754                   23654903.4574
        42.5004         37.5004
  -6695903.34046  -5195911.27345  23638304.4614                   23638308.9614
        39.0004         33.0004
  -1266157.75845   -976290.29743  24568162.1414                   24568162.8794
        35.0004         22.2504
  -6472308.69946  -4880918.09844  23335228.3834                   23335230.0434
        41.0004         26.7504
 25  8  7 22 26  0.0000000  0 10G01G02G03G10G28G31G32G26G25G04
  -6904402.06247  -5360605.24646  21222014.0554                   21222011.9844
        47.2504         37.2504
   3647444.29347   2846780.60946  22117318.7814                   22117314.6684
        45.2504         36.5004
 -13239846.05147 -10380745.46147  21771709.2344                   21771709.1844
        46.2504         44.0004
  12131357.69146   9439497.42244  24426613.7584                   24426619.0274
        36.7504         29.2504
   2127117.83247   1665801.53546  21478902.9534                   21478900.5044
        45.5004         37.0004
  -9109412.21948  -7083326.92248  20251284.0864                   20251280.4924
        48.7504         50.0004
  11557298.70347   8992283.05946  23663799.0084                   23663799.3134
        43.5004         37.7504
  -6807559.34046  -5282915.77745  23617057.6094                   23617062.6604
        40.2504         34.7504
  -1259848.61746   -971374.13744  24569364.9064                   24569365.5004
        37.2504         26.7504
  -6565008.14146  -4953151.27344  23317587.5784                   23317590.1764
        40.5004         28.0004
 25  8  7 22 26 30.0000000  0 10G01G02G03G10G28G31G32G26G25G04
  -6927885.75447  -5378904.22346  21217545.5234                   21217543.0474
        47.2504         37.2504
   3681068.27347   2872981.04745  22123717.4064                   22123713.8134
        46.0004         35.2504
 -13341161.54747 -10459692.52347  21752429.4614                   21752429.8754
        46.2504         44.0004
  12196085.31346   9489934.30545  24438931.0474                   24438936.6454
        38.5004         31.2504
   2157712.92247   1689641.86346  21484725.5394                   21484722.2974
        46.5004         37.0004
  -9143720.29348  -7110060.46148  20244755.3204                   20244751.6454
        48.2504         50.0004
  11603995.83647   9028670.39146  23672685.5004                   23672685.4024
        45.0004         38.2504
  -6919152.44146  -5369871.19945  23595821.7504                   23595825.9694
        40.5004         35.0004
  -1253071.46546   -966093.27344  24570654.2734                   24570657.2304
        36.5004         25.7504
  -6657643.37946  -5025334.41044  23299960.2584                   23299961.8834
        40.5004         27.7504
 25  8  7 22 27  0.0000000  0 10G01G02G03G10G28G31G32G26G25G04
  -6950847.47747  -5396796.48046  21213175.7114                   21213173.6374
        46.5004         37.2504
   3715012.54347   2899431.06645  22130176.5394                   22130172.9774
        45.5004         35.0004
 -13442366.32447 -10538553.31647  21733170.5234                   21733170.8594
        47.0004         44.0004
  12260950.67246   9540478.57845  24451273.8284                   24451279.3914
        38.0004         30.0004
   2188694.68047   1713783.48846  21490620.4304                   21490618.1804
        47.0004         37.5004
  -9177473.99648  -7136362.02348  20238332.2974                   20238328.9064
        48.7504         50.0004
  11650648.03147   9065022.69146  23681562.7504                   23681563.4454
        43.7504         38.2504
  -7030675.66846  -5456772.20745  23574598.2974                   23574604.8204
        37.5004         33.2504
  -1245823.12946   -960445.22743  24572032.5864                   24572034.0204
        36.2504         22.5004
  -6750210.82446  -5097464.73844  23282344.7344                   23282346.9804
        41.5004         27.5004
 25  8  7 22 27 30.0000000  0 10G01G02G03G10G28G31G32G26G25G04
  -6973289.14547  -5414283.50046  21208905.2344                   21208903.4224
        45.7504         37.0004
   3749273.03147   2926127.49246  22136695.6094                   22136692.4344
        45.0004         36.2504
 -13543460.14847 -10617327.66447  21713933.2114                   21713933.3204
        47.0004         44.2504
  12325951.09846   9591128.03145  24463643.7344                   24463649.6334
        39.0004         33.0004
   2220058.99647   1738223.21946  21496589.4224                   21496586.6914
        46.0004         36.7504
  -9210675.22748  -7162233.07848  20232014.3134                   20232010.8164
        48.7504         50.0004
  11697253.12547   9101338.31646  23690430.9844                   23690431.5164
        43.2504         37.5004
  -7142127.67246  -5543617.73045  23553390.2114                   23553394.3364
        39.5004         32.0004
  -1238106.11345   -954431.95344  24573501.6174                   24573502.6914
        35.2504         25.0004
  -6842712.41846  -5169543.73444  23264742.5634                   23264743.9964
        41.5004         27.5004
 25  8  7 22 28  0.0000000  0 10G01G02G03G10G28G31G32G26G25G04
  -6995214.06247  -5431367.85946  21204733.1954                   21204731.3364
        45.7504         37.2504
   3783844.41047   2953066.16446  22143275.1174                   22143271.4064
        46.5004         36.0004
 -13644444.28947 -10696016.53547  21694716.1414                   21694716.6094
        47.0004         44.5004
  12391082.47346   9641879.50845  24476038.9774                   24476044.0394
        39.5004         32.5004
   2251800.41447   1762956.79346  21502629.8444                   21502626.6804
        46.7504         36.7504
  -9243327.46948  -7187676.35948  20225800.5234                   20225796.9574
        48.5004         50.0004
  11743807.50047   9137614.41846  23699289.9844                   23699291.0124
        43.5004         37.0004
  -7253508.46946  -5630407.72745  23532195.8444                   23532200.9104
        40.5004         35.5004
  -1229924.28946   -948056.49244  24575059.0234                   24575059.0314
        37.5004         26.0004
  -6935151.37546  -5241573.94944  23247151.2344                   23247153.6214
        41.2504         27.2504
 25  8  7 22 28 30.0000000  0 10G01G02G03G10G28G31G32G26G25G04
  -7016626.36347  -5448052.77746  21200658.5164                   21200656.4804
        47.5004         37.5004
   3818720.74247   2980242.46146  22149911.9534                   22149908.2894
        46.0004         36.0004
 -13745320.64547 -10774621.43047  21675520.7664                   21675520.6094
        46.7504         44.5004
  12456339.88746   9692729.28545  24488456.7114                   24488461.2274
        39.5004         32.5004
   2283912.80547   1787979.43046  21508740.1094                   21508737.5124
        47.0004         37.5004
  -9275434.80948  -7212695.04348  20219690.8524                   20219687.2154
        49.0004         50.0004
  11790306.89547   9173847.66846  23708139.1884                   23708139.1954
        44.5004         38.2504
  -7364818.83246  -5717142.86345  23511013.4224                   23511018.0634
        39.5004         34.5004
  -1221282.37946   -941322.56244  24576702.7034                   24576705.6724
        36.0004         25.7504
  -7027531.74646  -5313558.50844  23229571.4304                   23229573.8244
        41.5004         27.0004
 25  8  7 22 29  0.0000000  0 10G01G02G03G10G28G31G32G26G25G04
  -7037520.03147  -5464333.56246  21196682.8054                   21196680.2584
        45.7504         36.7504
   3853905.56647   3007659.13745  22156607.0004                   22156603.5634
        46.7504         35.7504
 -13846081.01647 -10853135.94147  21656346.2894                   21656346.3524
        46.5004         44.5004
  12521728.68046   9743681.30545  24500899.2504                   24500905.2074
        38.7504         32.5004
   2316400.09047   1813294.19546  21514922.4614                   21514919.8524
        46.0004         37.0004
  -9306991.43448  -7237284.59848  20213685.9454                   20213682.0944
        48.7504         50.0004
  11836757.14547   9210042.64146  23716978.1884                   23716978.4924
        44.0004         38.0004
  -7476049.22346  -5803815.65245  23489846.1564                   23489852.0784
        40.5004         35.5004
  -1212174.66046   -934225.73044  24578436.6804                   24578437.9494
        36.5004         24.5004
  -7119847.39546  -5385492.63344  23212004.2734                   23212007.1954
        40.5004         28.0004
 25  8  7 22 29 30.0000000  0 10G01G02G03G10G28G31G32G26G25G04
  -7057897.00047  -5480211.72346  21192805.3914                   21192803.1604
        47.0004         37.5004
   3889395.33647   3035313.43445  22163360.2734                   22163357.0354
        46.5004         35.5004
 -13946725.05147 -10931559.80947  21637194.4144                   21637194.1954
        47.0004         44.5004
  12587246.11746   9794733.70345  24513368.0004                   24513372.4104
        40.0004         30.7504
   2349258.29747   1838897.99246  21521175.3754                   21521172.4104
        47.0004         37.2504
  -9337999.10548  -7261446.39148  20207785.1564                   20207781.5124
        49.0004         50.0004
  11883156.21547   9246197.71946  23725807.9144                   23725808.0904
        43.2504         36.5004
  -7587198.21146  -5890425.06645  23468695.5554                   23468700.3164
        39.0004         34.0004
  -1202603.82046   -926767.86343  24580257.3984                   24580257.5864
        37.0004         23.7504
  -7212100.12547  -5457377.72744  23194449.6174                   23194451.4494
        42.0004         27.2504
 25  8  7 22 30  0.0000000  0 10G01G02G03G10G28G31G32G26G25G04
  -7077754.84847  -5495685.38346  21189026.2664                   21189024.2384
        46.7504         37.2504
   3925190.43047   3063205.64145  22170172.4694                   22170169.0784
        46.5004         35.0004
 -14047248.19947 -11009889.48447  21618065.3524                   21618065.2114
        47.5004         44.5004
  12652894.01246   9845887.64545  24525859.4384                   24525865.6334
        38.2504         32.2504
   2382487.68847   1864791.02046  21527498.6954                   21527495.9534
        46.2504         36.5004
  -9368455.43448  -7285178.57448  20201989.6094                   20201986.1604
        48.5004         50.0004
  11929506.35947   9282314.66046  23734628.1094                   23734628.0864
        44.5004         36.5004
  -7698260.02346  -5976966.46945  23447560.0554                   23447566.0474
        38.7504         35.0004
  -1192567.96546   -918947.81244  24582168.1094                   24582168.9734
        38.5004         26.7504
  -7304287.41046  -5529211.83644  23176907.1884                   23176908.7114
        41.5004         27.0004
 25  8  7 22 30 30.0000000  0 10G01G02G03G10G28G31G32G26G25G04
  -7097103.06647  -5510761.92246  21185344.5864                   21185342.1094
        47.2504         37.2504
   3961279.32447   3091326.79345  22177039.8914                   22177036.4614
        46.2504         35.5004
 -14147657.46947 -11088130.42647  21598957.8984                   21598957.8984
        47.0004         44.7504
  12718662.09846   9897135.30145  24538375.7974                   24538381.0704
        39.5004         33.0004
   2416076.79347   1890964.34046  21533890.2814                   21533887.5864
        45.0004         37.0004
  -9398370.09848  -7308488.67648  20196296.7584                   20196293.5044
        48.5004         50.2504
  11975798.06347   9318386.07046  23743436.7664                   23743436.3754
        43.5004         36.2504
  -7809240.54746  -6063444.56245  23426442.6884                   23426447.4964
        39.5004         35.7504
  -1182077.07846   -910773.09043  24584163.2034                   24584164.2384
        37.0004         22.7504
  -7396418.54746  -5601002.19144  23159374.8284                   23159376.2774
        41.7504         27.5004
 25  8  7 22 31  0.0000000  0 10G01G02G03G10G28G31G32G26G25G04
  -7115938.75447  -5525439.09046  21181760.0084                   21181757.8284
        47.5004         37.5004
   3997663.03547   3119677.66045  22183964.0164                   22183960.1374
        47.0004         35.7504
 -14247947.76647 -11166278.66047  21579873.2274                   21579873.0704
        46.7504         44.7504
  12784552.68846   9948478.38345  24550914.1094                   24550919.4304
        37.2504         30.5004
   2450026.55547   1917418.69946  21540350.6954                   21540347.8914
        45.0004         36.7504
  -9427740.21148  -7331374.46148  20190708.0554                   20190704.4184
        48.0004         50.0004
  12022034.20747   9354414.17646  23752236.0234                   23752234.9384
        44.0004         36.5004
  -7920133.33646  -6149854.32445  23405338.9694                   23405344.0274
        37.2504         32.5004
  -1171128.66446   -902241.86744  24586246.7734                   24586248.1134
        37.7504         25.0004
  -7488490.35246  -5672746.33644  23141853.5004                   23141856.0234
        41.5004         27.7504
 25  8  7 22 31 30.0000000  0 10G01G02G03G10G28G31G32G26G25G04
  -7134263.38747  -5539718.02746  21178273.2664                   21178271.2424
        47.5004         37.2504
   4034338.14847   3148255.59846  22190943.2194                   22190939.5664
        47.0004         36.0004
 -14348118.15247 -11244333.45347  21560811.2194                   21560811.5004
        47.7504         44.2504
  12850563.57046   9999915.19145  24563475.7734                   24563481.3834
        39.0004         32.5004
   2484333.37547   1944151.27746  21546879.2584                   21546876.1604
        46.0004         36.0004
  -9456567.12148  -7353836.96148  20185222.0234                   20185218.8874
        48.5004         50.0004
  12068213.25847   9390397.82446  23761023.4844                   23761022.6564
        44.5004         36.0004
  -8030936.47346  -6236194.21545  23384255.0554                   23384259.2424
        40.5004         35.5004
  -1159724.89846   -893355.89544  24588417.4534                   24588418.5204
        38.2504         25.2504
  -7580504.22747  -5744445.32444  23124344.2814                   23124345.9264
        42.0004         26.7504
 25  8  7 22 32  0.0000000  0 10G01G02G03G10G28G31G32G26G25G04
  -7152069.67247  -5553593.06646  21174884.6564                   21174882.7544
        47.5004         37.5004
   4071310.12147   3177064.85246  22197978.4304                   22197975.0824
        46.2504         36.2504
 -14448158.88747 -11322287.21547  21541774.2504                   21541774.3554
        47.0004         44.7504
  12916701.48846  10051450.94545  24576061.2274                   24576068.1764
        36.5004         30.0004
   2519002.71547   1971166.34046  21553476.0084                   21553473.5904
        47.0004         36.5004
  -9484843.87547  -7375870.77748  20179841.3674                   20179838.0824
        47.2504         49.7504
  12114342.61746   9426342.73845  23769800.2814                   23769801.0474
        41.7504         35.2504
  -8141639.02346  -6322455.65645  23363188.4774                   23363192.2154
        40.5004         35.5004
  -1147858.83246   -884109.60944  24590674.6564                   24590676.1374
        37.5004         25.5004
  -7672452.53146  -5816093.23844  23106846.6564                   23106848.7154
        41.7504         26.0004
 25  8  7 22 32 30.0000000  0 10G01G02G03G10G28G31G32G26G25G04
  -7169355.41847  -5567062.49246  21171594.9924                   21171593.2074
        46.7504         37.2504
   4108579.22347   3206105.63346  22205070.4454                   22205066.9344
        45.5004         36.2504
 -14548065.35947 -11400136.35547  21522762.7034                   21522762.6054
        46.7504         45.0004
  12982968.04346  10103087.02345  24588672.2974                   24588677.5904
        38.2504         31.7504
   2554034.72747   1998464.01246  21560143.2734                   21560139.8984
        46.5004         37.0004
  -9512568.04748  -7397474.00448  20174565.7274                   20174562.0634
        48.5004         50.0004
  12160424.52347   9462250.64846  23778569.7734                   23778570.7664
        42.0004         36.2504
  -8252235.15246  -6408634.24645  23342141.9224                   23342147.0044
        38.2504         34.5004
  -1135528.84046   -874501.83644  24593021.9304                   24593023.7424
        39.2504         28.5004
  -7764332.78547  -5887688.10944  23089362.8364                   23089364.1684
        42.2504         28.0004
 25  8  7 22 33  0.0000000  0 10G01G02G03G10G28G31G32G26G25G04
  -7186124.91847  -5580129.64146  21168404.0474                   21168401.9844
        47.5004         37.0004
   4146139.12147   3235373.01245  22212217.6644                   22212214.5354
        46.2504         35.5004
 -14647839.47747 -11477882.37147  21503776.3834                   21503775.8134
        46.7504         44.5004
  13049358.14545  10154819.30944  24601304.9144                   24601311.6094
        35.0004         29.2504
   2589423.15247   2026039.40246  21566876.8834                   21566873.9614
        46.5004         36.7504
  -9539744.29348  -7418650.27348  20169394.2274                   20169390.4264
        48.5004         49.7504
  12206454.78947   9498118.31646  23787329.9384                   23787330.0204
        42.7504         36.0004
  -8362725.67646  -6494730.49645  23321116.9304                   23321121.0904
        40.0004         34.7504
  -1122739.85946   -864536.40244  24595454.7424                   24595457.1914
        38.2504         26.7504
  -7856149.05546  -5959233.12944  23071891.0784                   23071891.7544
        41.7504         27.2504
 25  8  7 22 33 30.0000000  0 10G01G02G03G10G28G31G32G26G25G04
  -7202369.94947  -5592788.10946  21165312.8204                   21165311.0634
        46.7504         37.0004
   4183996.27347   3264872.01246  22219422.1334                   22219418.5784
        45.2504         36.0004
 -14747470.44947 -11555516.83647  21484817.1484                   21484817.0274
        46.7504         44.7504
  13115879.71145  10206653.94944  24613964.4384                   24613970.6684
        35.0004         27.5004
   2625174.35247   2053897.47346  21573680.5704                   21573677.4494
        44.7504         36.5004
  -9566364.22747  -7439393.05148  20164328.3754                   20164324.7304
        46.5004         49.7504
  12252441.69547   9533952.22746  23796080.4534                   23796081.1214
        42.0004         36.2504
  -8473098.52046  -6580735.05945  23300114.0864                   23300117.4964
        41.2504         35.0004
  -1109484.02346   -854207.20344  24597977.7894                   24597978.5554
        38.2504         24.7504
  -7947892.75446  -6030721.60944  23054432.2274                   23054433.7894
        41.7504         27.5004
 25  8  7 22 34  0.0000000  0 10G01G02G03G10G28G31G32G26G25G04
  -7218094.53947  -5605041.05146  21162320.5004                   21162318.2624
        47.2504         37.2504
   4222144.90647   3294598.14146  22226681.6884                   22226678.0044
        47.2504         36.2504
 -14846959.80147 -11633040.94547  21465884.4454                   21465884.6564
        47.2504         44.7504
  13182527.96146  10258587.47344  24626647.5394                   24626653.4844
        37.2504         29.2504
   2661282.34847   2082033.57446  21580551.5634                   21580548.5664
        46.0004         36.7504
  -9592432.04748  -7459705.60948  20159368.1484                   20159364.2274
        48.0004         50.0004
  12298381.48447   9569749.42246  23804822.8284                   23804822.7274
        42.7504         36.5004
  -8583354.17646  -6666648.29345  23279132.3984                   23279135.5664
        40.5004         34.0004
  -1095765.89546   -843517.74244  24600588.3444                   24600589.2424
        38.5004         25.2504
  -8039567.46547  -6102156.32844  23036987.8754                   23036988.4534
        42.7504         27.2504
 25  8  7 22 34 30.0000000  0 10G01G02G03G10G28G31G32G26G25G04
  -7233307.32847  -5616895.19146  21159425.5784                   21159423.8914
        47.0004         37.2504
   4260574.24247   3324543.00445  22233994.3594                   22233991.1954
        46.5004         35.5004
 -14946313.57447 -11710459.41847  21446978.3444                   21446978.0824
        47.2504         44.5004
  13249293.93445  10310612.57845  24639353.5784                   24639359.2194
        34.5004         30.0004
   2697736.62147   2110439.48846  21587488.5164                   21587485.3794
        45.7504         36.5004
  -9617956.46547  -7479594.73848  20154510.9774                   20154506.9774
        47.5004         50.0004
  12344265.70347   9605503.30946  23813554.2034                   23813555.2234
        42.5004         36.2504
  -8693497.51546  -6752474.05245  23258172.2114                   23258176.6254
        40.0004         33.7504
  -1081594.60546   -832475.21944  24603284.8204                   24603286.4264
        38.7504         24.7504
  -8131181.57047  -6173543.81644  23019553.1174                   23019554.7624
        42.2504         28.0004
 25  8  7 22 35  0.0000000  0 10G01G02G03G10G28G31G32G26G25G04
  -7248004.31247  -5628347.39546  21156628.8674                   21156626.8984
        47.5004         37.2504
   4299286.77747   3354708.53146  22241361.4534                   22241357.6564
        46.0004         36.0004
 -15045525.15247 -11787767.08247  21428099.1414                   21428099.1134
        47.5004         44.5004
  13316180.74645  10362731.92644  24652081.3754                   24652087.3134
        35.7504         25.5004
   2734539.24647   2139116.85246  21594491.8834                   21594488.8484
        45.7504         36.2504
  -9642933.35547  -7499057.22748  20149757.9614                   20149754.1844
        47.5004         50.0004
  12390098.60947   9641217.20346  23822275.8444                   23822276.7854
        43.0004         36.5004
  -8803520.87546  -6838206.28946  23237235.2814                   23237239.4454
        40.7504         36.0004
  -1066966.65646   -821076.80944  24606068.6564                   24606070.6024
        39.2504         26.0004
  -8222730.62947  -6244880.60944  23002132.1024                   23002132.9924
        42.5004         28.0004
 25  8  7 22 35 30.0000000  0 10G01G02G03G10G28G31G32G26G25G04
  -7262187.94947  -5639399.60246  21153930.2114                   21153927.9064
        47.5004         37.2504
   4338278.14847   3385091.33645  22248780.8284                   22248777.4024
        45.2504         35.5004
 -15144594.48047 -11864963.89847  21409246.6254                   21409246.6254
        47.2504         45.0004
  13383185.83245  10414943.38744  24664831.0784                   24664838.0634
        33.5004         24.7504
   2771685.97347   2168062.33646  21601560.5314                   21601557.6644
        45.0004         37.2504
  -9667365.27747  -7518095.05948  20145108.5554                   20145104.9384
        47.2504         50.0004
  12435877.82847   9676889.26245  23830987.2194                   23830988.5514
        43.0004         35.5004
  -8913422.93046  -6923844.02045  23216320.4844                   23216325.5514
        40.0004         34.5004
  -1051885.11346   -809324.93443  24608937.7034                   24608939.7034
        38.0004         23.2504
  -8314216.71547  -6316168.33244  22984723.1884                   22984723.7814
        42.7504         27.5004
 25  8  7 22 36  0.0000000  0 10G01G02G03G10G28G31G32G26G25G04
  -7275845.40247  -5650041.78546  21151330.6174                   21151329.1684
        47.0004         37.0004
   4377559.36347   3415699.99245  22256256.5234                   22256252.7664
        45.5004         34.7504
 -15243505.95747 -11942037.72347  21390424.4924                   21390424.1134
        47.7504         45.0004
  13450321.30146  10467256.53145  24677607.3134                   24677614.1374
        37.0004         31.0004
   2809187.82847   2197284.55946  21608696.8054                   21608694.1564
        44.5004         36.0004
  -9691239.53547  -7536698.34848  20140565.6484                   20140561.8634
        47.5004         50.0004
  12481616.71547   9712529.89846  23839691.5864                   23839691.5554
        42.7504         36.2504
  -9023187.02346  -7009374.21145  23195434.0394                   23195438.4224
        40.2504         35.7504
  -1036337.42646   -797209.80544  24611897.1804                   24611898.6484
        38.5004         27.5004
  -8405626.45347  -6387396.55544  22967328.7974                   22967329.4104
        43.0004         27.0004
 25  8  7 22 36 30.0000000  0 10G01G02G03G10G28G31G32G26G25G04
  -7288987.73847  -5660282.59046  21148830.2814                   21148828.0164
        47.0004         36.5004
   4417117.46547   3446524.40645  22263784.5164                   22263780.9494
        46.7504         35.7504
 -15342267.99247 -12018995.08247  21371630.3524                   21371630.5084
        47.7504         45.2504
  13517575.63746  10519662.20744  24690405.8914                   24690412.9654
        37.0004         28.5004
   2847031.86347   2226773.40246  21615898.4454                   21615895.5984
        45.0004         36.2504
  -9714567.30147  -7554875.80148  20136126.2664                   20136122.5824
        46.7504         50.0004
  12527304.34847   9748130.61745  23848385.0394                   23848385.7734
        42.0004         35.7504
  -9132820.40646  -7094802.57846  23174571.3914                   23174575.0124
        41.5004         36.7504
  -1020335.29346   -784740.60944  24614942.3054                   24614945.0554
        38.2504         28.0004
  -8496970.52747  -6458573.62544  22949945.7584                   22949946.8954
        42.2504         28.0004
 25  8  7 22 37  0.0000000  0 10G01G02G03G10G28G31G32G26G25G04
  -7301620.22747  -5670126.10946  21146426.2974                   21146424.3444
        47.0004         37.0004
   4456945.62547   3477559.25046  22271362.8674                   22271359.8984
        45.5004         36.0004
 -15440883.20347 -12095838.04747  21352864.7034                   21352864.4924
        47.2504         45.2504
  13584943.19146  10572156.16844  24703225.7344                   24703232.3204
        38.0004         29.7504
   2885210.98847   2256523.35546  21623163.6254                   21623160.8714
        45.7504         36.5004
  -9737353.98847  -7572631.64148  20131790.2194                   20131786.2624
        47.7504         50.0004
  12572935.84446   9783687.56345  23857069.5944                   23857069.5234
        41.7504         35.7504
  -9242324.59446  -7180130.26646  23153732.1724                   23153737.0084
        39.5004         36.5004
  -1003884.56646   -771921.89144  24618073.3984                   24618074.8594
        39.5004         28.0004
  -8588253.69147  -6529703.23444  22932575.2974                   22932576.8484
        42.7504         27.5004
 25  8  7 22 37 30.0000000  0 10G01G02G03G10G28G31G32G26G25G04
  -7313731.86747  -5679563.76646  21144121.3444                   21144119.6914
        47.0004         37.0004
   4497053.07047   3508811.72746  22278994.7504                   22278992.0554
        45.7504         36.0004
 -15539337.74247 -12172555.81247  21334129.2894                   21334129.0944
        47.0004         45.0004
  13652434.49646  10624746.58645  24716068.9304                   24716075.6214
        38.2504         30.5004
   2923734.50447   2286541.65646  21630494.3754                   21630491.6414
        46.2504         36.5004
  -9759588.51647  -7589957.22748  20127558.8754                   20127554.8364
        47.2504         49.7504
  12618522.64146   9819209.71145  23865743.6024                   23865744.0204
        41.5004         35.2504
  -9351684.63746  -7265345.66445  23132922.6724                   23132925.2704
        41.2504         35.7504
   -986974.66046   -758745.34844  24621289.9774                   24621291.1994
        37.2504         25.5004
  -8679464.42247  -6600776.40244  22915217.6564                   22915219.4144
        42.7504         28.2504
 25  8  7 22 38  0.0000000  0 10G01G02G03G10G28G31G32G26G25G04
  -7325326.68447  -5688598.71146  21141915.2894                   21141912.7504
        47.0004         37.0004
   4537433.83247   3540277.16445  22286679.8204                   22286676.3714
        46.7504         34.7504
 -15637632.96147 -12249149.42247  21315424.6334                   21315423.9734
        47.5004         45.2504
  13720045.06346  10677429.82844  24728935.3364                   24728941.7934
        37.5004         29.0004
   2962596.55147   2316823.75446  21637889.7894                   21637886.9734
        46.5004         36.0004
  -9781275.12547  -7606855.85948  20123432.1174                   20123428.3324
        46.7504         49.5004
  12664061.08247   9854694.15646  23874410.0084                   23874410.2304
        42.2504         36.0004
  -9460900.78546  -7350448.87145  23112138.8834                   23112142.5274
        39.2504         35.2504
   -969609.93746   -745214.40244  24624594.7114                   24624596.3914
        38.5004         26.7504
  -8770606.24647  -6671795.88744  22897874.2584                   22897875.1564
        43.7504         27.7504
 25  8  7 22 38 30.0000000  0 10G01G02G03G10G28G31G32G26G25G04
  -7336401.52747  -5697228.48046  21139807.3834                   21139805.8324
        47.0004         36.7504
   4578089.55547   3571956.85545  22294416.4304                   22294412.4964
        45.0004         35.2504
 -15735762.83647 -12325614.20347  21296750.2344                   21296750.4144
        47.5004         45.5004
  13787777.60546  10730208.16444  24741824.6094                   24741830.9184
        38.5004         28.0004
   3001798.58647   2347370.77746  21645349.2734                   21645346.6804
        45.7504         36.0004
  -9802410.44147  -7623324.91848  20119410.3134                   20119406.3444
        47.5004         49.7504
  12709554.83647   9890143.79346  23883067.3204                   23883067.1414
        43.7504         36.2504
  -9569965.92646  -7435434.51646  23091383.9694                   23091388.5434
        39.7504         36.0004
   -951787.83646   -731327.09844  24627986.0004                   24627987.7774
        37.7504         26.5004
  -8861675.34447  -6742758.71144  22880543.8524                   22880545.0744
        43.0004         28.2504
 25  8  7 22 39  0.0000000  0 10G01G02G03G10G28G31G32G26G25G04
  -7346963.23847  -5705458.40246  21137797.5944                   21137795.9574
        46.2504         36.5004
   4619011.57847   3603844.05945  22302202.9224                   22302199.9104
        46.5004         35.0004
 -15833731.33647 -12401953.23447  21278107.9064                   21278107.6524
        47.0004         45.5004
  13855624.95346  10783076.07844  24754735.6094                   24754742.1454
        37.2504         29.0004
   3041331.99247   2378176.01246  21652872.3444                   21652869.8634
        45.7504         36.0004
  -9823001.49647  -7639369.87548  20115491.8284                   20115488.1604
        47.2504         49.7504
  12754997.48047   9925553.60946  23891714.3444                   23891715.2734
        43.0004         36.5004
  -9678882.90647  -7520304.62946  23070658.4924                   23070661.0554
        42.5004         36.0004
   -933515.68746   -717089.05944  24631463.8834                   24631464.8404
        37.7504         27.7504
  -8952678.06647  -6813669.80944  22863227.1024                   22863227.3634
        43.2504         27.7504
 25  8  7 22 39 30.0000000  0 10G01G02G03G10G28G31G32G26G25G04
  -7357004.72747  -5713282.95746  21135886.9454                   21135884.9224
        46.0004         37.5004
   4660205.32847   3635942.99245  22310042.2734                   22310039.4774
        46.2504         34.5004
 -15931528.49647 -12478158.75047  21259497.8674                   21259497.9534
        46.5004         46.0004
  13923593.89846  10836038.53545  24767669.6954                   24767676.6294
        37.5004         30.7504
   3081202.18047   2409243.66845  21660459.7034                   21660456.9384
        46.2504         35.7504
  -9843041.32447  -7654985.30948  20111678.6334                   20111674.5044
        47.7504         49.7504
  12800396.61347   9960929.51246  23900353.9224                   23900353.9804
        44.0004         37.0004
  -9787640.75846  -7605050.76246  23049961.4304                   23049965.1024
        40.5004         36.0004
   -914786.81646   -702495.16844  24635027.6414                   24635029.3984
        36.7504         28.5004
  -9043606.68747  -6884523.16444  22845923.7114                   22845924.5634
        43.5004         29.0004
 25  8  7 22 40  0.0000000  0 10G01G02G03G10G28G31G32G26G25G04
  -7366524.43447  -5720700.92246  21134075.4144                   21134073.6374
        46.0004         37.5004
   4701670.78147   3668253.65645  22317933.6094                   22317929.9224
        46.5004         34.7504
 -16029149.91447 -12554227.32447  21240920.9844                   21240921.0084
        46.5004         45.7504
  13991685.61746  10889096.76644  24780627.3524                   24780633.6804
        37.5004         27.0004
   3121409.04347   2440573.66446  21668110.6414                   21668108.3054
        45.7504         36.0004
  -9862528.28947  -7670169.93748  20107970.0554                   20107966.2504
        47.7504         49.7504
  12845754.38747   9996273.18046  23908984.9614                   23908985.4614
        42.7504         36.0004
  -9896233.84446  -7689668.56246  23029297.9064                   23029300.6254
        41.7504         36.5004
   -895600.18045   -687544.59844  24638678.1334                   24638680.6764
        35.2504         28.2504
  -9134458.93447  -6955317.01644  22828635.2814                   22828636.2854
        43.2504         28.7504
 25  8  7 22 40 30.0000000  0 10G01G02G03G10G28G31G32G26G25G04
  -7375524.08647  -5727713.66046  21132363.0084                   21132361.2624
        46.5004         37.5004
   4743404.50047   3700773.34445  22325874.8444                   22325871.8594
        46.5004         34.2504
 -16126594.35547 -12630158.00047  21222377.9844                   21222378.2074
        47.5004         46.0004
  14059897.92246  10942248.92244  24793607.7814                   24793613.9654
        38.2504         29.2504
   3161949.16447   2472163.34045  21675825.3674                   21675822.8834
        46.2504         35.7504
  -9881464.34848  -7684925.29348  20104367.0394                   20104363.1884
        48.2504         49.7504
  12891069.60247  10031583.66446  23917607.5634                   23917608.3524
        42.7504         36.5004
 -10004660.04746  -7774156.31646  23008664.4384                   23008667.7734
        41.0004         37.0004
   -875957.92245   -672238.94544  24642415.4694                   24642418.3484
        34.7504         27.7504
  -9225235.94147  -7026052.25044  22811360.8364                   22811361.8054
        44.0004         28.0004
 25  8  7 22 41  0.0000000  0 10G01G02G03G10G28G31G32G26G25G04
  -7383999.87947  -5734318.19546  21130750.0944                   21130747.9144
        47.0004         37.0004
   4785408.38747   3733503.56345  22333868.3054                   22333864.6914
        46.5004         34.7504
 -16223855.04347 -12705945.49647  21203869.7974                   21203869.5634
        47.5004         46.0004
  14128234.50046  10995497.96944  24806612.4844                   24806618.5784
        37.0004         26.7504
   3202824.72747   2504014.41045  21683603.5474                   21683600.6684
        46.5004         35.2504
  -9899845.70748  -7699248.41848  20100868.8284                   20100865.3324
        48.0004         49.7504
  12936346.67647  10066864.44946  23926223.6804                   23926225.0164
        43.0004         36.5004
 -10112911.27746  -7858507.75846  22988065.1644                   22988067.8634
        41.2504         37.0004
   -855856.68045   -656575.71544  24646241.5004                   24646243.5984
        35.0004         28.0004
  -9315933.16847  -7096725.31244  22794100.7734                   22794102.1994
        43.2504         28.2504
 25  8  7 22 41 30.0000000  0 10G01G02G03G10G28G31G32G26G25G04
  -7391961.90647  -5740522.39146  21129234.7424                   21129232.6914
        47.5004         36.7504
   4827671.31347   3766435.61345  22341910.4534                   22341907.3364
        46.2504         34.5004
 -16320939.03547 -12781595.30147  21185395.1804                   21185395.1374
        47.7504         46.2504
  14196684.93446  11048835.61745  24819637.5394                   24819645.0744
        37.2504         31.5004
   3244024.05947   2536117.76245  21691443.3754                   21691440.4494
        46.0004         35.2504
  -9917682.37947  -7713147.10548  20097474.7274                   20097470.7974
        47.0004         49.7504
  12981576.22747  10102108.17646  23934831.5084                   23934831.5904
        43.5004         36.5004
 -10220993.75847  -7942727.66446  22967497.0944                   22967500.4454
        42.2504         36.5004
   -835307.01246   -640563.02044  24650152.2424                   24650153.9414
        36.0004         26.7504
  -9406559.99647  -7167343.51244  22776855.9534                   22776856.8834
        43.5004         26.5004
 25  8  7 22 42  0.0000000  0 10G01G02G03G10G28G31G32G26G25G04
  -7399401.52047  -5746319.50446  21127819.5864                   21127817.0044
        47.0004         36.7504
   4870199.89147   3799574.66045  22350003.5784                   22350000.3634
        45.7504         34.0004
 -16417834.72748 -12857098.39147  21166956.8984                   21166956.2814
        48.0004         46.2504
  14265257.50046  11102268.43044  24832687.4454                   24832694.4654
        39.0004         28.5004
   3285554.10247   2568478.81645  21699346.5394                   21699343.6564
        45.7504         35.5004
  -9934965.87148  -7726614.73848  20094185.4384                   20094182.1564
        48.2504         49.5004
  13026767.50047  10137322.09446  23943430.8754                   23943431.5984
        43.0004         37.0004
 -10328894.71146  -8026806.18046  22946963.3524                   22946967.2114
        40.0004         36.5004
   -814300.69145   -624194.50444  24654148.5084                   24654150.8634
        33.2504         27.0004
  -9497107.00847  -7237899.51644  22759625.8134                   22759625.4024
        43.5004         27.0004
 25  8  7 22 42 30.0000000  0 10G01G02G03G10G28G31G32G26G25G04
  -7406328.80547  -5751717.41046  21126500.8444                   21126498.4924
        47.5004         37.2504
   4912982.43847   3832911.60945  22358144.8444                   22358141.6644
        46.0004         34.2504
 -16514549.12947 -12932460.20747  21148552.6254                   21148552.2274
        47.5004         46.2504
  14333941.82846  11155788.50844  24845758.1334                   24845764.3794
        37.0004         26.0004
   3327403.25047   2601088.52745  21707310.0474                   21707307.2304
        46.2504         35.5004
  -9951706.29348  -7739659.21148  20091000.0314                   20090996.6414
        48.0004         49.5004
  13071911.10947  10172498.86346  23952021.5394                   23952022.1844
        43.0004         36.5004
 -10436620.04346  -8110747.80146  22926464.2734                   22926467.6884
        41.2504         36.5004
   -792848.31245   -607478.42244  24658232.2894                   24658233.2894
        33.0004         26.7504
  -9587583.54747  -7308400.62144  22742407.7734                   22742408.2304
        43.7504         28.0004
 25  8  7 22 43  0.0000000  0 10G01G02G03G10G28G31G32G26G25G04
  -7412739.83247  -5756713.04346  21125281.0634                   21125279.1564
        47.5004         36.7504
   4956021.33247   3866448.31345  22366334.7344                   22366331.5394
        46.2504         34.0004
 -16611075.21947 -13007675.28547  21130183.8204                   21130183.8524
        47.2504         46.0004
  14402741.77345  11209398.48444  24858849.3444                   24858856.8594
        34.5004         27.5004
   3369573.85247   2633948.71945  21715334.9844                   21715332.0394
        45.5004         35.5004
  -9967899.85248  -7752277.55148  20087918.6254                   20087914.9344
        48.0004         49.7504
  13117011.73446  10207642.13345  23960602.8284                   23960604.7624
        41.7504         35.7504
 -10544161.73746  -8194546.38046  22905999.6254                   22906002.4414
        40.0004         36.5004
   -770946.33645   -590412.02044  24662398.7504                   24662401.2854
        32.5004         24.7504
  -9677984.89847  -7378843.12944  22725205.3284                   22725205.3244
        43.7504         27.0004
 25  8  7 22 43 30.0000000  0 10G01G02G03G10G28G31G32G26G25G04
  -7418632.18747  -5761304.52046  21124160.0554                   21124158.0474
        47.5004         36.7504
   4999317.40247   3900185.39845  22374573.7734                   22374570.6334
        45.5004         34.5004
 -16707407.45347 -13082739.32047  21111852.8444                   21111852.3324
        47.2504         46.2504
  14471659.41846  11263100.17245  24871965.2734                   24871972.3984
        38.2504         30.2504
   3412066.77747   2667060.06645  21723420.9144                   21723418.6174
        45.2504         35.5004
  -9983544.25448  -7764467.97748  20084941.5004                   20084937.7274
        48.0004         49.5004
  13162072.62147  10242754.42645  23969178.6174                   23969179.1684
        43.5004         35.2504
 -10651513.27346  -8278196.76246  22885570.9694                   22885574.1054
        40.5004         37.5004
   -748592.78145   -572993.71544  24666653.3444                   24666655.3484
        33.0004         25.0004
  -9768307.82847  -7449224.53144  22708016.9924                   22708017.9494
        43.2504         28.0004
 25  8  7 22 44  0.0000000  0 10G01G02G03G10G28G31G32G26G25G04
  -7424005.14847  -5765491.27746  21123137.1644                   21123135.6134
        47.5004         37.0004
   5042869.82047   3934122.23445  22382861.9224                   22382858.4534
        46.5004         34.5004
 -16803541.93447 -13157649.25447  21093558.9064                   21093558.8674
        47.7504         46.5004
  14540695.22746  11316894.00444  24885102.4064                   24885109.6564
        37.2504         27.5004
   3454881.25047   2700421.97745  21731568.2974                   21731565.8204
        45.2504         35.5004
  -9998638.61748  -7776229.80948  20082069.0704                   20082065.2734
        48.0004         49.5004
  13207095.24247  10277836.92245  23977746.0084                   23977746.7774
        42.5004         34.7504
 -10758669.65646  -8361695.10546  22865179.2274                   22865182.9574
        40.0004         37.0004
   -725787.35955   -555223.30153  24670992.7734                   24670995.7584
        31.5004         23.7504
  -9858550.75047  -7519543.58644  22690844.8444                   22690845.0354
        43.0004         29.2504
 25  8  7 22 44 30.0000000  0 10G01G02G03G10G28G31G32G26G25G04
  -7428861.10547  -5769275.17646  21122213.8134                   21122211.2814
        47.2504         36.5004
   5086675.31647   3968256.27745  22391197.3984                   22391194.6804
        45.5004         34.0004
 -16899477.93747 -13232404.53547  21075302.4454                   21075302.7934
        47.0004         46.7504
  14609846.80945  11370778.00044  24898261.7034                   24898268.8054
        35.7504         26.5004
   3498013.34047   2734031.38745  21739776.3364                   21739773.7384
        47.0004         34.5004
 -10013185.42647  -7787564.96548  20079300.6414                   20079297.1414
        47.7504         49.5004
  13252078.00447  10312888.37545  23986305.7974                   23986306.7344
        43.5004         35.0004
 -10865629.07846  -8445039.95746  22844826.1884                   22844829.8284
        41.2504         38.2504
   -702532.86354   -537103.02353  24675417.6254                   24675420.6524
        29.2504         22.7504
  -9948715.26647  -7589801.54744  22673686.4844                   22673686.9344
        43.0004         28.0004
 25  8  7 22 45  0.0000000  0 10G01G02G03G10G28G31G32G26G25G04
  -7433195.71147  -5772652.81246  21121388.8134                   21121386.6484
        47.0004         37.2504
   5130735.87547   4002589.08645  22399582.1724                   22399579.0274
        45.2504         34.0004
 -16995207.92247 -13306999.27747  21057085.9774                   21057085.2464
        46.7504         46.7504
  14679118.18846  11424755.33244  24911443.5554                   24911451.6054
        37.5004         28.5004
   3541465.88347   2767890.48845  21748045.2664                   21748042.2774
        45.7504         35.5004
 -10027180.46147  -7798470.17248  20076638.1254                   20076634.0984
        47.5004         49.5004
  13297026.07847  10347912.78545  23994859.8524                   23994859.9064
        42.2504         34.7504
 -10972383.09046  -8528224.77346  22824511.7894                   22824514.7194
        40.7504         36.7504
                                  24679929.3444                   24679932.0204
        28.2504         20.2504
 -10038796.05547  -7659994.26644  22656544.6024                   22656545.3914
        42.0004         28.2504
 25  8  7 22 45 30.0000000  0  9G01G02G03G10G28G31G32G26G04
  -7437015.87147  -5775629.59446  21120661.7194                   21120659.5634
        45.2504         37.2504
   5175043.39847   4037114.30945  22408013.8444                   22408011.0664
        46.5004         34.0004
 -17090735.45347 -13381436.26647  21038907.3444                   21038906.8714
        46.0004         46.7504
  14748502.40246  11478820.59045  24924648.0314                   24924655.2664
        38.7504         30.7504
   3585230.63747   2801992.87145  21756372.8754                   21756370.3714
        46.0004         35.5004
 -10040630.64847  -7808950.82848  20074078.3364                   20074074.4454
        47.7504         49.5004
  13341933.57847  10382905.57445  24003405.4064                   24003406.1914
        42.2504         34.5004
 -11078934.11346  -8611251.43046  22804234.6884                   22804238.1094
        41.5004         37.5004
 -10128799.07047  -7730126.38744  22639417.6024                   22639418.4304
        42.0004         28.0004
 25  8  7 22 46  0.0000000  0  9G01G02G03G10G28G31G32G26G04
  -7440328.98447  -5778211.27346  21120031.1414                   21120029.0394
        47.0004         36.7504
   5219588.92247   4071825.00445  22416490.5004                   22416487.0904
        46.2504         34.2504
 -17186064.82047 -13455718.83647  21020766.6174                   21020766.2974
        47.5004         47.0004
  14817991.87146  11532967.88344  24937871.6644                   24937878.5354
        39.5004         29.7504
   3629298.63347   2836331.56645  21764759.0554                   21764756.1954
        46.0004         35.2504
 -10053543.63348  -7819012.87948  20071620.9694                   20071617.3204
        48.0004         49.5004
  13386793.87546  10417861.57445  24011942.2664                   24011942.4494
        41.5004         34.5004
 -11185285.53946  -8694122.47746  22783998.0164                   22784000.3404
        41.7504         36.5004
 -10218730.89147  -7800203.02744  22622304.1024                   22622304.9534
        42.7504         28.0004
 25  8  7 22 46 30.0000000  0  9G01G02G03G10G28G31G32G26G04
  -7443156.77347  -5780414.78146  21119493.4064                   21119491.0634
        46.0004         36.7504
   5264349.29747   4106703.10945  22425008.0704                   22425005.1564
        46.0004         34.2504
 -17281214.34847 -13529861.27047  21002660.4924                   21002660.4184
        47.2504         47.0004
  14887564.71146  11587180.14144  24951111.5554                   24951118.3284
        37.0004         25.5004
   3673646.79747   2870888.55945  21773198.3444                   21773195.4654
        46.2504         34.2504
 -10065941.02047  -7828673.16048  20069261.6804                   20069258.0084
        47.5004         49.5004
  13431586.21546  10452764.63745  24020465.2664                   24020466.5634
        41.0004         34.5004
 -11291454.57847  -8776851.52746  22763793.2814                   22763797.1214
        42.0004         37.7504
 -10308612.23447  -7870240.34444  22605199.7344                   22605200.5944
        42.0004         28.5004
 25  8  7 22 47  0.0000000  0  9G01G02G03G10G28G31G32G26G04
  -7445484.80947  -5782228.85946  21119050.3914                   21119048.3754
        46.2504         36.7504
   5309337.59847   4141758.80545  22433568.5864                   22433566.5164
        46.5004         34.0004
 -17376166.37547 -13603849.80947  20984591.8754                   20984591.5944
        47.2504         47.0004
  14957235.20345  11641468.48043  24964369.4304                   24964376.9964
        33.7504         22.5004
   3718288.06347   2905673.93845  21781693.1804                   21781690.6024
        46.7504         34.7504
 -10077808.58247  -7837920.60248  20067003.6174                   20066999.3484
        47.7504         49.5004
  13476326.00047  10487626.71545  24028979.5394                   24028979.9734
        42.2504         34.7504
 -11397422.64547  -8859423.90246  22743629.2584                   22743631.0204
        42.5004         37.5004
 -10398427.68047  -7940226.30144  22588108.6804                   22588109.7074
        42.5004         28.0004
 25  8  7 22 47 30.0000000  0  9G01G02G03G10G28G31G32G26G04
  -7447301.85247  -5783644.77346  21118704.4144                   21118702.2664
        47.0004         36.7504
   5354563.68047   4176999.79745  22442175.8594                   22442172.6524
        45.5004         34.7504
 -17470906.23847 -13677673.02747  20966563.4774                   20966563.2464
        47.2504         47.2504
  15027014.76245  11695841.80143  24977647.9304                   24977655.6134
        31.0004         18.5004
   3763232.44947   2940695.51645  21790246.0314                   21790243.2074
        47.5004         35.5004
 -10089134.85248  -7846746.26248  20064848.3594                   20064844.3634
        48.2504         49.5004
  13521025.59847  10522457.48045  24037485.3054                   24037486.7304
        42.0004         34.0004
 -11503174.09447  -8941827.48046  22723505.3914                   22723507.6414
        43.2504         37.2504
 -10488164.95747  -8010151.35244  22571032.1644                   22571032.9024
        42.5004         28.5004
 25  8  7 22 48  0.0000000  0  9G01G02G03G10G28G31G32G26G04
  -7448588.76647  -5784647.58646  21118459.1024                   21118457.5704
        46.0004         37.0004
   5400045.15647   4212439.79345  22450830.2664                   22450827.9574
        46.0004         34.0004
 -17565411.52348 -13751313.45347  20948579.5704                   20948579.3874
        48.0004         47.2504
  15096922.27345  11750314.80142  24990950.4774                   24990959.9494
        30.5004         16.7504
   3808497.60947   2975967.04345  21798859.5004                   21798856.8164
        47.0004         34.7504
 -10099900.73448  -7855135.25048  20062799.2584                   20062795.5704
        49.0004         49.5004
  13565705.00047  10557272.54745  24045987.9534                   24045988.9844
        42.2504         34.0004
 -11608685.43047  -9024044.01646  22703426.2274                   22703429.0554
        42.0004         37.2504
 -10577803.89847  -8079999.77044  22553974.7584                   22553975.3754
        42.5004         28.5004
 25  8  7 22 48 30.0000000  0  9G01G02G03G10G28G31G32G26G04
  -7449353.28947  -5785243.34846  21118313.8444                   21118311.9884
        45.7504         37.0004
   5445773.12547   4248071.85945  22459532.5164                   22459529.4804
        46.0004         34.2504
 -17659686.50847 -13824774.43447  20930639.5634                   20930639.2734
        47.5004         47.5004
                                  25004277.477
        25.750
   3854074.48447   3011481.46945  21807532.3674                   21807530.1884
        46.0004         35.5004
 -10110114.21148  -7863093.79348  20060855.8984                   20060851.6724
        49.0004         49.5004
  13610357.60546  10592066.72745  24054484.8834                   24054485.9574
        41.5004         33.2504
 -11713959.99247  -9106076.03546  22683393.4224                   22683396.8954
        43.0004         38.0004
 -10667351.19147  -8149776.75844  22536933.9384                   22536934.7274
        42.5004         29.5004
 25  8  7 22 49  0.0000000  0  8G01G02G03G28G31G32G26G04
  -7449591.58647  -5785429.05946  21118268.5634                   21118266.8954
        46.2504         36.7504
   5491749.94147   4283897.83245  22468281.7814                   22468278.7234
        46.5004         34.2504
 -17753723.92248 -13898050.28147  20912744.7274                   20912744.5864
        48.5004         47.5004
   3899965.66047   3047240.80946  21816265.2034                   21816262.6214
        46.5004         36.0004
 -10119771.53548  -7870618.96948  20059018.2504                   20059014.3914
        48.5004         49.5004
  13654988.37946  10626843.88745  24062977.7584                   24062978.7464
        40.0004         33.0004
 -11818989.55947  -9187917.15246  22663407.3054                   22663409.5234
        43.5004         36.7504
 -10756801.86347  -8219478.45744  22519912.4454                   22519912.9734
        43.0004         29.0004
 25  8  7 22 49 30.0000000  0  8G01G02G03G28G31G32G26G04
  -7449307.40247  -5785207.64146  21118323.1094                   21118320.8984
        46.5004         36.5004
   5537970.42247   4319913.67245  22477077.0164                   22477074.0164
        46.5004         34.0004
 -17847524.07847 -13971141.26247  20894895.2344                   20894894.9884
        47.7504         47.5004
   3946166.03947   3083241.08245  21825057.0314                   21825054.1564
        46.5004         35.7504
 -10128876.56248  -7877713.78548  20057285.5864                   20057281.3014
        49.5004         49.5004
  13699594.65246  10661601.96545  24071467.0634                   24071467.1564
        40.7504         32.5004
 -11923773.49647  -9269566.83646  22643467.7114                   22643469.9024
        42.5004         37.2504
 -10846158.66447  -8289107.00844  22502907.6644                   22502908.1684
        42.5004         28.5004
 25  8  7 22 50  0.0000000  0  8G01G02G03G28G31G32G26G04
  -7448497.53547  -5784576.60246  21118476.9694                   21118474.8674
        46.0004         36.5004
   5584436.32847   4356120.75845  22485919.1564                   22485916.9064
        46.7504         34.2504
 -17941080.28148 -14044042.15247  20877092.2194                   20877091.6374
        48.5004         47.7504
   3992677.65247   3119483.87545  21833907.9144                   21833905.0164
        46.5004         34.5004
 -10137425.69948  -7884375.43748  20055658.6484                   20055654.7114
        49.2504         49.5004
  13744180.84046  10696344.37545  24079950.5164                   24079951.2934
        40.0004         32.0004
 -12028304.03947  -9351019.14146  22623575.2584                   22623577.9384
        42.5004         37.2504
 -10935417.13747  -8358658.94945  22485922.0314                   22485923.3134
        42.5004         30.2504
 25  8  7 22 50 30.0000000  0  8G01G02G03G28G31G32G26G04
  -7447132.90247  -5783513.27746  21118736.2894                   21118734.9024
        47.0004         37.0004
   5631175.71947   4392540.93445  22494814.2344                   22494811.1564
        46.2504         34.5004
 -18034359.94948 -14116727.55547  20859341.5554                   20859340.7344
        48.0004         47.7504
   4039528.22747   3155990.80945  21842823.4064                   21842820.6094
        47.0004         34.7504
 -10145390.33248  -7890581.63348  20054143.0164                   20054139.3284
        48.7504         49.5004
  13788777.09446  10731094.62545  24088437.3134                   24088438.5354
        41.0004         33.5004
 -12132547.81647  -9432247.91846  22603738.1564                   22603740.8134
        42.5004         36.7504
 -11024547.12546  -8428110.77044  22468961.1564                   22468961.6174
        41.5004         29.0004
 25  8  7 22 51  0.0000000  0  8G01G02G03G28G31G32G26G04
  -7445228.82047  -5782029.60546  21119099.2034                   21119097.3404
        46.0004         36.7504
   5678171.85547   4429161.18845  22503757.3594                   22503754.4884
        46.2504         34.0004
 -18127374.87547 -14189206.67247  20841641.0704                   20841640.5664
        47.7504         47.5004
   4086701.23847   3192748.97745  21851799.9774                   21851797.1804
        46.2504         35.2504
 -10152785.65248  -7896344.21948  20052735.5084                   20052731.7504
        49.0004         49.2504
  13833369.40646  10765841.81645  24096922.8134                   24096924.0784
        40.0004         33.7504
 -12236515.52047  -9513261.58646  22583953.5704                   22583955.8164
        42.2504         37.2504
 -11113562.69947  -8497473.43044  22452021.9454                   22452022.6844
        42.0004         29.0004
 25  8  7 22 51 30.0000000  0  8G01G02G03G28G31G32G26G04
  -7442787.66447  -5780127.43746  21119563.4224                   21119562.0274
        47.5004         36.7504
   5725420.70347   4465978.34445  22512748.2894                   22512745.5594
        45.5004         33.0004
 -18220123.87148 -14261478.57447  20823991.5164                   20823991.2974
        48.2504         47.5004
   4134193.13747   3229755.63745  21860837.1644                   21860834.8014
        46.0004         34.5004
 -10159614.26648  -7901665.20748  20051436.3284                   20051432.2504
        48.7504         49.2504
  13877956.55946  10800584.99245  24105408.0084                   24105408.9344
        40.5004         33.5004
 -12340205.08647  -9594058.52346  22564222.3914                   22564225.3404
        42.5004         38.0004
 -11202465.11747  -8566747.91844  22435105.1804                   22435105.0434
        42.5004         29.5004
 25  8  7 22 52  0.0000000  0  8G01G02G03G28G31G32G26G04
  -7439816.64547  -5777812.39146  21120128.9534                   21120127.5354
        46.7504         37.0004
   5772914.23047   4502986.17245  22521785.8444                   22521783.3794
        46.5004         34.0004
 -18312610.53547 -14333546.05947  20806391.9064                   20806391.5394
        47.2504         47.5004
   4181995.50447   3267004.20745  21869933.8674                   21869931.3714
        46.2504         34.7504
 -10165883.13748  -7906550.03548  20050243.5704                   20050239.5084
        48.5004         49.5004
  13922532.72346  10835319.59845  24113890.3984                   24113890.8554
        41.5004         32.5004
 -12443619.23447  -9674640.83646  22544542.7034                   22544546.5234
        42.0004         38.0004
 -11291260.26246  -8635938.82844  22418207.8524                   22418207.7934
        41.2504         29.5004
 25  8  7 22 52 30.0000000  0  9G01G02G03G28G31G32G26G04G16
  -7436312.28547  -5775081.75046  21120795.8594                   21120794.0044
        47.5004         36.7504
   5820654.60247   4540186.34045  22530870.9224                   22530867.9774
        46.0004         33.0004
 -18404827.79747 -14405403.62947  20788843.8054                   20788843.0354
        47.5004         47.5004
   4230110.70347   3304496.55945  21879090.2034                   21879087.0904
        46.7504         34.0004
 -10171588.94548  -7910996.11748  20049157.3914                   20049153.7464
        48.2504         49.5004
  13967102.59047  10870049.33245  24122371.2194                   24122371.8364
        42.5004         32.5004
 -12546749.85246  -9755002.21546  22524917.6094                   22524920.0824
        41.2504         37.7504
 -11379943.48047  -8705042.51645  22401331.9454                   22401331.8134
        42.0004         30.2504
   2799889.13355   2419218.39852  24757660.4694                   24757667.3164
        35.2504         17.2504
 25  8  7 22 53  0.0000000  0  9G01G02G03G28G31G32G26G04G16
  -5856867.12947  -4544345.29346  21421354.1724                   21421352.3834
        46.5004         36.7504
   7444046.34847   5805166.79345  22839792.2344                   22839789.3364
        46.0004         33.0004
 -16921361.37147 -13249455.72747  21071137.8674                   21071137.2424
        47.0004         47.7504
   5853943.56647   4569820.84445  22188095.2504                   22188092.0204
        46.5004         34.2504
  -8601324.03548  -6687413.06648  20347969.1484                   20347965.0084
        48.7504         49.5004
  15587073.57446  12132364.32045  24430641.0554                   24430641.8794
        41.0004         32.5004
 -11074181.43446  -8607546.16046  22805137.5554                   22805141.0394
        40.7504         38.5004
  -9893102.88747  -7546465.33245  22684267.8834                   22684268.0164
        42.2504         30.0004
   4246920.09845   3546775.31643  25033021.5784                   25033028.4454
        35.2504         18.2504
 25  8  7 22 53 30.0000000  0  9G01G02G03G28G31G32G26G04G16
  -5852319.39547  -4540801.63746  21422219.7504                   21422217.9144
        46.5004         36.7504
   7492253.25047   5842730.47345  22848965.6804                   22848962.8984
        46.0004         33.5004
 -17013052.23847 -13320903.11747  21053689.8364                   21053688.7774
        47.7504         47.5004
   5902657.63747   4607779.84045  22197364.9694                   22197362.1844
        46.7504         34.0004
  -8605927.11748  -6690999.87948  20347093.0704                   20347089.2304
        48.5004         49.5004
  15631611.62146  12167069.18845  24439117.2274                   24439118.1604
        41.7504         32.7504
 -11176754.71946  -8687473.28946  22785618.5704                   22785622.0314
        41.2504         38.5004
  -9981581.61347  -7615409.68045  22667430.5314                   22667431.1094
        42.5004         30.0004
   4118366.62945   3446604.19942  25008558.5704                   25008565.1254
        31.0004         14.7504
 25  8  7 22 54  0.0000000  0  9G01G02G03G28G31G32G26G04G16
  -5847251.59447  -4536852.73446  21423184.2894                   21423181.9024
        47.0004         36.7504
   7540690.07847   5880473.34045  22858183.2584                   22858180.4494
        46.0004         33.5004
 -17104475.90247 -13392142.30547  21036292.5634                   21036291.8014
        47.0004         47.5004
   5951667.91047   4645969.63345  22206691.6564                   22206688.8714
        46.0004         34.0004
  -8609980.47748  -6694158.32848  20346322.0164                   20346317.7584
        48.7504         49.0004
  15676134.10546  12201761.97745  24447588.8984                   24447591.1724
        41.2504         34.0004
 -11279044.10547  -8767179.14846  22766154.2814                   22766156.0744
        42.5004         38.2504
 -10069957.74647  -7684274.10245  22650613.3914                   22650613.3134
        43.0004         30.0004
   3989655.37146   3346310.12542  24984064.7504                   24984072.9454
        36.5004         16.7504
 25  8  7 22 54 30.0000000  0  9G01G02G03G28G31G32G26G04G16
  -5841664.51647  -4532499.20746  21424247.2894                   21424245.5944
        47.2504         37.0004
   7589354.56647   5918393.60245  22867443.7424                   22867441.3134
        46.2504         33.2504
 -17195629.57447 -13463171.10547  21018946.8054                   21018945.9224
        45.7504         47.7504
   6000972.44947   4684388.73045  22216073.6804                   22216070.9064
        46.5004         33.5004
  -8613485.13347  -6696889.22748  20345654.8754                   20345650.6604
        47.7504         49.0004
  15720641.71947  12236443.15245  24456059.3134                   24456060.5824
        42.0004         35.5004
 -11381045.76647  -8846660.81246  22746743.3674                   22746746.6174
        43.2504         38.7504
 -10158230.73446  -7753058.14544  22633815.6804                   22633815.5314
        41.5004         29.7504
   3860789.59845   3245895.40242  24959542.5234                   24959550.2974
        35.5004         15.5004
 25  8  7 22 55  0.0000000  0  9G01G02G03G28G31G32G26G04G16
  -5835568.33247  -4527748.96546  21425407.1414                   21425405.5204
        46.5004         36.5004
   7638235.44547   5956482.46545  22876745.2814                   22876742.7974
        45.7504         33.0004
 -17286519.64547 -13533994.50848  21001650.2424                   21001649.7034
        47.7504         48.0004
   6050560.08247   4723028.42645  22225509.7664                   22225506.9104
        46.5004         33.2504
  -8616451.19147  -6699200.42648  20345090.9454                   20345086.7304
        47.7504         49.0004
  15765125.68047  12271105.92245  24464524.1884                   24464525.1454
        42.0004         35.5004
 -11482765.28547  -8925922.62946  22727387.6024                   22727389.2734
        43.7504         39.0004
 -10246409.35947  -7821768.65645  22617035.8444                   22617035.5004
        43.5004         30.0004
   3731763.26645   3145355.85942  24934988.2194                   24934998.2194
        33.7504         15.5004
 25  8  7 22 55 30.0000000  0  9G01G02G03G28G31G32G26G04G16
  -5828957.29747  -4522597.53946  21426665.5784                   21426663.3364
        47.0004         36.5004
   7687337.50847   5994743.68445  22886089.1094                   22886087.2034
        45.0004         33.0004
 -17377136.61747 -13604605.10248  20984406.3754                   20984405.6684
        47.7504         48.0004
   6100435.55147   4761892.40245  22235000.9144                   22234998.1134
        45.7504         33.5004
  -8618872.67248  -6701087.28548  20344629.8134                   20344626.1684
        48.0004         49.0004
  15809593.26647  12305755.90245  24472985.8984                   24472986.6844
        42.2504         35.5004
 -11584192.17247  -9004956.41046  22708086.3444                   22708087.5434
        43.5004         38.7504
 -10334486.54347  -7890400.12944  22600275.0944                   22600275.0314
        43.7504         29.7504
   3602586.48845   3044699.05942  24910407.2194                   24910415.1254
        35.5004         16.2504
 25  8  7 22 56  0.0000000  0  9G01G02G03G28G31G32G26G04G16
  -5821835.00847  -4517047.73846  21428020.8914                   21428018.9024
        47.7504         37.0004
   7736656.30547   6033173.80145  22895474.5234                   22895472.0004
        45.7504         32.2504
 -17467480.26647 -13675002.71948  20967214.5554                   20967214.0904
        47.0004         48.0004
   6150594.22347   4800977.05545  22244545.9844                   22244543.2304
        46.5004         33.2504
  -8620753.48447  -6702552.84048  20344271.6174                   20344267.7624
        47.2504         49.0004
  15854042.30147  12340391.42645  24481444.2664                   24481445.8444
        43.0004         35.5004
 -11685325.44547  -9083761.41046  22688841.2584                   22688843.2194
        43.5004         38.5004
 -10422464.32047  -7958954.13745  22583533.2664                   22583532.9734
        43.2504         31.0004
   3473260.12546   2943925.75043  24885797.4844                   24885803.7464
        39.5004         18.5004
 25  8  7 22 56 30.0000000  0  9G01G02G03G28G31G32G26G04G16
  -5814201.73847  -4511099.77346  21429473.3834                   21429471.5234
        47.7504         36.5004
   7786189.87547   6071771.26645  22904899.9774                   22904897.7734
        45.5004         31.5004
 -17557547.10547 -13745184.64548  20950075.8914                   20950074.6994
        46.7504         48.0004
   6201034.83647   4840281.39545  22254144.4384                   22254141.7194
        46.0004         34.0004
  -8622093.72747  -6703597.17248  20344016.9384                   20344012.6884
        47.5004         49.0004
  15898474.04746  12375013.48845  24489899.3914                   24489900.5984
        41.7504         35.0004
 -11786160.72747  -9162334.22746  22669652.5164                   22669654.9104
        43.2504         38.7504
 -10510341.67247  -8027429.90645  22566810.8674                   22566810.1954
        42.0004         30.7504
   3343787.96546   2843038.71542  24861159.2424                   24861166.0354
        38.0004         16.7504
 25  8  7 22 57  0.0000000  0  9G01G02G03G28G31G32G26G04G16
  -5806061.94948  -4504757.11346  21431022.3444                   21431020.5784
        48.0004         37.0004
   7835932.66047   6110531.75445  22914366.6884                   22914363.5824
        46.5004         31.2504
 -17647337.75047 -13815151.34848  20932988.8054                   20932988.3524
        47.5004         48.2504
   6251751.93047   4879801.17645  22263795.5784                   22263793.0944
        46.2504         32.7504
  -8622898.05147  -6704223.90648  20343863.5554                   20343859.6844
        47.0004         49.0004
  15942885.51246  12409619.72345  24498351.1724                   24498351.8404
        41.5004         34.7504
 -11886697.74647  -9240674.63746  22650520.7344                   22650522.5434
        42.0004         38.5004
 -10598121.59047  -8095829.73845  22550106.7664                   22550106.2274
        43.2504         31.0004
   3214169.62546   2742037.75842  24836493.5314                   24836500.3134
        36.2504         16.2504
 25  8  7 22 57 30.0000000  0  9G01G02G03G28G31G32G26G04G16
  -5797419.42247  -4498022.70746  21432666.8364                   21432665.2544
        47.5004         36.7504
   7885880.16847   6149451.77045  22923870.3914                   22923868.8594
        45.0004         31.7504
 -17736852.10948 -13884902.76648  20915954.7424                   20915954.1294
        48.0004         48.5004
   6302740.84047   4919532.77045  22273498.5554                   22273495.9534
        46.0004         33.2504
  -8623170.44947  -6704436.15248  20343812.1804                   20343807.8524
        47.7504         49.0004
  15987274.57046  12444208.52345  24506797.8444                   24506799.2774
        41.7504         34.5004
 -11986935.52747  -9318781.85246  22631446.2274                   22631447.4694
        43.5004         38.5004
 -10685806.26247  -8164155.36345  22533420.6174                   22533420.1454
        43.5004         30.7504
   3084406.35246   2640924.00043  24811799.8754                   24811805.8984
        40.7504         19.2504
 25  8  7 22 58  0.0000000  0  9G01G02G03G28G31G32G26G04G16
  -5788270.75847  -4490893.91446  21434408.0474                   21434406.2814
        47.0004         37.0004
   7936034.55947   6188532.98845  22933414.9534                   22933413.3444
        45.0004         32.2504
 -17826082.91047 -13954433.23048  20898974.7894                   20898974.0664
        47.2504         48.5004
   6354004.03147   4959478.09045  22283253.4224                   22283250.9344
        45.5004         33.0004
  -8622907.21548  -6704231.02748  20343861.9614                   20343858.0824
        48.0004         49.0004
  16031646.22347  12478783.73445  24515242.2274                   24515243.0124
        42.2504         33.5004
 -12086865.98847  -9396649.60546  22612430.4224                   22612432.0434
        43.7504         38.7504
 -10773390.83647  -8232402.98445  22516754.0394                   22516753.7974
        43.0004         30.0004
   2954505.89845   2539703.32042  24787079.3284                   24787086.1254
        35.0004         17.2504
 25  8  7 22 58 30.0000000  0  9G01G02G03G28G31G32G26G04G16
  -5778614.28147  -4483369.42246  21436245.3444                   21436243.8484
        47.5004         36.7504
   7986396.53947   6227775.94545  22942999.5704                   22942996.5824
        46.0004         31.7504
 -17915024.56647 -14023738.38748  20882049.5084                   20882049.2154
        47.5004         48.5004
   6405542.25847   4999637.71945  22293060.7814                   22293058.3134
        45.2504         33.5004
  -8622106.65247  -6703607.20748  20344014.3364                   20344010.3674
        47.5004         49.0004
  16076003.71947  12513347.93045  24523683.1094                   24523683.6484
        43.5004         34.0004
 -12186482.74647  -9474272.93746  22593473.2114                   22593475.6294
        43.0004         39.2504
 -10860872.10247  -8300570.09845  22500106.4534                   22500106.3324
        42.5004         30.2504
   2824474.195 5                  24762335.227
        35.500
 25  8  7 22 59  0.0000000  0  9G01G02G03G28G31G32G26G04G16
  -5768458.60247  -4475455.93446  21438178.3914                   21438176.5904
        47.5004         36.5004
   8036956.50447   6267173.19945  22952619.5784                   22952618.1484
        45.2504         31.5004
 -18003681.74247 -14092821.85948  20865178.6094                   20865177.9534
        47.5004         48.5004
   6457346.10247   5040004.31345  22302918.7584                   22302916.2704
        45.7504         33.5004
  -8620777.46947  -6702571.46948  20344267.1094                   20344263.2464
        47.7504         49.0004
  16120340.18447  12547895.76245  24532120.5084                   24532120.8134
        43.2504         33.7504
 -12285789.60547  -9551654.79346  22574575.6094                   22574577.9454
        43.0004         39.5004
 -10948257.04747  -8368662.17245  22483477.9454                   22483477.1724
        44.2504         30.5004
   2694307.05146   2422118.74653  24737565.2894                   24737570.1054
        37.0004         18.5004
 25  8  7 22 59 30.0000000  0  9G01G02G03G28G31G32G26G04G16
  -5757808.14547  -4467156.92246  21440204.8284                   21440203.3364
        47.7504         36.5004
   8087708.97347   6306720.46145  22962278.3674                   22962275.3594
        46.2504         32.0004
 -18092054.95747 -14161684.06248  20848361.8594                   20848361.0704
        47.7504         48.5004
   6509410.27047   5080573.77045  22312826.7974                   22312823.6414
        45.7504         33.7504
  -8618924.08648  -6701127.27048  20344619.7504                   20344615.7774
        48.2504         49.0004
  16164652.83247  12582425.02345  24540552.9924                   24540552.9304
        42.0004         33.5004
 -12384786.30147  -9628794.95746  22555736.9064                   22555738.9224
        42.7504         39.2504
 -11035548.56247  -8436681.43745  22466866.9614                   22466866.3634
        44.5004         30.5004
   2564004.53145   2320584.81342  24712768.4534                   24712774.8874
        35.2504         17.2504
 25  8  7 23  0  0.0000000  0  9G01G02G03G28G31G32G26G04G16
  -5746652.76247  -4458464.45346  21442327.6024                   21442325.9924
        46.7504         36.7504
   8138662.95747   6346424.73045  22971973.7664                   22971972.3364
        45.0004         32.0004
 -18180130.10248 -14230314.00048  20831601.6334                   20831600.5434
        48.0004         48.5004
   6561744.01647   5121353.28145  22322785.4844                   22322782.6564
        45.5004         34.0004
  -8616536.54347  -6699266.83648  20345073.9694                   20345070.4264
        47.7504         48.7504
  16208953.44146  12616944.88745  24548982.1724                   24548983.8714
        39.7504         33.5004
 -12483457.78547  -9705681.70346  22536960.2894                   22536963.3014
        43.5004         40.5004
 -11122734.91047  -8504618.75844  22450276.0474                   22450275.0554
        44.5004         29.7504
   2433581.39146   2218956.68842  24687950.5944                   24687956.9414
        39.0004         16.7504
 25  8  7 23  0 30.0000000  0  9G01G02G03G28G31G32G26G04G16
  -5735006.46947  -4449389.44546  21444543.7424                   21444542.1374
        47.2504         36.0004
   8189803.52047   6386274.38345  22981705.7734                   22981704.2734
        45.5004         32.0004
 -18267917.14148 -14298719.44548  20814896.4144                   20814895.8874
        48.5004         48.5004
   6614332.62147   5162331.38745  22332792.8444                   22332789.7974
        46.0004         33.5004
  -8613628.71547  -6697000.99648  20345627.6484                   20345623.6724
        47.7504         48.5004
  16253229.84046  12651445.84845  24557408.6484                   24557408.8984
        41.2504         32.2504
 -12581813.37947  -9782322.31246  22518243.6954                   22518246.5594
        42.2504         39.2504
 -11209828.44547  -8572483.77045  22433701.9224                   22433701.7814
        44.0004         30.2504
   2303028.40645   2117227.53542  24663106.7274                   24663112.7894
        35.5004         16.7504
 25  8  7 23  1  0.0000000  0  9G01G02G03G28G31G32G26G04G16
  -5722867.57047  -4439930.60946  21446854.0164                   21446852.0704
        47.0004         36.2504
   8241131.53947   6426270.11745  22991472.7344                   22991471.7894
        45.5004         31.0004
 -18355410.41048 -14366895.98048  20798247.0234                   20798246.2504
        48.2504         48.7504
   6667176.93047   5203508.72345  22342848.4774                   22342845.8404
        46.0004         32.7504
  -8610198.99247  -6694328.48048  20346279.9694                   20346276.0824
        47.7504         48.5004
  16297485.45746  12685930.65245  24565829.1644                   24565831.2934
        40.2504         32.5004
 -12679846.51647  -9858711.66846  22499588.8834                   22499591.2704
        44.2504         39.5004
 -11296825.84447  -8640273.85945  22417146.8364                   22417147.0554
        44.0004         30.2504
   2172351.73846   2015402.02743  24638239.1884                   24638244.7734
        39.7504         20.0004
 25  8  7 23  1 30.0000000  0  9G01G02G03G28G31G32G26G04G16
  -5710235.21147  -4430087.24646  21449257.7894                   21449256.1294
        47.5004         37.0004
   8292646.91847   6466411.82445  23001276.3984                   23001274.6724
        45.0004         32.2504
 -18442605.08647 -14434839.84048  20781654.1644                   20781653.5904
        47.5004         48.7504
   6720277.01247   5244885.38345  22352953.3134                   22352950.2424
        46.0004         33.5004
  -8606246.45747  -6691248.58248  20347032.5634                   20347028.6564
        47.5004         48.7504
  16341722.80146  12720401.22745  24574247.5394                   24574248.8674
        40.5004         31.0004
 -12777551.57847  -9934845.36746  22480996.3444                   22480997.8954
        44.5004         40.0004
 -11383724.60547  -8707987.08645  22400610.1094                   22400610.0824
        43.5004         30.5004
   2041557.18046   1913484.44142  24613350.0164                   24613355.1724
        37.7504         17.7504
 25  8  7 23  2  0.0000000  0  9G01G02G03G28G31G32G26G04G16
  -5697105.09048  -4419856.02046  21451756.3524                   21451754.9184
        48.0004         36.5004
   8344353.00847   6506702.14145  23011115.8284                   23011114.3594
        44.2504         31.7504
 -18529492.72747 -14502544.44548  20765119.8914                   20765119.6884
        47.7504         49.0004
   6773636.41447   5286464.10945  22363107.2584                   22363104.5664
        45.2504         33.0004
  -8601766.58247  -6687757.77048  20347885.0634                   20347880.8554
        47.0004         48.7504
  16385948.13346  12754862.43045  24582662.4844                   24582665.3204
        39.0004         30.7504
 -12874919.37547 -10010716.27046  22462467.4384                   22462469.4264
        43.5004         39.5004
 -11470518.73847  -8775618.75045  22384094.0554                   22384093.8524
        43.0004         32.0004
   1910653.46146   1811482.02043  24588438.8134                   24588445.3164
        36.5004         18.5004
 25  8  7 23  2 30.0000000  0  9G01G02G03G28G31G32G26G04G16
  -5683491.31247  -4409247.91846  21454347.2034                   21454345.4384
        47.5004         36.5004
   8396234.68847   6547129.26645  23020988.9454                   23020987.2344
        45.0004         31.2504
 -18616083.42648 -14570017.67248  20748642.4144                   20748641.6174
        48.0004         49.0004
   6827240.38747   5328233.40245  22373308.2424                   22373304.9654
        45.7504         33.2504
  -8596773.79747  -6683867.28548  20348834.7504                   20348831.0704
        46.5004         48.5004
  16430149.05046  12789304.60745  24591074.5314                   24591076.4024
        38.5004         31.0004
 -12971959.21547 -10086331.63346  22444000.4844                   22444003.3324
        42.5004         39.5004
 -11557220.57047  -8843178.56645  22367594.9384                   22367595.3634
        43.2504         31.5004
   1779630.97346   1709386.92243  24563505.8364                   24563511.4924
        37.5004         19.5004
 25  8  7 23  3  0.0000000  0  9G01G02G03G28G31G32G26G04G16
  -5669381.39547  -4398253.21946  21457032.2664                   21457030.4654
        47.7504         36.0004
   8448303.59447   6587702.29745  23030898.1724                   23030895.8094
        42.7504         31.7504
 -18702360.61347 -14637246.61748  20732224.5944                   20732223.4144
        47.0004         49.0004
   6881100.67247   5370202.43445  22383556.9304                   22383554.3914
        44.0004         34.0004
  -8591255.62548  -6679567.40248  20349884.9064                   20349881.1214
        48.0004         48.5004
  16474339.89146  12823738.97744  24599483.6564                   24599485.0664
        39.5004         28.2504
 -13068653.76647 -10161677.93046  22425600.9614                   22425602.9694
        43.0004         39.2504
 -11643815.88747  -8910655.35245  22351116.3364                   22351116.2734
        43.2504         30.2504
   1648507.17645   1607212.92642  24538552.7034                   24538560.0514
        33.7504         14.7504
 25  8  7 23  3 30.0000000  0  9G01G02G03G28G31G32G26G04G16
  -5654793.94947  -4386886.41446  21459808.2034                   21459806.6024
        47.0004         36.7504
   8500540.39147   6628406.14145  23040837.9144                   23040836.1564
        43.7504         31.2504
 -18788338.76247 -14704242.53548  20715862.9694                   20715862.6174
        46.7504         49.0004
   6935198.00047   5412356.15645  22393851.6414                   22393848.7274
        46.0004         33.7504
  -8585230.53147  -6674872.52348  20351031.4304                   20351027.1914
        46.7504         48.5004
  16518504.00846  12858152.46145  24607888.3444                   24607890.5314
        41.0004         30.0004
 -13165016.67647 -10236765.81646  22407263.1484                   22407265.4414
        43.0004         39.2504
 -11730321.56247  -8978062.30544  22334655.2274                   22334655.0354
        43.0004         29.7504
   1517268.84846   1504949.64843  24513580.2114                   24513585.0594
        38.5004         19.5004
 25  8  7 23  4  0.0000000  0  9G01G02G03G28G31G32G26G04G16
  -5639725.19147  -4375144.56246  21462675.7584                   21462673.9924
        47.0004         36.7504
   8552947.87947   6669242.97345  23050811.3134                   23050809.0634
        44.5004         31.7504
 -18874009.92648 -14770999.24648  20699560.6804                   20699559.5004
        48.0004         49.2504
   6989535.55947   5454697.08645  22404191.4694                   22404188.7734
        45.0004         32.7504
  -8578694.67247  -6669779.64148  20352275.5084                   20352271.4774
        47.2504         48.5004
  16562647.07846  12892549.60945  24616289.0004                   24616290.5204
        41.5004         30.5004
 -13261039.35247 -10311588.57846  22388990.8674                   22388992.9024
        43.0004         39.5004
 -11816731.99647  -9045395.03945  22318211.9614                   22318211.3634
        43.7504         30.2504
   1385923.66845   1402603.11342  24488583.8984                   24488590.9734
        34.7504         16.7504
 25  8  7 23  4 30.0000000  0  9G01G02G03G28G31G32G26G04G16
  -5624169.88748  -4363023.57845  21465636.1644                   21465633.8404
        48.0004         35.5004
   8605530.55547   6710216.35245  23060817.6954                   23060815.5864
        44.2504         32.5004
 -18959364.73447 -14837509.44548  20683318.1334                   20683316.9534
        47.5004         49.2504
   7044117.90647   5497228.75045  22414577.9924                   22414575.1454
        46.0004         32.5004
  -8571642.80547  -6664284.67648  20353617.0314                   20353613.2274
        47.0004         48.2504
  16606776.18446  12926935.86345  24624687.5784                   24624686.6214
        41.0004         30.5004
 -13356711.63747 -10386138.31246  22370785.5704                   22370786.7774
        43.7504         39.7504
 -11903040.18447  -9112648.09845  22301787.5164                   22301787.1174
        43.5004         30.2504
   1254481.93846   1300181.33643  24463572.6564                   24463577.6054
        37.2504         19.7504
 25  8  7 23  5  0.0000000  0  9G01G02G03G28G31G32G26G04G16
  -5608133.08647  -4350527.41046  21468687.7894                   21468685.6804
        47.0004         36.0004
   8658282.28947   6751321.43045  23070854.8594                   23070854.0704
        43.5004         31.7504
 -19044404.07448 -14903773.83248  20667135.7734                   20667134.8794
        48.2504         49.2504
   7098939.37947   5539946.74245  22425010.8364                   22425007.7154
        45.5004         32.7504
  -8564079.94947  -6658391.54348  20355056.4774                   20355052.3874
        47.5004         48.2504
  16650888.25446  12961308.85544  24633080.7814                   24633082.5744
        40.5004         29.0004
 -13452033.65247 -10460415.10546  22352646.0474                   22352647.7234
        43.7504         40.2504
 -11989249.28547  -9179823.94145  22285382.6644                   22285382.4574
        43.2504         31.5004
   1122943.44545   1197684.23442  24438540.7194                   24438546.3054
        34.0004         16.2504
 25  8  7 23  5 30.0000000  0  9G01G02G03G28G31G32G26G04G16
  -5591623.85547  -4337663.10545  21471829.0704                   21471827.5274
        47.0004         35.7504
   8711193.39547   6792550.68445  23080924.8054                   23080923.3054
        43.2504         32.0004
 -19129132.85947 -14969796.21948  20651012.0394                   20651011.2194
        46.5004         49.2504
   7153990.29747   5582843.52045  22435486.4144                   22435483.7544
        44.7504         32.5004
  -8556015.22347  -6652107.33648  20356591.2114                   20356587.2464
        46.7504         48.5004
  16694976.21146  12995663.03545  24641470.9144                   24641471.6884
        41.2504         30.0004
 -13547009.80147 -10534422.39846  22334572.3754                   22334574.3834
        43.0004         39.5004
 -12075366.50847  -9246928.18745  22268995.2194                   22268994.3984
        42.2504         31.7504
    991304.46946   1095108.67643  24413491.3134                   24413496.1174
        37.7504         18.5004
 25  8  7 23  6  0.0000000  0  9G01G02G03G28G31G32G26G04G16
  -5574640.35247  -4324429.25045  21475061.1644                   21475058.8984
        47.5004         35.5004
   8764264.96547   6833904.97745  23091024.2814                   23091022.6954
        43.7504         32.5004
 -19213545.01648 -15035571.89548  20634948.7584                   20634947.9534
        48.2504         49.0004
   7209272.01247   5625920.14145  22446006.0634                   22446003.5204
        45.2504         33.0004
  -8547447.00447  -6645430.79748  20358221.2894                   20358217.5744
        47.7504         48.5004
  16739043.82446  13030001.35244  24649855.3364                   24649857.7114
        37.5004         27.7504
 -13641632.95347 -10608154.63346  22316566.0864                   22316567.5474
        42.5004         39.5004
 -12161388.23447  -9313958.02045  22252625.8754                   22252625.0554
        43.5004         31.2504
    859571.60246    992460.10943  24388422.4304                   24388427.8404
        36.0004         20.0004
 25  8  7 23  6 30.0000000  0  9G01G02G03G28G31G32G26G04G16
  -5557178.19547  -4310822.41045  21478383.7504                   21478382.1604
        47.2504         35.7504
   8817500.42647   6875386.97745  23101154.7194                   23101152.9144
        43.7504         30.7504
 -19297631.92647 -15101094.12548  20618947.8524                   20618946.8284
        47.7504         49.2504
   7264788.31647   5669179.55945  22456570.8594                   22456568.0594
        45.2504         32.0004
  -8538370.51647  -6638358.20748  20359948.4534                   20359944.8444
        47.0004         48.5004
  16783097.60246  13064328.88344  24658240.2194                   24658240.1994
        40.5004         28.5004
 -13735893.89547 -10681604.61346  22298629.0634                   22298630.5474
        43.2504         40.2504
 -12247308.13747  -9380908.49645  22236275.3754                   22236275.1724
        44.0004         31.5004
    727753.95345    889745.42642  24363337.2034                   24363343.9224
        33.7504         16.7504
 25  8  7 23  7  0.0000000  0  9G01G02G03G28G31G32G26G04G16
  -5539242.88748  -4296846.87145  21481796.8204                   21481795.4104
        48.0004         35.5004
   8870893.65247   6916991.91445  23111313.6724                   23111313.1644
        42.5004         31.0004
 -19381394.88348 -15166363.92648  20603008.4144                   20603007.4304
        48.0004         49.0004
   7320533.21947   5712617.10545  22467178.3134                   22467176.1094
        45.2504         32.7504
  -8528791.14548  -6630893.75448  20361771.4774                   20361767.7664
        48.0004         48.0004
  16827134.05546  13098642.89145  24666618.7274                   24666620.9454
        39.5004         30.0004
 -13829793.26647 -10754772.87146  22280760.4144                   22280761.9414
        43.0004         40.2504
 -12333129.82447  -9447782.44545  22219944.2504                   22219943.9774
        43.7504         31.0004
    595851.32446    786964.52343  24338238.6724                   24338242.5594
        41.5004         20.7504
 25  8  7 23  7 30.0000000  0  9G01G02G03G28G31G32G26G04G16
  -5520833.79747  -4282502.16845  21485300.0004                   21485298.4844
        47.5004         35.5004
   8924444.60947   6958719.75445  23121505.9224                   23121503.8874
        43.0004         30.5004
 -19464828.96548 -15231377.46948  20587131.1174                   20587130.1644
        48.0004         49.0004
   7376506.85247   5756232.89145  22477829.7504                   22477827.4654
        45.2504         32.5004
  -8518708.54348  -6623037.18448  20363690.3594                   20363686.4964
        48.0004         48.2504
  16871155.89546  13132945.50044  24674996.6174                   24674998.6644
        40.0004         28.7504
 -13923325.43047 -10827654.96546  22262962.0394                   22262963.6954
        42.5004         40.5004
 -12418850.65247  -9514577.80545  22203631.8674                   22203631.4384
        44.0004         31.0004
    463869.15246    684121.64843  24313123.2814                   24313127.0514
        37.5004         19.5004
 25  8  7 23  8  0.0000000  0  9G01G02G03G28G31G32G26G04G16
  -5501950.52047  -4267787.96146  21488893.5394                   21488892.1884
        47.5004         36.0004
   8978153.10246   7000570.33245  23131726.4924                   23131724.3094
        41.7504         30.5004
 -19547929.45348 -15296131.06248  20571317.6644                   20571316.7194
        48.7504         49.0004
   7432709.14147   5800026.83645  22488524.8914                   22488522.6174
        43.5004         32.5004
  -8508122.20347  -6614788.09048  20365704.7424                   20365700.7074
        47.5004         48.2504
  16915165.51246  13167238.75445  24683371.0234                   24683371.0944
        41.0004         30.5004
 -14016484.96147 -10900246.71946  22245234.1644                   22245235.7664
        44.5004         40.7504
 -12504468.28147  -9581292.72345  22187339.3364                   22187338.8404
        44.2504         32.2504
    331812.91856    581221.11753  24287992.1254                   24287997.8244
        39.5004         22.2504
 25  8  7 23  8 30.0000000  0  9G01G02G03G28G31G32G26G04G16
  -5482603.23447  -4252712.19145  21492574.9844                   21492573.7424
        47.0004         35.7504
   9032007.98047   7042534.98845  23141974.8524                   23141972.9774
        44.5004         31.0004
 -19630702.30148 -15360629.36748  20555566.5164                   20555565.8754
        48.2504         49.2504
   7489129.50047   5843990.70345  22499261.7584                   22499258.7704
        45.5004         31.2504
  -8497042.14147  -6606154.27748  20367813.2664                   20367809.2974
        47.7504         48.5004
  16959154.99647  13201516.14845  24691742.1884                   24691743.9414
        42.0004         31.2504
 -14109277.16047 -10972552.22746  22227576.6564                   22227577.6134
        43.5004         40.5004
 -12589990.94947  -9647933.66445  22171064.8524                   22171064.3714
        43.7504         31.5004
    199677.48846    478258.95343  24262849.1254                   24262852.6644
        39.0004         19.0004
 25  8  7 23  9  0.0000000  0  9G01G02G03G28G31G32G26G04G16
  -5462793.89147  -4237276.37945  21496344.7114                   21496343.0904
        47.2504         35.2504
   9086006.64547   7084611.69545  23152250.9144                   23152248.8874
        44.2504         30.5004
 -19713145.16847 -15424870.53148  20539878.0084                   20539876.5554
        47.5004         49.2504
   7545765.47347   5888122.59845  22510038.6564                   22510036.2704
        44.5004         31.7504
  -8485470.55948  -6597137.46148  20370015.2504                   20370011.2344
        48.5004         48.2504
  17003124.43047  13235777.99245  24700109.3834                   24700111.1334
        42.0004         32.2504
 -14201699.02047 -11044569.13746  22209988.9224                   22209990.0984
        43.5004         40.5004
 -12675418.63747  -9714500.59445  22154808.5234                   22154807.9104
        42.5004         31.7504
     67466.19146    406831.34453  24237689.3914                   24237694.5084
        39.0004         23.2504
 25  8  7 23  9 30.0000000  0  9G01G02G03G28G31G32G26G04G16
  -5442518.28148  -4221477.24645  21500203.4694                   21500200.8634
        48.0004         35.2504
   9140152.82047   7126803.33645  23162554.3524                   23162552.4694
        43.5004         30.5004
 -19795249.45348 -15488847.87548  20524253.8674                   20524253.6024
        49.5004         49.5004
   7602620.90647   5932425.49245  22520858.0784                   22520855.6644
        45.2504         31.7504
  -8473402.66848  -6587733.91048  20372311.5394                   20372307.5554
        48.7504         48.2504
  17047080.18047  13270029.07845  24708474.2274                   24708476.7814
        42.0004         31.2504
 -14293741.29347 -11116290.28946  22192473.4844                   22192475.2774
        42.5004         40.5004
 -12760745.02747  -9780988.59845  22138571.2194                   22138570.7384
        44.0004         31.7504
    -64811.86347    303758.23044  24212517.8524                   24212522.2384
        42.5004         26.7504
 25  8  7 23 10  0.0000000  0  9G01G02G03G28G31G32G26G04G16
  -5421774.63747  -4205313.40245  21504150.4694                   21504148.9454
        47.2504         35.5004
   9194447.47347   7169110.68045  23172886.3834                   23172884.3364
        44.0004         30.2504
 -19877009.09448 -15552556.66448  20508695.8444                   20508694.5704
        49.0004         49.5004
   7659697.16847   5976900.46545  22531719.1724                   22531716.8594
        44.5004         31.5004
  -8460837.04748  -6577942.52348  20374702.6954                   20374698.7194
        48.0004         48.0004
  17091026.21546  13304272.74645  24716837.0314                   24716836.8134
        41.5004         30.7504
 -14385397.20347 -11187710.36746  22175031.6724                   22175033.2934
        43.7504         40.5004
 -12845966.34047  -9847394.70745  22122354.2734                   22122353.7234
        44.5004         31.7504
   -197149.36346    200639.02043  24187334.6174                   24187340.9924
        39.2504         19.2504
 25  8  7 23 10 30.0000000  0  9G01G02G03G28G31G32G26G04G16
  -5400569.05147  -4188789.60945  21508186.0004                   21508184.1564
        46.2504         35.5004
   9248884.14147   7211528.67644  23183245.0004                   23183243.7774
        43.5004         29.5004
 -19958425.77048 -15615998.21548  20493202.8134                   20493201.6294
        49.0004         49.7504
   7716987.82447   6021542.49245  22542621.6484                   22542618.8874
        44.0004         31.0004
  -8447779.68048  -6567767.94547  20377187.4774                   20377183.5394
        48.5004         47.7504
  17134958.56346  13338505.66845  24725196.5004                   24725197.9104
        41.5004         32.0004
 -14476667.87547 -11258830.27346  22157663.9064                   22157665.0664
        43.7504         40.5004
 -12931086.59847  -9913722.07045  22106156.1804                   22106155.5204
        43.2504         31.7504
   -329547.63346     97472.31644  24162138.4144                   24162143.6334
        40.0004         25.0004
 25  8  7 23 11  0.0000000  0  9G01G02G03G28G31G32G26G04G16
  -5378909.15647  -4171911.82045  21512307.6174                   21512306.0394
        47.0004         35.5004
   9303454.12547   7254050.54745  23193630.0234                   23193628.0594
        43.2504         30.2504
 -20039502.80948 -15679175.11348  20477774.2664                   20477773.5704
        48.7504         49.7504
   7774484.89147   6066345.36345  22553562.3444                   22553560.1174
        44.0004         31.7504
  -8434237.98048  -6557215.97348  20379764.4774                   20379760.6054
        48.2504         48.0004
  17178872.00046  13372723.78145  24733553.7894                   24733554.7274
        41.0004         32.0004
 -14567555.97747 -11329652.04746  22140368.5864                   22140369.6454
        43.2504         41.0004
 -13016111.38347  -9979975.03945  22089976.3284                   22089975.3634
        43.7504         32.2504
   -462008.97346     -5743.97743  24136934.3914                   24136935.3524
        40.7504         20.5004
 25  8  7 23 11 30.0000000  0  9G01G02G03G28G31G32G26G04G16
  -5356794.64147  -4154679.76245  21516515.6954                   21516514.0704
        46.7504         34.7504
   9358157.47747   7296676.32444  23204039.5634                   23204038.5044
        43.5004         29.2504
 -20120235.47748 -15742083.66848  20462411.4774                   20462410.3134
        49.0004         49.7504
   7832188.37547   6111309.07445  22564543.4224                   22564540.6334
        44.0004         31.2504
  -8420211.64548  -6546286.36748  20382433.9694                   20382429.7894
        48.5004         48.0004
  17222768.81347  13406929.00445  24741907.3204                   24741908.6844
        42.5004         33.0004
 -14658056.14547 -11400171.55546  22123146.5234                   22123147.6454
        43.7504         41.0004
 -13101038.24247 -10046151.70745  22073815.4064                   22073814.7544
        45.0004         32.2504
                                  24111714.375
        40.500
 25  8  7 23 12  0.0000000  0  9G01G02G03G28G31G32G26G04G16
  -5334220.73447  -4137089.75045  21520811.6884                   21520809.8324
        46.5004         35.2504
   9412998.21147   7339409.18844  23214475.6884                   23214473.6294
        43.0004         28.5004
 -20200614.63748 -15804716.75848  20447115.6724                   20447114.9344
        49.5004         49.5004
   7890102.68447   6156437.07445  22575564.1804                   22575561.6804
        44.0004         30.5004
  -8405695.81248  -6534975.33247  20385195.8674                   20385191.9574
        48.7504         47.7504
  17266656.20346  13441126.93445  24750257.5004                   24750259.8484
        40.0004         31.5004
 -14748158.62547 -11470381.16846  22106000.4144                   22106001.8054
        43.2504         41.2504
 -13185860.31647 -10112246.71945  22057674.3674                   22057673.3594
        46.2504         32.2504
   4567798.78946   -124182.16454  24086489.0314                   24086491.6994
        41.0004         25.0004
 25  8  7 23 12 30.0000000  0  9G01G02G03G28G31G32G26G04G16
  -5311186.80947  -4119141.28545  21525194.9224                   21525193.5084
        47.0004         35.5004
   9467976.16447   7382248.95744  23224938.0394                   23224935.9654
        43.2504         28.5004
 -20280635.18748 -15867070.41448  20431888.4694                   20431887.2774
        49.7504         49.7504
   7948228.25447   6201729.69145  22586625.2344                   22586622.5354
        43.2504         31.0004
  -8390690.12948  -6523282.59448  20388051.1884                   20388047.3444
        48.7504         48.0004
  17310537.10246  13475319.75845  24758608.6484                   24758610.2114
        39.2504         32.5004
 -14837857.76647 -11540276.50446  22088930.7664                   22088933.0044
        43.0004         41.5004
 -13270574.87147 -10178257.96145  22041553.4844                   22041552.4024
        46.5004         31.7504
   4435190.78546   -227512.55542  24061251.8834                   24061257.2504
        37.5004         14.7504
 25  8  7 23 13  0.0000000  0  9G01G02G03G28G31G32G26G04G16
  -5287702.92247  -4100842.19545  21529663.6414                   21529662.0704
        47.5004         35.0004
   9523081.12947   7425187.66845  23235424.0474                   23235422.9844
        44.2504         30.0004
 -20360302.83648 -15929149.07448  20416728.2114                   20416726.7704
        49.2504         49.7504
   8006554.73047   6247178.86345  22597724.5944                   22597721.8914
        43.2504         31.2504
  -8375204.02748  -6511215.50848  20390998.6804                   20390994.4734
        48.5004         48.0004
  17354403.68846  13509501.42245  24766955.8364                   24766958.3914
        40.2504         34.0004
 -14927158.55947 -11609861.42646  22071938.0944                   22071939.2344
        43.0004         40.7504
 -13355189.73847 -10244191.53545  22025451.5864                   22025450.6844
        45.7504         32.0004
   4302536.89846   -299871.23053  24036009.5554                   24036011.9884
        40.0004         22.5004
 25  8  7 23 13 30.0000000  0  8G01G02G03G28G31G32G26G04
  -5263769.59847  -4082192.89145  21534217.9534                   21534216.2734
        46.0004         35.0004
   9578311.97347   7468224.47744  23245934.4454                   23245932.7854
        42.2504         29.5004
 -20439613.59848 -15990949.64548  20401635.6024                   20401634.6724
        49.5004         50.0004
   8065081.35547   6292783.97345  22608861.6484                   22608859.6764
        44.2504         31.2504
  -8359238.27748  -6498774.66047  20394036.6724                   20394032.4384
        48.5004         47.7504
  17398257.83246  13543673.41445  24775301.0784                   24775302.7034
        38.2504         33.5004
 -15016056.52047 -11679132.45346  22055021.1644                   22055021.8914
        43.5004         41.0004
 -13439703.27047 -10310046.14145  22009368.9064                   22009368.5514
        45.5004         31.7504
 25  8  7 23 14  0.0000000  0  9G01G02G03G28G31G32G26G04G16
  -5239392.82047  -4063198.04345  21538857.0474                   21538855.3794
        47.2504         34.7504
   9633662.35547   7511354.42644  23256467.1804                   23256465.7384
        42.5004         28.5004
 -20518569.01248 -16052473.31648  20386610.7814                   20386610.0234
        50.0004         50.0004
   8123801.93447   6338540.23445  22620035.6564                   22620033.0084
        43.5004         31.0004
  -8342798.61748  -6485964.54347  20397164.4924                   20397161.0044
        48.7504         47.7504
  17442095.83646  13577832.79745  24783643.0394                   24783645.6804
        38.7504         33.0004
 -15104552.59447 -11748090.33246  22038180.6804                   22038181.8094
        44.2504         41.7504
 -13524119.21547 -10375824.71145  21993305.5474                   21993304.4574
        45.5004         31.2504
   4622727.11356   -420517.35552  23985497.9694                   23985505.4734
        36.7504         17.7504
 25  8  7 23 14 30.0000000  0  9G01G02G03G28G31G32G26G04G16
  -5214559.45747  -4043847.41045  21543582.3524                   21543580.8134
        46.2504         35.0004
   9689144.72747   7554587.24644  23267025.0864                   23267024.3244
        43.2504         28.7504
 -20597151.43748 -16113706.34448  20371657.3284                   20371655.9494
        50.0004         50.2504
   8182729.46947   6384457.75445  22631249.2424                   22631246.4844
        43.2504         32.2504
  -8325872.16448  -6472775.10947  20400385.7814                   20400381.8794
        48.7504         47.7504
  17485933.28946  13611991.71545  24791986.5474                   24791987.4184
        39.0004         33.5004
 -15192628.59447 -11816720.86346  22021420.3364                   22021421.6294
        43.5004         41.2504
 -13608422.20347 -10441515.26645  21977262.7114                   21977261.5944
        45.0004         31.2504
   4489965.85546   -523967.13743  23960234.1724                   23960239.1684
        39.2504         20.7504
 25  8  7 23 15  0.0000000  0  9G01G02G03G28G31G32G26G04G16
  -5189283.42247  -4024151.85545  21548392.3594                   21548390.8634
        46.7504         34.5004
   9744744.51647   7597911.53944  23277604.7114                   23277604.7344
        42.0004         28.7504
 -20675370.43048 -16174656.17648  20356772.7584                   20356771.6214
        49.7504         50.2504
   8241849.77747   6430525.48045  22642499.5004                   22642497.1914
        44.2504         31.2504
  -8308472.52748  -6459216.95747  20403696.8984                   20403693.0634
        49.2504         47.7504
  17529758.43046  13646141.10945  24800326.4924                   24800327.0234
        38.0004         32.5004
 -15280293.43047 -11885031.03946  22004738.2814                   22004739.4064
        44.0004         41.7504
 -13692623.98447 -10507126.95745  21961239.7734                   21961238.9734
        45.0004         30.7504
   4357172.93446   -627442.06243  23934963.6884                   23934968.5164
        37.5004         19.0004
 25  8  7 23 15 30.0000000  0  9G01G02G03G28G31G32G26G04G16
  -5163566.12947  -4004112.44545  21553286.1564                   21553284.9144
        46.7504         34.5004
   9800459.94147   7641325.90644  23288208.5474                   23288207.2234
        43.7504         29.5004
 -20753222.79348 -16235320.32448  20341958.0634                   20341957.1604
        50.0004         50.5004
   8301161.38347   6476742.27745  22653786.1414                   22653783.8284
        43.7504         31.2504
  -8290601.03148  -6445291.12547  20407097.6174                   20407093.8714
        48.7504         47.7504
  17573572.51246  13680281.78944  24808663.0234                   24808664.7704
        38.0004         29.5004
 -15367543.50847 -11953018.00846  21988134.7504                   21988136.3364
        42.5004         41.2504
 -13776723.64147 -10572659.07045  21945236.1254                   21945234.9804
        42.5004         31.5004
   4224351.83246   -730938.57443  23909688.4224                   23909693.2154
        38.0004         20.0004
 25  8  7 23 16  0.0000000  0  9G01G02G03G28G31G32G26G04G16
  -5137414.30547  -3983734.45345  21558262.9304                   21558261.3204
        46.0004         35.2504
   9856283.87547   7684824.86344  23298830.7424                   23298830.0784
        43.0004         29.0004
 -20830710.85248 -16295700.59448  20327212.5864                   20327211.4454
        49.5004         50.5004
   8360657.36347   6523102.73045  22665108.3204                   22665106.0864
        44.0004         30.7504
  -8272264.26248  -6431002.74247  20410587.2664                   20410583.2344
        49.2504         47.7504
  17617371.03545  13714410.43844  24816995.7504                   24816998.9574
        34.0004         26.2504
 -15454380.46147 -12020683.07047  21971610.3674                   21971611.6994
        44.0004         42.0004
 -13860725.70747 -10638115.14845  21929250.9064                   21929250.3834
        44.7504         31.5004
   4091502.00446   -834457.68043  23884409.4064                   23884411.8984
        39.5004         22.5004
 25  8  7 23 16 30.0000000  0  9G01G02G03G28G31G32G26G04G16
  -5110829.03947  -3963018.69945  21563321.4774                   21563320.4774
        46.0004         34.5004
   9912214.99646   7728407.32844  23309473.9144                   23309473.6914
        41.7504         29.0004
 -20907831.09048 -16355794.24648  20312536.8524                   20312535.6884
        50.0004         50.7504
   8420336.57047   6569605.96945  22676464.6024                   22676462.3714
        44.5004         30.7504
  -8253463.36348  -6416352.69947  20414164.7194                   20414160.6644
        48.2504         47.5004
  17661155.46946  13748528.06644  24825330.2344                   24825330.7664
        37.5004         29.2504
 -15540800.28947 -12088023.09846  21955164.7894                   21955166.1804
        44.0004         41.5004
 -13944628.81247 -10703494.10545  21913284.7194                   21913283.7624
        45.2504         31.2504
   3958626.92646   -937996.39543  23859124.3054                   23859125.6414
        41.5004         20.7504
 25  8  7 23 17  0.0000000  0  9G01G02G03G28G31G32G26G04G16
  -5083803.08647  -3941959.56245  21568464.9694                   21568463.7664
        46.2504         34.5004
   9968259.86747   7772078.38744  23320140.2504                   23320139.1484
        43.7504         29.2504
 -20984571.81648 -16415592.17648  20297933.0234                   20297932.3134
        49.5004         50.7504
   8480206.16447   6616257.55545  22687857.6724                   22687854.9454
        43.5004         31.5004
  -8234190.85948  -6401335.18447  20417832.2194                   20417828.3364
        48.7504         47.5004
  17704935.44946  13782642.22344  24833660.9534                   24833662.1174
        37.0004         28.7504
 -15626790.71547 -12155028.53946  21938801.5004                   21938802.4494
        43.0004         41.2504
 -14028423.44947 -10768788.54745  21897339.0234                   21897337.7814
        43.7504         31.5004
   3825740.14546  -1041544.27043  23833834.6094                   23833838.2304
        37.7504         23.7504
 25  8  7 23 17 30.0000000  0  9G01G02G03G28G31G32G26G04G16
  -5056337.97347  -3920558.22745  21573691.4924                   21573689.8674
        45.7504         35.2504
  10024416.60247   7815836.65244  23330826.3754                   23330826.0594
        43.2504         29.2504
 -21060930.00848 -16475092.03148  20283403.0864                   20283402.0514
        49.7504         50.7504
   8540264.55547   6663056.25045  22699286.2424                   22699283.8404
        42.7504         30.2504
  -8214448.17248  -6385951.28147  20421589.0474                   20421585.0394
        48.5004         47.7504
  17748712.01646  13816753.66044  24841991.9064                   24841993.0554
        37.7504         27.2504
 -15712348.28547 -12221696.67646  21922519.9384                   21922521.5204
        44.2504         41.5004
 -14112108.86747 -10833997.87945  21881414.3284                   21881412.8054
        45.2504         31.7504
   3692845.25446  -1145098.39543  23808545.7894                   23808547.7974
        40.2504         21.2504
 25  8  7 23 18  0.0000000  0  9G01G02G03G28G31G32G26G04G16
  -5028446.07447  -3898824.32045  21578998.9614                   21578997.3594
        46.0004         34.7504
  10080672.49247   7859672.17644  23341531.4774                   23341531.1564
        43.7504         29.7504
 -21136913.44948 -16534299.87548  20268943.9144                   20268942.8364
        50.5004         50.7504
   8600499.31347   6709992.38345  22710748.4694                   22710746.0124
        43.2504         31.0004
  -8194247.53548  -6370210.54347  20425433.0864                   20425429.4264
        49.0004         47.5004
  17792475.19946  13850854.81344  24850318.1954                   24850320.3524
        36.2504         27.2504
 -15797480.22747 -12288033.15646  21906320.4304                   21906321.2664
        44.0004         41.5004
 -14195694.99247 -10899129.84045  21865508.3364                   21865507.2304
        45.0004         32.0004
   3559935.89146  -1248663.87943  23783253.4304                   23783256.4654
        39.0004         22.7504
