     2.11           OBSERVATION DATA    G (GPS)             RINEX VERSION / TYPE
teqc  2011Oct11     David Guenaga       20150713 20:32:20UTCPGM / RUN BY / DATE
Linux 2.4.21-27.ELsmp|Opteron|gcc|Linux x86_64|=+           COMMENT
BIT 2 OF LLI FLAGS DATA COLLECTED UNDER A/S CONDITION       COMMENT
vers                                                        MARKER NAME
1870                                                        MARKER NUMBER
G Funning/D Guenaga University of California, Riverside     OBSERVER / AGENCY
0220413522          TRIMBLE R7          2.32                REC # / TYPE / VERS
1441045101          TRM57971.00                             ANT # / TYPE
 -2430818.1367 -4704712.6452  3543694.1461                  APPROX POSITION XYZ
        0.9533        0.0000        0.0000                  ANTENNA: DELTA H/E/N
     1     1                                                WAVELENGTH FACT L1/2
     7    L1    L2    C1    P2    D1    S1    S2            # / TYPES OF OBSERV
    30.0000                                                 INTERVAL
    16                                                      LEAP SECONDS
 SNR is mapped to RINEX snr flag value [0-9]                COMMENT
  L1 & L2: min(max(int(snr_dBHz/6), 0), 9)                  COMMENT
  2015     7     6    18    24    0.0000000     GPS         TIME OF FIRST OBS
  2015     7     7     9    26    0.0000000     GPS         TIME OF LAST OBS
  2015     7     7     9    26    0.0000000     GPS         TIME OF LAST OBS
                                                            END OF HEADER
 15  7  6 18 24  0.0000000  0  7G11G13G15G17G28G30G07
     25828.22357     13040.31355  22754300.3754   22754297.1454
        46.2504         30.0004
    -50790.66858    -27589.00456  21614473.6644   21614470.2074
        48.5004         36.7504
   -103968.77056    -46526.50054  24190349.3834   24190347.5084
        41.2504         27.5004
   -112658.01258    -68533.81256  21558972.3204   21558969.4884
        49.0004         39.7504
     27379.10958     16238.63756  21127324.0234   21127319.4574
        50.0004         39.5004
     38501.04758     23182.87557  20613174.5164   20613172.6294
        51.0004         43.0004
    116404.26257     70434.15255  21979820.8284   21979818.9024
        47.5004         35.0004
 15  7  6 18 24 30.0000000  0  9G11G01G13G15G17G28G30G04G07
     44317.03147     27447.13745  22757818.4384   22757815.5594       -616.2944
        44.0004         30.5004
    -44153.56256    -27773.74254  23431717.2584   23431718.4494
        41.5004         27.2504
    -82593.76648    -52370.66046  21608421.7974   21608418.2664       1060.1034
        48.2504         36.7504
   -168068.70746    -96474.49244  24178151.2894   24178149.6804       2136.6654
        39.0004         27.0004
   -179912.69148   -120940.01246  21546174.7194   21546171.6374       2241.8234
        49.0004         39.0004
     42632.23848     28124.15646  21130226.3524   21130221.9184       -508.4384
        50.2504         40.0004
     60813.14848     40568.88747  20617420.0864   20617418.2504       -743.7374
        50.0004         42.7504
     12464.22357      7625.97353  23980140.0084   23980138.3794
        42.5004         23.7504
    184833.64848    123755.62146  21992843.0944   21992840.3594      -2280.9804
        48.2504         36.0004
 15  7  6 18 25  0.0000000  0  9G11G01G13G15G17G28G30G04G07
     63072.16847     42061.50445  22761387.8204   22761384.5904       -625.1714
        44.2504         30.0004
    -76219.28946    -52759.96944  23425615.3524   23425617.0744       1068.8584
        40.2504         28.0004
   -114114.41848    -76932.23046  21602423.5314   21602420.1214       1050.6884
        48.0004         36.2504
   -232068.53146   -137031.48854  24165973.1644   24165971.2234       2133.3274
        41.0004         26.0004
   -247070.50048   -173270.72346  21533394.8204   21533392.3094       2238.5944
        49.0004         40.7504
     57705.29748     39869.37546  21133094.5004   21133090.1684       -502.4354
        49.5004         39.7504
     83188.86748     58004.46947  20621678.3834   20621677.0084       -745.8574
        51.5004         43.0004
     21661.08647     14792.30543  23981889.5784   23981888.8444       -306.5624
        43.5004         22.0004
    253281.66047    177091.60945  22005868.2974   22005865.4184      -2281.6004
        47.0004         35.2504
 15  7  6 18 25 30.0000000  0  9G11G01G13G15G17G28G30G04G07
     82146.10947     56924.28145  22765017.6564   22765014.5204       -635.7984
        44.5004         30.0004
   -108088.37147    -77592.98044  23419550.1484   23419552.2344       1062.3034
        42.5004         27.5004
   -145298.70348   -101231.68446  21596489.2114   21596485.8364       1039.4764
        49.0004         36.7504
   -295913.67246   -186780.89843  24153823.7424   24153821.8444       2128.1714
        38.5004         22.5004
   -314077.46548   -225483.89846  21520643.9144   21520640.6374       2233.5654
        48.2504         40.2504
     72650.19948     51514.71946  21135938.3984   21135933.8134       -498.1634
        50.0004         39.7504
    105681.33248     75531.02747  20625958.5784   20625956.8324       -749.7494
        51.0004         43.0004
     31145.99647     22183.07843  23983694.5784   23983694.1994       -316.1644
        43.5004         23.0004
    321801.05147    230483.23446  22018907.1564   22018904.6334      -2283.9804
        47.2504         36.0004
 15  7  6 18 26  0.0000000  0  9G11G01G13G15G17G28G30G04G07
    101574.78547     72063.50444  22768714.7424   22768711.1054       -647.6234
        46.0004         29.0004
   -139722.61747   -102242.94144  23413531.1644   23413532.7624       1054.4754
        42.5004         28.7504
   -176109.53547   -125240.15645  21590626.4694   21590622.7274       1027.0284
        47.5004         34.0004
                                  24141710.281
        30.250
   -380896.05948   -277550.28946  21507928.3204   21507925.8404       2227.2864
        48.5004         39.7504
     87502.21148     63087.68846  21138765.1174   21138760.2624       -495.0674
        50.7504         40.7504
    128327.32848     93177.19147  20630268.2424   20630266.4804       -754.8674
        52.2504         43.0004
     40955.45747     29826.74243  23985561.7664   23985560.6414       -326.9824
        42.2504         22.7504
    390427.25048    283958.08245  22031965.8834   22031963.7504      -2287.5404
        48.0004         35.5004
 15  7  6 18 26 30.0000000  0  9G11G01G13G15G17G28G30G04G07
    121382.79347     87498.25445  22772484.7734   22772480.5664       -660.2674
        46.2504         30.0004
   -171095.45747   -126689.27044  23407560.8444   23407561.9224       1045.7614
        42.0004         27.7504
   -206521.41448   -148937.75845  21584839.1564   21584835.7624       1013.7294
        48.0004         33.7504
   -422999.75455   -245528.35552  24129639.9304   24129637.8594
        35.0004         17.2504
   -447500.46548   -329449.78546  21495254.4924   21495251.1764       2220.1474
        49.5004         40.5004
    102284.69948     74606.49646  21141577.7114   21141573.1564       -492.7504
        50.2504         39.2504
    151151.83248    110962.48447  20634611.4064   20634609.8484       -760.8174
        51.2504         42.7504
     51114.19947     37742.60244  23987494.7894   23987493.4534       -338.6254
        43.2504         25.5004
    459184.04747    337534.68445  22045050.0634   22045047.6804      -2291.8934
        46.5004         35.0004
 15  7  6 18 27  0.0000000  0  9G11G01G13G15G17G28G30G04G07
    141593.91057    103246.94155  22776330.3754   22776327.1954       -672.9114
        45.7504         30.2504
   -202179.96156   -150910.99654  23401645.9224   23401647.9024       1037.0484
        41.5004         26.0004
   -236507.25448   -172303.35546  21579133.0634   21579129.5004        999.5284
        49.2504         37.0004
   -486186.42246   -294764.68744  24117616.0004   24117614.3284       2106.2224
        41.5004         26.5004
   -513863.71948   -381161.37546  21482625.9384   21482622.5784       2212.1084
        48.0004         39.2504
    117021.85248     86089.95746  21144382.5944   21144377.4924       -491.2384
        49.5004         39.2504
    174180.99648    128907.25847  20638993.8204   20638992.1564       -767.6394
        50.2504         42.7504
     61647.94956     45950.65653  23989499.8754   23989498.1094       -350.2674
        41.5004         21.0004
    528096.53948    391232.59846  22058164.1094   22058161.7034      -2297.0834
        48.5004         37.2504
 15  7  6 18 27 30.0000000  0  9G11G01G13G15G17G28G30G04G07
    162262.52347    119352.35944  22780262.7584   22780259.8364       -688.9544
        45.2504         29.5004
   -232920.15257   -174864.27055  23395796.1174   23395797.8324       1028.3344
        42.0004         30.0004
   -266014.03148   -195295.68046  21573517.8834   21573514.3714        983.5594
        49.0004         36.7504
   -549072.34446   -343766.69544  24105649.1254   24105647.2854       2096.1974
        41.0004         26.0004
   -579931.86348   -432642.98046  21470053.1804   21470050.4924       2202.2714
        48.0004         40.0004
    131765.27748     97578.30946  21147187.6884   21147183.3914       -491.4484
        50.0004         39.2504
    197467.77748    147052.75447  20643425.2734   20643423.4614       -776.2264
        52.0004         43.5004
     72609.57847     54492.12543  23991585.9064   23991583.9534       -365.3884
        42.0004         22.7504
    597216.84048    445092.44146  22071317.6484   22071314.7304      -2304.0104
        48.7504         36.7504
 15  7  6 18 28  0.0000000  0  9G11G01G13G15G17G28G30G04G07
    183533.62547    135927.21145  22784311.0474   22784307.7424       -709.0374
        46.5004         30.7504
   -263169.21156   -198434.94954  23390040.1024   23390040.6804       1019.6214
        41.5004         27.7504
   -294894.35948   -217799.85246  21568021.7034   21568018.4454        962.6784
        49.5004         37.2504
   -611509.59846   -392419.12544  24093767.8054   24093765.8714       2081.2424
        39.5004         27.0004
   -645557.19948   -483779.58646  21457565.3524   21457561.9694       2187.5114
        48.5004         40.0004
    146660.32448    109184.80546  21150022.2894   21150017.8874       -496.5024
        50.0004         39.2504
    221159.03548    165513.44547  20647933.6414   20647931.7344       -789.7094
        51.0004         43.2504
     84145.63356     63481.19153  23993780.5234   23993779.4104       -380.5084
        41.7504         23.2504
    666690.50048    499227.65645  22084537.6644   22084535.5354      -2315.7894
        48.5004         35.0004
 15  7  6 18 28 30.0000000  0  9G11G01G13G15G17G28G30G04G07
    205657.73447    153166.77345  22788520.7504   22788517.5664       -737.4704
        45.0004         30.0004
   -292673.88747   -221425.56644  23384425.1954   23384426.2464        983.4894
        42.0004         28.5004
   -322896.32848   -239619.58246  21562693.7274   21562690.3324        933.3994
        48.2504         37.2504
   -673245.63746   -440525.09043  24082019.5784   24082017.9884       2057.8684
        40.2504         22.7504
   -710487.74647   -534374.76246  21445209.1644   21445206.1294       2164.3524
        47.7504         39.7504
    161956.71948    121104.06346  21152933.2734   21152928.0864       -509.8804
        50.0004         39.2504
    245506.14148    184485.17647  20652566.5394   20652564.9064       -811.5704
        50.5004         42.5004
     96507.29747     73113.59444  23996133.1414   23996132.1914       -412.0554
        42.5004         25.0004
    736767.62147    553833.07445  22097873.3134   22097870.9224      -2335.9044
        47.2504         34.5004
 15  7  6 18 29  0.0000000  0  9G11G01G13G15G17G28G30G04G07
    228713.91447    171132.60245  22792908.0704   22792905.1884       -768.5394
        45.2504         30.0004
   -321352.80946   -243772.71944  23378967.5474   23378968.9144        955.9644
        41.2504         28.0004
   -349939.46147   -260692.16446  21557547.8204   21557543.9344        901.4384
        47.5004         36.5004
   -734199.10546   -488021.33244  24070420.4144   24070418.8954       2031.7824
        39.5004         27.5004
   -774642.57047   -584365.48046  21433000.5234   21432998.0314       2138.4944
        47.5004         39.5004
    177732.68848    133396.98846  21155935.2504   21155930.2074       -525.8664
        50.0004         40.0004
    270589.07448    204030.27047  20657339.5784   20657338.1914       -836.0984
        50.5004         42.7504
    109774.17647     83451.37144  23998657.1094   23998656.9964       -442.2294
        42.7504         24.0004
    807527.36348    608970.41445  22111338.5554   22111336.0354      -2358.6584
        48.2504         35.2504
 15  7  6 18 29 30.0000000  0  9G11G01G13G15G17G28G30G04G07
    252505.00847    189671.10945  22797436.1024   22797432.9264       -793.0364
        43.0004         30.0004
   -349400.98446   -265628.41444  23373630.9694   23373630.9614        934.9394
        40.0004         27.5004
   -376219.56247   -281170.18746  21552546.2664   21552543.1764        876.0034
        47.5004         36.0004
   -794565.28547   -535059.89844  24058933.4064   24058931.7304       2012.2064
        42.2504         28.2504
   -838217.36748   -633904.24246  21420902.9534   21420899.7194       2119.1604
        49.2504         40.2504
    193790.32448    145909.41846  21158991.0084   21158986.3164       -535.2554
        49.5004         40.2504
    296211.41848    223995.68847  20662215.5634   20662213.9024       -854.0784
        49.5004         43.2504
    123749.43446     94341.10943  24001316.8134   24001315.5824       -465.8424
        38.5004         22.7504
    878772.08648    664485.67645  22124896.1724   22124893.3914      -2374.8244
        48.0004         34.7504
 15  7  6 18 30  0.0000000  0  9G11G01G13G15G17G28G30G04G07
    276854.13347    208644.43044  22802068.7664   22802065.8484       -811.6374
        42.0004         29.5004
   -376992.89547   -287128.58644  23368379.7504   23368381.1334        919.7304
        42.0004         28.5004
   -401912.44548   -301190.62946  21547657.4304   21547654.0554        856.4294
        48.5004         36.5004
   -854519.16446   -581777.21944  24047524.6804   24047522.6684       1998.4634
        40.7504         27.2504
   -901387.06248   -683127.34046  21408881.9384   21408879.0904       2105.6574
        48.7504         40.0004
    209952.59048    158503.37146  21162066.8524   21162061.4414       -538.7424
        51.0004         39.5004
    322197.27048    244244.36347  20667160.3834   20667158.8094       -866.1954
        48.2504         42.5004
    138256.98847    105645.67644  24004077.8674   24004076.5984       -483.5854
        43.0004         24.2504
    950324.83647    720240.94145  22138511.9304   22138509.5744      -2385.0924
        46.7504         34.7504
 15  7  6 18 30 30.0000000  0  9G11G01G13G15G17G28G30G04G07
    301703.74247    228007.74245  22806797.7664   22806794.7734       -828.3204
        44.7504         30.7504
   -404183.50447   -308316.05145  23363205.8054   23363206.9574        906.3544
        43.5004         30.0004
   -427074.00848   -320797.07446  21542869.3134   21542866.0084        838.7194
        49.0004         36.5004
   -914115.56646   -628215.96144  24036183.7664   24036181.8754       1986.5474
        41.5004         28.2504
   -964207.45348   -732078.24246  21396927.6174   21396924.4184       2094.0134
        48.7504         40.5004
    226161.68048    171133.80146  21165150.8054   21165146.1484       -540.3034
        49.5004         39.7504
    348490.34848    264732.41847  20672164.1334   20672162.3014       -876.4364
        50.7504         43.0004
    153239.98446    117320.70743  24006928.7504   24006928.3094       -499.4334
        38.7504         20.2504
   1022128.31347    776191.58245  22152176.0164   22152173.0394      -2393.4494
        47.5004         35.5004
 15  7  6 18 31  0.0000000  0  9G11G01G13G15G17G28G30G04G07
    327046.00047    247754.93444  22811620.8364   22811617.2304       -844.7424
        44.0004         29.2504
   -430978.77747   -329195.45344  23358106.9534   23358107.6844        893.1764
        42.2504         28.5004
   -451711.21548   -339994.91446  21538181.2344   21538177.7734        821.2404
        49.5004         37.0004
   -973360.59846   -674380.91044  24024909.7894   24024907.8244       1974.8344
        41.5004         28.2504
  -1026684.98447   -780761.98846  21385038.3284   21385035.5044       2082.5844
        47.2504         41.0004
    242408.37948    183793.54346  21168242.3594   21168237.7704       -541.5574
        50.0004         39.2504
    375083.22748    285454.09847  20677224.5394   20677222.9844       -886.4294
        51.2504         43.2504
    168691.00047    129360.41443  24009869.2504   24009868.0434       -515.0344
        42.5004         22.5004
   1094173.85248    832330.84845  22165885.8754   22165883.3594      -2401.5184
        48.5004         35.0004
 15  7  6 18 31 30.0000000  0  9G11G01G13G15G17G28G30G04G07
    352888.80947    267892.17244  22816538.5234   22816534.9924       -861.4274
        44.5004         29.0004
   -457368.14547   -349758.58244  23353084.8054   23353085.7074        879.6464
        43.0004         28.2504
   -475814.49248   -358776.71146  21533594.4454   21533590.7424        803.4434
        49.7504         36.2504
  -1032244.00847   -720264.09044  24013704.8914   24013703.0394       1962.7804
        43.0004         28.5004
  -1088809.79748   -829170.88346  21373216.8444   21373213.6254       2070.8274
        48.5004         40.2504
    258700.68448    196488.82446  21171343.4064   21171338.2114       -543.0774
        50.0004         39.7504
    401985.11748    306416.57847  20682343.5004   20682342.2274       -896.7304
        49.7504         43.0004
    184618.35946    141771.31643  24012900.2034   24012898.4694       -530.9124
        41.7504         22.0004
   1166469.53547    888665.03945  22179642.9224   22179640.6174      -2409.8564
        46.7504         34.5004
 15  7  6 18 32  0.0000000  0  9G11G01G13G15G17G28G30G04G07
    379239.84047    288425.41444  22821552.4774   22821549.5634       -878.3684
        43.5004         29.5004
   -483341.68747   -369997.67244  23348141.8914   23348143.4064        865.7854
        42.0004         27.5004
   -499374.84848   -377135.45346  21529111.1484   21529107.2814        785.3454
        49.7504         36.5004
  -1090755.74646   -765857.64544  24002570.0234   24002568.3164       1950.3914
        41.5004         28.0004
  -1150572.18748   -877297.38746  21361463.8444   21361460.1454       2058.7464
        48.0004         40.7504
    275045.82448    209225.27746  21174453.7194   21174448.6884       -544.8384
        50.0004         40.0004
    429204.72348    327626.61347  20687523.3674   20687521.8674       -907.3204
        49.0004         43.2504
    201030.64847    154560.09043  24016023.2034   24016021.6914       -547.0764
        42.2504         22.7504
   1239023.03547    945200.08645  22193449.9614   22193447.5124      -2418.4504
        47.0004         34.5004
 15  7  6 18 32 30.0000000  0  9G11G01G13G15G17G28G30G04G07
    406111.36347    309364.24244  22826666.6484   22826662.9414       -895.7174
        42.7504         29.2504
   -508884.91446   -389901.46544  23343281.4454   23343282.7624        851.4414
        41.2504         28.5004
   -522379.09048   -395060.86746  21524733.5164   21524729.9494        766.8084
        49.7504         37.5004
  -1148881.83647   -811150.70344  23991509.2734   23991507.4804       1937.5364
        42.0004         27.7504
  -1211958.43047   -925130.78546  21349782.1724   21349779.0704       2046.2084
        47.2504         40.2504
    291455.21548    222011.79746  21177576.1804   21177571.2274       -546.9804
        50.0004         40.2504
    456754.96548    349094.28547  20692765.7504   20692764.3714       -918.3414
        50.0004         43.2504
    217940.61346    167736.64143  24019241.5394   24019240.3364       -563.6654
        41.7504         22.2504
   1311846.23047   1001945.31345  22207306.8524   22207305.3674      -2427.4404
        46.7504         35.0004
 15  7  6 18 33  0.0000000  0  9G11G01G13G15G17G28G30G04G07
    433513.63347    330716.63344  22831880.4064   22831877.4574       -913.4094
        42.2504         28.7504
   -533985.20347   -409460.10944  23338504.9844   23338505.7894        836.6764
        42.7504         28.2504
   -544815.21148   -412543.58246  21520464.3524   21520460.7424        747.8714
        49.0004         36.7504
  -1206609.76647   -856133.50044  23980523.5234   23980522.4654       1924.2644
        42.5004         27.5004
  -1272956.23847   -972661.49646  21338174.3834   21338171.1374       2033.2604
        47.0004         41.0004
    307938.97748    234856.25846  21180712.8364   21180708.0744       -549.4594
        49.5004         39.5004
    484647.27748    370828.50047  20698073.6414   20698072.0984       -929.7444
        49.0004         43.0004
    235358.78546    181309.21143  24022555.7114   24022554.5634       -580.6064
        41.0004         22.2504
   1384949.80547   1058908.98845  22221218.8134   22221216.6724      -2436.7864
        47.0004         34.5004
 15  7  6 18 33 30.0000000  0  9G11G01G13G15G17G28G30G04G07
    461454.80147    352488.93844  22837197.4534   22837193.9494       -931.3724
        42.7504         29.0004
   -558631.89547   -428665.33644  23333814.7894   23333815.7154        821.5564
        43.5004         28.5004
   -566673.64548   -429576.16046  21516304.7814   21516300.8524        728.6144
        49.0004         37.2504
  -1263928.89146   -900797.75044  23969616.1954   23969614.4344       1910.6384
        40.7504         27.0004
  -1333555.94547  -1019882.00846  21326643.0704   21326639.7384       2019.9904
        47.5004         40.0004
    324504.89148    247764.73046  21183865.4614   21183860.4104       -552.1974
        50.0004         40.2504
    512890.92248    392836.48447  20703448.5164   20703446.9494       -941.4554
        50.0004         43.0004
    253294.19547    195284.83643  24025968.4534   24025967.1764       -597.8474
        42.0004         22.0004
   1458341.34847   1116097.07845  22235185.4304   22235182.7774      -2446.3854
        46.5004         34.0004
 15  7  6 18 34  0.0000000  0  9G11G01G13G15G17G28G30G04G07
    489939.32047    374684.63745  22842618.1644   22842615.2934       -949.4844
        42.0004         30.0004
   -582818.24247   -447511.81644  23329212.4144   23329213.4344        806.2124
        42.7504         28.0004
   -587948.93048   -446154.31646  21512256.0554   21512252.3954        709.1764
        49.0004         37.7504
  -1320832.70746   -945138.37544  23958787.4774   23958786.0084       1896.7944
        40.0004         28.2504
  -1393750.93047  -1066787.14546  21315188.4774   21315184.9024       2006.4994
        47.7504         40.7504
    341157.06648    260740.43446  21187034.0784   21187029.5864       -555.0734
        49.2504         39.5004
    541491.38748    415122.51247  20708890.8984   20708889.3324       -953.3494
        49.7504         42.7504
    271751.99246    209667.51243  24029481.4694   24029480.5474       -615.2604
        39.2504         22.5004
   1532025.18847   1173512.92645  22249206.5864   22249204.3754      -2456.1284
        47.0004         34.0004
 15  7  6 18 34 30.0000000  0  9G11G01G13G15G17G28G30G04G07
    518968.78547    397304.95745  22848142.7974   22848139.1724       -967.6494
        43.5004         30.0004
   -606540.52347   -465996.69944  23324698.4064   23324699.2774        790.7434
        43.7504         28.7504
   -608638.13348   -462275.78946  21508318.9384   21508315.3834        689.6404
        49.7504         37.2504
  -1377317.52347   -989152.49644  23948039.7584   23948037.6134       1882.8274
        42.2504         28.7504
  -1453538.58247  -1113374.89546  21303810.9534   21303807.2774       1992.9224
        47.5004         40.7504
    357896.80148    273784.35546  21190219.3674   21190214.6604       -557.9914
        49.0004         39.7504
    570451.03948    437688.43047  20714401.7424   20714400.2974       -965.3224
        48.2504         42.5004
    290733.84847    224458.54343  24033093.5084   24033091.7894       -632.7294
        42.2504         22.7504
   1606002.83647   1231157.71545  22263284.3444   22263282.1454      -2465.9224
        45.0004         34.0004
 15  7  6 18 35  0.0000000  0  9G11G01G13G15G17G28G30G04G07
    548545.24647    420351.51245  22853770.5314   22853767.1414       -985.8824
        43.2504         30.2504
   -629793.90247   -484116.19544  23320273.2274   23320274.5314        775.1134
        43.0004         27.5004
   -628737.49248   -477937.64146  21504494.2274   21504490.3324        669.9794
        49.0004         36.7504
  -1433378.82846  -1032836.60544  23937371.1024   23937369.2704       1868.7104
        41.5004         27.5004
  -1512914.36748  -1159641.70346  21292511.7274   21292508.3364       1979.1934
        48.2504         40.7504
    374725.87548    286897.89546  21193421.6484   21193417.1134       -560.9694
        49.7504         39.7504
    599773.47748    460537.03547  20719981.7584   20719980.2034       -977.4154
        49.0004         43.0004
    310243.02346    239660.49243  24036806.1644   24036804.3404       -650.3064
        41.0004         23.0004
   1680276.74247   1289033.34445  22277417.9534   22277415.8524      -2475.7974
        46.2504         33.5004
 15  7  6 18 35 30.0000000  0  9G11G01G13G15G17G28G30G04G07
    578673.38747    443827.95744  22859503.7344   22859500.6804      -1004.2714
        43.0004         29.2504
   -652571.91447   -501865.27744  23315938.4454   23315939.6374        759.2674
        43.5004         28.2504
   -648241.99248   -493135.97346  21500782.6804   21500778.8444        650.1504
        49.5004         36.2504
  -1489009.95747  -1076185.50844  23926784.3444   23926782.9064       1854.3714
        42.2504         28.2504
  -1571871.23047  -1205582.07446  21281292.8754   21281289.5124       1965.2294
        47.7504         40.7504
    391648.83248    300084.59846  21196642.3524   21196637.4884       -564.0994
        50.0004         39.7504
    629463.82848    483672.32847  20725632.0394   20725630.1094       -989.6784
        49.0004         43.0004
    330284.05147    255276.84843  24040619.7194   24040618.4144       -668.0344
        42.0004         21.5004
   1754851.28147   1347143.23845  22291609.3984   22291607.3134      -2485.8184
        46.0004         34.2504
 15  7  6 18 36  0.0000000  0  9G11G01G13G15G17G28G30G04G07
    609353.07847    467734.17644  22865342.1644   22865338.3954      -1022.6564
        42.7504         28.5004
   -674871.99647   -519241.95744  23311694.7974   23311696.0004        743.3364
        43.2504         27.7504
   -667149.66048   -507869.23046  21497185.0234   21497181.0314        630.2564
        50.2504         37.0004
  -1544208.71547  -1119197.50044  23916280.6414   23916279.1254       1839.9594
        42.5004         28.5004
  -1630409.21147  -1251196.04746  21270153.6954   21270150.2894       1951.2664
        47.7504         40.5004
    408665.14848    313344.05146  21199880.5864   21199875.6484       -567.2114
        49.2504         39.5004
    659523.37148    507095.31347  20731352.0394   20731350.1914      -1001.9854
        49.5004         43.0004
    350857.76246    271308.30143  24044534.8594   24044533.3244       -685.7904
        41.5004         21.5004
   1829726.23047   1405487.20345  22305858.0234   22305855.4884      -2495.8324
        45.7504         34.5004
 15  7  6 18 36 30.0000000  0  9G11G01G13G15G17G28G30G04G07
    640585.96547    492071.44144  22871285.5394   22871281.8954      -1041.0964
        43.7504         29.0004
   -696690.24246   -536243.16844  23307543.3284   23307544.3674        727.2754
        41.5004         28.2504
   -685457.63348   -522135.20746  21493700.7344   21493697.3524        610.2664
        48.7504         37.0004
  -1598971.00047  -1161869.38344  23905859.7114   23905858.0744       1825.4104
        42.0004         29.2504
  -1688524.05547  -1296480.29746  21259094.4384   21259091.4534       1937.1614
        47.0004         40.7504
    425776.21148    326677.32846  21203136.7114   21203131.8484       -570.3694
        50.2504         40.0004
    689954.74248    530808.03147  20737142.7814   20737141.4304      -1014.3794
        50.0004         43.0004
    371966.21146    287756.41843  24048551.1884   24048550.4104       -703.6154
        39.0004         20.5004
   1904903.02047   1464066.39145  22320163.1174   22320161.0514      -2505.8934
        45.7504         34.0004
 15  7  6 18 37  0.0000000  0  9G11G01G13G15G17G28G30G04G07
    672372.49247    516840.14144  22877334.3444   22877330.9614      -1059.5514
        44.7504         28.7504
   -718023.50047   -552866.46944  23303483.3054   23303484.3204        711.1094
        42.5004         29.0004
   -703164.16448   -535932.51646  21490331.4384   21490327.8244        590.2184
        49.2504         36.5004
  -1653294.19146  -1204199.11344  23895522.7194   23895520.6174       1810.7734
        41.0004         28.2504
  -1746212.85547  -1341432.56646  21248116.9064   21248113.3364       1922.9604
        47.7504         41.2504
    442982.77748    340085.02346  21206410.8914   21206405.9774       -573.5524
        49.7504         40.0004
    720759.81348    554811.94147  20743004.6954   20743003.3324      -1026.8364
        49.7504         43.2504
    393610.82847    304622.35943  24052669.9694   24052668.5474       -721.4874
        42.0004         20.7504
   1980382.64847   1522881.59045  22334526.4614   22334524.7384      -2515.9884
        46.2504         33.5004
 15  7  6 18 37 30.0000000  0  9G11G01G13G15G17G28G30G04G07
    704712.84447    542040.36345  22883488.4534   22883485.0984      -1078.0124
        44.0004         30.0004
   -738869.79347   -569110.32044  23299516.0084   23299517.5434        694.8764
        42.7504         29.0004
   -720268.27748   -549260.41846  21487076.5554   21487072.9024        570.1374
        49.0004         36.2504
  -1707176.12147  -1246185.02044  23885268.7424   23885267.2464       1796.0644
        43.2504         28.7504
  -1803474.55147  -1386052.03546  21237220.0474   21237216.8404       1908.7234
        46.5004         41.0004
    460284.10548    353566.56346  21209703.1954   21209698.5514       -576.7114
        48.5004         40.0004
    751939.31648    579107.62947  20748938.4304   20748936.4924      -1039.3174
        49.7504         42.5004
    415791.63346    321906.10243  24056891.0084   24056890.0634       -739.3604
        41.5004         21.7504
   2056164.85547   1581932.51645  22348947.8674   22348945.2114      -2526.0744
        44.7504         33.0004
 15  7  6 18 38  0.0000000  0  9G11G01G13G15G17G28G30G04G07
    737608.87547    567673.59844  22889748.1804   22889745.2154      -1096.5344
        42.0004         29.2504
   -759224.48447   -584971.10544  23295643.1254   23295643.8794        678.4904
        43.0004         28.5004
   -736766.13348   -562115.90646  21483937.0784   21483933.5084        549.9294
        48.7504         36.2504
  -1760612.25446  -1287823.54744  23875100.3594   23875098.6844       1781.2044
        40.7504         28.7504
  -1860304.53147  -1430335.09846  21226405.8134   21226402.3244       1894.3334
        46.2504         41.5004
    477682.60548    367123.81346  21213013.9774   21213009.1844       -579.9504
        48.5004         40.2504
    783496.73848    603697.79347  20754943.6804   20754941.6294      -1051.9144
        49.5004         43.0004
    438511.58646    339609.92243  24061214.4924   24061213.2154       -757.3324
        41.7504         21.5004
   2132251.79347   1641220.89845  22363426.8914   22363424.4614      -2536.2314
        45.2504         34.0004
 15  7  6 18 38 30.0000000  0  9G11G01G13G15G17G28G30G04G07
    771062.28547    593741.14844  22896114.5164   22896111.1094      -1115.1144
        42.0004         29.0004
   -779083.23447   -600445.45744  23291863.7734   23291865.3244        661.9584
        42.2504         28.7504
   -752654.66848   -574496.60246  21480913.6564   21480909.8014        529.6184
        49.5004         36.5004
  -1813598.69147  -1329111.67644  23865017.1564   23865015.6214       1766.2154
        43.5004         29.5004
  -1916699.33648  -1474279.06646  21215673.8204   21215670.6334       1879.8274
        48.5004         41.5004
    495180.00448    380758.13346  21216343.8524   21216339.0394       -583.2474
        49.0004         40.2504
    815435.07048    628584.77747  20761021.2734   20761019.4264      -1064.6114
        48.7504         42.2504
    461772.97746    357735.67243  24065641.2274   24065639.5904       -775.3804
        41.5004         21.7504
   2208645.29347   1700748.16445  22377964.0084   22377962.1024      -2546.4504
        45.0004         33.7504
 15  7  6 18 39  0.0000000  0  9G11G01G13G15G17G28G30G04G07
    805075.13747    620244.63744  22902586.8834   22902583.2424      -1133.7624
        43.5004         29.0004
   -798442.03147   -615530.21144  23288179.7664   23288180.8984        645.2934
        43.0004         29.0004
   -767930.94948   -586400.20346  21478006.4774   21478002.9184        509.2094
        48.2504         36.5004
  -1866131.30947  -1370046.17644  23855021.4304   23855019.0944       1751.0874
        42.7504         29.0004
  -1972655.56247  -1517881.29346  21205026.0084   21205022.5594       1865.2084
        47.5004         41.2504
    512778.05147    394470.88346  21219692.4384   21219687.7774       -586.6024
        47.7504         39.5004
    847757.20748    653770.82047  20767171.5704   20767170.1644      -1077.4054
        49.2504         43.0004
    485578.41046    376285.34443  24070171.0394   24070169.4184       -793.5144
        41.5004         21.2504
   2285347.00847   1760515.60245  22392560.0084   22392558.1134      -2556.7244
        45.7504         33.2504
 15  7  6 18 39 30.0000000  0  9G11G01G13G15G17G28G30G04G07
    839645.94947    647182.90244  22909165.0704   22909162.7154      -1152.3604
        44.5004         29.2504
   -817300.08247   -630224.79344  23284592.4614   23284592.9574        628.6024
        44.2504         28.7504
   -782595.43448   -597827.09046  21475216.1174   21475212.5984        488.8164
        49.0004         36.7504
  -1918209.26647  -1410626.40644  23845110.8984   23845109.0394       1735.9324
        43.7504         29.2504
  -2028172.32448  -1561141.07446  21194461.1484   21194458.1644       1850.5594
        48.0004         40.7504
    530475.39148    408261.00446  21223060.1024   21223055.4344       -589.9114
        50.0004         39.7504
    880462.61748    679255.52347  20773395.4304   20773394.0354      -1090.1804
        50.0004         42.5004
    509926.50446    395257.87143  24074804.1884   24074802.9694       -811.6034
        41.5004         21.5004
   2362355.96947   1820522.44545  22407214.2114   22407212.6454      -2566.9654
        45.7504         33.2504
 15  7  6 18 40  0.0000000  0  9G11G01G13G15G17G28G30G04G07
    874773.88347    674555.27744  22915850.2734   22915847.0514      -1170.9314
        44.7504         28.7504
   -835655.73047   -644527.89144  23281098.3594   23281099.5904        611.8554
        44.0004         28.5004
   -796647.47747   -608776.74646  21472542.3594   21472538.4024        468.4014
        47.2504         37.0004
  -1969830.90246  -1450851.05944  23835287.4064   23835285.7074       1720.7214
        41.2504         28.7504
  -2083248.94947  -1604057.89146  21183980.6484   21183977.1524       1835.8884
        47.5004         41.0004
    548271.27047    422127.90646  21226446.5164   21226441.8754       -593.1964
        47.7504         39.5004
    913551.81348    705039.27347  20779691.8364   20779690.8134      -1102.9734
        49.2504         42.5004
    534817.27046    414653.26643  24079540.8754   24079539.7034       -829.6924
        41.5004         20.0004
   2439671.11347   1880767.87545  22421927.3524   22421925.1454      -2577.1714
        46.2504         34.0004
 15  7  6 18 40 30.0000000  0  9G11G01G13G15G17G28G30G04G07
    910457.63347    702360.76244  22922640.2034   22922637.2544      -1189.4584
        45.0004         28.2504
   -853507.86347   -658438.64144  23277701.6484   23277702.4924        595.0714
        43.0004         29.5004
   -810086.92648   -619249.06246  21469984.9534   21469981.0044        447.9824
        49.2504         37.2504
  -2020995.27047  -1490719.39544  23825551.5164   23825548.9264       1705.4794
        43.7504         28.7504
  -2137884.80547  -1646631.25846  21173583.6884   21173580.1844       1821.1954
        47.5004         41.0004
    566164.20348    436070.44146  21229851.3674   21229846.5234       -596.4314
        49.5004         39.7504
    947024.73848    731122.03947  20786061.7584   20786060.4694      -1115.7644
        48.0004         42.7504
    560249.88346    434470.86343  24084381.7344   24084379.0554       -847.7544
        41.0004         20.0004
   2517291.19147   1941250.91045  22436697.4844   22436695.9144      -2587.3364
        46.7504         33.0004
 15  7  6 18 41  0.0000000  0  9G11G01G13G15G17G28G30G04G07
    946699.69147    730601.28944  22929537.3284   22929533.9384      -1208.0694
        44.7504         28.2504
   -870851.38747   -671953.08244  23274401.4144   23274402.3754        578.1174
        44.2504         29.2504
   -822910.08648   -629241.16046  21467544.4534   21467540.8164        427.4394
        50.2504         36.7504
  -2071697.39547  -1530227.56244  23815902.5474   23815900.4884       1690.0714
        43.5004         29.2504
  -2192075.23448  -1688857.53546  21163271.8204   21163268.0234       1806.3484
        48.0004         40.7504
    584157.02748    450090.80546  21233275.3284   21233270.7544       -599.7614
        50.0004         39.7504
    980885.26248    757506.82047  20792505.3754   20792503.6094      -1128.6844
        48.7504         42.7504
    586227.62146    454713.25443  24089324.1414   24089322.8324       -865.9254
        41.7504         21.7504
   2595219.17247   2001973.86345  22451526.4844   22451524.9304      -2597.5994
        45.7504         33.0004
 15  7  6 18 41 30.0000000  0  9G11G01G13G15G17G28G30G04G07
    983498.79747    759275.87944  22936540.0234   22936536.7704      -1226.6374
        44.7504         28.5004
   -887685.15247   -685070.28544  23271198.2584   23271198.8324        561.1264
        42.7504         28.7504
   -835116.69548   -638752.82046  21465221.5084   21465218.0474        406.8874
        49.7504         37.0004
  -2121936.22747  -1569374.68444  23806342.6414   23806340.3554       1674.6284
        43.0004         28.7504
  -2245819.59848  -1730736.23446  21153044.6724   21153040.7424       1791.4794
        48.7504         41.0004
    602248.85548    464188.32046  21236718.2344   21236713.2894       -603.0614
        50.5004         39.5004
   1015133.37548    784193.62947  20799022.9694   20799021.3984      -1141.6044
        49.5004         42.2504
    612749.84046    475379.91843  24094370.7424   24094369.6484       -884.0744
        41.2504         20.2504
   2673453.60947   2062935.60545  22466414.3914   22466412.9964      -2607.8154
        45.7504         32.5004
 15  7  6 18 42  0.0000000  0  9G11G01G13G15G17G28G30G04G07
   1020856.83247    788385.99644  22943648.9224   22943645.4534      -1245.2684
        44.2504         29.2504
   -904005.03947   -697787.08244  23268092.2974   23268093.2584        543.9964
        43.0004         28.5004
   -846703.89548   -647781.83246  21463016.5944   21463012.6844        386.2404
        50.0004         37.0004
  -2171707.63747  -1608157.61345  23796871.5394   23796869.9224       1659.0474
        43.7504         30.0004
  -2299114.63348  -1772264.80546  21142902.4614   21142898.8054       1776.5014
        48.0004         40.7504
    620441.23448    478364.19146  21240180.1024   21240175.4454       -606.4134
        50.5004         39.7504
   1049772.02048    811184.74647  20805614.1094   20805612.5634      -1154.6214
        49.0004         42.2504
    639819.09046    496472.82043  24099522.3524   24099520.6644       -902.3084
        39.7504         21.0004
   2751996.79347   2124137.94145  22481361.3674   22481359.0164      -2618.1064
        46.2504         33.0004
 15  7  6 18 42 30.0000000  0  9G11G01G13G15G17G28G30G04G07
   1058770.40647    817929.01644  22950863.1414   22950860.3324      -1263.7864
        42.0004         29.2504
   -919812.20347   -710104.32444  23265084.4844   23265084.9184        526.9054
        42.7504         28.0004
   -857673.96548   -656329.95746  21460929.1254   21460925.6604        365.6694
        49.7504         36.7504
  -2221012.78147  -1646577.19944  23787489.4064   23787487.5274       1643.5054
        44.5004         29.5004
  -2351961.57847  -1813444.21946  21132846.3054   21132842.8444       1761.5654
        47.2504         41.2504
    638730.97348    492615.91846  21243660.7974   21243655.9614       -609.6584
        49.2504         40.2504
   1084798.95748    838478.42247  20812279.6564   20812278.0784      -1167.5654
        49.0004         42.2504
    667431.79346    517989.17643  24104776.8914   24104775.1414       -920.4234
        41.0004         21.0004
   2830845.17247   2185578.09045  22496365.7974   22496363.9614      -2628.2794
        45.7504         33.2504
 15  7  6 18 43  0.0000000  0  9G11G01G13G15G17G28G30G04G07
   1097238.96147    847904.48844  22958183.7424   22958180.8874      -1282.2854
        42.5004         29.0004
   -935104.57447   -722020.44944  23262174.1954   23262175.4964        509.7464
        42.0004         28.2504
   -868025.97748   -664396.48046  21458959.0474   21458955.4924        345.0674
        50.0004         37.0004
  -2269849.76647  -1684631.98444  23778195.7034   23778194.0704       1627.8994
        43.7504         29.7504
  -2404359.00448  -1854273.35246  21122875.6884   21122871.7344       1746.5814
        48.2504         41.0004
    657118.08248    506943.53146  21247159.1954   21247155.0984       -612.9044
        49.7504         40.0004
   1120215.07048    866075.35547  20819018.6564   20819016.9494      -1180.5374
        49.5004         42.2504
    695588.57846    539929.49243  24110134.4224   24110133.9264       -938.5604
        41.0004         21.7504
   2909998.42647   2247255.80945  22511428.0394   22511426.6214      -2638.4424
        46.2504         33.2504
 15  7  6 18 43 30.0000000  0  9G11G01G13G15G17G28G30G04G07
   1136263.69947    878313.34444  22965610.3444   22965606.9614      -1300.8254
        44.5004         28.7504
   -949878.66447   -733532.71944  23259362.5004   23259363.2034        492.4704
        43.7504         28.2504
   -877757.59448   -671979.57446  21457107.5004   21457103.6414        324.3874
        48.5004         37.5004
  -2318215.05146  -1722319.21945  23768992.9614   23768990.4844       1612.1764
        41.5004         30.5004
  -2456303.77347  -1894749.76246  21112990.4144   21112987.1604       1731.4924
        47.5004         41.0004
    675603.85948    521348.03146  21250677.4924   21250672.6414       -616.1934
        49.0004         39.7504
   1156022.70748    893977.37147  20825832.9454   20825831.2304      -1193.5884
        49.7504         42.5004
    724290.93446    562294.93843  24115596.5784   24115595.4184       -956.7454
        39.0004         21.0004
   2989457.87147   2309172.10945  22526548.4614   22526547.0704      -2648.6484
        46.0004         33.2504
 15  7  6 18 44  0.0000000  0  9G11G01G13G15G17G28G30G04G07
   1175841.53947    909153.17244  22973141.8524   22973138.2384      -1319.2614
        42.0004         28.5004
   -964134.84847   -744641.39844  23256650.2274   23256650.4184        475.2064
        43.7504         29.2504
   -886870.27348   -679080.38346  21455372.9384   21455369.3484        303.7564
        49.2504         37.2504
  -2366109.18747  -1759639.31244  23759878.4304   23759876.4304       1596.4714
        43.2504         29.5004
  -2507796.77748  -1934874.16046  21103192.0234   21103188.3834       1716.4334
        48.7504         41.2504
    694185.47348    535827.19946  21254213.0864   21254208.4344       -619.3874
        49.2504         39.5004
   1192220.43848    922183.35247  20832721.0864   20832720.0004      -1206.5914
        50.2504         43.0004
    753536.68846    585083.81343  24121161.8984   24121161.1094       -974.8584
        41.0004         21.5004
   3069220.82847   2371324.90645  22541726.9774   22541725.9964      -2658.7654
        44.5004         32.7504
 15  7  6 18 44 30.0000000  0  9G11G01G13G15G17G28G30G04G07
   1215972.37947    940423.93044  22980777.9694   22980774.6844      -1337.6954
        44.0004         28.5004
   -977871.59047   -755345.32444  23254035.9454   23254036.5904        457.8914
        43.7504         29.0004
   -895363.69148   -685698.65646  21453757.2664   21453753.4224        283.1144
        48.0004         37.0004
  -2413530.36747  -1796590.87544  23750853.8204   23750852.4264       1580.7064
        44.2504         29.7504
  -2558836.73448  -1974645.53146  21093479.0864   21093475.5124       1701.3324
        48.0004         41.7504
    712863.14548    550381.22746  21257767.3134   21257762.6764       -622.5894
        48.2504         40.0004
   1228808.65248    950693.60947  20839683.7504   20839682.2664      -1219.6074
        50.0004         42.2504
    783325.66046    608295.97743  24126831.6254   24126828.8834       -992.9664
        41.5004         21.5004
   3149286.86747   2433713.84845  22556963.3984   22556961.9654      -2668.8684
        45.0004         33.0004
 15  7  6 18 45  0.0000000  0  9G11G01G13G15G17G28G30G04G07
   1256656.73447    972125.98844  22988520.3834   22988516.8984      -1356.1454
        43.5004         28.5004
   -991085.20747   -765641.62144  23251521.7194   23251522.4064        440.4544
        42.5004         28.7504
   -903235.35948   -691832.43746  21452259.1024   21452255.6484        262.3894
        48.5004         37.0004
  -2460475.01647  -1833171.09844  23741920.9384   23741918.7194       1564.8224
        44.2504         29.5004
  -2609420.29748  -2014061.26646  21083853.5394   21083849.5204       1686.1194
        48.0004         41.7504
    731638.20748    565011.13746  21261340.2664   21261335.5044       -625.8354
        49.0004         39.7504
   1265789.89848    979510.11746  20846721.2584   20846719.6294      -1232.7084
        49.5004         41.7504
    813659.58246    631932.73843  24132603.4844   24132601.8954      -1011.1314
        41.0004         20.5004
   3229657.44947   2496340.11345  22572257.7814   22572256.1414      -2679.0194
        45.0004         33.0004
 15  7  6 18 45 30.0000000  0  9G11G01G13G15G17G28G30G04G07
   1297891.63747   1004257.04744  22996367.2034   22996363.4804      -1374.4974
        43.7504         29.5004
  -1003776.46947   -775530.90644  23249106.0314   23249106.9614        423.0424
        43.0004         28.5004
   -910487.11748   -697483.17646  21450879.1724   21450875.6094        241.7254
        49.7504         37.5004
  -2506944.07047  -1869380.73044  23733078.4144   23733076.1684       1548.9684
        44.0004         29.7504
  -2659549.18748  -2053122.71546  21074313.9774   21074310.0984       1670.9634
        48.5004         41.2504
    750508.07448    579714.92246  21264930.7194   21264926.1954       -628.9964
        48.7504         39.7504
   1303162.37548   1008631.48846  20853832.8754   20853831.3364      -1245.7494
        50.0004         41.7504
    844535.81646    655992.15243  24138478.8834   24138476.7114      -1029.2084
        41.2504         21.2504
   3310329.56347   2559201.35245  22587609.3594   22587607.5234      -2689.0704
        44.5004         33.2504
 15  7  6 18 46  0.0000000  0  9G11G01G13G15G17G28G30G04G07
   1339678.82047   1036818.45744  23004319.0554   23004315.8594      -1392.9064
        44.5004         27.7504
  -1015941.49647   -785010.11344  23246791.6254   23246792.3134        405.5014
        42.7504         29.0004
   -917116.33248   -702648.81246  21449617.8914   21449613.9924        220.9744
        48.7504         37.2504
  -2552933.51647  -1905216.63745  23724326.8444   23724324.6454       1532.9824
        44.7504         30.2504
  -2709220.01247  -2091827.23046  21064862.0474   21064858.5434       1655.6944
        47.7504         41.7504
    769474.02748    594493.57446  21268540.3284   21268535.1484       -632.1984
        49.0004         39.5004
   1340928.88348   1038059.89846  20861019.7274   20861018.1374      -1258.8844
        49.2504         41.7504
    875956.27046    680475.61343  24144457.1254   24144456.2274      -1047.3484
        40.0004         21.2504
   3391304.82847   2622298.80145  22603018.1884   22603017.1254      -2699.1764
        44.2504         33.0004
 15  7  6 18 46 30.0000000  0  9G11G01G13G15G17G28G30G04G07
   1382016.79347   1069809.05144  23012375.6174   23012372.3594      -1411.2664
        43.5004         28.7504
  -1027579.03147   -794078.28944  23244576.4384   23244577.4804        387.9184
        42.2504         29.2504
   -923122.89548   -707329.26646  21448475.0944   21448471.2034        200.2194
        49.0004         37.2504
  -2598441.86347  -1940677.67244  23715667.2734   23715664.8404       1516.9454
        44.5004         29.5004
  -2758431.72747  -2130173.99646  21055497.4064   21055493.5664       1640.3904
        47.5004         41.5004
    788535.77748    609346.88346  21272167.8984   21272162.6484       -635.3924
        50.0004         40.0004
   1379089.63748   1067795.51247  20868281.4844   20868279.8484      -1272.0254
        48.5004         42.2504
    907920.50046    705382.75443  24150540.1954   24150539.0704      -1065.4744
        40.0004         20.7504
   3472582.49247   2685631.89545  22618484.9774   22618483.6764      -2709.2554
        45.0004         33.5004
 15  7  6 18 47  0.0000000  0  9G11G01G13G15G17G28G30G04G07
   1424903.62547   1103227.34044  23020536.8674   23020533.6094      -1429.5614
        43.5004         27.5004
  -1038688.69547   -802735.14544  23242461.9924   23242463.3204        370.3224
        44.0004         29.2504
   -928507.75048   -711525.28546  21447450.2814   21447446.7114        179.4954
        49.5004         37.0004
  -2643469.27747  -1975763.96544  23707097.9304   23707096.3794       1500.9144
        43.7504         29.2504
  -2807184.12148  -2168162.85946  21046220.0084   21046216.5944       1625.0804
        48.0004         41.0004
    807691.72348    624273.59046  21275812.8754   21275808.0594       -638.5324
        50.0004         40.0004
   1417643.88348   1097837.74246  20875618.2734   20875616.7074      -1285.1424
        50.5004         41.7504
    940427.28146    730712.68843  24156727.1414   24156725.4884      -1083.5594
        40.7504         21.2504
   3554160.62547   2749199.10945  22634009.2034   22634007.7384      -2719.2714
        45.2504         32.7504
 15  7  6 18 47 30.0000000  0  9G11G01G13G15G17G28G30G04G07
   1468339.35947   1137073.33244  23028801.8054   23028798.6094      -1447.8584
        44.5004         28.2504
  -1049268.21547   -810978.86744  23240449.3284   23240450.1684        352.6514
        44.5004         29.0004
   -933269.55548   -715235.80146  21446543.8914   21446540.3984        158.7274
        50.0004         37.2504
  -2688013.23047  -2010473.52344  23698621.7274   23698619.6724       1484.7984
        44.0004         29.7504
  -2855475.75048  -2205792.68046  21037030.6724   21037026.6994       1609.7214
        49.2504         41.5004
    826942.09848    639273.87546  21279475.9924   21279471.0664       -641.6794
        49.0004         39.5004
   1456592.96148   1128187.63346  20883029.7344   20883028.0944      -1298.3034
        50.0004         41.5004
    973476.66446    756465.43843  24163015.6954   24163013.8634      -1101.6464
        41.2504         21.5004
   3636039.32847   2813000.53945  22649590.2814   22649588.4494      -2729.2904
        45.2504         32.2504
 15  7  6 18 48  0.0000000  0  9G11G01G13G15G17G28G30G04G07
   1512321.84847   1171345.38344  23037171.7734   23037168.3284      -1466.0834
        44.0004         28.5004
  -1059317.24246   -818809.24644  23238536.6724   23238537.8794        334.9684
        41.5004         28.7504
   -937409.35248   -718461.63746  21445756.2344   21445752.4734        137.9934
        48.7504         37.7504
  -2732073.34047  -2044806.07045  23690237.3204   23690235.3834       1468.6704
        42.0004         30.2504
  -2903306.61348  -2243063.45746  21027928.6644   21027924.8674       1594.3624
        48.0004         41.7504
    846285.63348    654346.75046  21283156.5394   21283152.0124       -644.7854
        48.5004         39.5004
   1495936.12948   1158844.60947  20890516.5164   20890515.1994      -1311.4394
        50.2504         42.2504
   1007067.31646    782639.93843  24169407.3674   24169406.4494      -1119.6884
        40.0004         21.0004
   3718217.07047   2877034.97745  22665227.7424   22665226.5664      -2739.2584
        44.7504         32.2504
 15  7  6 18 48 30.0000000  0  9G11G01G13G15G17G28G30G04G07
   1556849.31347   1206042.07044  23045645.1724   23045641.6564      -1484.2494
        42.7504         28.0004
  -1068835.16847   -826225.79344  23236726.0474   23236726.9654        317.2644
        42.0004         28.7504
   -940927.61348   -721203.16846  21445086.7974   21445083.0634        117.2754
        50.2504         37.5004
  -2775648.87147  -2078761.01244  23681945.6804   23681943.6724       1452.5184
        43.7504         29.7504
  -2950676.29748  -2279974.88346  21018914.5084   21018911.0354       1578.9894
        48.0004         41.5004
    865720.94148    669491.14146  21286855.2974   21286850.4924       -647.8444
        49.5004         39.7504
   1535673.00048   1189808.35947  20898078.3594   20898076.7424      -1324.5624
        50.5004         42.2504
   1041197.93446    809235.21943  24175901.4224   24175901.2584      -1137.6874
        40.0004         22.2504
   3800692.11347   2941301.09445  22680922.4144   22680921.3714      -2749.1684
        45.5004         31.7504
 15  7  6 18 49  0.0000000  0  9G11G01G13G15G17G28G30G04G07
   1601920.31647   1241162.32444  23054221.8674   23054218.4804      -1502.3674
        43.5004         28.5004
  -1077820.84847   -833227.60944  23235016.4064   23235016.7034        299.5234
        42.5004         29.0004
   -943824.39548   -723460.42646  21444535.3914   21444531.6524         96.5594
        50.2504         37.2504
  -2818738.88747  -2112337.62144  23673745.6094   23673743.4924       1436.3344
        43.2504         29.5004
  -2997584.35948  -2316526.59446  21009987.9774   21009984.3674       1563.6024
        49.0004         41.5004
    885247.58648    684706.70346  21290571.3444   21290566.2814       -650.8884
        49.2504         39.5004
   1575803.68848   1221078.98047  20905715.1094   20905713.3014      -1337.6904
        50.0004         42.0004
   1075867.84046    836250.68443  24182499.8204   24182498.5394      -1155.6644
        40.0004         21.5004
   3883463.59447   3005798.18045  22696673.8834   22696672.5434      -2759.0494
        45.2504         32.0004
 15  7  6 18 49 30.0000000  0  9G11G01G13G15G17G28G30G04G07
   1647534.57847   1276705.87144  23062901.5314   23062898.6524      -1520.4754
        43.7504         26.0004
  -1086272.57047   -839813.34044  23233407.4924   23233408.4844        281.7244
        42.2504         29.2504
   -946099.38748   -725233.16846  21444102.6414   21444098.9654         75.8334
        51.0004         37.0004
  -2861341.34846  -2145534.31644  23665638.5554   23665636.4924       1420.0824
        41.5004         29.7504
  -3044029.52347  -2352717.60946  21001150.0864   21001146.2304       1548.1724
        47.0004         41.5004
    904865.39548    699993.30146  21294304.2194   21294299.7464       -653.9274
        48.0004         39.7504
   1616328.98448   1252657.09046  20913426.4924   20913425.0634      -1350.8434
        49.7504         41.5004
   1111076.91047    863686.29343  24189200.5084   24189198.2894      -1173.6364
        42.0004         20.2504
   3966531.27347   3070526.07845  22712480.9304   22712479.5434      -2768.9234
        45.5004         31.5004
 15  7  6 18 50  0.0000000  0  9G11G01G13G15G17G28G30G04G07
   1693692.74647   1312673.25044  23071685.8754   23071682.6054      -1538.6064
        42.7504         28.5004
  -1094186.98047   -845980.37144  23231901.6564   23231902.5634        263.8144
        44.0004         28.2504
   -947750.23048   -726519.56646  21443788.3594   21443785.0314         55.0284
        49.5004         37.7504
  -2903453.19147  -2178348.71544  23657624.7974   23657622.9694       1403.7284
        43.0004         29.2504
  -3090008.48848  -2388545.35546  20992400.3364   20992396.4384       1532.6324
        48.0004         41.5004
    924575.99648    715352.20746  21298055.0634   21298050.3634       -657.0204
        49.5004         39.5004
   1657251.23448   1284544.51646  20921213.9304   20921212.1644      -1364.0754
        50.0004         41.7504
   1146826.66847    891543.24243  24196003.1024   24196001.5744      -1191.6594
        42.7504         22.2504
   4049896.12547   3135485.53945  22728345.4614   22728343.4184      -2778.8284
        45.5004         31.2504
 15  7  6 18 50 30.0000000  0  9G11G01G13G15G17G28G30G04G07
   1740392.86347   1349062.94144  23080572.8594   23080569.0594      -1556.6714
        43.0004         27.5004
  -1101563.92647   -851728.64144  23230498.3674   23230498.5004        245.8984
        43.7504         29.2504
   -948778.26247   -727320.65646  21443593.0634   21443589.3524         34.2684
        46.5004         37.5004
  -2945074.02047  -2210780.52045  23649704.8204   23649702.3444       1387.3614
        42.0004         30.7504
  -3135521.16847  -2424009.76646  20983739.7194   20983735.6174       1517.0894
        47.7504         41.2504
    944378.09048    730782.39846  21301823.4384   21301818.6994       -660.0704
        49.0004         39.5004
   1698569.50048   1316740.52346  20929076.6254   20929075.1024      -1377.2764
        50.7504         41.5004
   1183115.19947    919819.98043  24202908.8594   24202906.6764      -1209.6184
        43.0004         21.5004
   4133556.75847   3200675.48045  22744264.9454   22744264.0234      -2788.6884
        45.5004         31.5004
 15  7  6 18 51  0.0000000  0  9G11G01G13G15G17G28G30G04G07
   1787636.07847   1385875.81344  23089562.9384   23089558.8834      -1574.7744
        42.5004         28.2504
  -1108399.88347   -857055.33644  23229196.7194   23229197.1454        227.8654
        42.0004         29.0004
   -949180.94548   -727634.45746  21443516.1414   21443512.7424         13.4234
        50.7504         37.7504
  -2986200.30547  -2242826.97345  23641878.7504   23641876.4924       1370.8764
        44.0004         30.0004
  -3180565.22748  -2459109.00846  20975168.2114   20975164.0554       1501.4694
        48.5004         41.5004
    964273.22748    746285.09446  21305609.0944   21305604.5944       -663.1714
        48.5004         39.2504
   1740286.45748   1349247.20746  20937015.0944   20937013.0274      -1390.5654
        50.5004         41.0004
   1219944.41446    948518.03943  24209917.1484   24209915.4534      -1227.6404
        41.5004         21.7504
   4217514.39147   3266096.85545  22760242.0084   22760240.5124      -2798.5884
        45.5004         31.2504
 15  7  6 18 51 30.0000000  0  9G11G01G13G15G17G28G30G04G07
   1835417.75446   1423108.25844  23098655.3444   23098651.4734      -1592.7234
        41.7504         27.5004
  -1114696.77747   -861961.98844  23227998.0784   23227999.2584        209.8964
        43.0004         29.0004
   -948961.57048   -727463.54346  21443558.0004   21443554.4304         -7.3124
        50.7504         37.0004
  -3026833.91047  -2274489.51245  23634146.4774   23634144.5514       1354.4544
        44.7504         30.2504
  -3225142.73847  -2493844.71546  20966685.0864   20966681.0904       1485.9174
        47.7504         41.7504
    984257.83648    761857.50846  21309412.3594   21309407.4614       -666.1544
        49.5004         39.7504
   1782399.21148   1382062.29347  20945029.2734   20945027.4064      -1403.7584
        50.0004         42.0004
   1257310.52046    977634.47343  24217027.0314   24217026.2384      -1245.5374
        41.7504         22.2504
   4301764.82847   3331746.36745  22776274.0634   22776273.2464      -2808.3484
        45.0004         31.5004
 15  7  6 18 52  0.0000000  0  9G11G01G13G15G17G28G30G04G07
   1883737.76247   1460760.19144  23107849.8594   23107846.8284      -1610.6674
        43.5004         28.0004
  -1120452.37547   -866446.85544  23226903.3444   23226904.0634        191.8534
        43.0004         29.2504
   -948118.95748   -726806.99246  21443718.3914   21443714.7584        -28.0874
        50.2504         38.0004
  -3066972.76247  -2305766.53545  23626508.1484   23626505.9844       1337.9624
        44.2504         30.0004
  -3269251.83648  -2528215.43046  20958291.4694   20958287.4414       1470.3034
        48.5004         41.7504
   1004332.72348    777500.27346  21313232.3444   21313227.6294       -669.1634
        49.0004         39.5004
   1824909.00848   1415186.77046  20953117.9534   20953116.7384      -1416.9934
        50.0004         41.7504
   1295213.66047   1007169.35943  24224240.6254   24224239.0554      -1263.4384
        42.2504         21.7504
   4386308.37947   3397624.29345  22792362.1414   22792362.1484      -2818.1184
        44.5004         31.5004
 15  7  6 18 52 30.0000000  0  9G11G01G13G15G17G28G30G04G07
   1932596.22747   1498831.69944  23117148.0084   23117144.0984      -1628.6154
        43.5004         26.5004
  -1125664.26647   -870508.04344  23225911.6174   23225912.9104        173.7304
        43.7504         28.2504
   -946652.00048   -725663.93746  21443997.7974   21443994.0514        -48.8994
        50.5004         37.7504
  -3106613.98847  -2336655.81244  23618964.7664   23618962.7814       1321.3744
        44.5004         29.7504
  -3312890.56648  -2562219.61746  20949986.7034   20949983.4304       1454.6244
        48.2504         41.0004
   1024498.75848    793214.05946  21317069.8054   21317065.3444       -672.2014
        48.7504         39.7504
   1867817.42648   1448621.85946  20961283.3204   20961281.6914      -1430.2814
        50.5004         41.5004
   1333654.71546   1037123.44143  24231555.4224   24231553.7624      -1281.3684
        41.5004         22.0004
   4471145.67647   3463731.11745  22808506.7814   22808505.2934      -2827.9104
        45.5004         31.5004
 15  7  6 18 53  0.0000000  0  9G11G01G13G15G17G28G30G04G07
   1981989.30547   1537319.80144  23126546.4774   23126543.2274      -1646.4364
        43.7504         27.2504
  -1130334.15647   -874146.89544  23225023.3984   23225023.8554        155.6634
        44.5004         27.5004
   -944563.81247   -724036.80146  21444394.8834   21444391.5164        -69.6064
        46.7504         37.5004
  -3145759.51647  -2367158.82045  23611515.4304   23611513.0204       1304.8514
        44.2504         30.0004
  -3356060.55948  -2595858.55146  20941772.2814   20941768.3984       1439.0004
        48.2504         41.5004
   1044752.49648    808996.19146  21320924.3054   21320918.9964       -675.1254
        49.5004         40.0004
   1911121.73448   1482365.43446  20969524.2814   20969522.3014      -1443.4774
        51.0004         41.7504
   1372629.83647   1067493.63743  24238972.0944   24238970.4614      -1299.1714
        42.5004         20.7504
   4556272.66047   3530063.65245  22824706.1254   22824705.2424      -2837.5664
        44.5004         31.7504
 15  7  6 18 53 30.0000000  0  9G11G01G13G15G17G28G30G04G07
   2031916.24647   1576223.88744  23136047.3754   23136044.5044      -1664.2314
        44.5004         27.0004
  -1134460.25847   -877362.01644  23224237.6024   23224238.3634        137.5374
        43.0004         29.5004
   -941853.63748   -721925.00446  21444910.6954   21444907.1524        -90.3394
        50.7504         37.2504
  -3184407.52047  -2397274.15244  23604161.5084   23604158.9184       1288.2674
        43.0004         29.0004
  -3398760.64148  -2629131.32847  20933646.6724   20933642.7194       1423.3364
        48.0004         42.2504
   1065094.19548    824846.86346  21324794.8984   21324790.1684       -678.0574
        49.7504         40.0004
   1954822.87948   1516418.22746  20977840.1174   20977838.7114      -1456.7054
        51.0004         41.7504
   1412139.23046   1098280.16843  24246490.3284   24246488.9694      -1316.9804
        40.0004         21.7504
   4641689.33247   3596621.93445  22840960.0554   22840959.5474      -2847.2224
        44.0004         30.7504
 15  7  6 18 54  0.0000000  0  9G11G01G13G15G17G28G30G04G07
   2082376.06647   1615543.20744  23145649.9694   23145646.3244      -1681.9944
        43.5004         27.2504
  -1138041.30147   -880152.40644  23223556.0704   23223556.8094        119.3684
        43.2504         29.5004
   -938521.60548   -719328.63746  21445544.6414   21445541.2704       -111.0684
        50.5004         37.2504
  -3222556.39547  -2427000.53544  23596901.9694   23596899.2814       1271.6294
        44.0004         29.2504
  -3440990.30548  -2662037.54347  20925610.4774   20925607.0084       1407.6554
        48.0004         42.5004
   1085523.85248    840766.07046  21328682.7034   21328678.1024       -680.9894
        48.7504         40.0004
   1998921.20348   1550780.51246  20986231.6564   20986230.1524      -1469.9444
        50.5004         41.2504
   1452182.03547   1129482.30943  24254110.2274   24254108.9414      -1334.7604
        42.0004         21.5004
   4727395.22747   3663405.58245  22857269.7664   22857268.9264      -2856.8634
        45.2504         30.7504
 15  7  6 18 54 30.0000000  0  9G11G01G13G15G17G28G30G04G07
   2133364.80547   1655274.68444  23155352.4534   23155349.2974      -1699.6254
        43.7504         27.0004
  -1141078.58246   -882519.08644  23222978.7584   23222979.1954        101.2434
        41.5004         29.2504
   -934570.20348   -716249.64546  21446296.6644   21446293.4264       -131.7134
        48.7504         37.7504
  -3260207.48847  -2456339.04744  23589736.5084   23589734.7814       1255.0364
        42.5004         29.2504
  -3482750.85248  -2694578.21546  20917663.8984   20917659.9024       1392.0184
        48.5004         41.7504
   1106038.75848    856751.70346  21332586.1564   21332581.1374       -683.8304
        49.2504         40.0004
   2043414.59448   1585450.64546  20994699.0394   20994697.2344      -1483.1134
        50.7504         41.5004
   1492755.30146   1161097.83243  24261831.2034   24261829.6484      -1352.4424
        39.0004         21.5004
   4813386.69947   3730411.76244  22873633.4614   22873632.3754      -2866.3824
        44.0004         28.7504
 15  7  6 18 55  0.0000000  0  9G11G01G13G15G17G28G30G04G07
   2184886.96147   1695421.79344  23165157.0474   23165153.1724      -1717.4054
        43.0004         27.5004
  -1143565.41046   -884456.84444  23222504.8524   23222505.7154         82.8944
        40.2504         28.7504
   -929994.11348   -712683.88346  21447167.6254   21447164.1914       -152.5364
        49.5004         37.5004
  -3297354.15647  -2485284.50444  23582667.7974   23582665.5824       1238.2224
        42.5004         29.7504
  -3524035.92648  -2726748.38747  20909807.4924   20909803.7194       1376.1694
        48.5004         42.2504
   1126643.85248    872807.61746  21336507.1884   21336502.6174       -686.8364
        49.0004         39.7504
   2088308.73848   1620433.04746  21003242.0634   21003240.2854      -1496.4714
        51.2504         41.7504
   1533863.66047   1193130.28943  24269652.7734   24269652.2934      -1370.2794
        42.0004         20.7504
   4899668.64847   3797644.30145  22890051.8914   22890051.7344      -2876.0654
        43.0004         31.0004
 15  7  6 18 55 30.0000000  0  9G11G01G13G15G17G28G30G04G07
   2236938.39847   1735981.33244  23175061.9224   23175058.9494      -1735.0484
        43.0004         28.2504
  -1145503.94147   -885967.33644  23222136.1094   23222136.9414         64.6184
        44.0004         29.2504
   -924796.55548   -708633.85946  21448156.8674   21448153.0784       -173.2524
        49.5004         37.0004
  -3333998.44547  -2513838.48844  23575695.0944   23575692.7504       1221.4764
        42.2504         29.5004
  -3564847.87548  -2758549.88747  20902041.1174   20902037.2384       1360.3984
        48.0004         42.5004
   1147336.01648    888931.36746  21340445.3524   21340440.3134       -689.7394
        48.5004         40.0004
   2133600.78948   1655725.50447  21011860.3754   21011859.0984      -1509.7354
        50.5004         42.2504
   1575503.39547   1225576.84043  24277577.3594   24277575.9614      -1387.9914
        42.0004         21.5004
   4986237.31647   3865100.22745  22906526.1334   22906525.4344      -2885.6224
        44.7504         30.0004
 15  7  6 18 56  0.0000000  0  9G11G01G13G15G17G28G30G04G07
   2289518.25846   1776952.64844  23185067.6174   23185063.9694      -1752.6624
        41.7504         27.5004
  -1146891.99247   -887048.90244  23221871.9454   23221872.5474         46.2684
        42.0004         28.7504
   -918976.73448   -704098.96546  21449264.1334   21449260.8714       -193.9944
        49.5004         37.2504
  -3370137.97347  -2541999.15245  23568818.4454   23568815.5554       1204.6514
        43.5004         30.0004
  -3605185.27748  -2789981.61747  20894365.1724   20894361.6644       1344.5804
        48.5004         42.0004
   1168116.08648    905123.62146  21344399.2194   21344394.4104       -692.6694
        48.5004         39.7504
   2179291.92648   1691328.93446  21020555.3524   21020553.9654      -1523.0384
        50.5004         41.5004
   1617674.77046   1258437.60243  24285602.0004   24285601.5314      -1405.7124
        40.7504         20.5004
   5073092.57447   3932779.47345  22923053.9774   22923053.8134      -2895.1754
        44.0004         31.5004
 15  7  6 18 56 30.0000000  0  9G11G01G13G15G17G28G30G04G07
   2342623.89547   1818333.64144  23195172.9844   23195170.1174      -1770.1884
        43.5004         26.5004
  -1147730.21146   -887702.01644  23221712.9924   23221713.1804         27.9414
        41.7504         28.2504
   -912536.45748   -699080.58646  21450489.5554   21450486.4024       -214.6764
        49.5004         37.2504
  -3405773.07847  -2569766.77745  23562036.5084   23562034.2504       1187.8374
        42.5004         30.5004
  -3645048.84848  -2821044.12147  20886779.4614   20886775.8364       1328.7864
        49.5004         42.2504
   1188981.72748    921382.54746  21348370.0394   21348365.1724       -695.5214
        49.5004         39.5004
   2225380.77748   1727242.27746  21029325.6254   21029324.2774      -1536.2954
        50.7504         41.7504
   1660375.32447   1291710.76243  24293727.9694   24293727.4844      -1423.3524
        42.0004         22.0004
   5160231.98847   4000680.14545  22939636.7114   22939635.5744      -2904.6474
        44.0004         31.0004
 15  7  6 18 57  0.0000000  0  9G11G01G13G15G17G28G30G04G07
   2396250.21147   1860120.36344  23205377.9454   23205374.9574      -1787.5444
        42.0004         26.0004
  -1148021.34847   -887928.83244  23221657.1564   23221657.9264          9.7054
        43.0004         28.0004
   -905479.73448   -693581.86746  21451832.7504   21451829.0784       -235.2244
        50.0004         37.0004
  -3440907.02047  -2597143.86345  23555350.8594   23555348.7624       1171.1314
        43.5004         30.5004
  -3684441.59048  -2851739.75447  20879283.6414   20879279.6454       1313.0914
        49.0004         42.0004
   1209929.05548    937705.13346  21352356.1564   21352351.2934       -698.2444
        49.5004         39.2504
   2271863.73048   1763462.70346  21038171.3204   21038169.9534      -1549.4324
        50.2504         41.5004
   1703600.47746   1325392.64543  24301953.7814   24301952.3554      -1440.8384
        41.0004         22.0004
   5247650.88747   4068798.58645  22956272.4924   22956271.0124      -2913.9634
        43.5004         31.5004
 15  7  6 18 57 30.0000000  0  9G11G01G13G15G17G28G30G04G07
   2450398.59846   1902313.87944  23215682.0394   23215678.7194      -1804.9464
        41.2504         26.5004
  -1147761.73047   -887726.50444  23221705.8834   23221706.8484         -8.6544
        43.0004         28.0004
   -897804.45748   -687601.15646  21453293.2194   21453289.7344       -255.8434
        50.0004         37.5004
  -3475535.28547  -2624126.92245  23548760.8914   23548758.8954       1154.2764
        43.2504         30.5004
  -3723360.17248  -2882065.90646  20871877.3914   20871873.4734       1297.2864
        49.5004         41.5004
   1230960.79348    954093.48446  21356358.4614   21356353.6334       -701.0584
        49.0004         39.7504
   2318743.65648   1799992.47346  21047091.8594   21047091.0354      -1562.6644
        50.5004         41.5004
   1747352.03947   1359484.75043  24310278.9384   24310277.7344      -1458.3854
        42.2504         22.0004
   5335351.14547   4137136.27045  22972960.7814   22972960.3524      -2923.3424
        43.0004         31.5004
 15  7  6 18 58  0.0000000  0  9G11G01G13G15G17G28G30G04G07
   2505066.06647   1944911.86344  23226085.4614   23226081.6414      -1822.2494
        43.0004         26.5004
  -1146952.04347   -887095.52344  23221860.4304   23221861.0784        -26.9904
        42.5004         28.0004
   -889512.25448   -681139.71946  21454871.0394   21454867.6954       -276.4074
        50.5004         37.2504
  -3509658.82447  -2650716.68745  23542268.0234   23542265.6684       1137.4514
        43.7504         30.5004
  -3761805.34448  -2912023.16447  20864561.1484   20864557.3484       1281.5064
        49.0004         42.2504
   1252074.76248    970545.93046  21360376.1644   21360371.4184       -703.7994
        49.5004         39.0004
   2366019.08248   1836830.41846  21056088.7344   21056087.0274      -1575.8484
        50.2504         41.0004
   1791627.44146   1393985.01643  24318704.4774   24318703.3714      -1475.8474
        41.7504         22.0004
   5423330.31347   4205691.27345  22989702.9384   22989702.2504      -2932.6394
        43.7504         30.2504
 15  7  6 18 58 30.0000000  0  9G11G01G13G15G17G28G30G04G07
   2560253.37147   1987914.95344  23236587.0634   23236583.1174      -1839.5774
        42.5004         26.7504
  -1145588.92647   -886033.30944  23222119.7504   23222120.3794        -45.4374
        43.0004         29.2504
   -880601.30148   -674196.14846  21456566.8984   21456563.2234       -297.0324
        50.0004         37.2504
  -3543274.32847  -2676910.58245  23535871.0234   23535868.9024       1120.5174
        42.7504         30.0004
  -3799774.54748  -2941609.54746  20857336.1334   20857332.1994       1265.6404
        48.7504         41.7504
   1273273.30948    987064.27046  21364410.0394   21364405.2704       -706.6184
        49.2504         39.2504
   2413692.53548   1873978.50847  21065160.8054   21065159.3404      -1589.1154
        48.7504         42.0004
   1836428.16846   1428894.64143  24327229.8834   24327228.4694      -1493.3584
        37.2504         22.0004
   5511589.74247   4274464.66045  23006497.9534   23006497.8874      -2941.9814
        43.0004         30.7504
 15  7  6 18 59  0.0000000  0  9G11G01G13G15G17G28G30G04G07
   2615960.92247   2031323.39844  23247187.3444   23247184.5984      -1856.9184
        42.5004         26.7504
  -1143669.98047   -884537.99244  23222484.9924   23222485.5864        -63.9654
        42.0004         28.5004
   -871070.34448   -666769.45746  21458380.4304   21458377.3404       -317.6994
        50.2504         37.2504
  -3576378.99647  -2702706.43045  23529571.4614   23529569.0744       1103.4894
        43.7504         30.7504
  -3837265.44148  -2970823.21147  20850201.7974   20850197.9534       1249.6964
        48.5004         42.0004
   1294557.63748   1003649.44946  21368460.4064   21368455.7854       -709.4784
        48.0004         40.0004
   2461765.67648   1911438.03946  21074308.7814   21074307.3524      -1602.4384
        48.7504         41.5004
   1881754.95346   1464214.19543  24335855.7504   24335853.7344      -1510.8934
        41.2504         21.5004
   5600130.08247   4343456.92245  23023347.1564   23023346.6564      -2951.3454
        42.5004         30.0004
 15  7  6 18 59 30.0000000  0  9G11G01G13G15G17G28G30G04G07
   2672182.53147   2075132.40644  23257886.7114   23257882.9414      -1874.0544
        42.7504         26.0004
  -1141199.12946   -882612.61744  23222954.9224   23222955.3754        -82.3624
        41.5004         28.5004
   -860924.45748   -658863.60546  21460311.2734   21460307.9534       -338.1964
        51.0004         37.5004
  -3608976.64547  -2728107.19145  23523367.8134   23523366.1644       1086.5884
        42.7504         30.2504
  -3874281.77348  -2999667.09847  20843157.9534   20843153.5354       1233.8784
        48.5004         42.0004
   1315922.97347   1020297.75446  21372526.0004   21372520.9694       -712.1784
        47.0004         40.0004
   2510233.85248   1949205.39146  21083532.0164   21083530.3524      -1615.6064
        49.5004         41.7504
   1927602.07846   1499939.15643  24344579.0394   24344578.0944      -1528.2374
        41.0004         22.2504
   5688945.84847   4412663.83245  23040248.1954   23040247.7384      -2960.5264
        42.2504         30.5004
 15  7  6 19  0  0.0000000  0  9G11G01G13G15G17G28G30G04G07
   2728917.78147   2119341.66044  23268683.2814   23268679.4304      -1891.1754
        43.5004         27.2504
  -1138174.31647   -880255.57444  23223530.5474   23223531.0514       -100.8274
        43.7504         28.5004
   -850163.19148   -650478.23446  21462359.0864   21462355.6254       -358.7094
        50.5004         37.5004
  -3641065.00047  -2753111.10245  23517262.0634   23517259.9844       1069.6124
        44.0004         30.5004
  -3910822.59047  -3028140.44547  20836204.3054   20836200.3404       1218.0274
        47.2504         42.7504
   1337369.87947   1037009.62546  21376607.1484   21376602.4344       -714.8974
        47.5004         40.2504
   2559098.36348   1987281.58646  21092830.4064   21092829.2114      -1628.8174
        50.5004         41.5004
   1973969.60246   1536069.65243  24353403.0234   24353402.0314      -1545.5844
        41.7504         21.2504
   5778037.29347   4482085.52345  23057202.5164   23057201.6524      -2969.7154
        44.0004         31.0004
 15  7  6 19  0 30.0000000  0  9G11G01G13G15G17G28G30G04G07
   2786166.15647   2163950.76244  23279576.7274   23279573.6684      -1908.2794
        43.0004         26.5004
  -1134593.85946   -877465.57044  23224211.8914   23224212.3874       -119.3494
        40.5004         27.7504
   -838785.89548   -641612.84446  21464524.2734   21464520.5084       -379.2434
        50.5004         37.2504
  -3672642.51247  -2777716.96545  23511253.3594   23511250.7384       1052.5844
        43.7504         31.0004
  -3946886.07048  -3056241.84447  20829341.6884   20829337.4304       1202.1164
        48.5004         42.5004
   1358899.29348   1053785.78546  21380704.0234   21380699.2544       -717.6474
        48.0004         39.5004
   2608360.08248   2025667.28946  21102204.6644   21102203.5864      -1642.0574
        49.7504         41.7504
   2020857.56647   1572605.68843  24362325.0554   24362324.2234      -1562.9324
        42.0004         21.0004
   5867403.66447   4551721.45745  23074208.0554   23074207.8794      -2978.8794
        43.7504         32.0004
 15  7  6 19  1  0.0000000  0  9G11G01G13G15G17G28G30G04G07
   2843924.41046   2208957.14144  23290567.9534   23290564.6024      -1925.2754
        41.7504         26.0004
  -1130458.56647   -874243.22344  23224998.8134   23224999.3054       -137.8434
        42.0004         28.0004
   -826794.74648   -632269.12146  21466806.0314   21466802.5474       -399.7054
        50.7504         37.5004
  -3703709.71947  -2801925.18045  23505341.2114   23505338.8634       1035.5744
        43.5004         30.0004
  -3982473.33248  -3083972.16447  20822569.5944   20822565.5594       1186.2424
        48.5004         42.5004
   1380509.27748   1070624.72746  21384816.3524   21384811.4064       -720.3334
        48.0004         39.5004
   2658017.49648   2064361.31647  21111654.2664   21111652.9024      -1655.2474
        49.7504         42.0004
   2068263.07846   1609544.98043  24371346.8914   24371345.6524      -1580.1844
        41.5004         22.0004
   5957042.82847   4621569.93845  23091266.0474   23091265.7734      -2987.9724
        44.0004         30.7504
 15  7  6 19  1 30.0000000  0  9G11G01G13G15G17G28G30G04G07
   2902193.03947   2254361.23444  23301655.7664   23301652.7734      -1942.2884
        42.7504         27.5004
  -1125765.98047   -870586.63744  23225891.3364   23225892.1374       -156.4204
        43.2504         28.7504
   -814188.69548   -622446.25046  21469204.7894   21469201.4144       -420.2024
        50.2504         37.0004
  -3734264.02047  -2825733.73045  23499527.0004   23499524.5704       1018.4774
        44.5004         30.2504
  -4017582.07848  -3111329.61347  20815888.9534   20815884.7734       1170.2924
        49.5004         42.2504
   1402201.33648   1087527.62946  21388944.2194   21388939.2934       -723.0694
        49.0004         39.2504
   2708072.37548   2103365.05946  21121179.5164   21121178.1644      -1668.4964
        50.2504         41.7504
   2116187.24246   1646888.41043  24380466.8054   24380465.3204      -1597.4724
        41.2504         22.2504
   6046955.51247   4691631.54745  23108375.9304   23108376.2934      -2997.0894
        43.7504         30.7504
 15  7  6 19  2  0.0000000  0  9G11G01G13G15G17G28G30G04G07
   2960970.09447   2300161.49644  23312840.7424   23312837.8364      -1959.2354
        43.0004         26.5004
  -1120515.77047   -866495.53144  23226890.3444   23226891.2664       -175.0074
        43.2504         28.5004
   -800968.68048   -612144.96946  21471720.5634   21471717.4304       -440.6674
        50.0004         37.2504
  -3764304.91847  -2849142.22745  23493809.9304   23493807.7544       1001.3634
        45.0004         30.5004
  -4052212.43748  -3138314.28947  20809298.6884   20809294.6764       1154.3454
        49.2504         42.5004
   1423974.89848   1104494.03546  21393087.8134   21393082.8134       -725.7854
        49.0004         38.7504
   2758524.32848   2142678.21146  21130779.9224   21130778.4694      -1681.7324
        50.0004         40.7504
   2164628.17646   1684634.53543  24389685.1884   24389683.3674      -1614.6984
        39.5004         22.2504
   6137140.46147   4761905.30545  23125537.3284   23125537.6724      -3006.1654
        44.7504         30.2504
 15  7  6 19  2 30.0000000  0  9G11G01G13G15G17G28G30G04G07
   3020251.48047   2346354.72744  23324121.4384   23324118.1374      -1976.0464
        42.7504         26.5004
  -1114709.00047   -861970.75044  23227995.8674   23227996.3954       -193.5594
        43.5004         28.7504
   -787137.15648   -601367.18746  21474352.6414   21474349.1564       -461.0514
        50.2504         37.7504
  -3793833.44547  -2872151.46945  23488191.1094   23488188.9574        984.2844
        45.0004         31.0004
  -4086365.13748  -3164926.77047  20802799.2424   20802795.7624       1138.4234
        49.2504         43.0004
   1445828.07848   1121522.47346  21397246.3754   21397241.1294       -728.4394
        49.0004         39.5004
   2809371.61348   2182299.41446  21140455.9064   21140454.6294      -1694.9104
        50.2504         41.5004
   2213583.06346   1722781.14143  24399000.8674   24398999.5164      -1631.8304
        41.2504         22.0004
   6227594.76247   4832388.94144  23142750.8364   23142750.9384      -3015.1434
        43.7504         29.5004
 15  7  6 19  3  0.0000000  0  9G11G01G13G15G17G28G30G04G07
   3080037.18447   2392940.97744  23335498.6414   23335495.4494      -1992.8574
        43.5004         25.7504
  -1108344.10547   -857011.06644  23229207.4694   23229207.4804       -212.1634
        43.5004         28.5004
   -772693.77748   -590112.64146  21477101.0394   21477097.5084       -481.4464
        50.2504         37.0004
  -3822847.58647  -2894759.89145  23482670.2114   23482667.6334        967.1384
        44.2504         31.2504
  -4120039.65248  -3191166.63747  20796391.4224   20796387.6024       1122.4844
        49.7504         42.7504
   1467761.40248   1138613.37146  21401419.9224   21401415.0554       -731.1114
        49.7504         39.2504
   2860615.12948   2222229.37146  21150207.5084   21150205.9614      -1708.1174
        51.0004         41.2504
   2263051.91446   1761328.22343  24408413.7504   24408412.9964      -1648.9624
        40.7504         21.7504
   6318318.43847   4903082.51644  23160014.4844   23160014.6724      -3024.1234
        43.5004         29.0004
 15  7  6 19  3 30.0000000  0 10G11G01G13G15G17G28G30G04G06G07
   3140324.94547   2439918.40244  23346970.9534   23346967.9264      -2009.5924
        42.0004         26.0004
  -1101420.98447   -851616.39544  23230523.7194   23230524.6994       -230.7714
        43.5004         29.0004
   -757639.87948   -578382.35546  21479965.6484   21479962.1174       -501.7974
        50.2504         37.5004
  -3851347.28947  -2916967.44945  23477246.6804   23477244.5394        949.9904
        43.5004         30.5004
  -4153235.74648  -3217033.70347  20790074.8444   20790070.6804       1106.5364
        49.0004         42.0004
   1489773.94148   1155765.98846  21405608.9614   21405604.1764       -733.7514
        49.7504         38.5004
   2912254.16448   2262467.52046  21160034.3754   21160032.9224      -1721.3014
        50.5004         41.2504
   2313033.03946   1800274.48443  24417925.1254   24417924.6804      -1666.0374
        40.5004         22.5004
   -177691.12556   -117616.68753  25230214.6644   25230222.7304
        37.5004         19.2504
   6409309.55547   4973984.46544  23177330.2504   23177329.9694      -3033.0374
        43.5004         27.7504
 15  7  6 19  4  0.0000000  0 10G11G01G13G15G17G28G30G04G06G07
   3201109.49647   2487282.93044  23358537.7274   23358534.6684      -2026.1524
        43.0004         26.5004
  -1093942.58647   -845789.03144  23231947.4614   23231947.8484       -249.2804
        44.0004         28.5004
   -741979.45748   -566179.46546  21482946.0234   21482942.7154       -522.0144
        50.0004         37.5004
  -3879335.34847  -2938776.33645  23471919.9144   23471918.3634        932.9354
        43.0004         30.0004
  -4185956.61748  -3242530.46547  20783848.0554   20783844.0394       1090.6964
        50.0004         42.2504
   1511862.39148   1172977.77046  21409811.9844   21409807.0704       -736.2824
        49.7504         39.0004
   2964285.32448   2303011.21546  21169935.4304   21169934.2114      -1734.3724
        50.7504         41.7504
   2363521.60546   1839616.12943  24427534.3834   24427531.9884      -1682.9524
        40.5004         21.7504
   -275909.63746   -194150.43043  25211524.8914   25211532.5274       3273.9504
        37.0004         19.0004
   6500563.70347   5045091.38344  23194695.3674   23194694.8484      -3041.8054
        43.5004         28.0004
 15  7  6 19  4 30.0000000  0 10G11G01G13G15G17G28G30G04G06G07
   3262387.18047   2535031.72344  23370199.6804   23370195.3444      -2042.5894
        43.0004         25.5004
  -1085910.46147   -839530.19945  23233475.4844   23233476.3714       -267.7374
        43.0004         30.0004
   -725715.53548   -553506.31246  21486041.0164   21486037.2624       -542.1314
        50.2504         37.0004
  -3906813.08647  -2960187.54745  23466691.6414   23466689.7424        915.9254
        44.0004         31.0004
  -4218203.83648  -3267658.15647  20777711.4924   20777707.4694       1074.9074
        49.0004         42.5004
   1534024.35948   1190246.83246  21414029.3674   21414024.3754       -738.7324
        49.5004         38.5004
   3016706.32448   2343858.69146  21179910.7584   21179909.6844      -1747.3674
        51.0004         41.5004
   2414514.25846   1879350.60943  24437236.4534   24437235.5394      -1699.7554
        40.5004         22.0004
   -374287.58646   -270808.37943  25192803.9924   25192811.2854       3279.2654
        37.0004         19.5004
   6592077.84447   5116400.89844  23212110.4384   23212109.9304      -3050.4714
        42.2504         28.5004
 15  7  6 19  5  0.0000000  0 10G11G01G13G15G17G28G30G04G06G07
   3324157.34046   2583164.27344  23381954.1564   23381950.0164      -2059.0054
        41.5004         25.7504
  -1077322.84047   -832838.51244  23235110.4614   23235110.4104       -286.2544
        44.2504         28.2504
   -708847.55148   -540362.46546  21489250.5164   21489247.5314       -562.2664
        50.7504         37.0004
  -3933778.55147  -2981199.59845  23461561.2734   23461558.3674        898.8494
        44.2504         31.0004
  -4249975.96548  -3292415.63347  20771665.3834   20771661.1094       1059.0714
        48.7504         42.7504
   1556260.66448   1207573.81646  21418261.0314   21418256.1564       -741.2104
        50.0004         38.7504
   3069518.28948   2385010.80946  21189960.7894   21189959.2894      -1760.3994
        50.7504         41.0004
   2466011.06346   1919477.95343  24447035.3444   24447035.6134      -1716.5604
        41.2504         22.2504
   -472821.08646   -347587.59043  25174052.0004   25174060.8284       3284.4504
        36.5004         19.2504
   6683851.93047   5187912.95344  23229575.0394   23229574.2074      -3059.1364
        42.7504         26.5004
 15  7  6 19  5 30.0000000  0 10G11G01G13G15G17G28G30G04G06G07
   3386419.23046   2631679.97744  23393800.9384   23393798.4454      -2075.3964
        41.2504         26.5004
  -1068178.48447   -825713.02044  23236849.6024   23236850.7734       -304.8124
        42.5004         28.2504
   -691375.76248   -526748.12146  21492575.8054   21492571.8594       -582.3934
        50.0004         36.5004
  -3960230.50047  -3001811.51645  23456526.9144   23456524.7934        881.7324
        44.2504         31.0004
  -4281272.18048  -3316802.28147  20765710.0784   20765705.9654       1043.2074
        49.2504         42.7504
   1578571.92648   1224959.21546  21422506.2974   21422501.7934       -743.7094
        49.7504         38.5004
   3122721.84848   2426468.06646  21200084.9384   21200083.8674      -1773.4524
        50.2504         41.0004
   2518011.46946   1959997.64143  24456931.3674   24456930.6604      -1733.3474
        40.0004         21.7504
   -571506.96546   -424485.53943  25155273.6024   25155281.2344       3289.5294
        36.0004         20.2504
   6775885.55147   5259627.25044  23247087.9844   23247087.8444      -3067.7874
        42.5004         28.2504
 15  7  6 19  6  0.0000000  0 10G11G01G13G15G17G28G30G04G06G07
   3449168.70747   2680575.64144  23405741.7504   23405738.7194      -2091.6494
        42.0004         24.7504
  -1058479.24647   -818155.16044  23238695.4064   23238696.3014       -323.3084
        43.5004         28.2504
   -673303.15648   -512665.60546  21496015.1024   21496010.9694       -602.4204
        50.2504         37.5004
  -3986170.45347  -3022024.47345  23451590.4694   23451588.3554        864.6654
        44.7504         31.0004
  -4312094.35948  -3340819.54347  20759844.6174   20759840.7384       1027.4064
        48.5004         42.5004
   1600955.69548   1242401.09846  21426766.0554   21426761.5824       -746.1264
        49.2504         39.7504
   3176314.51648   2468228.52346  21210283.7424   21210282.0084      -1786.4224
        49.0004         41.0004
   2570511.74246   2000906.89543  24466921.3364   24466921.1334      -1750.0094
        38.5004         21.2504
   -670344.94145   -501502.04343  25136465.3984   25136472.8794       3294.5994
        35.0004         20.5004
   6868175.12946   5331540.98444  23264650.2424   23264649.9494      -3076.3194
        41.0004         26.7504
 15  7  6 19  6 30.0000000  0 10G11G01G13G15G17G28G30G04G06G07
   3512408.57846   2729853.39544  23417776.1564   23417773.5044      -2107.9964
        40.7504         26.0004
  -1048220.00847   -810160.90244  23240648.1954   23240648.6604       -341.9754
        44.5004         28.5004
   -654626.08248   -498112.07846  21499568.8204   21499565.0474       -622.5694
        50.2504         36.7504
  -4011593.19547  -3041834.39545  23446753.2424   23446750.6524        847.4254
        46.0004         31.0004
  -4342437.48048  -3364463.52047  20754070.8674   20754066.2934       1011.4374
        48.7504         42.7504
   1623416.36748   1259902.90646  21431040.3284   21431035.2034       -748.6894
        49.7504         39.2504
   3230300.81648   2510295.70746  21220556.6724   21220555.5744      -1799.5434
        50.7504         40.7504
   2623515.53546   2042208.45743  24477008.8594   24477007.7154      -1766.7934
        40.7504         20.2504
   -769327.89546   -578631.52043  25117630.7894   25117637.3484       3299.4324
        36.2504         19.2504
   6960724.50046   5403657.12544  23282262.2274   23282262.0984      -3084.9794
        40.7504         27.2504
 15  7  6 19  7  0.0000000  0 10G11G01G13G15G17G28G30G04G06G07
   3576138.46947   2779512.98444  23429904.2424   23429900.7734      -2124.3304
        42.2504         25.2504
  -1037399.03547   -801728.93444  23242707.3134   23242707.6024       -360.6994
        44.2504         28.5004
   -635344.19948   -483087.28146  21503238.1334   21503234.6174       -642.7294
        50.7504         37.5004
  -4036496.34447  -3061239.44545  23442014.1644   23442011.4534        830.1054
        44.2504         31.2504
  -4372300.10948  -3387733.08647  20748387.7894   20748383.9454        995.4214
        48.5004         43.0004
   1645955.17648   1277465.60246  21435328.9384   21435324.6054       -751.2944
        48.0004         39.5004
   3284681.96148   2552670.56646  21230905.2274   21230904.0824      -1812.7054
        49.0004         41.2504
   2677022.71546   2083902.31643  24487190.5864   24487189.4104      -1783.5734
        39.7504         21.2504
   -868451.73845   -655870.78143  25098767.6884   25098774.6684       3304.1284
        35.2504         21.0004
   7053533.86746   5475975.88744  23299923.3984   23299923.4144      -3093.6464
        41.2504         27.7504
 15  7  6 19  7 30.0000000  0 10G11G01G13G15G17G28G30G04G06G07
   3640353.37147   2829550.52344  23442123.8204   23442120.7774      -2140.4974
        42.0004         25.0004
  -1026019.01247   -792861.37144  23244872.9064   23244872.7304       -379.3344
        43.7504         29.2504
   -615461.41048   -467594.24246  21507022.0864   21507018.3134       -662.7604
        50.7504         37.0004
  -4060882.91047  -3080241.97345  23437373.9774   23437371.3014        812.8864
        44.5004         31.5004
  -4401685.22748  -3410630.56247  20742796.2664   20742791.9384        979.5044
        48.7504         42.7504
   1668569.00047   1295086.76246  21439632.4614   21439627.7624       -753.7944
        47.0004         38.5004
   3339454.64847   2595350.51246  21241327.8834   21241326.8054      -1825.7564
        47.5004         41.0004
   2731028.56646   2125984.73043  24497467.4694   24497466.5004      -1800.1954
        40.0004         20.2504
   -967717.10246   -733220.37543  25079877.9224   25079884.7934       3308.8454
        36.7504         20.2504
   7146598.68046   5548493.66844  23317633.1094   23317633.3094      -3102.1604
        40.0004         27.0004
 15  7  6 19  8  0.0000000  0 10G11G01G13G15G17G28G30G04G06G07
   3705051.67646   2879964.73044  23454434.9694   23454432.2384      -2156.6104
        41.7504         25.2504
  -1014079.60947   -783557.92644  23247145.3364   23247145.2934       -397.9804
        44.0004         29.5004
   -594978.57048   -451633.62546  21510919.3754   21510915.9064       -682.7614
        50.7504         36.7504
  -4084752.35947  -3098841.53545  23432831.2274   23432828.7974        795.6484
        44.7504         31.2504
  -4430592.59848  -3433155.77047  20737294.8524   20737291.0594        963.5794
        49.0004         43.0004
   1691257.35248   1312765.98046  21443950.2274   21443945.2704       -756.2784
        48.0004         38.2504
   3394618.63748   2638335.37546  21251825.4304   21251824.4614      -1838.8004
        48.0004         40.7504
   2785532.16046   2168454.98843  24507839.1414   24507838.7424      -1816.7864
        40.5004         20.0004
  -1067121.28546   -810678.10243  25060960.8674   25060968.8324       3313.4734
        36.2504         20.7504
   7239917.90646   5621209.71144  23335391.2114   23335391.7894      -3110.6414
        39.2504         27.7504
 15  7  6 19  8 30.0000000  0 10G11G01G13G15G17G28G30G04G06G07
   3770232.83247   2930755.18844  23466838.0164   23466835.9534      -2172.7054
        42.0004         25.2504
  -1001579.11347   -773817.27344  23249523.5634   23249523.9844       -416.6834
        44.5004         29.2504
   -573895.39848   -435205.22746  21514931.2974   21514927.7074       -702.7724
        50.0004         37.0004
  -4108102.65247  -3117036.57845  23428387.3674   23428385.2774        778.3434
        46.0004         32.0004
  -4459020.86748  -3455307.65247  20731885.4304   20731881.4884        947.6094
        49.0004         43.0004
   1714021.58648   1330504.33246  21448281.9454   21448277.1254       -758.8084
        48.5004         39.0004
   3450175.14848   2681626.09046  21262397.9614   21262396.3444      -1851.8844
        49.7504         40.5004
   2840533.04346   2211312.76243  24518305.4924   24518305.0434      -1833.3634
        39.0004         21.0004
  -1166660.45346   -888241.02743  25042020.6724   25042027.0314       3317.9724
        38.2504         19.7504
   7333491.66846   5694124.09044  23353198.3134   23353198.4774      -3119.1254
        41.5004         27.5004
 15  7  6 19  9  0.0000000  0 10G11G01G13G15G17G28G30G04G06G07
   3835895.21947   2981920.61344  23479334.0394   23479331.1254      -2188.7464
        43.0004         25.2504
   -988516.85547   -763638.86744  23252009.4304   23252009.6454       -435.4094
        44.7504         29.5004
   -552212.76248   -418309.69946  21519057.6094   21519054.2154       -722.7554
        49.5004         37.7504
  -4130932.93447  -3134826.42645  23424043.0314   23424040.5474        761.0094
        45.5004         31.5004
  -4486969.08648  -3477085.46947  20726566.7734   20726562.7704        931.6074
        48.7504         43.0004
   1736862.06348   1348302.09846  21452628.0554   21452623.6094       -761.3494
        49.0004         38.5004
   3506124.26648   2725222.73046  21273044.2424   21273043.4104      -1864.9714
        49.2504         41.0004
   2896030.30546   2254557.31643  24528866.6024   24528865.5984      -1849.9094
        38.7504         19.5004
  -1266331.56246   -965906.75443  25023052.9304   25023060.1644       3322.3704
        36.5004         21.2504
   7427319.24646   5767236.26244  23371052.7664   23371053.4844      -3127.5864
        41.2504         28.0004
 15  7  6 19  9 30.0000000  0 10G11G01G13G15G17G28G30G04G06G07
   3902038.37547   3033460.64844  23491921.1884   23491917.7664      -2204.7724
        42.0004         25.7504
   -974891.45747   -753021.66444  23254601.6024   23254602.6134       -454.1804
        43.7504         29.0004
   -529930.53948   -400946.96946  21523297.5864   21523294.1454       -742.7414
        49.7504         37.0004
  -4153241.51647  -3152209.73845  23419798.1564   23419795.7974        743.6194
        45.5004         31.5004
  -4514436.16048  -3498488.35947  20721339.9614   20721336.0984        915.5694
        49.0004         43.2504
   1759779.48848   1366159.82046  21456989.1724   21456984.4924       -763.9144
        48.2504         38.7504
   3562466.81648   2769125.95346  21283766.3674   21283764.8984      -1878.0854
        48.2504         40.7504
   2952023.72746   2298188.49643  24539520.8674   24539521.5434      -1866.4474
        38.0004         19.7504
  -1366130.96146  -1043672.44943  25004062.2194   25004068.7304       3326.6474
        36.5004         19.0004
   7521400.31647   5840545.93444  23388955.9924   23388956.6334      -3136.0364
        42.0004         27.0004
 15  7  6 19 10  0.0000000  0 10G11G01G13G15G17G28G30G04G06G07
   3968659.21547   3085372.96144  23504598.5084   23504595.4104      -2220.6954
        42.0004         25.5004
   -960703.64547   -741966.23044  23257301.0554   23257302.1724       -472.9274
        44.0004         29.0004
   -507050.73048   -383118.59846  21527651.8984   21527648.3284       -762.6604
        49.0004         37.0004
  -4175029.02347  -3169187.03145  23415652.1484   23415649.8324        726.2504
        45.5004         31.5004
  -4541422.89848  -3519516.96947  20716204.9064   20716200.8754        899.5584
        48.5004         43.2504
   1782772.66848   1384076.56346  21461364.4614   21461359.8324       -766.4394
        48.7504         38.7504
   3619201.59048   2813334.79346  21294562.0634   21294561.2504      -1891.1594
        48.5004         40.7504
   3008510.79346   2342204.32443  24550271.0394   24550270.1484      -1882.9024
        38.0004         19.2504
  -1466056.97346  -1121536.81643  24985046.4924   24985053.6294       3330.8674
        37.0004         20.2504
   7615732.84447   5914051.55144  23406907.5084   23406907.9774      -3144.4184
        42.5004         28.0004
 15  7  6 19 10 30.0000000  0 10G11G01G13G15G17G28G30G04G06G07
   4035754.77347   3137655.12944  23517367.1334   23517362.8984      -2236.5194
        42.5004         24.0004
   -945954.33247   -730473.23844  23260108.7734   23260108.9384       -491.6444
        44.5004         28.5004
   -483575.69548   -364826.40246  21532118.9144   21532115.6414       -782.5014
        49.0004         37.0004
  -4196296.08647  -3185758.77745  23411605.5864   23411602.5664        708.9024
        45.0004         31.5004
  -4567930.09448  -3540171.91047  20711160.6954   20711156.6484        883.5734
        50.0004         43.7504
   1805840.54348   1402051.51646  21465754.7974   21465749.6764       -768.9294
        50.2504         38.7504
   3676327.21948   2857848.20746  21305432.9304   21305431.8204      -1904.1884
        49.5004         41.0004
   3065489.01246   2386602.89843  24561113.9694   24561113.3164      -1899.2744
        38.2504         19.5004
  -1566108.01646  -1199498.59843  24966007.1804   24966014.0124       3335.0354
        37.7504         21.0004
   7710314.53547   5987751.31344  23424906.0084   23424906.5124      -3152.7234
        43.0004         28.2504
 15  7  6 19 11  0.0000000  0 10G11G01G13G15G17G28G30G04G06G07
   4103324.38747   3190306.72744  23530223.4694   23530221.5274      -2252.3204
        42.2504         24.0004
   -930641.88347   -718541.46544  23263022.6884   23263023.0204       -510.4154
        44.0004         28.7504
   -459504.99648   -346070.05546  21536699.2664   21536696.0204       -802.3574
        48.5004         37.2504
  -4217040.98447  -3201923.64545  23407657.4924   23407654.9884        691.4974
        45.2504         31.7504
  -4593956.85248  -3560452.48047  20706207.7814   20706203.6374        867.5594
        49.7504         43.0004
   1828984.43848   1420085.70746  21470158.4614   21470153.9264       -771.4634
        49.7504         39.0004
   3733844.81648   2902667.04746  21316377.7114   21316376.8364      -1917.2534
        49.0004         40.7504
   3122958.20346   2431384.13742  24572048.6724   24572049.8204      -1915.6404
        37.7504         16.7504
  -1666280.16446  -1277554.74243  24946944.8984   24946951.9574       3339.0724
        37.7504         21.5004
   7805145.41847   6061645.26244  23442952.3594   23442952.5634      -3161.0294
        42.0004         27.2504
 15  7  6 19 11 30.0000000  0 10G11G01G13G15G17G28G30G04G06G07
   4171365.39147   3243325.61744  23543173.3444   23543168.8444      -2268.0334
        43.0004         25.5004
   -914767.33247   -706171.69544  23266042.8754   23266043.1214       -529.1524
        44.2504         28.5004
   -434840.97348   -326851.37146  21541393.0944   21541389.1564       -822.1344
        49.2504         37.0004
  -4237264.42247  -3217682.16445  23403809.3524   23403806.5784        674.1154
        45.7504         31.2504
  -4619504.43448  -3580359.66447  20701346.4224   20701342.2234        851.5864
        49.5004         43.0004
   1852202.94148   1438178.03546  21474577.1954   21474572.5234       -773.9504
        50.0004         39.0004
   3791752.82048   2947790.09846  21327397.6484   21327396.9844      -1930.2674
        48.7504         40.5004
   3180915.53946   2476545.56343  24583078.9534   24583078.1414      -1931.9114
        39.2504         19.2504
  -1766571.96546  -1355704.13743  24927859.8674   24927867.1484       3343.0604
        37.5004         20.2504
   7900223.06647   6135731.45744  23461044.6804   23461045.3954      -3169.2554
        42.5004         28.0004
 15  7  6 19 12  0.0000000  0 10G11G01G13G15G17G28G30G04G06G07
   4239871.68046   3296707.09844  23556208.2504   23556205.6294      -2283.5434
        41.2504         24.5004
   -898334.22347   -693366.68744  23269170.5234   23269170.8594       -547.7704
        43.2504         28.0004
   -409588.37547   -307174.06646  21546198.2194   21546195.0204       -841.7534
        47.5004         37.0004
  -4256969.62547  -3233036.87945  23400059.2734   23400056.7464        656.8404
        45.7504         31.2504
  -4644576.26648  -3599896.14547  20696575.3594   20696571.2424        835.7284
        49.5004         43.0004
   1875492.30948   1456325.59046  21479008.8444   21479003.9344       -776.3124
        50.5004         39.0004
   3850047.27048   2993214.27046  21338490.9064   21338490.2854      -1943.1484
        49.0004         40.2504
   3239355.80546   2522083.40243  24594199.8984   24594199.0984      -1948.0094
        38.5004         19.7504
  -1866984.44146  -1433947.56243  24908751.5084   24908759.3834       3347.0834
        37.0004         19.7504
   7995542.55147   6210006.11344  23479182.8204   23479184.3594      -3177.3164
        42.7504         28.0004
 15  7  6 19 12 30.0000000  0 10G11G01G13G15G17G28G30G04G06G07
   4308844.39547   3350451.99643  23569334.5084   23569331.0234      -2299.0904
        42.7504         23.2504
   -881339.66047   -680124.17244  23272403.9534   23272404.6454       -566.4854
        43.7504         27.2504
   -383745.90247   -287037.11746  21551115.9774   21551112.7504       -861.4164
        47.7504         37.0004
  -4276153.56647  -3247985.40645  23396408.7424   23396406.3594        639.4654
        46.5004         31.7504
  -4669169.23848  -3619059.48047  20691895.3834   20691891.2384        819.7664
        50.0004         43.2504
   1898854.98848   1474530.26646  21483454.5634   21483449.6254       -778.7564
        50.7504         38.5004
   3908730.60948   3038941.46946  21349658.2894   21349657.1334      -1956.1114
        48.0004         40.5004
   3298280.39146   2567998.63743  24605411.8984   24605412.0944      -1964.1534
        39.2504         19.5004
  -1967512.15646  -1512280.79343  24889621.2274   24889629.3324       3350.9244
        37.0004         21.5004
   8091105.52747   6284470.48044  23497368.7894   23497369.2894      -3185.4334
        43.5004         27.7504
 15  7  6 19 13  0.0000000  0 10G11G01G13G15G17G28G30G04G06G07
   4378283.60247   3404560.41444  23582547.8524   23582544.7234      -2314.6404
        42.2504         24.5004
   -863781.10547   -666442.19944  23275745.3984   23275746.0634       -585.2854
        43.5004         28.2504
   -357312.50848   -266439.70746  21556146.2034   21556142.5044       -881.1134
        48.5004         37.5004
  -4294813.57447  -3262525.68445  23392857.9844   23392855.4844        622.0004
        46.5004         31.2504
  -4693280.48848  -3637847.45347  20687307.2814   20687303.0594        803.7084
        50.2504         43.0004
   1922293.52748   1492794.04346  21487914.9694   21487910.1884       -781.2854
        50.7504         38.7504
   3967804.90648   3084973.32446  21360899.6484   21360898.5744      -1969.1434
        48.2504         40.2504
   3357690.09846   2614291.88343  24616716.7584   24616717.1484      -1980.3244
        39.2504         19.7504
  -2068150.01646  -1590699.86743  24870471.5004   24870478.3674       3354.5954
        37.5004         20.2504
   8186912.91447   6359125.30944  23515601.1804   23515601.1374      -3193.5804
        44.5004         28.7504
 15  7  6 19 13 30.0000000  0 10G11G01G13G15G17G28G30G04G06G07
   4448184.63347   3459028.67644  23595850.1094   23595846.9104      -2330.0344
        42.7504         26.2504
   -845661.36747   -652322.91444  23279193.3204   23279193.7664       -603.9914
        44.2504         28.5004
   -330292.22347   -245384.97746  21561287.8134   21561284.5904       -900.6764
        47.5004         37.0004
  -4312952.07847  -3276659.59845  23389406.0234   23389403.4694        604.6174
        46.0004         31.5004
  -4716913.85948  -3656263.03547  20682809.7894   20682805.7274        787.7794
        50.2504         43.5004
   1945805.09048   1511114.73046  21492388.9064   21492384.2894       -783.7194
        50.2504         38.7504
   4027267.00048   3131307.34446  21372215.1334   21372213.5944      -1982.0704
        48.5004         40.5004
   3417580.52346   2660959.72743  24628115.4844   24628113.2734      -1996.3484
        39.5004         20.5004
  -2168898.19546  -1669204.83643  24851300.4924   24851307.0044       3358.2734
        38.7504         20.7504
   8282960.91847   6433967.63344  23533877.6804   23533878.9384      -3201.6004
        43.7504         27.7504
 15  7  6 19 14  0.0000000  0 10G11G01G13G15G17G28G30G04G06G07
   4518547.84847   3513857.10544  23609238.9534   23609236.3794      -2345.4404
        43.2504         25.7504
   -826978.14847   -637764.58644  23282748.5704   23282749.0164       -622.7744
        43.5004         27.5004
   -302684.07447   -223872.18046  21566541.7894   21566538.5704       -920.2724
        47.5004         36.5004
  -4330566.54747  -3290385.16845  23386054.5314   23386052.0704        587.1494
        46.2504         32.7504
  -4740067.07048  -3674304.48447  20678403.8524   20678399.7464        771.7744
        50.2504         43.5004
   1969391.62948   1529493.84046  21496877.2114   21496872.4454       -786.2184
        50.2504         39.2504
   4087118.68848   3177944.94546  21383604.7894   21383603.3754      -1995.0564
        49.2504         40.2504
   3477951.97746   2708002.41443  24639602.3524   24639602.1524      -2012.3824
        39.5004         19.7504
  -2269751.84046  -1747792.03943  24832107.9064   24832115.3404       3361.7884
        38.0004         20.5004
   8379250.02747   6508997.82044  23552201.6644   23552202.6564      -3209.6374
        43.0004         27.5004
 15  7  6 19 14 30.0000000  0 10G11G01G13G15G17G28G30G04G06G07
   4589368.68447   3569042.11743  23622715.7664   23622713.0354      -2360.6954
        42.0004         23.5004
   -807733.79347   -622768.98844  23286411.3134   23286411.2894       -641.4794
        44.5004         28.2504
   -274491.55147   -201904.02346  21571906.3054   21571903.2854       -939.7514
        46.7504         36.5004
  -4347659.27347  -3303704.18745  23382801.8444   23382799.2504        569.7584
        46.2504         31.5004
  -4762742.33648  -3691973.50447  20674089.2194   20674084.7074        755.8424
        49.5004         43.5004
   1993050.78548   1547929.52746  21501379.2344   21501374.1294       -788.6394
        50.2504         39.0004
   4147357.24247   3224884.00446  21395067.6334   21395066.8244      -2007.9524
        47.5004         40.2504
   3538800.83646   2755417.05943  24651181.9454   24651180.9384      -2028.2954
        39.5004         20.0004
  -2370710.57046  -1826461.07043  24812895.7504   24812902.8954       3365.2914
        39.5004         21.2504
   8475776.73046   6584213.14844  23570570.1174   23570571.4494      -3217.5574
        41.7504         27.2504
 15  7  6 19 15  0.0000000  0 10G11G01G13G15G17G28G30G04G06G07
   4660645.77047   3624582.63344  23636279.9534   23636276.5314      -2375.9034
        42.0004         24.0004
   -787927.85547   -607335.80144  23290179.9224   23290180.5744       -660.1984
        43.7504         27.7504
   -245715.74247   -179481.35946  21577382.4304   21577378.8094       -959.1944
        47.0004         36.0004
  -4364229.47347  -3316616.04345  23379648.1334   23379646.0984        552.3404
        46.0004         31.7504
  -4784939.36348  -3709269.86347  20669864.8984   20669860.6334        739.9014
        50.0004         43.5004
   2016782.69548   1566421.92646  21505895.5004   21505890.7424       -791.0644
        50.2504         39.0004
   4207982.73448   3272124.57446  21406604.2274   21406603.1524      -2020.8504
        48.5004         39.7504
   3600125.78146   2803202.70743  24662852.0234   24662850.9844      -2044.1654
        39.7504         20.5004
  -2471771.16046  -1905209.56643  24793664.8444   24793671.7154       3368.6864
        38.5004         21.7504
   8572540.32447   6659613.05544  23588983.7974   23588985.3874      -3225.4534
        42.5004         27.0004
 15  7  6 19 15 30.0000000  0 10G11G01G13G15G17G28G30G04G06G07
   4732373.17247   3680474.03143  23649929.4384   23649925.7034      -2390.9134
        42.0004         22.7504
   -767564.28947   -591468.09444  23294054.9534   23294055.7154       -678.7864
        43.5004         27.7504
   -216361.94148   -156608.32046  21582968.1414   21582964.7114       -978.4604
        48.0004         36.7504
  -4380280.36747  -3329123.25445  23376594.6024   23376592.2074        535.0304
        46.0004         31.0004
  -4806661.99248  -3726196.57047  20665731.4694   20665727.0944        724.0884
        49.7504         43.5004
   2040583.91848   1584968.32046  21510424.6724   21510419.6254       -793.3744
        50.5004         39.0004
   4268990.80548   3319663.25446  21418213.7194   21418212.7814      -2033.6024
        49.2504         40.5004
   3661921.12946   2851354.89843  24674611.3594   24674610.0084      -2059.8454
        41.0004         21.0004
  -2572934.93046  -1984038.38743  24774414.0634   24774420.4924       3372.1264
        39.7504         20.7504
   8669535.37147   6735193.33644  23607441.6174   23607442.3794      -3233.1684
        42.0004         27.0004
 15  7  6 19 16  0.0000000  0 10G11G01G13G15G17G28G30G04G06G07
   4804552.70347   3736717.73444  23663664.4694   23663661.3164      -2405.9844
        42.5004         24.2504
   -746639.15247   -575162.81644  23298036.5784   23298037.6254       -697.5054
        44.7504         29.2504
   -186427.42648   -133282.77746  21588664.6884   21588661.1684       -997.8174
        48.5004         36.2504
  -4395808.16447  -3341222.84845  23373639.0704   23373636.9574        517.5934
        45.7504         32.2504
  -4827905.99648  -3742750.32047  20661688.7424   20661684.6094        708.1334
        49.2504         43.2504
   2064458.05148   1603571.53946  21514967.8284   21514962.9844       -795.8044
        50.7504         39.2504
   4330385.01648   3367502.82046  21429896.8284   21429895.4304      -2046.4744
        49.0004         40.2504
   3724189.20046   2899875.44043  24686461.0944   24686459.5394      -2075.6024
        38.0004         21.2504
  -2674195.14546  -2062942.36743  24755145.0784   24755151.7194       3375.3404
        41.2504         21.5004
   8766764.90246   6810956.32844  23625943.5704   23625945.3324      -3240.9844
        41.5004         26.5004
 15  7  6 19 16 30.0000000  0 10G11G01G13G15G17G28G30G04G06G07
   4877182.78146   3793312.51643  23677485.0864   23677482.4454      -2421.0034
        41.7504         23.0004
   -725152.15246   -558419.71944  23302125.8524   23302126.1414       -716.2334
        40.0004         28.2504
   -155913.51248   -109505.74646  21594471.2504   21594467.5234      -1017.1304
        48.0004         36.7504
  -4410812.54347  -3352914.58645  23370784.4534   23370781.7464        500.1464
        46.0004         31.7504
  -4848671.58648  -3758931.28147  20657737.2974   20657733.0044        692.1864
        50.5004         43.5004
   2088405.71948   1622232.05546  21519525.1724   21519520.0554       -798.2564
        49.5004         39.2504
   4392165.35248   3415643.26646  21441653.1174   21441652.4654      -2059.3454
        48.2504         39.7504
   3786928.64846   2948763.24243  24698399.6334   24698398.6094      -2091.3154
        38.7504         20.0004
  -2775548.68046  -2141919.04343  24735858.1724   24735864.1334       3378.4514
        40.0004         22.5004
   8864227.34846   6886900.80544  23644489.7274   23644492.0784      -3248.7484
        41.0004         27.2504
 15  7  6 19 17  0.0000000  0 10G11G01G13G15G17G28G30G04G06G07
   4950261.77046   3850257.11343  23691391.8674   23691389.2154      -2435.9664
        41.2504         22.7504
   -703102.67646   -541238.32444  23306321.8834   23306321.9454       -734.9834
        41.7504         28.2504
   -124820.71948    -85277.65246  21600388.0944   21600384.8674      -1036.4264
        48.2504         36.7504
  -4425292.45347  -3364197.64545  23368028.8914   23368026.3794        482.6644
        45.5004         32.0004
  -4868958.41848  -3774739.18447  20653876.6254   20653872.5354        676.2284
        50.5004         43.7504
   2112427.33648   1640950.18846  21524095.8674   21524091.4144       -800.7214
        49.7504         38.7504
   4454332.03148   3464084.77046  21453483.0234   21453482.3874      -2072.2234
        48.0004         40.2504
   3850138.69946   2998017.84443  24710427.8134   24710426.8874      -2107.0024
        38.2504         20.0004
  -2876992.09846  -2220965.76243  24716552.9144   24716560.2194       3381.4474
        37.5004         20.5004
   8961922.37546   6963026.51244  23663080.9774   23663083.5124      -3256.5014
        39.7504         26.5004
 15  7  6 19 17 30.0000000  0 10G11G01G13G15G17G28G30G04G06G07
   5023786.60946   3907549.11743  23705383.1884   23705380.4654      -2450.8284
        41.2504         22.5004
   -680491.79747   -523619.46944  23310623.8444   23310624.8134       -753.6964
        43.5004         29.2504
    -93151.44547    -60600.34446  21606414.4144   21606410.9734      -1055.6424
        47.5004         36.0004
  -4439248.83247  -3375072.76245  23365372.9694   23365370.5234        465.2134
        46.0004         31.2504
  -4888767.21948  -3790174.59447  20650107.2584   20650102.5634        660.2934
        49.7504         44.0004
   2136522.05148   1659725.28146  21528681.4384   21528676.2624       -803.1574
        50.2504         39.0004
   4516883.65248   3512826.19946  21465386.6024   21465385.5944      -2085.0544
        49.0004         40.2504
   3913816.47346   3047636.84043  24722545.1644   24722544.4694      -2122.5924
        38.5004         20.0004
  -2978523.49646  -2300081.05143  24697232.3444   24697239.1954       3384.3804
        39.5004         22.5004
   9059847.78146   7039331.72344  23681716.1484   23681717.7734      -3264.1804
        40.0004         26.2504
 15  7  6 19 18  0.0000000  0 10G11G01G13G15G17G28G30G04G06G07
   5097755.08646   3965186.80144  23719458.8134   23719456.1374      -2465.6164
        41.2504         24.7504
   -657320.08247   -505563.62544  23315033.9454   23315034.0234       -772.3904
        43.7504         28.2504
    -60907.65248    -35475.36346  21612549.9774   21612546.6024      -1074.7934
        48.0004         36.7504
  -4452681.82047  -3385540.03545  23362816.8674   23362814.3954        447.7664
        45.7504         32.5004
  -4908098.71148  -3805238.08247  20646428.7034   20646424.4614        644.3834
        50.0004         44.0004
   2160689.37148   1678556.95346  21533279.9144   21533274.9774       -805.5774
        50.7504         39.0004
   4579819.40248   3561866.96146  21477362.7814   21477361.7424      -2097.8584
        48.0004         39.7504
   3977959.94546   3097618.69143  24734751.2734   24734750.6054      -2138.1164
        38.2504         20.5004
  -3080140.75046  -2379263.13743  24677895.6564   24677902.2464       3387.2424
        40.7504         22.5004
   9158001.87546   7115815.14844  23700394.4774   23700395.8714      -3271.8034
        41.0004         26.2504
 15  7  6 19 18 30.0000000  0 10G11G01G13G15G17G28G30G04G06G07
   5172163.82446   4023167.55143  23733619.2274   23733615.9614      -2480.2914
        41.0004         22.2504
   -633588.78147   -487071.72344  23319549.5554   23319550.0634       -791.0434
        44.5004         29.2504
    -28092.09848     -9904.85546  21618794.9614   21618791.8594      -1093.8524
        48.2504         36.7504
  -4465592.71147  -3395600.47745  23360359.3984   23360357.4384        430.3634
        46.0004         32.5004
  -4926953.91048  -3819930.42247  20642840.5314   20642836.0634        628.5074
        50.2504         43.5004
   2184928.29348   1697444.41446  21537892.6334   21537887.7584       -807.9644
        49.7504         39.2504
   4643137.59048   3611205.71146  21489412.1094   21489411.0004      -2110.6064
        49.2504         39.2504
   4042566.17646   3147961.19543  24747045.2814   24747044.3714      -2153.5414
        38.7504         19.5004
  -3181842.02346  -2458510.74243  24658542.9144   24658548.9964       3390.0424
        40.5004         22.5004
   9256381.91046   7192474.61344  23719117.1414   23719117.6174      -3279.3354
        40.5004         25.5004
 15  7  6 19 19  0.0000000  0 10G11G01G13G15G17G28G30G04G06G07
   5247014.33246   4081492.55143  23747862.2424   23747859.5704      -2495.0174
        41.0004         23.0004
   -609294.34447   -468141.02344  23324173.4064   23324172.8834       -809.8154
        44.2504         28.2504
      5297.61748     16113.06346  21625149.2584   21625145.7344      -1112.9904
        48.0004         36.2504
  -4477977.34447  -3405250.85945  23358003.8204   23358000.8524        412.8214
        46.2504         31.7504
  -4945329.50848  -3834249.05147  20639343.8204   20639339.5434        612.5204
        50.7504         44.0004
   2209242.35948   1716390.43846  21542519.5864   21542514.8444       -810.4694
        50.7504         39.5004
   4706841.59048   3660845.11346  21501534.7504   21501533.7624      -2123.4674
        48.2504         39.2504
   4107637.40246   3198666.01643  24759428.7344   24759427.2854      -2169.0414
        39.0004         21.0004
  -3283620.77346  -2537818.75443  24639174.9534   24639181.0864       3392.6254
        40.2504         22.5004
   9354990.55146   7269312.18444  23737881.6254   23737883.1724      -3286.9554
        41.7504         25.5004
 15  7  6 19 19 30.0000000  0 10G11G01G13G15G17G28G30G04G06G07
   5322301.21147   4140157.57043  23762189.2274   23762186.3634      -2509.5634
        42.0004         23.7504
   -584440.49647   -448774.40244  23328902.7974   23328902.8984       -828.4624
        43.0004         27.7504
     39256.32048     42574.34446  21631611.2504   21631607.9064      -1131.9574
        48.0004         36.5004
  -4489839.11747  -3414493.80945  23355745.8134   23355743.5984        395.3924
        47.0004         32.0004
  -4963229.34048  -3848196.96147  20635937.5634   20635933.1134        596.6614
        50.5004         43.7504
   2233628.19948   1735392.37946  21547159.8204   21547155.1374       -812.8614
        50.5004         39.0004
   4770927.25048   3710781.93046  21513729.0944   21513728.7734      -2136.1894
        48.2504         39.5004
   4173168.08246   3249728.81643  24771898.7344   24771897.6254      -2184.3564
        38.5004         20.0004
  -3385477.79746  -2617187.71943  24619791.1724   24619797.6954       3395.2344
        40.5004         22.7504
   9453822.75446   7346323.98444  23756688.5474   23756690.6454      -3294.4074
        40.5004         26.0004
 15  7  6 19 20  0.0000000  0 10G11G01G13G15G17G28G30G04G06G07
   5398023.34047   4199161.75044  23776599.1414   23776595.7934      -2524.0714
        42.5004         24.7504
   -559026.47747   -428971.31244  23333738.8364   23333738.7274       -847.1344
        43.7504         27.5004
     73783.46948     69478.57446  21638181.4144   21638178.1134      -1150.9054
        48.2504         36.0004
  -4501177.13347  -3423328.64145  23353588.2274   23353585.7274        377.9344
        46.2504         31.7504
  -4980652.49648  -3861773.43047  20632622.0474   20632617.4964        580.7724
        50.5004         43.0004
   2258087.03148   1754451.20346  21551814.3754   21551809.3984       -815.2944
        51.0004         39.2504
   4835395.12148   3761016.53546  21525997.2814   21525996.6334      -2148.9294
        48.5004         39.5004
   4239157.43846   3301149.10243  24784456.0864   24784454.8364      -2199.6454
        38.5004         19.0004
  -3487409.35246  -2696614.67644  24600395.6564   24600401.5084       3397.7184
        41.5004         24.5004
   9552878.10546   7423509.68844  23775538.6804   23775540.0554      -3301.8454
        41.5004         28.2504
 15  7  6 19 20 30.0000000  0 10G11G01G13G15G17G28G30G04G06G07
   5474178.38346   4258503.28543  23791090.7504   23791087.2894      -2538.5014
        41.5004         22.5004
   -533052.69947   -408732.02744  23338681.0554   23338681.4924       -865.7934
        43.0004         28.5004
    108877.41848     96824.46146  21644859.6954   21644856.2464      -1169.7984
        49.0004         36.7504
  -4511991.48047  -3431755.41045  23351530.4844   23351527.8754        360.4784
        46.5004         31.7504
  -4997599.34848  -3874978.75447  20629396.9384   20629392.7734        564.8954
        50.2504         43.5004
   2282618.61748   1773566.71546  21556482.7274   21556477.9144       -817.7204
        49.7504         38.7504
   4900244.53548   3811548.45746  21538338.0004   21538337.0944      -2161.6474
        49.5004         39.0004
   4305603.48446   3352925.21143  24797099.7584   24797099.4844      -2214.8684
        39.0004         20.5004
  -3589412.73846  -2776097.68043  24580983.3364   24580989.8984       3400.1134
        41.5004         22.7504
   9652155.13746   7500868.13344  23794430.0234   23794431.7624      -3309.2344
        41.5004         26.5004
 15  7  6 19 21  0.0000000  0 10G11G01G13G15G17G28G30G04G06G07
   5550763.63346   4318180.02743  23805664.1724   23805661.0234      -2552.8424
        41.0004         23.0004
   -506519.91847   -388057.14844  23343730.6024   23343730.4384       -884.4264
        42.5004         28.5004
    144535.93848    124610.27346  21651645.4384   21651642.2544      -1188.6174
        48.7504         36.2504
  -4522282.89147  -3439774.70745  23349572.5634   23349569.7304        343.0474
        46.0004         32.5004
  -5014070.69548  -3887813.55547  20626262.6334   20626258.3794        549.0454
        50.7504         44.0004
   2307222.66048   1792738.68446  21561164.5004   21561159.5234       -820.1354
        50.2504         39.2504
   4965474.51648   3862376.93046  21550750.9774   21550750.2894      -2174.3334
        49.2504         39.5004
   4372503.96546   3405055.41843  24809831.0394   24809830.2624      -2230.0164
        39.7504         20.0004
  -3691485.60246  -2855634.82843  24561558.5634   24561566.4964       3402.4294
        39.0004         23.5004
   9751652.03946   7578397.87543  23813364.3674   23813365.6254      -3316.5634
        41.2504         22.5004
 15  7  6 19 21 30.0000000  0 10G11G01G13G15G17G28G30G04G06G07
   5627775.60947   4378189.29343  23820319.5474   23820316.0944      -2567.0664
        42.2504         22.2504
   -479429.75847   -366947.96144  23348885.1484   23348885.5664       -903.0054
        43.0004         29.0004
    180756.01648    152833.66446  21658537.5234   21658534.8014      -1207.3364
        48.7504         36.5004
  -4532052.62547  -3447387.51245  23347712.3444   23347710.5984        325.6584
        45.2504         32.0004
  -5030068.26248  -3900279.17647  20623218.4694   20623214.0434        533.2524
        50.2504         43.7504
   2331897.82848   1811966.07846  21565859.6484   21565855.1604       -822.5064
        50.5004         39.0004
   5031083.16848   3913500.46946  21563236.2114   21563235.5594      -2186.9554
        49.2504         39.5004
   4439855.73346   3457537.31743  24822646.8204   24822646.3524      -2245.0594
        38.7504         19.5004
  -3793626.39146  -2935224.84043  24542122.2584   24542129.7344       3404.6934
        39.5004         22.5004
   9851366.07046   7656096.78544  23832338.7734   23832341.3714      -3323.8014
        40.2504         25.0004
 15  7  6 19 22  0.0000000  0 10G11G01G13G15G17G28G30G04G06G07
   5705212.97746   4438530.02743  23835055.0704   23835052.5704      -2581.2464
        41.2504         23.0004
   -451781.79747   -345404.12544  23354146.9144   23354147.2194       -921.5994
        43.2504         27.0004
    217536.74248    181493.92246  21665536.8914   21665533.7624      -1226.0244
        49.0004         36.5004
  -4541299.86747  -3454593.18045  23345953.2814   23345951.2464        308.2414
        46.2504         32.5004
  -5045591.49248  -3912375.19147  20620264.3914   20620259.9414        517.4414
        50.7504         44.0004
   2356644.99248   1831249.57446  21570569.5234   21570564.4454       -824.9054
        50.7504         38.7504
   5097070.66048   3964919.22346  21575793.1414   21575792.3094      -2199.5834
        49.5004         39.5004
   4507657.98446   3510370.20343  24835549.9614   24835548.9454      -2260.0754
        38.5004         18.5004
  -3895831.58646  -3014865.04743  24522673.5004   24522680.6884       3406.8404
        39.0004         22.7504
   9951296.63346   7733964.45744  23851355.5554   23851358.0004      -3331.0194
        41.2504         25.5004
 15  7  6 19 22 30.0000000  0 10G11G01G13G15G17G28G30G04G06G07
   5783070.30146   4499197.99243  23849870.7894   23849867.6484      -2595.2444
        41.2504         22.7504
   -423579.45747   -323428.30544  23359513.1254   23359514.0474       -940.0784
        42.7504         27.7504
    254873.42648    210587.38746  21672642.0004   21672639.0634      -1244.5564
        48.5004         36.5004
  -4550027.73847  -3461394.14145  23344292.6884   23344290.0864        290.9294
        45.0004         32.5004
  -5060643.77748  -3924104.22747  20617400.0704   20617395.4414        501.7434
        50.7504         44.0004
   2381461.22748   1850586.89146  21575291.6884   21575286.8364       -827.2084
        49.7504         39.2504
   5163433.34048   4016630.32046  21588421.1884   21588420.4304      -2212.0894
        48.5004         39.2504
   4575905.34446   3563549.95343  24848537.1024   24848536.3134      -2274.9124
        38.5004         18.2504
  -3998101.39146  -3094555.58643  24503211.5634   24503218.1094       3408.9934
        40.2504         22.5004
  10051439.19546   7811997.30944  23870412.7734   23870414.7464      -3338.0854
        41.0004         24.5004
 15  7  6 19 23  0.0000000  0 10G11G01G13G15G17G28G30G04G06G07
   5861349.39546   4560194.63343  23864767.5314   23864764.0514      -2609.3034
        40.2504         22.5004
   -394819.07047   -301017.64544  23364986.9064   23364986.5314       -958.6804
        42.7504         28.0004
    292768.40248    240115.89846  21679853.1174   21679849.8404      -1263.1664
        48.5004         36.2504
  -4558232.16847  -3467787.21945  23342731.4064   23342728.8714        273.4814
        47.0004         31.7504
  -5075221.37148  -3935463.38347  20614626.1024   20614621.7194        485.9204
        50.7504         44.2504
   2406350.40648   1869981.04346  21580027.5634   21580023.0824       -829.6394
        51.0004         38.7504
   5230174.73048   4068636.50846  21601122.1334   21601121.0084      -2224.7134
        48.2504         39.2504
   4644600.07846   3617078.28543  24861608.6094   24861608.4184      -2289.8244
        40.0004         19.0004
  -4100428.88346  -3174291.05543  24483738.4774   24483746.6334       3410.9164
        39.7504         23.7504
  10151796.78146   7890197.71143  23889510.5474   23889512.0004      -3345.2534
        40.5004         22.7504
 15  7  6 19 23 30.0000000  0 10G11G01G13G15G17G28G30G04G06G07
   5940044.21146   4621515.19543  23879741.7344   23879738.9884      -2623.1614
        41.2504         22.7504
   -365505.01647   -278175.53544  23370564.0864   23370564.7734       -977.1354
        42.0004         27.7504
    331216.00048    270075.01645  21687169.4534   21687166.5274      -1281.5874
        48.2504         35.5004
  -4565917.37947  -3473775.71945  23341268.8594   23341266.6094        256.1744
        45.0004         32.5004
  -5089328.68748  -3946456.07847  20611941.1174   20611937.0204        470.2444
        51.0004         44.5004
   2431308.96148   1889429.25446  21584777.3364   21584772.3524       -831.9524
        50.0004         39.0004
   5297290.21148   4120934.19946  21613893.7584   21613892.8954      -2237.1834
        49.0004         39.2504
   4713736.30546   3670950.69543  24874764.6024   24874764.8094      -2304.5414
        38.2504         19.7504
  -4202815.16846  -3254072.34843  24464255.9064   24464261.9534       3412.8764
        39.5004         22.5004
  10252363.27346   7968560.88343  23908647.8054   23908649.8054      -3352.2164
        39.5004         22.5004
 15  7  6 19 24  0.0000000  0 10G11G01G13G15G17G28G30G04G06G07
   6019153.96546   4683159.11743  23894795.9224   23894793.5864      -2636.9924
        40.7504         22.0004
   -335636.40647   -254901.32444  23376248.5394   23376248.2624       -995.6204
        43.7504         27.2504
    370215.46547    300464.15646  21694590.9844   21694587.7034      -1299.9824
        47.7504         36.5004
  -4573082.22347  -3479358.73045  23339905.2424   23339903.0204        238.8284
        44.2504         32.5004
  -5102964.59848  -3957081.44947  20609346.4534   20609342.1134        454.5304
        50.7504         43.7504
   2456338.09048   1908932.46146  21589540.1484   21589535.6804       -834.3044
        50.0004         39.0004
   5364780.39848   4173523.87946  21626736.5084   21626736.0354      -2249.6734
        48.2504         39.5004
   4783313.61746   3725166.73843  24888006.0554   24888004.4804      -2319.2444
        40.0004         19.7504
  -4305256.19946  -3333896.26644  24444761.5164   24444768.5944       3414.7014
        39.7504         24.2504
  10353139.00846   8047087.12943  23927823.8524   23927827.7034      -3359.1914
        39.0004         22.7504
 15  7  6 19 24 30.0000000  0 10G11G01G13G15G17G28G30G04G06G07
   6098676.63746   4745124.78543  23909928.5394   23909926.3794      -2650.7564
        40.0004         22.2504
   -305213.30947   -231195.02044  23382037.7194   23382038.0004      -1014.1034
        42.7504         27.0004
    409765.75448    331282.50446  21702116.9144   21702114.0664      -1318.3434
        49.2504         36.0004
  -4579726.60247  -3484536.19545  23338641.0944   23338638.8324        221.4794
        45.7504         31.7504
  -5116128.78548  -3967339.24247  20606841.2504   20606836.9064        438.8064
        50.7504         44.2504
   2481438.42648   1928491.15246  21594316.8524   21594311.8054       -836.6784
        50.0004         38.5004
   5432645.19548   4226405.44946  21639650.7194   21639650.4494      -2262.1604
        48.5004         39.0004
   4853330.37946   3779725.27342  24901329.1414   24901328.2624      -2333.8924
        38.5004         17.2504
  -4407748.54746  -3413760.17243  24425257.4924   24425264.3244       3416.4124
        40.0004         22.7504
  10454122.55946   8125775.30543  23947041.0784   23947043.4414      -3366.1184
        39.0004         22.2504
 15  7  6 19 25  0.0000000  0 10G11G01G13G15G17G28G30G04G06G07
   6178609.59447   4807410.13343  23925140.1884   23925136.9384      -2664.4324
        42.0004         22.7504
   -274236.82847   -207057.52344  23387932.4384   23387932.6214      -1032.5494
        43.5004         25.5004
    449864.28148    362528.05945  21709747.4924   21709744.4844      -1336.6184
        48.0004         35.5004
  -4585851.23047  -3489308.64545  23337475.9534   23337473.3094        204.1544
        45.7504         32.2504
  -5128822.56248  -3977230.48047  20604426.1094   20604421.8284        423.1264
        51.2504         44.2504
   2506609.66848   1948105.09046  21599106.8914   21599102.0784       -839.0414
        50.5004         39.0004
   5500883.28547   4279577.90646  21652636.3754   21652635.6174      -2274.6034
        46.7504         38.5004
   4923784.10545   3834624.27743  24914735.5704   24914734.8834      -2348.4584
        35.2504         18.2504
  -4510290.10546  -3493662.37143  24405744.7344   24405751.5354       3418.0524
        40.2504         22.7504
  10555312.21146   8204623.99643  23966296.4774   23966299.7304      -3372.9884
        40.0004         22.5004
 15  7  6 19 25 30.0000000  0 10G11G01G13G15G17G28G30G04G06G07
   6258949.35546   4870012.50443  23940428.2974   23940425.0704      -2677.9924
        39.5004         22.7504
   -242708.58247   -182490.09444  23393931.8674   23393932.4064      -1050.9424
        42.5004         26.7504
    490508.11748    394198.52745  21717481.6334   21717478.6564      -1354.7954
        48.2504         35.0004
  -4591457.41847  -3493677.11745  23336408.6884   23336406.3134        186.8734
        46.2504         33.0004
  -5141048.17248  -3986756.91847  20602099.6644   20602095.2304        407.5204
        50.7504         44.0004
   2531850.48048   1967773.24246  21603909.7664   21603904.8404       -841.3604
        49.2504         39.2504
   5569492.84848   4333039.80146  21665692.0864   21665691.7194      -2286.9854
        48.5004         39.2504
   4994671.69146   3889861.33643  24928225.7034   24928224.8014      -2362.9204
        40.0004         19.5004
  -4612879.06646  -3573601.55944  24386223.0084   24386228.5864       3419.6324
        41.0004         25.0004
  10656705.23046   8283631.25443  23985591.0164   23985595.0594      -3379.7674
        39.7504         22.7504
 15  7  6 19 26  0.0000000  0 10G11G01G13G15G17G28G30G04G06G07
   6339694.67246   4932930.88343  23955793.3284   23955790.3094      -2691.5114
        40.0004         22.7504
   -210627.96147   -157492.21544  23400036.2734   23400037.0004      -1069.3544
        43.0004         26.7504
    531696.58647    426293.37546  21725320.0864   21725316.9454      -1372.9494
        46.5004         36.0004
  -4596544.27747  -3497640.92645  23335440.5864   23335438.3484        169.5624
        45.5004         32.2504
  -5152804.36348  -3995917.57447  20599862.5554   20599858.2734        391.8734
        51.0004         44.2504
   2557162.25848   1987496.68046  21608726.2504   21608721.5864       -843.7264
        51.0004         39.7504
   5638474.39847   4386791.57046  21678819.1484   21678818.9614      -2299.3854
        47.5004         38.7504
   5065992.05146   3945435.64143  24941798.1174   24941796.5634      -2377.3454
        39.7504         18.2504
  -4715511.36746  -3653574.50044  24366692.1954   24366698.4344       3421.0774
        40.7504         24.2504
  10758301.31646   8362796.74244  24004925.8524   24004928.1804      -3386.5364
        40.7504         24.2504
 15  7  6 19 26 30.0000000  0 10G11G01G13G15G17G28G30G04G06G07
   6420844.91446   4996164.78543  23971235.6024   23971233.0314      -2705.0084
        40.2504         21.7504
   -177993.86347   -132063.08244  23406247.5004   23406247.2274      -1087.8034
        42.5004         26.5004
    573429.33247    458812.34846  21733261.2974   21733258.2894      -1391.0924
        47.0004         36.2504
  -4601110.39147  -3501198.94945  23334572.1254   23334569.4144        152.2044
        46.2504         32.5004
  -5164089.57848  -4004711.23047  20597714.8754   20597710.7624        376.1744
        50.7504         44.0004
   2582546.92248   2007276.91446  21613556.9694   21613552.0084       -846.1554
        50.0004         39.0004
   5707828.80947   4440833.87146  21692017.1414   21692016.3594      -2311.8144
        47.2504         38.7504
   5137745.03546   4001347.04742  24955452.3054   24955450.3874      -2391.7664
        39.7504         17.7504
  -4818182.60246  -3733577.80543  24347154.1724   24347159.5554       3422.3744
        40.2504         22.5004
  10860100.81347   8442120.68844  24024297.6024   24024300.0004      -3393.3174
        42.0004         25.0004
 15  7  6 19 27  0.0000000  0 10G11G01G13G15G17G28G30G04G06G07
   6502394.62946   5059709.97743  23986753.7814   23986751.3364      -2718.3244
        40.5004         22.2504
   -144809.72746   -106205.30944  23412560.9614   23412562.1024      -1106.1384
        41.2504         27.5004
    615701.69948    491751.79345  21741305.6954   21741302.4844      -1409.0794
        49.2504         35.5004
  -4605159.00447  -3504353.74245  23333801.7194   23333799.1174        134.9544
        45.2504         32.7504
  -5174907.49648  -4013140.77047  20595656.4924   20595651.7584        360.5974
        51.0004         44.5004
   2608001.65648   2027111.75446  21618401.1094   21618396.0984       -848.4914
        50.5004         39.2504
   5777552.70348   4495164.09046  21705284.8594   21705284.5824      -2324.1304
        48.0004         38.5004
   5209926.04746   4057591.97342  24969187.3524   24969186.0944      -2406.0344
        37.7504         17.7504
  -4920892.50046  -3813611.23443  24327607.9844   24327615.0944       3423.6634
        38.7504         23.5004
  10962099.55547   8521599.85944  24043708.6804   24043711.0274      -3399.9584
        43.2504         25.5004
 15  7  6 19 27 30.0000000  0 10G11G01G13G15G17G28G30G04G06G07
   6584342.46146   5123565.39843  24002347.6254   24002345.4224      -2731.5944
        39.0004         22.0004
   -111075.80547    -79919.13344  23418980.8444   23418981.5044      -1124.4644
        42.5004         27.5004
    658512.05148    525110.45745  21749452.0784   21749448.9964      -1427.0124
        49.5004         35.0004
  -4608689.91447  -3507105.12145  23333129.6024   23333127.4414        117.6974
        44.5004         32.5004
  -5185258.53948  -4021206.50447  20593686.3914   20593682.0944        345.0354
        50.5004         44.5004
   2633526.97748   2047001.60246  21623258.4844   21623253.3484       -850.8444
        50.0004         39.2504
   5847645.59448   4549781.82046  21718623.9224   21718622.6024      -2336.4304
        49.0004         38.7504
   5282533.06346   4114168.89542  24983003.1804   24983002.8484      -2420.2344
        39.0004         17.2504
  -5023637.98446  -3893672.33644  24308057.3134   24308062.9264       3424.8494
        38.5004         25.5004
  11064295.84846   8601233.02344  24063155.5164   24063158.3984      -3406.5434
        41.5004         26.2504
 15  7  6 19 28  0.0000000  0 10G11G01G13G15G17G28G30G04G06G07
   6666686.96146   5187729.89543  24018018.2664   24018015.1954      -2744.8174
        41.7504         21.5004
    -76791.52747    -53204.13344  23425504.8134   23425505.2704      -1142.8094
        43.0004         27.5004
    701859.79348    558887.85945  21757700.9224   21757697.9414      -1444.9254
        48.2504         35.0004
  -4611702.32847  -3509452.48845  23332556.1414   23332554.1564        100.4144
        46.0004         32.2504
  -5195141.19548  -4028907.26247  20591805.9844   20591802.0864        329.4224
        51.0004         44.5004
   2659124.24248   2066947.50446  21628129.1804   21628124.6604       -853.2424
        50.0004         38.7504
   5918107.98448   4604687.49246  21732031.7424   21732031.4964      -2348.7464
        48.5004         37.7504
   5355565.36746   4171077.10542  24996901.3594   24996900.3554      -2434.4104
        38.7504         17.7504
  -5126414.90246  -3973758.02344  24288498.7814   24288504.8404       3425.8974
        39.0004         24.7504
  11166689.61746   8681020.07044  24082639.9924   24082642.7274      -3413.1264
        40.7504         24.0004
 15  7  6 19 28 30.0000000  0 10G11G01G13G15G17G28G30G04G06G07
   6749424.63346   5252200.76243  24033761.2194   24033759.1604      -2757.9224
        38.2504         22.2504
    -41958.92247    -26061.85544  23432133.5164   23432133.8554      -1161.0874
        43.0004         27.5004
    745741.35948    593081.23845  21766051.0944   21766048.5434      -1462.7194
        48.0004         35.5004
  -4614198.00447  -3511397.19545  23332081.3834   23332078.8834         83.1894
        43.0004         32.7504
  -5204558.25048  -4036245.21547  20590014.1334   20590009.6094        313.9024
        51.0004         44.5004
   2684792.32048   2086948.58246  21633013.9224   21633008.7664       -855.6034
        49.0004         38.5004
   5988937.71148   4659879.39546  21745510.3984   21745509.8484      -2360.9914
        48.2504         37.7504
   5429019.60546   4228314.18843  25010878.8284   25010878.6484      -2448.4754
        39.5004         19.2504
  -5229221.73446  -4053866.94543  24268935.8914   24268940.8674       3426.8944
        40.5004         22.7504
  11269278.14446   8760958.81644  24102161.9454   24102165.4184      -3419.6184
        39.5004         24.2504
 15  7  6 19 29  0.0000000  0 10G11G01G13G15G17G28G30G04G06G07
   6832553.21146   5316976.23443  24049581.3054   24049578.1804      -2770.9534
        39.2504         21.5004
     -6578.64547      1507.18044  23438866.3674   23438866.5004      -1179.3434
        43.2504         26.7504
    790155.00448    627689.21145  21774503.0314   21774500.0124      -1480.4554
        48.0004         35.7504
  -4616177.34047  -3512939.55545  23331705.0004   23331702.6844         65.9784
        43.5004         31.7504
  -5213509.80548  -4043220.44547  20588310.5084   20588306.0704        298.3854
        51.0004         45.0004
   2710531.32448   2107004.93446  21637911.9144   21637907.1954       -857.9674
        49.5004         38.5004
   6060134.17248   4715357.06346  21759058.2974   21759058.4144      -2373.2154
        48.5004         38.0004
   5502893.69146   4285878.35942  25024937.0314   25024936.0394      -2462.4704
        39.7504         17.2504
  -5332055.42646  -4133996.89143  24249365.4304   24249372.1174       3427.7904
        39.5004         22.5004
  11372059.77046   8841048.09444  24121720.8204   24121724.1054      -3426.0544
        40.5004         26.0004
 15  7  6 19 29 30.0000000  0  9G11G01G13G15G17G28G30G06G07
   6916069.12146   5382053.53143  24065473.1954   24065471.4224      -2783.8644
        39.5004         22.5004
     29347.60247     29501.64844  23445702.7274   23445703.3914      -1197.5424
        42.7504         27.2504
    835097.45748    662709.24245  21783055.7344   21783052.3914      -1498.0824
        48.7504         35.5004
  -4617641.52747  -3514080.49645  23331426.7034   23331424.0984         48.8064
        44.0004         32.2504
  -5221997.56248  -4049834.26247  20586695.1564   20586691.0744        282.9254
        50.7504         44.5004
   2736340.54348   2127115.99646  21642823.2424   21642818.2464       -860.3074
        48.5004         38.7504
   6131695.48448   4771119.00446  21772676.6804   21772676.1334      -2385.3774
        48.5004         38.2504
  -5434914.17646  -4214146.32844  24229793.3054   24229798.5664       3428.6254
        39.7504         25.2504
  11475032.15246   8921285.94144  24141316.3204   24141319.3794      -3432.4134
        41.0004         26.5004
 15  7  6 19 30  0.0000000  0  9G11G01G13G15G17G28G30G06G07
   6999969.97346   5447430.76243  24081440.1254   24081436.9654      -2796.6954
        40.5004         21.5004
     65818.75447     57920.69944  23452643.3674   23452643.0704      -1215.7054
        43.5004         26.5004
    880566.39548    698139.52745  21791708.0314   21791704.9494      -1515.6314
        48.7504         35.2504
  -4618591.52047  -3514820.77345  23331245.2974   23331243.4184         31.6664
        43.0004         32.7504
  -5230022.12548  -4056087.16447  20585168.1724   20585163.8754        267.4854
        50.7504         44.5004
   2762219.91848   2147281.73046  21647747.6414   21647743.2384       -862.6464
        48.0004         38.2504
   6203620.50848   4827164.37546  21786363.3674   21786363.3674      -2397.5014
        48.7504         38.2504
  -5537795.36746  -4294313.27744  24210215.2424   24210220.7034       3429.3734
        40.5004         24.5004
  11578193.28146   9001670.89144  24160947.1174   24160952.1484      -3438.7044
        38.5004         26.5004
 15  7  6 19 30 30.0000000  0  9G11G01G13G15G17G28G30G06G07
   7084253.85246   5513106.50443  24097477.2274   24097475.5984      -2809.4634
        38.7504         21.0004
    102834.78147     86764.34844  23459686.6804   23459687.3914      -1233.8684
        43.7504         27.7504
    926560.52748    733979.05545  21800460.6094   21800457.5274      -1533.1384
        48.7504         35.5004
  -4619027.18747  -3515160.28145  23331162.7424   23331160.5204         14.5224
        45.7504         32.0004
  -5237583.96148  -4061979.48447  20583729.4774   20583724.9924        252.0614
        49.5004         44.5004
   2788170.19948   2167502.70746  21652685.9924   21652681.3484       -865.0094
        48.7504         38.0004
   6275909.27748   4883493.18846  21800119.6564   21800119.3054      -2409.6264
        48.7504         38.0004
  -5640695.33246  -4374494.83643  24190634.6024   24190639.2194       3429.9994
        41.0004         23.5004
  11681542.15646   9082202.11744  24180614.7344   24180617.9774      -3444.9624
        40.0004         25.5004
 15  7  6 19 31  0.0000000  0  9G11G01G13G15G17G28G30G06G07
   7168923.99646   5579083.17643  24113590.7194   24113587.6374      -2822.3384
        40.5004         20.7504
    140400.45347    116036.28144  23466835.4774   23466835.6254      -1252.1894
        43.5004         28.5004
    973083.44148    770230.61746  21809313.7894   21809310.3014      -1550.7644
        49.0004         36.0004
  -4618943.15247  -3515094.82845  23331178.3914   23331176.4534         -2.8014
        45.7504         32.0004
  -5244677.59848  -4067506.97747  20582379.3204   20582374.8954        236.4554
        50.7504         44.2504
   2814197.16048   2187783.43446  21657638.4844   21657633.8754       -867.5654
        49.0004         38.0004
   6348566.44548   4940109.04346  21813946.0554   21813945.4454      -2421.9064
        49.0004         38.0004
  -5743605.55946  -4454684.43444  24171050.1804   24171056.0634       3430.3414
        40.2504         25.5004
  11785082.93846   9162882.91444  24200318.0234   24200321.5984      -3451.3594
        39.7504         25.2504
 15  7  6 19 31 30.0000000  0  9G11G01G13G15G17G28G30G06G07
   7253977.20346   5645358.34443  24129774.9924   24129772.6334      -2835.1074
        39.5004         20.7504
    178513.87547    145735.02044  23474088.4844   23474088.5664      -1270.4474
        42.5004         27.0004
   1020131.70348    806891.54345  21818266.5634   21818263.7424      -1568.2754
        49.5004         35.0004
  -4618341.00447  -3514625.65245  23331293.0704   23331291.2934        -20.0724
        47.2504         31.5004
  -5251304.89148  -4072671.08647  20581118.4304   20581114.0004        220.9104
        50.5004         44.2504
   2840299.99248   2208123.28946  21662605.3134   21662600.8244       -870.0944
        49.0004         38.2504
   6421590.08648   4997010.50046  21827841.6724   21827841.5514      -2434.1214
        49.7504         37.7504
  -5846524.16046  -4534880.54344  24151465.4304   24151470.7504       3430.6204
        41.2504         25.5004
  11888813.00046   9243711.16444  24220057.3674   24220061.0354      -3457.6694
        39.2504         25.5004
 15  7  6 19 32  0.0000000  0  9G11G01G13G15G17G28G30G06G07
   7339408.52946   5711928.18943  24146031.4924   24146029.9414      -2847.7114
        39.0004         20.5004
    217172.07447    175858.28144  23481444.9144   23481444.8324      -1288.6074
        43.7504         28.5004
   1067701.17248    843958.59845  21827318.7424   21827315.3954      -1585.6494
        49.0004         35.7504
  -4617223.52747  -3513754.92245  23331505.9144   23331503.9494        -37.2494
        46.0004         31.5004
  -5257468.59048  -4077473.95347  20579945.3834   20579941.2154        205.4574
        50.2504         45.0004
   2866476.61348   2228520.64146  21667586.8984   21667582.3484       -872.5544
        48.2504         38.2504
   6494977.25448   5054195.19546  21841806.8754   21841806.9804      -2446.2394
        48.5004         37.2504
  -5949450.44946  -4615082.66844  24131878.5634   24131884.8014       3430.8764
        39.7504         25.5004
  11992728.75046   9324684.11743  24239832.2344   24239835.9064      -3463.8584
        39.7504         23.0004
 15  7  6 19 32 30.0000000  0  9G11G01G13G15G17G28G30G06G07
   7425213.61346   5778789.24643  24162360.3444   24162358.4414      -2860.1694
        40.0004         21.5004
    256371.93047    206403.60544  23488904.1484   23488904.3134      -1306.6624
        43.5004         27.5004
   1115787.53148    881428.43445  21836469.2974   21836466.0474      -1602.8794
        49.0004         34.7504
  -4615593.37947  -3512484.70345  23331816.3444   23331814.2464        -54.3384
        44.5004         31.2504
  -5263171.73448  -4081917.94947  20578860.0234   20578855.8954        190.1054
        50.7504         44.5004
   2892725.11348   2248973.98846  21672582.0314   21672577.4184       -874.9504
        48.5004         38.2504
   6568724.84048   5111660.73846  21855840.8444   21855840.8954      -2458.2534
        49.0004         38.0004
  -6052383.60246  -4695290.13744  24112290.9304   24112296.7074       3431.1054
        39.7504         26.2504
  12096826.48046   9405798.80943  24259641.3984   24259645.9694      -3469.9244
        40.5004         22.7504
 15  7  6 19 33  0.0000000  0 10G11G01G13G15G17G28G30G24G06G07
   7511391.39546   5845940.69543  24178760.3204   24178757.3674      -2872.5934
        39.2504         21.2504
    296113.99247    237371.42644  23496466.7114   23496467.1414      -1324.7354
        43.7504         27.2504
   1164389.78148    919300.24245  21845718.0554   21845714.9384      -1620.0754
        49.5004         35.5004
  -4613449.93747  -3510814.53145  23332224.0944   23332221.9614        -71.4484
        45.0004         32.0004
  -5268413.67648  -4086002.56247  20577862.3984   20577858.1214        174.7314
        51.2504         44.7504
   2919047.40648   2269484.85946  21677590.8204   21677586.3984       -877.4104
        48.2504         38.0004
   6642833.37948   5169407.52746  21869943.6484   21869943.1684      -2470.2854
        48.5004         38.0004
   -143122.09456    -87007.00853  25219942.9534   25219943.5744
        37.5004         19.7504
  -6155319.30946  -4775499.62144  24092703.0474   24092708.4344       3431.1904
        40.2504         25.2504
  12201105.58246   9487054.90243  24279485.2814   24279489.3874      -3475.9704
        40.5004         23.0004
 15  7  6 19 33 30.0000000  0 10G11G01G13G15G17G28G30G24G06G07
   7597933.76246   5913376.25043  24195228.8204   24195225.8834      -2884.7464
        40.5004         20.5004
    336391.57447    268756.53544  23504131.5314   23504132.0824      -1342.5864
        43.0004         27.2504
   1213500.03548    957567.91845  21855063.6024   21855060.6484      -1637.0084
        48.7504         35.2504
  -4610799.63347  -3508749.39845  23332728.5864   23332726.3054        -88.3434
        43.7504         32.5004
  -5273200.85248  -4089732.81247  20576951.3754   20576946.8914        159.5734
        50.0004         44.7504
   2945437.56648   2290048.59846  21682612.7424   21682608.2504       -879.6724
        48.2504         38.5004
   6717296.21948   5227430.42246  21884113.4614   21884113.2504      -2482.0954
        48.5004         38.2504
   -245699.41046   -166937.39843  25200422.9924   25200423.7274       3419.2444
        37.0004         19.0004
  -6258260.32846  -4855713.20344  24073115.1024   24073119.2504       3431.3674
        39.7504         25.0004
  12305559.03546   9568446.84843  24299361.5474   24299366.7774      -3481.7824
        38.5004         22.0004
 15  7  6 19 34  0.0000000  0 10G11G01G13G15G17G28G30G24G06G07
   7684835.52346   5981091.85943  24211765.2664   24211762.6174      -2896.7254
        40.0004         20.2504
    377201.29347    300556.29344  23511897.5004   23511897.7194      -1360.3244
        43.2504         28.0004
   1263113.51248    996227.70745  21864504.5784   21864501.9344      -1653.7834
        49.0004         35.7504
  -4607645.64847  -3506291.78545  23333328.6724   23333326.0204       -105.1334
        44.5004         32.0004
  -5277536.06248  -4093110.88747  20576126.5784   20576122.3014        144.5074
        50.0004         44.5004
   2971893.29348   2310663.42646  21687647.5784   21687642.6844       -881.8584
        49.7504         38.5004
   6792109.92648   5285726.70746  21898350.0394   21898349.7424      -2493.7904
        48.7504         38.0004
   -348272.71546   -246864.63743  25180903.5944   25180905.0824       3419.1104
        36.0004         18.2504
  -6361206.27746  -4935930.67244  24053524.7584   24053528.8524       3431.5324
        41.5004         26.0004
  12410182.42246   9649971.17643  24319271.1414   24319276.2034      -3487.4464
        38.0004         22.5004
 15  7  6 19 34 30.0000000  0 10G11G01G13G15G17G28G30G24G06G07
   7772094.72346   6049085.99643  24228370.0704   24228368.2114      -2908.6404
        39.5004         21.2504
    418542.60247    332770.28944  23519763.4144   23519764.9224      -1378.0444
        42.7504         27.5004
   1313228.65648   1035278.40245  21874041.2274   21874038.3634      -1670.5054
        49.0004         35.0004
  -4603987.79747  -3503441.54345  23334025.1174   23334022.4884       -121.9284
        45.7504         32.2504
  -5281419.98048  -4096137.30147  20575387.4614   20575382.7814        129.4644
        51.0004         44.5004
   2998415.15248   2331329.78546  21692694.0084   21692689.3794       -884.0624
        48.2504         38.5004
   6867274.15648   5344296.14546  21912653.3524   21912653.4184      -2505.4744
        48.5004         37.2504
   -450839.40245   -326786.73843  25161385.6484   25161386.8794       3418.8904
        35.0004         18.2504
  -6464153.49246  -5016149.11744  24033933.9144   24033938.8524       3431.5744
        40.5004         25.5004
  12514974.86746   9731627.24243  24339213.1724   24339217.4774      -3493.0824
        39.5004         22.2504
 15  7  6 19 35  0.0000000  0 10G11G01G13G15G17G28G30G24G06G07
   7859708.21146   6117356.18443  24245042.0634   24245040.6294      -2920.4504
        39.0004         20.0004
    460413.17647    365396.67244  23527732.3984   23527732.3164      -1395.6864
        42.5004         26.5004
   1363841.70748   1074717.07845  21883672.3284   21883669.7344      -1687.1024
        49.0004         34.5004
  -4599827.94147  -3500200.13745  23334816.6644   23334814.1254       -138.6624
        44.7504         32.0004
  -5284854.82848  -4098813.79747  20574733.7424   20574729.4614        114.4954
        51.0004         44.5004
   3025002.92648   2352047.50446  21697753.6334   21697749.5904       -886.2594
        48.5004         38.2504
   6942786.43448   5403136.78146  21927022.8914   21927022.6564      -2517.0764
        48.7504         37.5004
   -553398.92646   -406703.23042  25141869.5864   25141870.3714       3418.6514
        36.2504         17.7504
  -6567100.58246  -5096367.46544  24014342.8364   24014348.8754       3431.5704
        40.5004         25.5004
  12619933.67246   9813412.93043  24359187.0004   24359191.2274      -3498.6274
        39.7504         21.5004
 15  7  6 19 35 30.0000000  0 10G11G01G13G15G17G28G30G24G06G07
   7947673.80546   6185900.77743  24261781.6024   24261779.6804      -2932.1864
        37.5004         21.0004
    502812.93447    398435.43444  23535799.8594   23535800.8484      -1413.3254
        43.0004         27.0004
   1414951.20348   1114542.58645  21893398.4924   21893395.5044      -1703.6504
        48.7504         35.0004
  -4595166.39547  -3496567.79745  23335703.2274   23335700.9414       -155.3854
        46.0004         32.0004
  -5287840.51648  -4101140.29747  20574165.6254   20574161.2624         99.5234
        50.2504         45.0004
   3051657.23448   2372817.07446  21702826.2114   21702821.4534       -888.4774
        49.5004         38.0004
   7018646.78148   5462248.64546  21941458.3984   21941458.7274      -2528.6784
        48.7504         37.0004
   -655948.09046   -486611.62143  25122355.1884   25122356.0784       3418.3054
        37.7504         18.2504
  -6670043.68046  -5176582.67244  23994753.7504   23994759.3754       3431.4374
        41.2504         26.0004
  12725057.84446   9895327.53943  24379192.0784   24379196.3134      -3504.1394
        39.7504         22.0004
 15  7  6 19 36  0.0000000  0 10G11G01G13G15G17G28G30G24G06G07
   8035993.49646   6254721.24643  24278588.3524   24278586.3484      -2943.9904
        38.5004         21.5004
    545745.03547    431889.01244  23543970.2034   23543970.2464      -1431.0704
        42.5004         27.5004
   1466559.21148   1154756.55145  21903219.0784   21903216.3204      -1720.2674
        48.5004         34.5004
  -4589999.55147  -3492541.71545  23336686.8444   23336684.2934       -172.2284
        46.5004         32.2504
  -5290373.44148  -4103114.00447  20573683.5474   20573679.0944         84.4314
        51.2504         44.5004
   3078382.25848   2393641.73046  21707911.4224   21707906.8914       -890.8344
        48.5004         38.2504
   7094858.52348   5521634.30546  21955961.3594   21955961.4694      -2540.3914
        48.5004         37.5004
   -758481.00846   -566507.38743  25102843.6414   25102844.7814       3417.7644
        37.5004         19.2504
  -6772975.46546  -5256789.06244  23975166.3984   23975171.4184       3431.0604
        41.2504         25.7504
  12830349.82046   9977372.84443  24399228.8984   24399233.1954      -3509.7334
        39.7504         21.5004
 15  7  6 19 36 30.0000000  0 10G11G01G13G15G17G28G30G24G06G07
   8124663.54746   6323814.75043  24295462.4844   24295459.6564      -2955.6684
        39.2504         21.0004
    589207.35247    465755.72344  23552240.1024   23552241.4104      -1448.7444
        43.0004         26.5004
   1518662.10248   1195356.14145  21913134.5004   21913131.1414      -1736.7634
        48.5004         34.2504
  -4584329.05547  -3488123.18745  23337765.9144   23337763.5634       -189.0174
        45.0004         32.2504
  -5292455.32448  -4104736.23447  20573287.2734   20573282.9844         69.3964
        51.2504         45.0004
   3105177.32448   2414520.96946  21713010.4924   21713006.1374       -893.1694
        49.2504         38.5004
   7171419.55948   5581292.16046  21970530.1334   21970530.7114      -2552.0354
        48.5004         37.5004
   -860996.76646   -646389.77343  25083335.2894   25083336.3244       3417.1924
        37.7504         19.7504
  -6875894.09446  -5336985.20344  23955581.1174   23955586.4494       3430.6214
        41.7504         26.7504
  12935806.91846  10059546.85543  24419296.3284   24419301.1644      -3515.2374
        39.2504         20.0004
 15  7  6 19 37  0.0000000  0 10G11G01G13G15G17G28G30G24G06G07
   8213681.19946   6393179.10543  24312401.5474   24312399.3164      -2967.2554
        39.7504         22.0004
    633198.61747    500034.61744  23560612.2814   23560612.6524      -1466.3764
        42.5004         27.5004
   1571257.77748   1236339.71145  21923143.2344   21923140.0434      -1753.1894
        49.2504         35.2504
  -4578155.93747  -3483313.00045  23338940.7504   23338938.2704       -205.7714
        46.5004         31.7504
  -5294087.48048  -4106008.03947  20572976.7814   20572972.5514         54.4054
        48.2504         44.2504
   3132042.76648   2435455.06346  21718122.7194   21718118.5314       -895.5154
        48.0004         38.0004
   7248328.63348   5641221.19546  21985165.9384   21985165.5274      -2563.6364
        48.2504         37.2504
   -963493.22746   -726257.07443  25063831.9774   25063832.0044       3416.5494
        38.7504         20.2504
  -6978796.77747  -5417168.89844  23935999.6884   23936004.7234       3430.0894
        42.5004         25.7504
  13041427.54346  10141848.25443  24439395.3444   24439400.3984      -3520.6874
        39.0004         21.0004
 15  7  6 19 37 30.0000000  0 10G11G01G13G15G17G28G30G24G06G07
   8303046.59446   6462814.44943  24329408.0004   24329404.6024      -2978.8464
        39.5004         21.7504
    677719.98047    534726.56344  23569084.0704   23569084.5044      -1484.0454
        42.2504         27.7504
   1624345.55148   1277706.73845  21933245.3524   21933242.5004      -1769.5924
        48.5004         35.0004
  -4571478.85947  -3478110.12545  23340211.5784   23340209.3134       -222.5694
        46.5004         32.5004
  -5295268.46148  -4106928.27747  20572752.3284   20572747.7624         39.3664
        50.0004         44.7504
   3158980.97348   2456445.82846  21723249.1414   21723244.3054       -897.9404
        48.2504         38.5004
   7325587.05548   5701422.47346  21999867.7734   21999867.6724      -2575.2814
        48.5004         37.5004
  -1065966.16846   -806106.12143  25044331.0784   25044331.7384       3415.7654
        38.7504         21.0004
  -7081678.28147  -5497336.08244  23916422.0084   23916426.6684       3429.3834
        42.2504         26.7504
  13147212.07846  10224277.42643  24459527.0004   24459530.6884      -3526.1514
        41.2504         20.5004
 15  7  6 19 38  0.0000000  0 10G11G01G13G15G17G28G30G24G06G07
   8392756.25446   6532718.01643  24346479.6724   24346476.1374      -2990.3224
        40.7504         22.0004
    722769.21946    569829.84844  23577657.2114   23577657.1254      -1501.6414
        41.2504         27.5004
   1677922.21948   1319454.72345  21943440.2584   21943437.8014      -1785.8894
        48.0004         35.0004
  -4564299.63747  -3472515.96545  23341577.1484   23341575.2344       -239.3074
        46.2504         32.7504
  -5295999.96948  -4107498.27047  20572612.7424   20572608.4774         24.3844
        50.2504         44.5004
   3185991.27347   2477492.78146  21728389.0234   21728384.8674       -900.3434
        47.7504         38.5004
   7403192.74248   5761894.33246  22014635.7504   22014635.4924      -2586.8564
        48.0004         37.0004
  -1168414.57046   -885935.99243  25024835.4534   25024836.8794       3414.9474
        38.2504         19.5004
  -7184536.63747  -5577485.19144  23896848.5784   23896853.2734       3428.6124
        42.5004         26.0004
  13253157.85946  10306832.18843  24479686.6724   24479691.7384      -3531.5264
        39.7504         20.0004
 15  7  6 19 38 30.0000000  0 10G11G01G13G15G17G28G30G24G06G07
   8482805.00046   6602885.84843  24363614.0084   24363612.0984      -3001.6254
        41.0004         21.5004
    768343.07846    605341.93044  23586328.4694   23586329.6094      -1519.1294
        41.5004         27.0004
   1731983.41448   1361580.25045  21953727.9224   21953725.4344      -1802.0404
        48.5004         35.0004
  -4556621.18047  -3466532.78545  23343038.1884   23343036.7074       -255.9494
        46.0004         32.0004
  -5296285.17648  -4107720.50447  20572558.7734   20572554.2774          9.5074
        49.7504         44.5004
   3213071.52748   2498594.24246  21733542.2274   21733537.7304       -902.6754
        48.0004         39.0004
   7481142.52048   5822634.30946  22029469.1254   22029469.3014      -2598.3264
        48.0004         37.0004
  -1270838.36346   -965746.71143  25005345.0164   25005345.9614       3414.1264
        39.0004         20.5004
  -7287370.97747  -5657615.60944  23877279.4064   23877284.3914       3427.8114
        42.7504         28.2504
  13359260.91446  10389509.53943  24499878.2664   24499882.9454      -3536.7684
        40.5004         21.7504
 15  7  6 19 39  0.0000000  0 10G11G01G13G15G17G28G30G24G06G07
   8573192.74646   6673317.81343  24380814.7114   24380812.2304      -3012.9254
        40.0004         19.7504
    814442.64846    641263.64544  23595101.7344   23595102.4104      -1536.6524
        41.7504         26.7504
   1786528.56347   1404082.88745  21964107.6884   21964105.1804      -1818.1724
        47.2504         34.7504
  -4548442.33247  -3460159.69545  23344595.5944   23344593.0554       -272.6284
        45.0004         32.5004
  -5296122.97748  -4107594.11347  20572589.5784   20572585.1454         -5.4074
        49.2504         44.7504
   3240224.30147   2519752.21546  21738709.0004   21738704.6644       -905.0924
        47.7504         38.5004
   7559437.57848   5883643.34046  22044368.2424   22044368.5744      -2609.8354
        48.0004         37.5004
  -1373233.35546  -1045534.98043  24985859.8204   24985861.0274       3413.1664
        39.5004         22.0004
  -7390176.10547  -5737723.21944  23857716.1484   23857721.4414       3426.8384
        42.2504         27.5004
  13465521.77346  10472309.87543  24520099.7034   24520103.8954      -3542.0294
        40.0004         21.5004
 15  7  6 19 39 30.0000000  0 10G11G01G13G15G17G28G30G24G06G07
   8663917.66446   6744012.49243  24398080.2734   24398076.5514      -3024.1644
        40.0004         20.7504
    861067.26647    677594.46944  23603973.5944   23603974.0124      -1554.1544
        42.5004         26.5004
   1841556.00047   1446961.33645  21974578.5394   21974576.1254      -1834.2484
        47.2504         34.2504
  -4539763.19547  -3453396.76645  23346246.6174   23346244.2974       -289.3054
        46.2504         31.7504
  -5295513.68048  -4107119.33647  20572705.3914   20572700.9844        -20.3104
        49.0004         45.0004
   3267450.51648   2540967.41846  21743890.0084   21743885.6094       -907.5404
        48.0004         37.2504
   7638077.37148   5944920.99246  22059333.0314   22059333.0004      -2621.3264
        48.0004         38.5004
  -1475596.86746  -1125298.76643  24966380.7424   24966381.7854       3412.1174
        38.5004         21.0004
  -7492948.50047  -5817805.35944  23838157.7974   23838163.4694       3425.7464
        42.0004         27.0004
  13571939.43446  10555232.36743  24540350.2034   24540354.8984      -3547.2554
        40.5004         20.7504
 15  7  6 19 40  0.0000000  0 10G11G01G13G15G17G28G30G24G06G07
   8754975.19646   6814966.33943  24415407.7034   24415404.1484      -3035.2514
        39.7504         20.0004
    908213.48046    714331.74644  23612945.7344   23612945.9964      -1571.5404
        41.7504         27.5004
   1897060.76647   1490211.72345  21985141.5314   21985138.5124      -1850.1594
        47.0004         34.0004
  -4530586.52047  -3446246.14145  23347992.8674   23347990.8364       -305.8894
        45.5004         31.5004
  -5294460.09848  -4106298.35247  20572905.7974   20572901.1954        -35.1194
        50.5004         45.0004
   3294748.50047   2562238.53546  21749084.6174   21749080.1484       -909.9334
        47.7504         38.5004
   7717058.64547   6006464.73846  22074362.6334   22074363.1134      -2632.7094
        47.5004         36.7504
  -1577929.25846  -1205038.23843  24946906.4304   24946908.5434       3411.0804
        36.7504         20.7504
  -7595687.36747  -5897861.37144  23818608.3444   23818612.8674       3424.6294
        42.0004         28.0004
  13678510.34846  10638274.25843  24560630.1334   24560635.1724      -3552.3644
        40.0004         20.5004
 15  7  6 19 40 30.0000000  0 10G11G01G13G15G17G28G30G24G06G07
   8846364.02346   6886178.37543  24432796.7814   24432794.9614      -3046.2944
        39.0004         20.0004
    955881.41446    751475.55144  23622015.9534   23622016.9694      -1588.9314
        41.7504         26.5004
   1953042.37547   1533833.68045  21995794.2734   21995791.7704      -1866.0544
        47.5004         34.5004
  -4520912.50447  -3438707.98445  23349833.5554   23349831.4024       -322.4674
        45.5004         32.0004
  -5292961.86348  -4105130.89547  20573191.1174   20573186.6174        -49.9414
        50.7504         44.5004
   3322119.81648   2583566.78546  21754293.3204   21754289.1254       -912.3774
        48.2504         38.2504
   7796381.68048   6068274.78146  22089457.4064   22089457.5744      -2644.1014
        48.0004         36.0004
  -1680227.32446  -1284750.99243  24927440.5864   24927441.4024       3409.9364
        37.2504         20.0004
  -7698388.31647  -5977887.79744  23799065.4774   23799069.4804       3423.3654
        43.0004         27.2504
  13785233.71946  10721435.04743  24580938.9844   24580944.5234      -3557.4464
        41.5004         21.5004
 15  7  6 19 41  0.0000000  0 10G11G01G13G15G17G28G30G24G06G07
   8938082.02046   6957646.87943  24450251.4774   24450248.4024      -3057.2674
        39.0004         19.2504
   1004070.13747    789025.17244  23631187.0944   23631187.1914      -1606.2914
        42.2504         27.7504
   2009498.14147   1577825.10945  22006537.5474   22006535.1334      -1881.8594
        47.7504         33.7504
  -4510741.61347  -3430782.64845  23351769.2734   23351767.1684       -339.0304
        45.7504         32.0004
  -5291019.62948  -4103617.46947  20573560.5084   20573556.4534        -64.7414
        51.2504         44.7504
   3349564.90648   2604952.54346  21759516.4144   21759511.7384       -914.8364
        48.0004         37.7504
   7876045.65648   6130350.48846  22104617.1174   22104617.0474      -2655.4664
        48.0004         36.7504
  -1782487.89546  -1364434.54343  24907981.3054   24907981.9734       3408.6864
        38.0004         21.2504
  -7801048.04747  -6057882.14144  23779529.4224   23779533.0984       3421.9914
        42.5004         27.5004
  13892108.37546  10804713.63743  24601277.4454   24601282.0514      -3562.4894
        41.5004         20.5004
 15  7  6 19 41 30.0000000  0 10G11G01G13G15G17G28G30G24G06G07
   9030126.12146   7029369.50843  24467766.1644   24467763.8834      -3068.1374
        40.0004         19.2504
   1052778.44546    826979.65644  23640455.2274   23640455.9224      -1623.6104
        41.5004         26.7504
   2066425.66847   1622184.13745  22017370.4924   22017367.7934      -1897.5844
        47.7504         34.2504
  -4500074.65647  -3422470.77745  23353799.1644   23353797.4024       -355.5654
        45.7504         31.5004
  -5288634.66448  -4101759.05147  20574014.5234   20574010.2734        -79.4994
        49.0004         45.0004
   3377084.31648   2626396.21146  21764752.9534   21764748.3594       -917.3144
        49.0004         37.5004
   7956049.54347   6192691.08246  22119841.3834   22119841.5984      -2666.7964
        47.7504         36.5004
  -1884709.14146  -1444087.41843  24888529.5784   24888530.5274       3407.3754
        37.7504         22.2504
  -7903663.43747  -6137841.93444  23760002.0704   23760006.5634       3420.5134
        42.5004         28.2504
  13999132.73447  10888108.87943  24621643.7504   24621648.8874      -3567.4794
        42.0004         21.5004
 15  7  6 19 42  0.0000000  0 10G11G01G13G15G17G28G30G24G06G07
   9122493.53546   7101344.03943  24485342.8524   24485340.9104      -3078.9144
        39.5004         19.2504
   1102004.10947    865337.26244  23649822.7734   23649823.4414      -1640.8554
        42.2504         26.2504
   2123821.62947   1666908.18045  22028292.6804   22028290.0354      -1913.1994
        46.7504         34.5004
  -4488913.59847  -3413773.89545  23355922.6414   23355921.0044       -372.0354
        46.0004         31.5004
  -5285808.52048  -4099556.86347  20574552.4844   20574547.8094        -94.2054
        51.2504         44.7504
   3404677.44548   2647897.32446  21770003.7894   21769999.1294       -919.7714
        49.2504         37.7504
   8036391.31648   6255294.95746  22135129.8054   22135129.8014      -2678.0594
        48.2504         36.5004
  -1986889.70746  -1523708.60943  24869084.7194   24869086.3524       3406.0194
        38.0004         22.0004
  -8006232.36347  -6217765.51644  23740483.0704   23740487.3444       3418.9644
        42.7504         27.2504
  14106303.88347  10971618.52743  24642037.0784   24642043.1254      -3572.3724
        42.0004         21.5004
 15  7  6 19 42 30.0000000  0 10G11G01G13G15G17G28G30G24G06G07
   9215180.67646   7173567.74643  24502981.8054   24502978.6604      -3089.5714
        38.5004         18.5004
   1151744.89847    904096.30144  23659288.9144   23659288.6054      -1658.0264
        42.5004         25.0004
   2181682.51247   1711994.50045  22039302.9454   22039300.6414      -1928.6964
        47.7504         34.0004
  -4477260.58247  -3404693.67645  23358140.5704   23358138.5044       -388.4344
        46.0004         31.0004
  -5282543.42648  -4097012.63747  20575173.6884   20575169.2304       -108.8364
        52.0004         44.5004
   3432343.71548   2669455.42246  21775268.5474   21775264.0594       -922.2094
        49.0004         37.5004
   8117068.85248   6318160.45746  22150482.8674   22150482.7664      -2689.2514
        48.0004         37.0004
  -2089028.39146  -1603297.17643  24849648.3284   24849649.5784       3404.6234
        37.5004         22.0004
  -8108752.86347  -6297651.36344  23720974.4844   23720978.5824       3417.3504
        42.7504         28.0004
  14213619.44147  11055240.71143  24662459.6954   24662465.2194      -3577.1854
        43.0004         21.5004
 15  7  6 19 43  0.0000000  0 10G11G01G13G15G17G28G30G24G06G07
   9308186.03046   7246039.38143  24520680.0314   24520677.2464      -3100.1784
        38.7504         18.5004
   1202000.74246    943256.64144  23668850.9924   23668851.8404      -1675.1954
        41.5004         24.5004
   2240006.90647   1757442.00845  22050402.3914   22050399.9104      -1944.1464
        47.5004         34.0004
  -4465115.18047  -3395229.77045  23360451.1804   23360449.2234       -404.8474
        46.0004         31.7504
  -5278838.54748  -4094125.71947  20575878.3984   20575874.0164       -123.4964
        51.2504         44.7504
   3460084.70348   2691071.74246  21780547.6564   21780542.8714       -924.7004
        49.5004         37.2504
   8198082.31648   6381287.73046  22165899.3524   22165899.5864      -2700.4494
        48.7504         36.7504
  -2191122.07846  -1682850.65243  24830220.5394   24830221.6724       3403.1234
        38.7504         21.5004
  -8211220.44547  -6377495.97744  23701475.6254   23701479.3324       3415.5864
        42.2504         27.7504
  14321078.60546  11138974.80543  24682908.3754   24682913.7384      -3581.9724
        41.5004         21.2504
 15  7  6 19 43 30.0000000  0 10G11G01G13G15G17G28G30G24G06G07
   9401507.11346   7318757.05543  24538437.8834   24538435.1804      -3110.7034
        38.0004         19.2504
   1252769.98447    982817.06644  23678512.2344   23678513.5164      -1692.3084
        42.0004         25.7504
   2298792.08647   1803248.55145  22061589.0784   22061585.8794      -1959.5064
        46.7504         33.7504
  -4452478.69147  -3385383.20345  23362855.8834   23362854.2584       -421.2164
        46.2504         32.2504
  -5274695.37948  -4090897.27347  20576666.7034   20576662.5314       -138.1064
        51.7504         44.5004
   3487900.26248   2712746.17646  21785840.1804   21785835.9144       -927.1854
        48.0004         38.5004
   8279430.34447   6444675.69546  22181378.9144   22181379.6294      -2711.6014
        47.5004         36.0004
  -2293168.50446  -1762367.30543  24810802.7504   24810802.9804       3401.5484
        38.7504         22.0004
  -8313632.46147  -6457297.28944  23681986.8674   23681990.5394       3413.7344
        43.7504         27.5004
  14428679.70346  11222819.45343  24703384.5704   24703389.6564      -3586.7034
        41.2504         21.5004
 15  7  6 19 44  0.0000000  0 10G11G01G13G15G17G28G30G24G06G07
   9495141.59046   7391718.93442  24556256.7894   24556253.5164      -3121.1494
        38.7504         17.7504
   1304051.68847   1022776.80544  23688271.6564   23688271.7774      -1709.3904
        42.5004         26.0004
   2358035.87947   1849412.47745  22072862.2504   22072860.0824      -1974.7934
        45.5004         33.5004
  -4439351.62147  -3375154.37145  23365354.1254   23365352.1294       -437.5694
        46.0004         32.0004
  -5270114.87548  -4087328.04747  20577538.6484   20577534.3524       -152.6834
        51.7504         45.0004
   3515791.43047   2734479.53146  21791148.1954   21791143.6524       -929.7064
        47.5004         38.0004
   8361112.16047   6508323.74646  22196923.0084   22196922.8914      -2722.7274
        47.5004         36.2504
  -2395165.12546  -1841845.20343  24791392.0944   24791393.6484       3399.8874
        38.2504         20.7504
  -8415985.43047  -6537052.62944  23662508.4144   23662512.8834       3411.7664
        43.0004         28.0004
  14536421.47346  11306773.69943  24723887.3524   24723893.0394      -3591.3924
        40.0004         20.5004
 15  7  6 19 44 30.0000000  0 10G11G01G13G15G17G28G30G24G06G07
   9589086.92646   7464923.04743  24574133.3594   24574131.4964      -3131.5114
        39.0004         19.2504
   1355844.49647   1063134.80544  23698127.3364   23698127.7034      -1726.4274
        43.0004         27.0004
   2417735.64547   1895931.68845  22084223.0864   22084220.5744      -1989.9924
        46.7504         34.0004
  -4425735.23447  -3364544.24645  23367945.7034   23367943.2734       -453.8804
        46.0004         31.5004
  -5265097.90648  -4083418.71547  20578493.2974   20578489.1604       -167.2324
        50.2504         45.0004
   3543758.53948   2756272.05946  21796470.4064   21796465.5514       -932.2374
        48.5004         37.5004
   8443126.53548   6572230.94546  22212529.4924   22212529.2154      -2733.8124
        48.0004         36.5004
  -2497109.81646  -1921282.56243  24771993.3364   24771994.0314       3398.1564
        38.5004         22.5004
  -8518276.28147  -6616759.55544  23643043.3674   23643048.0044       3409.6954
        43.2504         28.5004
  14644302.05146  11390836.16043  24744416.4534   24744421.9454      -3596.0194
        39.7504         20.0004
 15  7  6 19 45  0.0000000  0 10G11G01G13G15G17G28G30G24G06G07
   9683339.60546   7538366.63343  24592070.4694   24592066.3554      -3141.7564
        39.0004         18.2504
   1408145.89147   1103889.12944  23708079.4844   23708080.6454      -1743.3804
        42.2504         26.0004
   2477887.75047   1942803.38745  22095669.5394   22095667.0634      -2005.0704
        47.0004         34.2504
  -4411631.88747  -3353554.66445  23370629.2034   23370627.8164       -470.1124
        45.0004         32.0004
  -5259646.70748  -4079171.02347  20579530.6644   20579526.2154       -181.7074
        51.0004         44.7504
   3571801.02748   2778123.33646  21801806.2974   21801802.3164       -934.7504
        48.5004         37.5004
   8525471.29747   6636395.59445  22228199.3364   22228199.5554      -2744.8254
        47.7504         35.5004
  -2599001.32046  -2000678.52743  24752604.0704   24752604.4494       3396.3834
        39.5004         22.7504
  -8620502.96147  -6696416.48844  23623589.9304   23623594.3984       3407.5564
        43.0004         27.0004
  14752318.75446  11475004.63743  24764971.6954   24764978.0514      -3600.5574
        39.5004         20.7504
 15  7  6 19 45 30.0000000  0 10G11G01G13G15G17G28G30G24G06G07
   9777896.25046   7612047.09843  24610062.5864   24610060.5204      -3151.8884
        38.0004         18.2504
   1460953.71947   1145038.04744  23718129.5394   23718129.3714      -1760.2614
        43.5004         26.7504
   2538488.76647   1990024.86745  22107202.0084   22107199.1054      -2020.0344
        47.0004         33.7504
  -4397043.23047  -3342186.91845  23373404.6484   23373403.5474       -486.2894
        45.2504         32.2504
  -5253762.91448  -4074586.24647  20580650.2194   20580645.8674       -196.1264
        51.0004         45.0004
   3599918.46948   2800033.00846  21807156.6174   21807152.1604       -937.2484
        48.5004         37.5004
   8608144.42647   6700816.10545  22243931.4304   22243931.8954      -2755.7714
        47.5004         35.5004
  -2700838.62146  -2080032.27743  24733224.5864   24733225.9224       3394.5774
        38.0004         22.0004
  -8722663.27047  -6776021.70344  23604148.7974   23604153.4694       3405.3444
        42.2504         28.0004
  14860469.04346  11559277.23443  24785552.4384   24785558.3754      -3605.0104
        40.2504         21.0004
 15  7  6 19 46  0.0000000  0 10G11G01G13G15G17G28G30G24G06G07
   9872754.97346   7685962.94943  24628113.3834   24628111.7234      -3161.9574
        38.5004         18.5004
   1514267.13346   1186580.97744  23728273.6024   23728274.8594      -1777.1144
        41.7504         25.7504
   2599536.73847   2037594.64545  22118818.6414   22118816.5204      -2034.9324
        46.2504         33.2504
  -4381969.80147  -3330441.43445  23376273.4454   23376271.9454       -502.4484
        44.5004         31.5004
  -5247446.93448  -4069664.69147  20581852.1174   20581847.5004       -210.5334
        50.2504         44.2504
   3628111.88748   2822001.88746  21812522.3054   21812517.4264       -939.7814
        49.0004         37.5004
   8691145.46147   6765492.12145  22259725.9454   22259727.0044      -2766.7014
        47.0004         35.5004
  -2802618.59846  -2159341.29343  24713856.9774   24713857.6134       3392.6664
        39.0004         21.5004
  -8824753.34047  -6855572.19144  23584722.7504   23584725.6094       3403.0024
        43.2504         28.7504
  14968751.59446  11643652.91043  24806158.7504   24806164.6914      -3609.4184
        39.0004         20.0004
 15  7  6 19 46 30.0000000  0 10G11G01G13G15G17G28G30G24G06G07
   9967914.40246   7760113.11743  24646222.4304   24646219.4924      -3171.9814
        38.7504         19.7504
   1568085.84046   1228517.62144  23738515.4694   23738516.2734      -1793.9574
        41.7504         27.7504
   2661029.97348   2085511.35945  22130520.7274   22130518.3054      -2049.7744
        48.0004         33.7504
  -4366411.62947  -3318318.22345  23379234.8594   23379232.6294       -518.6064
        46.0004         32.0004
  -5240698.82848  -4064406.42647  20583136.3134   20583131.7664       -224.9374
        50.0004         45.0004
   3656382.77348   2844031.13746  21817901.8984   21817897.4104       -942.3634
        49.2504         37.7504
   8774474.16847   6830423.46946  22275583.2584   22275583.6764      -2777.6244
        47.0004         36.0004
  -2904338.10546  -2238603.20743  24694499.9614   24694500.7854       3390.6504
        39.2504         22.0004
  -8926769.10547  -6935064.78144  23565309.0944   23565312.9494       3400.5264
        42.7504         29.5004
  15077165.88346  11728131.21943  24826788.5704   24826795.0124      -3613.8104
        37.5004         20.0004
 15  7  6 19 47  0.0000000  0 10G11G01G13G15G17G28G30G24G06G07
  10063369.28946   7834493.48443  24664386.5554   24664384.6414      -3181.8304
        38.5004         19.0004
   1622405.99647   1270845.03144  23748852.2894   23748852.7504      -1810.6724
        42.5004         27.0004
   2722963.45347   2133771.13745  22142306.2034   22142303.6564      -2064.4494
        46.5004         33.5004
  -4350372.19547  -3305820.01645  23382287.6334   23382284.7934       -534.6484
        45.5004         31.7504
  -5233521.90248  -4058814.00847  20584502.0234   20584497.4534       -239.2314
        51.0004         45.2504
   3684729.48847   2866119.45346  21823295.9224   21823291.4774       -944.8904
        47.5004         37.7504
   8858127.09447   6895607.45345  22291501.6954   22291502.4614      -2788.4314
        47.5004         35.5004
  -3005996.84446  -2317817.78543  24675155.1174   24675156.1994       3388.6254
        39.2504         22.5004
  -9028709.77347  -7014498.86344  23545911.3754   23545914.1644       3398.0224
        43.7504         28.5004
  15185708.16846  11812709.19543  24847444.3914   24847450.2664      -3618.0764
        37.2504         18.5004
 15  7  6 19 47 30.0000000  0 10G11G01G13G15G17G28G30G24G06G07
  10159118.63346   7909103.35243  24682605.7194   24682604.7424      -3191.6454
        37.5004         19.2504
   1677227.23446   1313562.85244  23759284.9844   23759284.9534      -1827.3754
        41.2504         26.0004
   2785335.77047   2182372.85945  22154175.0864   22154172.8404      -2079.0774
        47.0004         33.0004
  -4333851.57047  -3292946.85245  23385430.4224   23385428.5634       -550.6874
        45.7504         32.2504
  -5225916.34048  -4052887.59047  20585949.4224   20585944.9184       -253.5194
        50.7504         45.0004
   3713152.93447   2888267.57046  21828705.1334   21828700.6214       -947.4484
        47.5004         37.5004
   8942104.10947   6961043.96546  22307482.3524   22307482.7424      -2799.2344
        46.7504         36.0004
  -3107591.62946  -2396982.51243  24655821.8204   24655822.8954       3386.4934
        38.7504         22.7504
  -9130571.16447  -7093871.16444  23526527.0864   23526530.6524       3395.3804
        43.5004         29.0004
  15294377.54746  11897386.29743  24868123.3674   24868129.6094      -3622.3134
        37.0004         18.5004
 15  7  6 19 48  0.0000000  0 10G11G01G13G15G17G28G30G24G06G07
  10255157.37146   7983938.64542  24700882.4064   24700879.7424      -3201.2914
        39.0004         17.7504
   1732545.52046   1356668.03144  23769810.2424   23769811.7154      -1843.9434
        41.2504         25.7504
   2848141.67647   2231312.44545  22166127.3364   22166124.7504      -2093.5304
        47.0004         33.5004
  -4316853.60947  -3279701.72345  23388665.2114   23388663.7424       -566.5994
        45.5004         32.0004
  -5217885.60248  -4046629.86747  20587477.6644   20587472.8914       -267.6914
        51.0004         44.7504
   3741651.53548   2910474.26646  21834127.9144   21834123.5904       -949.9534
        48.7504         38.0004
   9026401.48447   7026730.11745  22323523.4224   22323524.3014      -2809.9124
        46.7504         35.7504
  -3209122.94546  -2476097.79343  24636501.3204   24636502.4844       3384.3774
        38.2504         22.5004
  -9232352.62547  -7173181.19944  23507158.3284   23507161.9454       3392.7154
        44.0004         29.7504
  15403169.94946  11982159.23043  24888825.7734   24888833.0634      -3626.4134
        37.5004         19.5004
 15  7  6 19 48 30.0000000  0 10G11G01G13G15G17G28G30G24G06G07
  10351485.59046   8058999.54343  24719213.8834   24719211.2974      -3210.9414
        38.7504         18.5004
   1788362.16846   1400161.53144  23780433.0784   23780433.5234      -1860.5554
        41.5004         25.5004
   2911381.19547   2280589.91445  22178161.0944   22178158.7274      -2107.9844
        47.5004         33.7504
  -4299376.84047  -3266083.51245  23391990.6954   23391989.1724       -582.5594
        46.2504         32.5004
  -5209428.07048  -4040039.57047  20589086.8364   20589082.3404       -281.9184
        51.5004         45.0004
   3770228.43448   2932741.96546  21839566.0554   21839561.7034       -952.5634
        48.7504         38.2504
   9111020.78147   7092667.10946  22339626.1174   22339626.8834      -2820.6434
        46.7504         36.0004
  -3310585.20346  -2555159.23843  24617194.3754   24617194.4104       3382.0754
        39.0004         22.5004
  -9334048.23047  -7252424.32444  23487805.6334   23487809.4454       3389.8544
        43.7504         29.0004
  15512086.35246  12067028.78143  24909552.2894   24909559.2584      -3630.5474
        37.5004         19.0004
 15  7  6 19 49  0.0000000  0  9G11G01G13G15G17G28G30G24G06
  10448100.62546   8134283.94543  24737598.2274   24737596.3634      -3220.5014
        37.2504         19.5004
   1844675.41046   1444042.00044  23791148.6644   23791149.6914      -1877.1084
        41.0004         25.0004
   2975051.69547   2330203.21545  22190277.1724   22190274.3794      -2122.3504
        47.0004         33.2504
  -4281422.39147  -3252093.07445  23395408.0704   23395405.9144       -598.4824
        46.2504         32.0004
  -5200545.23848  -4033117.87547  20590777.4304   20590772.9774       -296.0944
        51.2504         44.7504
   3798884.03948   2955070.98846  21845019.3524   21845014.6884       -955.1874
        48.7504         38.0004
   9195960.54747   7158853.80945  22355790.0234   22355790.2854      -2831.3264
        46.2504         35.0004
  -3411976.69546  -2634165.57043  24597899.3444   24597900.6054       3379.7164
        39.7504         22.7504
  -9435655.12147  -7331598.34044  23468471.0164   23468474.6524       3386.8964
        43.2504         29.2504
 15  7  6 19 49 30.0000000  0  9G11G01G13G15G17G28G30G24G06
  10544995.39846   8209786.30143  24756037.7424   24756035.1174      -3229.8264
        39.0004         19.7504
   1901479.34446   1488304.79344  23801958.0554   23801958.8874      -1893.4644
        39.7504         25.7504
   3039145.74247   2380146.55545  22202474.1954   22202471.8134      -2136.4684
        47.2504         33.0004
  -4262996.09847  -3237734.97745  23398913.6564   23398912.1484       -614.2104
        45.0004         31.7504
  -5191242.38348  -4025868.88747  20592547.2504   20592543.4774       -310.0954
        51.0004         45.0004
   3827614.31348   2977458.19546  21850486.4694   21850481.8714       -957.6764
        49.2504         37.2504
   9281215.13347   7225285.82845  22372013.8364   22372014.1604      -2841.8204
        46.0004         35.5004
  -3513299.25846  -2713118.16443  24578619.3524   24578619.4844       3377.4194
        40.5004         22.0004
  -9537174.56647  -7410704.22345  23449152.6884   23449155.8014       3383.9824
        43.7504         30.0004
 15  7  6 19 50  0.0000000  0  9G11G01G13G15G17G28G30G24G06
  10642176.04746   8285511.41443  24774529.6254   24774527.5904      -3239.3554
        38.2504         19.2504
   1958781.05146   1532955.48844  23812861.9384   23812862.7154      -1910.0574
        40.7504         25.7504
   3103669.41447   2430424.67645  22214752.4064   22214750.2344      -2150.7894
        47.5004         33.0004
  -4244090.50447  -3223003.37945  23402511.3364   23402510.0984       -630.1864
        45.7504         32.7504
  -5181512.12948  -4018286.85947  20594399.2034   20594394.7774       -324.3424
        51.7504         44.2504
   3856428.27048   2999910.61746  21855969.3284   21855964.8244       -960.4654
        48.7504         38.0004
   9366792.01247   7291968.99245  22388298.2424   22388298.7974      -2852.5634
        46.7504         35.2504
  -3614542.35246  -2792008.84043  24559352.9144   24559353.6764       3374.7704
        39.2504         22.7504
  -9638594.67247  -7489732.68744  23429853.1334   23429855.6454       3380.6704
        43.7504         29.5004
 15  7  6 19 50 30.0000000  0  9G11G01G13G15G17G28G30G24G06
  10739639.34046   8361456.82843  24793076.1484   24793074.3054      -3248.7764
        37.0004         19.5004
   2016578.16846   1577992.19944  23823860.1884   23823861.4804      -1926.5714
        41.0004         26.5004
   3168619.31648   2481034.91045  22227111.9454   22227109.4654      -2164.9974
        48.2504         33.0004
  -4224707.55947  -3207899.83245  23406200.1414   23406198.4224       -646.0984
        45.7504         32.0004
  -5171356.18048  -4010373.12547  20596331.7274   20596326.8404       -338.5324
        51.2504         44.5004
   3885325.79748   3022428.15646  21861468.6254   21861463.8484       -963.2514
        48.5004         37.5004
   9452689.12147   7358901.67245  22404644.5474   22404644.7894      -2863.2374
        46.2504         35.5004
  -3715703.94146  -2870835.98443  24540102.0474   24540102.9964       3372.0534
        39.7504         22.5004
  -9739913.13747  -7568681.97745  23410571.9774   23410575.3164       3377.2824
        43.7504         30.0004
 15  7  6 19 51  0.0000000  0  9G11G01G13G15G17G28G30G24G06
  10837384.35546   8437621.74643  24811676.4534   24811674.8284      -3258.1674
        38.5004         20.0004
   2074870.46146   1623414.75044  23834953.9064   23834954.0204      -1943.0764
        41.0004         25.2504
   3233993.99648   2531976.14545  22239552.6174   22239550.4304      -2179.1564
        48.0004         32.7504
  -4204847.44947  -3192424.46945  23409979.4384   23409977.8914       -662.0044
        45.5004         31.7504
  -5160774.41848  -4002127.59447  20598345.0164   20598340.9384       -352.7254
        51.0004         44.7504
   3914308.77048   3045012.28146  21866983.7424   21866979.3874       -966.0994
        49.2504         37.7504
   9538906.48447   7426083.90645  22421050.7114   22421051.6644      -2873.9124
        47.0004         35.0004
  -3816780.45746  -2949596.87543  24520867.2664   24520868.4384       3369.2174
        39.2504         22.5004
  -9841125.44947  -7647548.54344  23391312.0864   23391315.1954       3373.7444
        44.0004         29.7504
 15  7  6 19 51 30.0000000  0  9G11G01G13G15G17G28G30G24G06
  10935405.34046   8514001.66043  24830329.2504   24830327.6954      -3267.3664
        39.2504         19.7504
   2133653.30146   1669219.56344  23846139.7114   23846140.3014      -1959.4284
        40.7504         26.5004
   3299787.61748   2583243.82845  22252072.7974   22252070.3674      -2193.1214
        48.0004         33.2504
  -4184514.42647  -3176580.60545  23413848.9384   23413846.7664       -677.7674
        45.5004         31.0004
  -5149771.30948  -3993553.73847  20600439.0944   20600434.9184       -366.7704
        50.2504         44.5004
   3943374.71548   3067661.05146  21872515.0704   21872510.5594       -968.8654
        48.2504         37.5004
   9625439.87147   7493512.39145  22437517.8674   22437518.5044      -2884.4464
        46.0004         34.5004
  -3917772.73046  -3028292.10943  24501650.0234   24501650.4144       3366.4094
        39.7504         22.5004
  -9942231.47747  -7726332.29744  23372072.6884   23372075.0084       3370.2014
        44.5004         29.2504
 15  7  6 19 52  0.0000000  0  9G11G01G13G15G17G28G30G24G06
  11033698.80546   8590593.92243  24849034.8444   24849032.2194      -3276.4494
        38.2504         18.2504
   2192924.20346   1715404.68044  23857417.8134   23857419.0824      -1975.6974
        40.5004         26.7504
   3365996.44947   2634835.05945  22264672.0634   22264669.6334      -2206.9614
        47.7504         33.0004
  -4163710.71147  -3160369.97345  23417807.7974   23417805.7504       -693.4574
        45.0004         32.0004
  -5138348.78948  -3984653.07047  20602612.7664   20602608.4694       -380.7514
        50.7504         44.5004
   3972523.06648   3090374.04346  21878061.3914   21878057.0784       -971.6124
        48.0004         37.2504
   9712287.06347   7561185.39145  22454044.2734   22454044.8364      -2894.9064
        45.0004         34.0004
  -4018679.44146  -3106920.66843  24482448.0704   24482448.3164       3363.5574
        39.0004         22.7504
 -10043228.97347  -7805031.50044  23352853.7664   23352855.9654       3366.5834
        45.0004         29.7504
 15  7  6 19 52 30.0000000  0  9G11G01G13G15G17G28G30G24G06
  11132261.55146   8667396.01243  24867790.6954   24867787.7274      -3285.4254
        39.0004         19.2504
   2252680.62146   1761968.10544  23868789.9614   23868790.0664      -1991.8814
        41.7504         27.0004
   3432617.00847   2686747.10545  22277349.7274   22277347.2034      -2220.6854
        47.5004         32.7504
  -4142438.51247  -3143794.27745  23421855.5864   23421853.7074       -709.0734
        45.2504         31.7504
  -5126508.79348  -3975427.09847  20604865.7734   20604861.4384       -394.6674
        50.7504         44.7504
   4001753.64548   3113151.10546  21883623.6804   21883618.9804       -974.3534
        48.2504         37.2504
   9799445.95347   7629101.27345  22470630.2274   22470630.6454      -2905.2964
        45.0004         34.0004
  -4119498.75846  -3185481.14143  24463262.0084   24463262.8674       3360.6444
        39.2504         22.0004
 -10144115.59047  -7883644.30945  23333654.7344   23333657.2544       3362.8874
        44.2504         30.0004
 15  7  6 19 53  0.0000000  0  9G11G01G13G15G17G28G30G24G06
  11231088.86346   8744404.27343  24886596.9614   24886594.3014      -3294.2444
        38.0004         19.5004
   2312918.86746   1808907.00244  23880252.4534   23880253.2894      -2007.9424
        41.7504         26.2504
   3499644.56347   2738976.30145  22290104.5474   22290102.3134      -2234.2524
        47.5004         33.0004
  -4120701.02747  -3126856.02345  23425992.4064   23425990.6334       -724.5834
        44.2504         33.0004
  -5114254.52348  -3965878.30547  20607197.6564   20607193.1414       -408.4764
        51.5004         45.0004
   4031064.77048   3135990.92646  21889201.5084   21889196.9964       -977.0374
        48.5004         37.5004
   9886913.18447   7697257.44145  22487274.7034   22487275.4024      -2915.5744
        45.0004         34.0004
  -4220230.52046  -3263973.37943  24444093.6024   24444094.7384       3357.7254
        40.5004         22.7504
 -10244890.17247  -7962169.82844  23314477.9694   23314480.0744       3359.1534
        44.2504         29.5004
 15  7  6 19 53 30.0000000  0  9G11G01G13G15G17G28G30G24G06
  11330178.46546   8821616.91442  24905452.7894   24905450.5124      -3302.9874
        37.5004         17.2504
   2373637.48846   1856220.19944  23891806.5314   23891807.7194      -2023.9544
        41.7504         26.5004
   3567076.19147   2791520.35945  22302936.3834   22302933.7734      -2247.7214
        47.5004         32.7504
  -4098499.93047  -3109556.50845  23430217.1174   23430215.3674       -740.0374
        45.0004         31.5004
  -5101586.92648  -3956007.44147  20609608.4844   20609603.9924       -422.2534
        51.2504         44.7504
   4060457.42648   3158894.28146  21894794.9694   21894790.3284       -979.7554
        48.5004         37.0004
   9974687.55547   7765652.92645  22503976.9774   22503978.1484      -2925.8124
        44.7504         34.2504
  -4320872.14846  -3342395.36343  24424941.4064   24424942.9184       3354.7214
        39.5004         22.7504
 -10345549.52347  -8040605.53545  23295323.0084   23295325.4924       3355.3124
        44.5004         30.0004
 15  7  6 19 54  0.0000000  0  9G11G01G13G15G17G28G30G24G06
  11429528.15646   8899032.18442  24924358.2194   24924356.3954      -3311.6564
        38.0004         17.7504
   2434835.22347   1903906.71944  23903452.4304   23903452.8954      -2039.9244
        42.0004         25.7504
   3634909.75848   2844377.60545  22315844.6564   22315842.3554      -2261.1194
        48.0004         32.5004
  -4075835.77047  -3091896.17245  23434529.6254   23434528.2424       -755.4724
        45.7504         31.7504
  -5088506.78148  -3945815.12147  20612097.3984   20612093.0664       -436.0054
        51.5004         44.7504
   4089932.46948   3181861.82446  21900403.8594   21900399.2384       -982.5014
        48.7504         37.2504
  10062768.26247   7834287.11345  22520739.0944   22520739.7424      -2936.0244
        45.2504         34.2504
  -4421420.54746  -3420744.73843  24405808.6644   24405808.8364       3351.6134
        40.7504         22.7504
 -10446089.81647  -8118948.49645  23276190.3834   23276193.1054       3351.3434
        44.5004         30.2504
 15  7  6 19 54 30.0000000  0  9G11G01G13G15G17G28G30G24G06
  11529134.62146   8976647.57442  24943313.6884   24943311.0274      -3320.2154
        38.0004         17.2504
   2496509.31347   1951964.43044  23915189.1024   23915189.3404      -2055.8034
        42.0004         25.7504
   3703141.50047   2897545.12545  22328828.5864   22328826.4964      -2274.3914
        47.5004         32.5004
  -4052711.20747  -3073877.07045  23438930.0944   23438928.6884       -770.8194
        46.0004         31.7504
  -5075016.73848  -3935303.39147  20614664.5864   20614659.9694       -449.6684
        51.2504         44.7504
   4119489.53548   3204893.28946  21906028.5784   21906023.6294       -985.2364
        48.5004         37.2504
  10151152.94547   7903158.16445  22537557.6334   22537558.8594      -2946.1564
        44.7504         34.7504
  -4521874.69146  -3499020.65243  24386692.3914   24386693.0474       3348.4714
        40.0004         23.0004
 -10546509.04347  -8197197.10945  23257081.2814   23257084.1764       3347.3084
        44.5004         30.0004
 15  7  6 19 55  0.0000000  0  9G11G01G13G15G17G28G30G24G06
  11628993.13746   9054459.36743  24962315.7344   24962313.2304      -3328.6174
        38.5004         18.2504
   2558656.05946   2000390.43844  23927015.5004   23927015.4884      -2071.5584
        41.0004         25.7504
   3771766.41448   2951019.00845  22341888.0004   22341885.4454      -2287.4974
        48.0004         33.0004
  -4029129.68047  -3055501.90245  23443417.5944   23443415.7114       -786.0514
        45.7504         31.5004
  -5061119.79348  -3924474.59847  20617309.0314   20617304.8954       -463.2324
        51.2504         44.0004
   4149126.75448   3227987.20346  21911668.4844   21911663.6644       -987.9074
        48.5004         36.7504
  10239838.16447   7972263.38745  22554434.3134   22554435.2704      -2956.1744
        46.0004         35.0004
  -4622234.01246  -3577222.68443  24367595.1334   24367595.6174       3345.3114
        40.5004         23.2504
 -10646806.03147  -8275350.46945  23237995.2734   23237997.5124       3343.2334
        44.5004         30.0004
 15  7  6 19 55 30.0000000  0  9G11G01G13G15G17G28G30G24G06
  11729102.52046   9132466.68442  24981364.8984   24981363.2934      -3336.9794
        38.0004         16.2504
   2621275.07846   2049184.44944  23938930.9774   23938931.3874      -2087.3014
        40.7504         25.5004
   3840782.92247   3004798.02745  22355021.1484   22355019.0984      -2300.5504
        47.5004         32.7504
  -4005091.30947  -3036770.74645  23447992.5314   23447990.5704       -801.2794
        46.2504         31.0004
  -5046815.69148  -3913328.53547  20620030.8834   20620026.4534       -476.8034
        51.0004         44.2504
   4178846.69548   3251145.59446  21917323.6024   21917319.0704       -990.6654
        48.0004         37.2504
  10328824.05147   8041602.89845  22571368.6644   22571368.8444      -2966.1964
        46.5004         34.5004
  -4722494.50846  -3655347.72343  24348515.4534   24348516.5664       3342.0174
        40.2504         22.5004
 -10746976.09847  -8353404.94945  23218932.8444   23218936.0824       3339.0024
        44.5004         30.5004
 15  7  6 19 56  0.0000000  0  9G11G01G13G15G17G28G30G24G06
  11829462.98046   9210669.54742  25000463.0784   25000461.3954      -3345.3494
        38.5004         17.7504
   2684367.50846   2098347.34044  23950937.0004   23950937.4614      -2103.0814
        40.7504         26.5004
   3910191.21147   3058882.34445  22368228.9924   22368227.3204      -2313.6104
        47.5004         32.2504
  -3980594.47347  -3017682.35945  23452653.5474   23452651.9774       -816.5614
        45.0004         32.2504
  -5032103.05148  -3901864.13747  20622830.8594   20622826.3714       -490.4214
        50.7504         44.5004
   4208652.50848   3274370.87946  21922995.4304   21922991.0084       -993.5274
        49.0004         37.0004
  10418111.95347   8111177.75845  22588359.2344   22588359.8484      -2976.2634
        45.7504         34.2504
  -4822651.48846  -3733392.10243  24329456.2734   24329457.1134       3338.5664
        40.2504         22.5004
 -10847013.32447  -8431355.90645  23199897.0864   23199899.6844       3334.5744
        44.5004         30.0004
 15  7  6 19 56 30.0000000  0  9G11G01G13G15G17G28G30G24G06
  11930068.21946   9289063.25042  25019608.2194   25019606.7934      -3353.5084
        38.0004         16.7504
   2747927.62546   2147874.67244  23963032.3054   23963032.4884      -2118.6714
        41.5004         26.0004
   3979984.55548   3113266.69145  22381510.5234   22381508.1724      -2326.4454
        48.2504         32.2504
  -3955644.98047  -2998241.23845  23457401.7664   23457399.8164       -831.6504
        45.5004         31.5004
  -5016987.00448  -3890085.39847  20625707.0314   20625702.9264       -503.8684
        50.7504         44.0004
   4238540.86748   3297660.48446  21928682.8524   21928678.4184       -996.2794
        49.7504         38.0004
  10507696.69547   8180983.93445  22605406.4694   22605407.2664      -2986.1584
        45.5004         34.0004
  -4922705.95346  -3811356.55943  24310415.7974   24310417.6054       3335.1494
        40.0004         23.2504
 -10946918.39547  -8509203.88745  23180884.6884   23180888.3444       3330.1694
        44.5004         30.0004
 15  7  6 19 57  0.0000000  0  9G11G01G13G15G17G28G30G24G06
  12030918.59846   9367647.88742  25038799.3674   25038797.1644      -3361.6794
        39.7504         16.2504
   2811956.12946   2197766.97744  23975215.9694   23975216.8834      -2134.2834
        41.2504         26.5004
   4050162.54348   3167950.75845  22394864.7894   22394863.1254      -2339.2664
        48.0004         33.0004
  -3930241.71147  -2978446.52345  23462235.7344   23462233.8554       -846.7764
        44.7504         31.5004
  -5001466.18448  -3877991.25847  20628660.4064   20628655.6884       -517.3614
        51.0004         44.5004
   4268514.89548   3321016.84846  21934386.9924   21934382.1604       -999.1344
        49.2504         37.2504
  10597579.39547   8251022.25845  22622510.4774   22622512.1414      -2996.0904
        46.2504         33.7504
  -5022653.11346  -3889237.40644  24291398.0234   24291397.9774       3331.5724
        40.5004         24.0004
 -11046685.64547  -8586944.46145  23161900.5234   23161903.6414       3325.5754
        44.5004         31.0004
 15  7  6 19 57 30.0000000  0  9G11G01G13G15G17G28G30G24G06
  12132010.78546   9446420.98042  25058036.9844   25058035.5944      -3369.7404
        37.5004         16.2504
   2876451.30546   2248022.92244  23987488.7894   23987489.9104      -2149.8394
        41.2504         25.5004
   4120721.96547   3222932.06345  22408291.9064   22408289.6454      -2351.9814
        47.5004         32.5004
  -3904385.97347  -2958299.24645  23467155.9694   23467154.1134       -861.8584
        45.0004         32.2504
  -4985541.90248  -3865582.72347  20631690.9844   20631686.6724       -530.8094
        51.5004         44.5004
   4298575.12548   3344440.36746  21940107.4844   21940102.7384      -1002.0084
        48.7504         37.0004
  10687758.69147   8321291.68445  22639671.2734   22639672.1764      -3005.9774
        44.5004         33.7504
  -5122490.62546  -3967032.82844  24272399.6564   24272399.6844       3327.9174
        40.7504         24.7504
 -11146311.80947  -8664575.12545  23142942.0944   23142945.0004       3320.8724
        44.5004         30.5004
 15  7  6 19 58  0.0000000  0  9G11G01G13G15G17G28G30G24G06
  12233341.92246   9525380.28542  25077319.1024   25077317.3954      -3377.7054
        38.7504         16.7504
   2941410.10547   2298640.12544  23999850.1254   23999851.2384      -2165.2934
        42.0004         26.5004
   4191659.30947   3278207.84045  22421791.3204   22421788.8954      -2364.5784
        47.7504         32.2504
  -3878080.68447  -2937801.66045  23472162.0004   23472159.7344       -876.8434
        45.7504         32.0004
  -4969216.82048  -3852861.87547  20634797.3134   20634792.7424       -544.1694
        50.7504         44.5004
   4328721.16048   3367930.75846  21945844.1334   21945839.7274      -1004.8684
        48.7504         37.0004
  10778231.92647   8391790.15645  22656887.9694   22656889.2114      -3015.7744
        44.7504         34.2504
  -5222217.14546  -4044741.77743  24253421.8204   24253421.9454       3324.2174
        39.5004         22.5004
 -11245794.95747  -8742094.33645  23124010.4064   23124013.5084       3316.1054
        43.7504         30.5004
 15  7  6 19 58 30.0000000  0  8G01G13G15G17G28G30G24G06
   3006830.06347   2349616.66444  24012298.6954   24012300.1684      -2180.6654
        42.0004         24.7504
   4262970.83648   3333775.18045  22435361.0164   22435359.0274      -2377.0514
        48.0004         31.7504
  -3851328.13347  -2916955.57445  23477252.7734   23477251.2344       -891.7524
        45.0004         31.2504
  -4952492.70348  -3839830.09447  20637980.2424   20637975.5314       -557.4714
        51.0004         44.5004
   4358952.79348   3391487.85246  21951596.9144   21951592.1844      -1007.7214
        49.0004         37.0004
  10868997.08247   8462516.10545  22674160.0634   22674161.2624      -3025.5054
        45.7504         34.2504
  -5321830.69946  -4122362.65643  24234466.1024   24234466.4414       3320.4524
        40.0004         22.2504
 -11345132.46147  -8819500.04745  23105107.3594   23105110.0594       3311.2504
        43.7504         30.5004
 15  7  6 19 59  0.0000000  0  8G01G13G15G17G28G30G24G06
   3072708.79347   2400950.69144  24024835.8914   24024836.8284      -2195.9584
        42.5004         25.0004
   4334653.10547   3389631.42245  22449001.9844   22449000.1054      -2389.4094
        47.7504         32.5004
  -3824130.37947  -2895762.57045  23482428.3594   23482426.2194       -906.5924
        44.5004         32.0004
  -4935371.64148  -3826489.00847  20641237.7974   20641233.9024       -570.7024
        50.7504         44.0004
   4389270.05948   3415111.67246  21957365.7734   21957361.5354      -1010.5764
        49.5004         37.0004
  10960052.16447   8533467.96945  22691486.7734   22691488.8444      -3035.1694
        45.0004         33.0004
  -5421329.37546  -4199894.05544  24215532.0394   24215532.0354       3316.6234
        41.0004         24.5004
 -11444321.75847  -8896790.27045  23086232.2584   23086234.9144       3306.3104
        44.5004         31.5004
 15  7  6 19 59 30.0000000  0  8G01G13G15G17G28G30G24G06
   3139045.26646   2452641.40644  24037459.3914   24037460.2464      -2211.2164
        41.7504         25.2504
   4406703.87948   3445774.81345  22462712.4534   22462710.6914      -2401.6924
        48.0004         32.0004
  -3796488.03547  -2874223.13345  23487688.2734   23487686.6454       -921.4114
        42.2504         32.0004
  -4917853.96948  -3812838.86347  20644571.5554   20644567.0704       -583.9224
        50.2504         43.5004
   4419674.53147   3438803.44546  21963151.8204   21963147.3674      -1013.4824
        47.0004         37.0004
  11051396.60947   8604645.30945  22708868.8834   22708871.1604      -3044.8154
        44.7504         33.5004
  -5520710.03946  -4277333.50044  24196619.5164   24196620.4224       3312.6894
        38.5004         26.0004
 -11543358.73047  -8973961.81245  23067385.4064   23067388.8164       3301.2324
        43.0004         31.2504
 15  7  6 20  0  0.0000000  0  8G01G13G15G17G28G30G24G06
   3205840.92646   2504689.92244  24050170.7424   24050170.9384      -2226.5224
        41.7504         25.5004
   4479123.63747   3502205.72345  22476493.9224   22476491.7934      -2413.9924
        47.7504         32.5004
  -3768399.75047  -2852336.20745  23493033.3204   23493031.8554       -936.2764
        44.0004         31.5004
  -4899937.67248  -3798878.10547  20647980.6804   20647976.3914       -597.2104
        50.5004         44.2504
   4450169.95748   3462566.09046  21968955.0944   21968950.3714      -1016.5144
        49.2504         36.7504
  11143032.31647   8676049.59445  22726307.7274   22726308.9844      -3054.5244
        43.7504         32.5004
  -5619966.91846  -4354676.46943  24177731.6954   24177733.0004       3308.5634
        40.2504         22.7504
 -11642236.98447  -9051009.67645  23048569.4694   23048572.7584       3295.9424
        42.7504         30.0004
 15  7  6 20  0 30.0000000  0  8G01G13G15G17G28G30G24G06
   3273094.66447   2557095.38344  24062967.7894   24062969.4734      -2241.7914
        42.5004         26.5004
   4551910.13748   3558922.40245  22490344.6644   22490342.6134      -2426.2174
        48.0004         32.2504
  -3739866.09047  -2830102.23445  23498462.8594   23498461.5824       -951.1224
        42.2504         31.2504
  -4881623.36748  -3784607.21947  20651466.3674   20651461.5514       -610.4774
        50.2504         43.5004
   4480757.82447   3486400.76646  21974776.2814   21974771.3954      -1019.5964
        46.7504         37.0004
  11234958.51247   8747680.23045  22743801.7274   22743801.9734      -3064.2074
        44.5004         32.2504
  -5719096.73446  -4431920.44543  24158867.5394   24158868.5434       3304.3274
        38.7504         22.7504
 -11740952.45347  -9127930.68745  23029785.6884   23029787.4534       3290.5164
        44.2504         31.0004
 15  7  6 20  1  0.0000000  0  8G01G13G15G17G28G30G24G06
   3340803.68047   2609855.60244  24075852.8834   24075853.7344      -2256.9674
        42.5004         26.0004
   4625059.82048   3615922.08245  22504264.8364   22504262.8524      -2438.3234
        48.0004         32.2504
  -3710889.74647  -2807523.31245  23503977.7974   23503975.5634       -965.8784
        42.2504         31.7504
  -4862913.16448  -3770027.83247  20655026.3834   20655022.1644       -623.6734
        50.5004         43.7504
   4511437.98847   3510307.37146  21980614.4064   21980609.5514      -1022.6724
        47.5004         37.2504
  11327172.98047   8819535.51645  22761348.8204   22761350.0514      -3073.8164
        43.7504         33.5004
  -5818097.59046  -4509063.89844  24140029.4304   24140029.4024       3300.0294
        40.0004         26.0004
 -11839502.82447  -9204723.05945  23011030.9774   23011033.6604       3285.0124
        42.7504         31.0004
 15  7  6 20  1 30.0000000  0  8G01G13G15G17G28G30G24G06
   3408963.79347   2662967.33643  24088824.1564   24088824.1844      -2272.0044
        42.2504         23.7504
   4698567.13348   3673200.43045  22518252.7114   22518250.9964      -2450.2444
        48.0004         32.2504
  -3681474.75847  -2784602.59045  23509574.5554   23509573.0784       -980.5004
        43.7504         32.2504
  -4843810.70348  -3755142.78547  20658661.3134   20658657.0274       -636.7494
        50.0004         44.0004
   4542208.78948   3534284.61346  21986469.5554   21986465.0824      -1025.6934
        48.0004         36.2504
  11419671.89547   8891612.43445  22778950.9454   22778952.0704      -3083.2974
        43.2504         32.7504
  -5916969.61746  -4586106.99644  24121214.4924   24121214.5124       3295.7344
        39.5004         25.0004
 -11937887.18447  -9281386.05945  22992309.5004   22992312.0554       3279.4794
        44.2504         31.5004
 15  7  6 20  2  0.0000000  0  8G01G13G15G17G28G30G24G06
   3477574.66846   2716430.30944  24101879.0554   24101880.6954      -2287.0294
        41.2504         24.5004
   4772431.00448   3730756.62145  22532309.0864   22532306.7194      -2462.1294
        48.5004         32.2504
  -3651621.17647  -2761340.09445  23515255.7664   23515253.8714       -995.1194
        44.5004         32.0004
  -4824315.83648  -3739951.97747  20662371.0004   20662366.4774       -649.8294
        50.7504         44.0004
   4573072.60248   3558334.32446  21992342.6174   21992338.1174      -1028.7944
        49.7504         36.5004
  11512455.44147   8963911.15245  22796606.4304   22796608.3164      -3092.7854
        43.2504         32.5004
  -6015708.73846  -4663046.52344  24102424.8204   24102425.1484       3291.3044
        40.7504         26.0004
 -12036100.76247  -9357916.00045  22973619.7664   22973622.1134       3273.7864
        43.5004         31.0004
 15  7  6 20  2 30.0000000  0  8G01G13G15G17G28G30G24G06
   3546631.87547   2770241.05544  24115020.7034   24115021.3164      -2301.9074
        42.5004         26.0004
   4846645.67248   3788586.15245  22546431.0164   22546429.2974      -2473.8224
        48.5004         32.2504
  -3621333.03547  -2737738.98045  23521019.3524   23521017.8754      -1009.6054
        43.7504         31.0004
  -4804432.49248  -3724458.45347  20666154.8754   20666150.4694       -662.7784
        50.2504         43.7504
   4604027.20348   3582454.77346  21998233.1174   21998228.7194      -1031.8204
        49.5004         36.5004
  11605519.52047   9036428.44545  22814316.4224   22814317.9344      -3102.1364
        43.5004         33.0004
  -6114314.98846  -4739882.49644  24083660.4224   24083661.1844       3286.8754
        39.2504         26.5004
 -12134142.85247  -9434312.30945  22954963.2734   22954965.3554       3268.0704
        43.0004         32.5004
 15  7  6 20  3  0.0000000  0  8G01G13G15G17G28G30G24G06
   3616132.00447   2824396.95744  24128246.5084   24128246.8834      -2316.6714
        43.0004         25.5004
   4921206.85548   3846685.70745  22560619.9614   22560617.7854      -2485.3734
        48.2504         31.2504
  -3590613.56247  -2713801.77345  23526865.6644   23526863.9224      -1023.9824
        45.0004         31.0004
  -4784163.38348  -3708664.34047  20670011.8134   20670007.9144       -675.6374
        50.2504         43.7504
   4635071.99648   3606645.50846  22004140.8444   22004136.3484      -1034.8264
        48.5004         37.2504
  11698861.41447   9109162.23045  22832078.8754   22832080.5904      -3111.3964
        43.0004         32.5004
  -6212787.10946  -4816613.95744  24064922.5554   24064922.6804       3282.4044
        40.5004         25.7504
 -12232011.53147  -9510573.48845  22936338.6094   22936341.3324       3262.2894
        43.0004         31.7504
 15  7  6 20  3 30.0000000  0  8G01G13G15G17G28G30G24G06
   3686075.22347   2878898.11344  24141556.7504   24141556.9104      -2331.4414
        42.0004         25.0004
   4996113.77748   3905054.66445  22574874.4064   22574872.3404      -2496.8974
        48.0004         30.5004
  -3559462.26647  -2689528.07045  23532792.8134   23532790.9804      -1038.3774
        44.0004         31.5004
  -4763507.75448  -3692569.03947  20673942.5554   20673938.2704       -688.5214
        50.2504         44.0004
   4666209.98848   3630908.85546  22010066.2274   22010061.6094      -1037.9334
        49.2504         36.5004
  11792481.63347   9182112.88345  22849895.2504   22849895.9494      -3120.6744
        43.7504         31.5004
  -6311120.07846  -4893236.99644  24046210.5314   24046210.4224       3277.7664
        40.5004         26.0004
 -12329701.54747  -9586695.44145  22917748.4844   22917751.4384       3256.3344
        43.0004         31.7504
 15  7  6 20  4  0.0000000  0  8G01G13G15G17G28G30G24G06
   3756459.19147   2933742.72343  24154949.8984   24154950.3524      -2346.1324
        42.2504         23.7504
   5071363.11748   3963690.42645  22589193.8834   22589191.6884      -2508.3114
        48.2504         31.0004
  -3527881.34847  -2664919.60545  23538802.8674   23538801.1254      -1052.6974
        44.5004         31.5004
  -4742467.59848  -3676174.10947  20677946.0394   20677941.9924       -701.3394
        50.0004         44.0004
   4697441.33248   3655244.94546  22016009.1254   22016004.6644      -1041.0454
        48.5004         36.2504
  11886378.28547   9255278.96145  22867762.4454   22867764.0124      -3129.8884
        44.2504         32.2504
  -6409312.25046  -4969750.35944  24027524.0314   24027525.0434       3273.0724
        41.0004         25.7504
 -12427210.11747  -9662675.98445  22899193.2194   22899196.1844       3250.2864
        43.0004         32.2504
 15  7  6 20  4 30.0000000  0  8G01G13G15G17G28G30G24G06
   3827280.09446   2988927.80144  24168426.3444   24168427.0124      -2360.6974
        41.5004         24.5004
   5146950.00847   4022589.22345  22603577.9064   22603575.5514      -2519.5634
        47.5004         31.0004
  -3495874.60547  -2639979.32045  23544893.5554   23544892.0164      -1066.8914
        44.5004         31.7504
  -4721045.94148  -3659481.90247  20682022.9144   20682018.4654       -714.0554
        50.0004         43.7504
   4728764.61748   3679652.68046  22021969.9774   22021965.5634      -1044.1104
        48.7504         36.5004
  11980548.03947   9328657.81345  22885682.8134   22885683.8954      -3138.9924
        45.0004         31.7504
  -6507362.59046  -5046153.14144  24008866.6724   24008866.4844       3268.3454
        41.0004         26.0004
 -12524535.85547  -9738514.09045  22880672.6564   22880675.1644       3244.1914
        44.0004         31.5004
 15  7  6 20  5  0.0000000  0  8G01G13G15G17G28G30G24G06
   3898532.54347   3044449.14844  24181985.5554   24181986.2384      -2375.0824
        42.0004         24.7504
   5222868.28547   4081746.24645  22618024.3054   22618022.5944      -2530.6094
        47.5004         30.2504
  -3463446.96147  -2614711.07445  23551064.5634   23551063.0314      -1080.9214
        42.7504         31.2504
  -4699247.64548  -3642496.21947  20686170.7344   20686166.6374       -726.6104
        50.0004         43.7504
   4760177.60548   3704130.30946  22027947.7424   22027943.2464      -1047.1004
        48.0004         36.7504
  12074986.05147   9402245.71545  22903653.4694   22903655.2344      -3147.9344
        45.2504         32.2504
  -6605272.13346  -5122446.24644  23990234.3204   23990235.1054       3263.6514
        41.0004         25.7504
 -12621678.81647  -9814209.73045  22862188.2664   22862189.2114       3238.0994
        44.7504         33.0004
 15  7  6 20  5 30.0000000  0  8G01G13G15G17G28G30G24G06
   3970216.56647   3100306.78143  24195626.8594   24195627.1484      -2389.4674
        42.0004         22.7504
   5299116.42247   4141160.29345  22632534.3834   22632532.3714      -2541.6054
        47.0004         30.0004
  -3430598.34047  -2589114.78545  23557315.1804   23557313.6844      -1094.9544
        42.0004         31.5004
  -4677071.94948  -3625216.45347  20690390.6724   20690386.1764       -739.1904
        50.7504         43.7504
   4791682.84447   3728679.83246  22033942.9844   22033938.4104      -1050.1754
        46.5004         36.5004
  12169692.84847   9476043.06345  22921675.9694   22921677.4494      -3156.8934
        45.2504         32.2504
  -6703036.26046  -5198626.04544  23971630.0554   23971631.5744       3258.8044
        39.5004         26.0004
 -12718633.80147  -9889758.93745  22843736.5314   22843739.3364       3231.8334
        44.0004         32.5004
 15  7  6 20  6  0.0000000  0  8G01G13G15G17G28G30G24G06
   4042331.08246   3156499.85243  24209349.4534   24209350.4384      -2403.8174
        41.5004         22.5004
   5375692.67647   4200830.02045  22647106.0944   22647104.1604      -2552.5424
        47.0004         30.0004
  -3397329.69947  -2563191.21145  23563645.9224   23563644.3914      -1108.9554
        42.2504         31.2504
  -4654519.35548  -3607642.99647  20694682.3524   20694677.9264       -751.7534
        50.0004         43.2504
   4823281.82847   3753302.39546  22039955.9064   22039951.4024      -1053.2994
        46.5004         36.5004
  12264667.77747   9550049.33245  22939749.8594   22939750.7894      -3165.8314
        46.7504         32.0004
  -6800651.49446  -5274689.79744  23953055.2664   23953055.8094       3253.8414
        40.0004         24.5004
 -12815396.71147  -9965158.43045  22825323.7194   22825326.1884       3225.4304
        44.5004         32.5004
 15  7  6 20  6 30.0000000  0  8G01G13G15G17G28G30G24G06
   4114870.63746   3213024.18443  24223153.0394   24223154.3634      -2417.9854
        41.7504         22.7504
   5452590.70347   4260750.46945  22661738.8984   22661737.4264      -2563.2684
        46.7504         30.5004
  -3363645.95747  -2536944.18045  23570056.2034   23570054.2934      -1122.7914
        43.2504         31.5004
  -4631594.58248  -3589779.53947  20699044.7344   20699040.5084       -764.1594
        50.7504         43.5004
   4854972.06347   3777996.06646  22045986.5164   22045982.0044      -1056.3414
        47.7504         36.0004
  12359905.93847   9624260.71945  22957872.9454   22957874.0434      -3174.6054
        45.7504         32.0004
  -6898118.34046  -5350637.94144  23934508.1644   23934507.9494       3248.8954
        41.0004         26.5004
 -12911967.66047 -10040408.35545  22806947.1724   22806949.2114       3219.0324
        45.5004         32.7504
 15  7  6 20  7  0.0000000  0  8G01G13G15G17G28G30G24G06
   4187835.68847   3269879.99643  24237038.2194   24237039.2234      -2432.1684
        42.0004         22.5004
   5529809.86347   4320921.15245  22676433.2424   22676431.7704      -2573.9724
        46.5004         30.5004
  -3329546.62546  -2510373.30545  23576544.8204   23576543.3984      -1136.6444
        41.7504         31.5004
  -4608296.96548  -3571625.55147  20703478.2974   20703473.8594       -776.5874
        50.7504         43.5004
   4886756.75047   3802763.33646  22052034.7504   22052030.6134      -1059.4904
        46.7504         36.5004
  12455408.20347   9698677.91045  22976046.4774   22976047.9414      -3183.4094
        46.2504         31.0004
  -6995432.19146  -5426466.87144  23915990.4304   23915990.4414       3243.7954
        41.2504         26.7504
 -13008341.02047 -10115504.32845  22788607.3594   22788609.8404       3212.4454
        45.2504         33.5004
 15  7  6 20  7 30.0000000  0  8G01G13G15G17G28G30G24G06
   4261221.93046   3327064.04343  24251002.9694   24251003.3674      -2446.2084
        41.5004         22.0004
   5607344.98047   4381338.02744  22691188.3914   22691186.5394      -2584.5044
        47.0004         29.7504
  -3295035.60547  -2483481.64145  23583111.9774   23583110.4574      -1150.3674
        43.5004         31.5004
  -4584629.78548  -3553183.59847  20707981.8834   20707977.3984       -788.9064
        50.5004         43.7504
   4918634.39548   3827603.01645  22058100.9774   22058096.5124      -1062.5884
        48.0004         35.7504
  12551170.90647   9773298.04345  22994269.6024   22994270.7544      -3192.0904
        46.0004         31.0004
  -7092592.47346  -5502176.14844  23897500.1334   23897500.9884       3238.6764
        40.7504         28.0004
 -13104515.70347 -10190445.48845  22770305.9064   22770307.7464       3205.8234
        45.7504         33.0004
 15  7  6 20  8  0.0000000  0  8G01G13G15G17G28G30G24G06
   4335028.19546   3384575.38743  24265047.1804   24265048.6524      -2460.2094
        41.2504         22.2504
   5685194.07447   4441999.58244  22706002.1254   22706000.7074      -2594.9704
        46.5004         28.7504
  -3260113.93447  -2456269.98445  23589757.4774   23589756.1024      -1164.0564
        44.5004         31.7504
  -4560593.82048  -3534454.27747  20712556.0394   20712551.2704       -801.1994
        50.5004         44.0004
   4950606.65247   3852516.44146  22064184.9534   22064180.6454      -1065.7424
        47.7504         36.0004
  12647193.39847   9848120.60245  23012542.5084   23012543.5044      -3200.7504
        45.7504         31.5004
  -7189595.57446  -5577762.92244  23879041.0084   23879041.5044       3233.4374
        38.7504         25.2504
 -13200487.56247 -10265228.59845  22752043.1334   22752045.2734       3199.0624
        44.7504         33.5004
 15  7  6 20  8 30.0000000  0  8G01G13G15G17G28G30G24G06
   4409253.77046   3442413.44143  24279172.5944   24279173.6954      -2474.1864
        41.2504         22.2504
   5763355.55947   4502904.53944  22720875.9304   22720874.4264      -2605.3834
        46.2504         29.2504
  -3224782.09447  -2428738.73045  23596481.2194   23596479.7424      -1177.7284
        45.2504         30.7504
  -4536189.03148  -3515437.55947  20717200.2194   20717195.3634       -813.4934
        51.0004         43.7504
   4982675.29748   3877504.96946  22070287.7114   22070283.0594      -1068.9554
        48.2504         36.0004
  12743475.34447   9923145.35945  23030863.9304   23030865.5084      -3209.3984
        45.5004         31.5004
  -7286437.46546  -5653224.07844  23860612.5634   23860613.1844       3228.0634
        41.0004         25.2504
 -13296252.14547 -10339850.18445  22733818.2114   22733821.1884       3192.1534
        45.0004         32.7504
 15  7  6 20  9  0.0000000  0  9G02G01G13G15G17G28G30G24G06
   -138566.02356    -86808.54753  25021087.1254   25021089.5434
        37.5004         19.0004
   4483895.38746   3500575.69143  24293377.0634   24293376.8754      -2488.0544
        41.7504         22.5004
   5841824.69947   4564049.23845  22735808.1564   22735806.1254      -2615.6384
        46.7504         30.0004
  -3189043.42247  -2400890.45345  23603281.7894   23603280.2074      -1191.2894
        45.2504         31.2504
  -4511418.00448  -3496135.46947  20721913.9774   20721909.3014       -825.7014
        50.5004         43.2504
   5014840.28148   3902568.56646  22076408.4694   22076404.0984      -1072.1664
        48.2504         36.0004
  12840014.09047   9998370.19945  23049234.8594   23049236.4264      -3217.9584
        46.0004         30.7504
  -7383117.13346  -5728558.85244  23842214.9844   23842215.3594       3222.6564
        40.5004         27.2504
 -13391807.35547 -10414308.62145  22715635.7274   22715637.3954       3185.1744
        46.0004         33.2504
 15  7  6 20  9 30.0000000  0  9G02G01G13G15G17G28G30G24G06
   -238124.86046   -164386.65843  25002142.7424   25002144.0204       3318.6284
        38.5004         19.0004
   4558949.47746   3559059.34443  24307659.3524   24307659.7584      -2501.8034
        40.5004         22.0004
   5920597.28547   4625430.39544  22750798.3754   22750796.2934      -2625.7534
        46.2504         29.5004
  -3152901.31647  -2372727.81645  23610159.5084   23610157.9884      -1204.7374
        44.5004         31.5004
  -4486283.80948  -3476550.37947  20726696.5394   20726692.2114       -837.8074
        49.7504         43.0004
   5047100.66848   3927706.50046  22082547.1804   22082542.7384      -1075.3464
        48.7504         36.0004
  12936806.58247  10073792.74645  23067654.4144   23067655.5124      -3226.4164
        45.5004         30.7504
  -7479632.89546  -5803765.87144  23823848.9614   23823849.4804       3217.1924
        39.5004         25.5004
 -13487151.42647 -10488602.54345  22697492.6954   22697493.9454       3178.1364
        46.2504         33.2504
 15  7  6 20 10  0.0000000  0  9G02G01G13G15G17G28G30G24G06
   -337762.97746   -242026.61343  24983181.9844   24983183.4804       3321.2714
        40.0004         18.5004
   4634409.69546   3617859.47743  24322018.3834   24322019.3054      -2515.3414
        41.0004         22.7504
   5999666.15647   4687042.40645  22765843.7504   22765843.1804      -2635.6294
        45.2504         30.0004
  -3116361.70747  -2344255.43045  23617112.3444   23617111.1804      -1217.9874
        45.0004         30.5004
  -4460792.17248  -3456686.77047  20731547.2664   20731542.9804       -849.7214
        49.7504         43.5004
   5079452.98848   3952916.07046  22088704.0314   22088699.7504      -1078.4114
        49.0004         36.0004
  13033846.97747  10149408.48845  23086119.8834   23086122.0944      -3234.6804
        44.5004         30.5004
  -7575986.91046  -5878846.86744  23805513.5004   23805513.2344       3211.8014
        40.0004         27.5004
 -13582285.33247 -10562732.71945  22679389.1024   22679390.5084       3171.1304
        46.0004         33.0004
 15  7  6 20 10 30.0000000  0  9G02G01G13G15G17G28G30G24G06
   -437477.33246   -319725.93743  24964206.7424   24964208.8244       3323.8124
        39.5004         19.5004
   4710274.28546   3676974.67243  24336455.0784   24336456.3324      -2528.8204
        40.0004         22.5004
   6079028.37947   4748883.00444  22780947.1094   22780945.2344      -2645.4074
        46.5004         29.2504
  -3079425.97347  -2315474.37945  23624141.1414   23624139.9964      -1231.1914
        44.5004         30.7504
  -4434944.19148  -3436545.49647  20736466.4614   20736461.9614       -861.5994
        50.0004         43.0004
   5111898.42648   3978198.18846  22094877.9224   22094873.4344      -1081.5154
        48.5004         36.0004
  13131134.04347  10225216.43845  23104633.4614   23104635.6604      -3242.9024
        45.5004         30.2504
  -7672175.83246  -5953799.21144  23787209.0084   23787209.1804       3206.2974
        41.5004         28.5004
 -13677205.59047 -10636696.39845  22661325.8054   22661327.5394       3164.0094
        45.2504         33.2504
 15  7  6 20 11  0.0000000  0  9G02G01G13G15G17G28G30G24G06
   -537266.48846   -397483.60943  24945216.3834   24945219.4884       3326.3054
        38.7504         19.7504
   4786540.26246   3736402.66843  24350968.0474   24350968.5474      -2542.1994
        41.0004         22.0004
   6158680.18447   4810949.24644  22796104.4064   22796102.7894      -2655.0604
        46.5004         29.5004
  -3042097.23447  -2286387.09045  23631244.9614   23631242.9884      -1244.2914
        45.5004         30.5004
  -4408741.91048  -3416128.13747  20741451.8674   20741447.5744       -873.4094
        50.0004         43.2504
   5144436.87947   4003552.80145  22101069.8134   22101065.3874      -1084.6154
        46.5004         35.7504
  13228665.37147  10301214.70744  23123192.8134   23123194.9144      -3251.0444
        44.7504         28.7504
  -7768197.90646  -6028621.54744  23768936.7584   23768936.5864       3200.7364
        41.2504         26.5004
 -13771909.73047 -10710491.67645  22643304.0004   22643305.9574       3156.8054
        46.0004         33.2504
 15  7  6 20 11 30.0000000  0  9G02G01G13G15G17G28G30G24G06
   -637124.88746   -475295.12543  24926214.8444   24926216.7814       3328.6134
        39.2504         19.7504
   4863208.74646   3796144.28943  24365557.8834   24365558.7934      -2555.6164
        41.0004         22.0004
   6238621.92647   4873241.42645  22811316.8204   22811315.2274      -2664.7254
        46.2504         30.0004
  -3004374.06247  -2256992.45745  23638423.4614   23638422.2234      -1257.4394
        45.5004         30.5004
  -4382183.79748  -3395433.50847  20746506.5394   20746501.7464       -885.2704
        48.7504         43.2504
   5177072.24248   4028982.91846  22107280.2974   22107275.5784      -1087.8454
        49.0004         36.0004
  13326442.62547  10377404.59445  23141799.7274   23141801.9024      -3259.2424
        45.2504         30.0004
  -7864047.05146  -6103309.13744  23750697.6174   23750697.2034       3194.9714
        40.0004         27.7504
 -13866391.27347 -10784113.53945  22625324.3444   22625326.3484       3149.3854
        44.5004         34.2504
 15  7  6 20 12  0.0000000  0  9G02G01G13G15G17G28G30G24G06
   -737050.60546   -553159.14143  24907199.0164   24907201.3954       3330.8574
        39.7504         19.2504
   4940277.02046   3856197.44143  24380223.0314   24380223.8014      -2568.9424
        40.0004         22.5004
   6318850.23047   4935756.89545  22826583.5164   22826581.9024      -2674.2774
        46.0004         30.2504
  -2966259.19947  -2227292.60545  23645676.0164   23645674.9734      -1270.4954
        45.0004         31.5004
  -4355272.00848  -3374463.29347  20751627.2034   20751623.0554       -897.0604
        49.5004         42.7504
   5209804.59848   4054488.61746  22113508.8204   22113504.8714      -1091.0794
        49.0004         36.0004
  13424463.56347  10453784.37544  23160452.6254   23160454.6454      -3267.3654
        43.7504         29.7504
  -7959721.84446  -6177860.85944  23732491.0004   23732490.4494       3189.1604
        40.7504         27.5004
 -13960647.66447 -10857559.91045  22607388.9064   22607390.1764       3141.8804
        45.2504         33.5004
 15  7  6 20 12 30.0000000  0  9G02G01G13G15G17G28G30G24G06
   -837040.51646   -631073.18443  24888171.7664   24888173.4534       3332.9974
        39.5004         21.0004
   5017743.38746   3916560.77043  24394964.8754   24394965.6884      -2582.2124
        40.2504         22.5004
   6399361.86747   4998493.12545  22841904.6024   22841903.3594      -2683.7214
        46.2504         30.0004
  -2927753.74647  -2197288.39845  23653003.6024   23653002.1094      -1283.5154
        44.7504         31.5004
  -4328007.23048  -3353218.01647  20756815.4614   20756811.2664       -908.8264
        48.7504         43.0004
   5242635.60548   4080071.17645  22119756.6884   22119752.0164      -1094.3674
        49.0004         35.5004
  13522727.01247  10530353.11744  23179151.6724   23179153.8594      -3275.4484
        44.5004         29.2504
  -8055218.67246  -6252273.93744  23714318.3284   23714318.5554       3183.2284
        40.5004         28.5004
 -14054675.18747 -10930827.98445  22589495.4454   22589497.2424       3134.2514
        44.5004         34.0004
 15  7  6 20 13  0.0000000  0  9G02G01G13G15G17G28G30G24G06
   -937090.52746   -709034.07443  24869133.6024   24869134.5434       3335.0004
        40.5004         20.0004
   5095607.45346   3977234.03943  24409781.0394   24409782.1724      -2595.4694
        39.7504         22.0004
   6480155.67647   5061449.24245  22857279.6954   22857278.1564      -2693.1274
        46.2504         30.0004
  -2888858.13747  -2166980.18745  23660405.2584   23660404.0944      -1296.5204
        44.5004         30.7504
  -4300389.33248  -3331697.58247  20762071.2114   20762066.4104       -920.5974
        49.2504         43.5004
   5275567.56348   4105732.40645  22126023.5784   22126019.0314      -1097.7324
        48.5004         35.5004
  13621233.29347  10607111.08244  23197896.9144   23197898.8364      -3283.5434
        44.0004         29.0004
  -8150532.98046  -6326544.77044  23696181.1804   23696180.5554       3177.1444
        41.5004         28.5004
 -14148468.73447 -11003913.72745  22571646.7344   22571648.7194       3126.4524
        44.2504         33.5004
 15  7  6 20 13 30.0000000  0  9G02G01G13G15G17G28G30G24G06
  -1037201.50046   -787042.53543  24850082.2114   24850083.0824       3337.0324
        40.0004         19.7504
   5173863.96146   4038213.05143  24424673.3284   24424674.4384      -2608.5504
        40.7504         23.0004
   6561225.50847   5124620.44944  22872706.5634   22872704.9614      -2702.3284
        46.2504         29.7504
  -2849577.73847  -2136372.12545  23667880.2584   23667878.9264      -1309.3474
        45.2504         31.5004
  -4272423.15248  -3309905.75447  20767392.9774   20767388.2624       -932.2064
        48.7504         43.2504
   5308598.18848   4131470.51245  22132309.0164   22132304.4344      -1101.0214
        48.5004         35.7504
  13719977.45747  10684054.44945  23216686.7194   23216689.6684      -3291.4724
        43.5004         30.0004
  -8245665.68746  -6400674.09844  23678077.3984   23678077.6764       3171.0904
        41.2504         27.2504
 -14242028.32847 -11076817.18445  22553842.9224   22553844.9024       3118.6534
        43.5004         34.0004
 15  7  6 20 14  0.0000000  0  9G02G01G13G15G17G28G30G24G06
  -1137367.48046   -865093.71143  24831020.7194   24831022.6604       3338.8664
        39.7504         20.0004
   5252514.00446   4099498.74643  24439640.2734   24439640.9264      -2621.6684
        40.7504         22.5004
   6642571.68447   5188006.98844  22888186.1724   22888184.9104      -2711.5394
        46.2504         29.7504
  -2809910.96147  -2105463.00045  23675428.9144   23675427.4384      -1322.2264
        45.5004         30.7504
  -4244106.42648  -3287840.77347  20772781.5784   20772777.2504       -943.8914
        48.2504         43.2504
   5341731.63348   4157288.74245  22138614.0004   22138609.8794      -1104.4484
        49.0004         35.5004
  13818961.30547  10761184.53945  23235523.2504   23235525.6294      -3299.4624
        45.0004         30.0004
  -8340610.41046  -6474656.93744  23660010.3054   23660010.4264       3164.8244
        41.5004         28.2504
 -14335347.36747 -11149533.18745  22536084.8524   22536086.4804       3110.6354
        45.0004         34.5004
 15  7  6 20 14 30.0000000  0  9G02G01G13G15G17G28G30G24G06
  -1237589.81246   -943188.89843  24811949.3984   24811951.0514       3340.7444
        40.5004         20.0004
   5331551.46946   4161086.32043  24454681.1414   24454681.4804      -2634.5824
        38.2504         21.7504
   6724187.52747   5251603.65244  22903717.3914   22903715.3874      -2720.5284
        45.5004         29.7504
  -2769863.83247  -2074257.49245  23683049.2664   23683047.9844      -1334.9044
        45.0004         30.7504
  -4215444.69548  -3265506.96147  20778235.7274   20778230.9964       -955.3914
        50.0004         43.0004
   5374964.98848   4183184.82445  22144937.9844   22144933.6484      -1107.7794
        48.5004         35.0004
  13918179.28947  10838497.06345  23254403.8364   23254406.5164      -3307.2664
        44.0004         30.2504
  -8435368.55946  -6548494.39544  23641978.4144   23641978.3594       3158.6054
        40.2504         28.7504
 -14428426.56247 -11222062.31645  22518372.6334   22518373.9924       3102.6404
        44.7504         34.5004
 15  7  6 20 15  0.0000000  0  9G02G01G13G15G17G28G30G24G06
  -1337866.42246  -1021326.38343  24792867.2274   24792868.3244       3342.5544
        40.0004         20.2504
   5410973.77346   4222973.78543  24469794.5944   24469795.1294      -2647.4104
        41.2504         22.5004
   6806069.46147   5315407.66444  22919298.9304   22919297.5234      -2729.3984
        45.5004         29.2504
  -2729438.94547  -2042757.62545  23690742.7114   23690740.7234      -1347.4964
        45.0004         30.7504
  -4186440.18748  -3242906.04347  20783755.0554   20783750.6764       -966.8174
        48.7504         43.5004
   5408298.22748   4209158.73045  22151281.4534   22151276.6684      -1111.1084
        48.2504         35.5004
  14017629.25847  10915990.38345  23273328.8524   23273331.8524      -3314.9994
        44.7504         30.0004
  -8529937.48846  -6622184.41044  23623982.4454   23623982.2504       3152.2984
        40.0004         29.0004
 -14521263.15647 -11294402.40245  22500706.2584   22500707.7114       3094.5534
        43.5004         34.5004
 15  7  6 20 15 30.0000000  0  9G02G01G13G15G17G28G30G24G06
  -1438194.28146  -1099503.80543  24773774.6954   24773776.7234       3344.2624
        39.0004         19.2504
   5490779.61346   4285160.10543  24484980.3754   24484981.7544      -2660.1954
        40.0004         22.2504
   6888214.92647   5379417.02045  22934930.4304   22934929.2194      -2738.1824
        46.0004         30.2504
  -2688637.23447  -2010964.14145  23698507.0704   23698505.0434      -1360.0574
        44.7504         31.5004
  -4157093.04748  -3220038.15247  20789339.5944   20789335.0864       -978.2384
        49.2504         43.2504
   5441733.49648   4235212.14845  22157643.4614   22157639.6414      -1114.5094
        49.2504         35.0004
  14117310.62547  10993663.98445  23292297.7114   23292299.8204      -3322.7124
        45.0004         30.2504
  -8624314.03547  -6695724.52344  23606022.6644   23606022.8674       3145.8854
        42.0004         28.2504
 -14613852.96947 -11366550.19145  22483086.6414   22483088.0164       3086.3274
        44.7504         34.7504
 15  7  6 20 16  0.0000000  0  9G02G01G13G15G17G28G30G24G06
  -1538571.15246  -1177719.36743  24754674.0554   24754675.3674       3345.8964
        39.7504         21.2504
   5570966.13746   4347643.08243  24500239.6644   24500241.2774      -2672.8844
        37.7504         22.2504
   6970620.43447   5443629.00444  22950612.3134   22950610.3554      -2746.8504
        45.0004         29.7504
  -2647461.34847  -1978879.08245  23706342.2894   23706340.7664      -1372.5304
        45.5004         30.5004
  -4127405.82048  -3196905.25047  20794988.7114   20794984.7624       -989.5744
        49.7504         43.2504
   5475270.51648   4261344.85245  22164025.9144   22164021.4064      -1117.9014
        48.7504         35.5004
  14217220.92247  11071515.98044  23311309.5004   23311312.3094      -3330.3434
        44.0004         29.2504
  -8718496.03946  -6769113.04344  23588100.6024   23588100.8984       3139.4004
        41.5004         29.0004
 -14706193.46147 -11438503.70345  22465515.2194   22465516.5124       3078.0164
        45.0004         34.7504
 15  7  6 20 16 30.0000000  0  9G02G01G13G15G17G28G30G24G06
  -1638992.59846  -1255969.69143  24735564.3054   24735565.7894       3347.3824
        39.5004         19.7504
   5651533.24246   4410422.54743  24515571.2974   24515572.3134      -2685.5704
        41.0004         22.7504
   7053285.06347   5508042.91044  22966342.8134   22966341.3674      -2755.4884
        45.5004         29.7504
  -2605911.39547  -1946502.55945  23714248.2194   23714247.0394      -1384.9984
        44.7504         30.2504
  -4097377.52748  -3173506.57847  20800703.1414   20800698.3594      -1000.9434
        49.7504         43.2504
   5508912.42248   4287559.27745  22170427.3594   22170422.9264      -1121.3974
        48.7504         35.2504
  14317360.80547  11149546.87145  23330366.2894   23330369.0944      -3337.9964
        44.5004         30.0004
  -8812478.87147  -6842346.36344  23570216.0944   23570216.3634       3132.7614
        42.2504         29.0004
 -14798279.18047 -11510258.69145  22447991.4774   22447993.1174       3069.5244
        44.7504         34.7504
 15  7  6 20 17  0.0000000  0  9G02G01G13G15G17G28G30G24G06
  -1739458.30546  -1334254.51643  24716446.6414   24716447.3634       3348.8574
        40.2504         20.5004
   5732475.96946   4473494.75843  24530973.9924   24530975.1094      -2698.0914
        39.0004         22.2504
   7136203.00447   5572654.18445  22982121.7814   22982120.3364      -2763.9314
        46.0004         31.0004
  -2563992.25447  -1913838.33645  23722225.2274   23722224.2544      -1397.3054
        44.5004         30.7504
  -4067012.78948  -3149845.74247  20806481.2584   20806476.8164      -1012.1584
        49.0004         42.7504
   5542657.46948   4313854.08645  22176849.3364   22176844.7894      -1124.8354
        48.5004         35.0004
  14417725.72347  11227753.10544  23349464.6884   23349467.7774      -3345.4974
        44.5004         29.7504
  -8906262.36346  -6915424.35544  23552369.7734   23552370.3094       3126.1164
        40.5004         28.7504
 -14890109.77347 -11581814.89145  22430516.8134   22430518.2464       3061.0204
        43.0004         35.0004
 15  7  6 20 17 30.0000000  0  9G02G01G13G15G17G28G30G24G06
  -1839966.00046  -1412572.02043  24697320.3834   24697320.9804       3350.2574
        40.5004         21.5004
   5813792.15646   4536857.93843  24546448.7974   24546449.4414      -2710.5404
        39.0004         22.0004
   7219371.20347   5637460.48044  22997947.6884   22997946.5164      -2772.2734
        45.5004         28.2504
  -2521705.86347  -1880887.95345  23730272.2034   23730270.9184      -1409.5464
        45.0004         30.5004
  -4036312.90248  -3125923.75047  20812323.2344   20812318.7664      -1023.3304
        49.0004         43.0004
   5576506.24648   4340229.71945  22183289.9924   22183286.1484      -1128.2934
        48.2504         35.5004
  14518314.21547  11306133.56345  23368606.6094   23368609.6334      -3352.9504
        45.0004         30.0004
  -8999843.64847  -6988344.77344  23534561.5394   23534561.9694       3119.3764
        42.0004         29.2504
 -14981681.88347 -11653169.65245  22413091.0554   22413092.4304       3052.4044
        45.7504         35.0004
 15  7  6 20 18  0.0000000  0  9G02G01G13G15G17G28G30G24G06
  -1940514.50446  -1490921.28943  24678187.1024   24678187.2894       3351.6174
        41.0004         22.2504
   5895478.67246   4600509.77043  24561992.1954   24561993.8954      -2722.8844
        39.2504         22.2504
   7302785.69547   5702458.69544  23013820.8914   23013819.9964      -2780.4834
        45.0004         28.5004
  -2479055.23447  -1847653.74645  23738388.5474   23738387.4454      -1421.6884
        44.2504         30.5004
  -4005280.10248  -3101742.35247  20818228.4064   20818223.8914      -1034.4274
        48.5004         43.5004
   5610459.04748   4366686.41445  22189751.2584   22189747.3594      -1131.7604
        48.2504         34.7504
  14619123.58647  11384686.12544  23387790.9614   23387793.3164      -3360.3124
        43.7504         28.5004
  -9093220.94147  -7061106.23444  23516792.5634   23516792.3754       3112.5764
        42.2504         29.5004
 -15072993.26647 -11724321.25445  22395714.5314   22395716.3634       3043.7134
        44.7504         35.5004
 15  7  6 20 18 30.0000000  0  9G02G01G13G15G17G28G30G24G06
  -2041101.75446  -1569300.79343  24659044.5164   24659046.2854       3352.9084
        38.7504         21.0004
   5977532.54346   4664447.80143  24577606.6174   24577607.7344      -2735.1294
        40.0004         22.5004
   7386442.71147   5767645.87944  23029741.0314   23029738.9384      -2788.5674
        45.7504         28.5004
  -2436043.04347  -1814137.82045  23746573.7974   23746572.3484      -1433.7404
        44.5004         30.5004
  -3973916.82048  -3077303.43747  20824197.0474   20824192.4144      -1045.4434
        49.5004         43.0004
   5644515.74648   4393224.06645  22196231.9064   22196228.1454      -1135.2234
        48.7504         35.0004
  14720151.50447  11463408.98044  23407015.2504   23407018.2344      -3367.5974
        44.2504         28.5004
  -9186391.93047  -7133706.94944  23499063.1174   23499062.4774       3105.7004
        42.0004         29.7504
 -15164041.38747 -11795267.71546  22378389.0164   22378390.2344       3034.9374
        45.0004         36.2504
 15  7  6 20 19  0.0000000  0  9G02G01G13G15G17G28G30G24G06
  -2141722.39846  -1647706.37143  24639898.0234   24639898.6414       3354.0214
        41.2504         22.0004
   6059954.19546   4728672.40643  24593292.0554   24593292.7344      -2747.3884
        40.5004         22.7504
   7470341.89547   5833021.75844  23045706.5314   23045704.9144      -2796.6394
        44.7504         28.0004
  -2392669.28947  -1780340.13345  23754828.2424   23754826.2384      -1445.7924
        45.7504         30.7504
  -3942221.91448  -3052606.10547  20830227.9534   20830223.6254      -1056.4974
        48.0004         43.2504
   5678680.21547   4419845.69945  22202733.2114   22202729.0904      -1138.8164
        47.0004         35.0004
  14821399.03547  11542302.96544  23426282.0784   23426284.5594      -3374.9184
        43.7504         28.7504
  -9279351.72347  -7206143.10244  23481372.6804   23481372.9024       3098.6604
        42.5004         29.7504
 -15254820.26247 -11866004.37546  22361114.0084   22361115.7384       3025.9634
        46.0004         36.2504
 15  7  6 20 19 30.0000000  0  9G02G01G13G15G17G28G30G24G06
  -2242373.79346  -1726135.84443  24620743.4614   24620745.0434       3355.0464
        40.7504         22.2504
   6142741.53546   4793181.95743  24609045.1334   24609046.1684      -2759.5784
        40.5004         21.2504
   7554480.25847   5898584.02044  23061717.2894   23061715.6134      -2804.6124
        45.2504         28.7504
  -2348935.25447  -1746261.71545  23763149.8134   23763148.5514      -1457.8014
        44.5004         31.2504
  -3910196.86748  -3027651.52347  20836321.9384   20836317.8404      -1067.5024
        48.2504         43.0004
   5712953.16447   4446551.85245  22209255.7344   22209251.2274      -1142.4324
        47.7504         35.0004
  14922864.46547  11621366.76644  23445590.4144   23445592.8954      -3382.1814
        43.2504         28.2504
  -9372097.19146  -7278412.24244  23463724.3834   23463723.8754       3091.5164
        41.7504         29.5004
 -15345326.72747 -11936528.76646  22343891.3284   22343892.1804       3016.8824
        46.0004         36.0004
 15  7  6 20 20  0.0000000  0  9G02G01G13G15G17G28G30G24G06
  -2343058.09046  -1804590.94943  24601584.5084   24601585.7624       3356.1434
        40.2504         22.0004
   6225887.54746   4857970.98843  24624866.7194   24624868.8524      -2771.5344
        38.5004         22.0004
   7638850.28547   5964326.80144  23077772.0084   23077771.3834      -2812.3344
        44.5004         28.0004
  -2304848.12547  -1711908.16445  23771539.7194   23771538.3444      -1469.5714
        44.7504         31.5004
  -3877847.56647  -3002444.28547  20842477.9844   20842473.7854      -1078.3104
        46.5004         42.7504
   5747331.03947   4473339.77345  22215797.2424   22215792.9574      -1145.9294
        45.2504         35.5004
  15024541.60947  11700595.48444  23464939.5164   23464942.3364      -3389.2384
        44.2504         28.0004
  -9464630.52046  -7350516.08244  23446115.8754   23446115.3634       3084.4444
        41.2504         28.5004
 -15435562.11747 -12006841.93745  22326719.7114   22326720.9064       3007.8464
        44.7504         35.5004
 15  7  6 20 20 30.0000000  0  9G02G01G13G15G17G28G30G24G06
  -2443769.13346  -1883066.90643  24582418.8134   24582420.1644       3357.0354
        39.5004         21.7504
   6309393.63346   4923040.65243  24640758.4454   24640760.0474      -2783.5364
        39.2504         20.7504
   7723452.32447   6030250.35244  23093872.1024   23093870.4384      -2820.0684
        44.2504         28.2504
  -2260406.30547  -1677278.22745  23779995.8914   23779995.1804      -1481.3944
        45.0004         30.7504
  -3845171.85248  -2976982.69947  20848695.8984   20848691.7704      -1089.1904
        49.0004         42.5004
   5781818.02748   4500212.71545  22222360.3834   22222355.9884      -1149.5664
        48.7504         35.7504
  15126432.23447  11779990.58244  23484328.8674   23484331.1684      -3396.3544
        44.5004         29.2504
  -9556945.05947  -7422449.43744  23428548.9064   23428548.5394       3077.1514
        43.0004         29.5004
 -15525519.71947 -12076938.65245  22309601.2894   22309602.9144       2998.5874
        44.5004         35.0004
 15  7  6 20 21  0.0000000  0  9G02G01G13G15G17G28G30G24G06
  -2544503.53546  -1961561.04343  24563250.7034   24563251.1954       3357.8134
        40.7504         22.5004
   6393258.32846   4988389.66843  24656717.8444   24656718.6214      -2795.4904
        40.7504         21.7504
   7808284.02347   6096352.87544  23110014.9384   23110013.5784      -2827.7234
        44.2504         27.5004
  -2215611.28947  -1642373.08245  23788520.3444   23788519.2154      -1493.1674
        44.7504         31.2504
  -3812170.91848  -2951267.69547  20854975.9774   20854971.6724      -1100.0314
        48.5004         42.5004
   5816415.76647   4527171.96545  22228943.8834   22228939.3054      -1153.2584
        47.0004         35.2504
  15228535.54347  11859551.37944  23503758.7274   23503761.4804      -3403.4444
        43.0004         29.0004
  -9649037.59846  -7494209.80544  23411024.3204   23411024.0784       3069.7514
        41.2504         29.5004
 -15615195.52747 -12146815.78945  22292536.3284   22292537.9184       2989.1944
        45.0004         35.5004
 15  7  6 20 21 30.0000000  0  9G02G01G13G15G17G28G30G24G06
  -2645259.96546  -2040072.36743  24544076.7734   24544078.3324       3358.5484
        37.5004         21.5004
   6477478.23446   5054015.51643  24672744.1414   24672745.0554      -2807.3304
        39.5004         21.5004
   7893341.62147   6162631.41844  23126200.4614   23126199.6294      -2835.2534
        44.0004         28.2504
  -2170466.16047  -1607195.11745  23797111.4064   23797110.2034      -1504.8384
        45.0004         30.0004
  -3778847.31247  -2925301.25447  20861317.2814   20861312.8484      -1110.7874
        47.0004         42.0004
   5851124.38347   4554217.60545  22235548.7734   22235544.5784      -1156.9544
        45.2504         35.0004
  15330848.78547  11939275.78944  23523227.8364   23523231.0664      -3410.4414
        42.0004         28.0004
  -9740906.01647  -7565795.53144  23393541.9924   23393542.2274       3062.2814
        42.5004         29.2504
 -15704587.29747 -12216471.59845  22275525.9774   22275526.9614       2979.7264
        45.2504         35.7504
 15  7  6 20 22  0.0000000  0  9G02G01G13G15G17G28G30G24G06
  -2746038.22746  -2118600.65243  24524900.2664   24524900.4734       3359.2754
        40.5004         22.5004
   6562048.62146   5119914.46943  24688837.4924   24688838.3634      -2819.0134
        39.7504         22.5004
   7978619.44547   6229081.55944  23142429.3914   23142427.5044      -2842.5944
        44.0004         27.5004
  -2124975.68447  -1571748.05945  23805767.9304   23805766.8954      -1516.3494
        45.5004         30.7504
  -3745204.76647  -2899086.29747  20867719.5084   20867714.7734      -1121.4184
        47.2504         42.5004
   5885942.01247   4581348.16845  22242174.3674   22242170.3444      -1160.5884
        45.5004         34.7504
  15433367.75847  12019160.53144  23542736.7894   23542739.3674      -3417.2994
        43.5004         27.0004
  -9832550.05547  -7637206.42245  23376102.4614   23376102.4774       3054.8014
        42.0004         30.5004
 -15793694.36347 -12285905.55545  22258569.3054   22258570.4264       2970.2364
        44.7504         35.5004
 15  7  6 20 22 30.0000000  0  9G02G01G13G15G17G28G30G24G06
  -2846832.43746  -2197141.39843  24505718.8284   24505719.2584       3359.8074
        41.0004         21.7504
   6646970.28146   5186087.12943  24704996.7894   24704998.0704      -2830.7224
        40.2504         22.2504
   8064117.20347   6295703.07844  23158698.5864   23158697.3914      -2849.9254
        44.2504         27.5004
  -2079139.03947  -1536031.24645  23814490.9224   23814489.1994      -1527.8884
        45.7504         31.0004
  -3711241.69148  -2872621.56247  20874182.0704   20874177.5554      -1132.1024
        49.5004         43.0004
   5920872.82847   4608566.94945  22248821.3674   22248817.2194      -1164.3614
        47.7504         34.7504
  15536093.83247  12099206.60244  23562284.6644   23562288.3324      -3424.2024
        44.0004         27.2504
  -9923964.13746  -7708438.11745  23358707.1254   23358706.9844       3047.1364
        41.5004         30.0004
 -15882510.46947 -12355112.79746  22241667.9774   22241669.5044       2960.5374
        45.0004         36.0004
 15  7  6 20 23  0.0000000  0  9G02G01G13G15G17G28G30G24G06
  -2947642.29746  -2275694.32443  24486535.3524   24486535.4304       3360.3294
        40.0004         22.0004
   6732238.90646   5252530.13343  24721223.2274   24721224.6454      -2842.2874
        40.7504         21.2504
   8149829.89847   6362492.07844  23175009.1724   23175008.3204      -2857.0904
        43.7504         27.2504
  -2032960.34447  -1500047.89845  23823278.1484   23823276.8714      -1539.2904
        45.2504         31.2504
  -3676961.02748  -2845909.36747  20880705.8054   20880701.4774      -1142.6894
        49.0004         42.5004
   5955915.76648   4635873.10245  22255489.7894   22255485.9924      -1168.0984
        48.5004         34.5004
  15639023.35547  12179411.18444  23581872.5554   23581875.2974      -3430.9844
        43.0004         27.0004
 -10015147.00047  -7779489.63344  23341355.7504   23341355.3134       3039.4294
        42.0004         29.5004
 -15971034.39847 -12424092.35946  22224822.2344   22224823.3444       2950.7984
        45.0004         36.0004
 15  7  6 20 23 30.0000000  0  9G02G01G13G15G17G28G30G24G06
  -3048462.51646  -2354255.31643  24467349.1804   24467350.1024       3360.6744
        39.7504         22.5004
   6817855.00846   5319243.92643  24737516.2584   24737516.1054      -2853.8704
        41.0004         21.7504
   8235757.39147   6429448.45744  23191360.5234   23191359.7734      -2864.2504
        44.2504         26.2504
  -1986439.18047  -1463797.70345  23832130.5084   23832130.0044      -1550.7054
        45.5004         31.2504
  -3642362.53548  -2818949.50847  20887289.4774   20887285.1724      -1153.2834
        48.2504         42.5004
   5991074.24647   4663269.27345  22262180.4844   22262176.3404      -1171.9494
        46.7504         35.0004
  15742157.30147  12259775.11744  23601497.9454   23601501.2114      -3437.7984
        42.2504         25.7504
 -10106093.84047  -7850357.25044  23324048.7344   23324048.7664       3031.5614
        42.5004         29.7504
 -16059260.19147 -12492839.60946  22208033.6094   22208034.8444       2940.8604
        44.5004         36.2504
 15  7  6 20 24  0.0000000  0  9G02G01G13G15G17G28G30G24G06
  -3149296.26246  -2432826.84043  24448161.1484   24448162.4184       3361.1254
        39.5004         22.0004
   6903810.28146   5386222.02343  24753871.4614   24753873.3444      -2865.1764
        40.0004         22.0004
   8321890.44547   6496565.01244  23207751.1174   23207750.5314      -2871.1024
        43.5004         25.2504
  -1939583.64847  -1427286.94545  23841047.2664   23841046.1954      -1561.8514
        45.0004         30.5004
  -3607453.59447  -2791747.73046  20893932.3984   20893927.6294      -1163.6314
        47.5004         41.5004
   6026343.18847   4690751.52345  22268891.6644   22268887.8054      -1175.6314
        45.5004         34.5004
  15845487.99247  12340292.34044  23621161.1804   23621165.3054      -3444.3564
        43.5004         25.5004
 -10196807.49247  -7921043.15245  23306786.3754   23306786.0164       3023.7884
        42.0004         30.7504
 -16147190.65647 -12561356.74246  22191300.8674   22191301.6214       2931.0154
        45.5004         36.0004
 15  7  6 20 24 30.0000000  0  9G02G01G13G15G17G28G30G24G06
  -3250138.83646  -2511405.26643  24428971.2974   24428972.0124       3361.4194
        39.2504         22.5004
   6990104.57446   5453464.28543  24770293.3134   24770294.4804      -2876.4764
        40.2504         22.0004
   8408227.93047   6563840.85544  23224181.0944   23224180.2504      -2877.9164
        43.2504         27.0004
  -1892393.67647  -1390515.60945  23850027.0864   23850025.9734      -1572.9994
        45.2504         31.0004
  -3572233.21948  -2764303.28547  20900634.2274   20900630.0314      -1174.0124
        48.2504         42.2504
   6061725.70347   4718322.27045  22275624.8914   22275621.0474      -1179.4174
        45.5004         34.7504
  15949015.94947  12420963.21144  23640862.9304   23640865.4454      -3450.9324
        43.0004         25.0004
 -10287283.09847  -7991543.57844  23289568.6954   23289569.1334       3015.8544
        42.0004         29.2504
 -16234820.50047 -12629639.64546  22174625.1884   22174626.4804       2920.9954
        44.5004         36.0004
 15  7  6 20 25  0.0000000  0  9G02G01G13G15G17G28G30G24G06
  -3350985.78146  -2589987.07043  24409780.1094   24409781.0204       3361.5654
        40.7504         22.7504
   7076737.36746   5520970.29743  24786779.2194   24786780.6484      -2887.7604
        38.5004         20.2504
   8494769.26647   6631275.53544  23240649.6644   23240648.1604      -2884.7114
        43.7504         26.5004
  -1844869.73447  -1353484.03145  23859071.0784   23859069.3444      -1584.1314
        45.7504         30.0004
  -3536701.57047  -2736616.29347  20907395.9224   20907391.6214      -1184.3884
        47.5004         42.2504
   6097224.48047   4745983.60545  22282379.6954   22282375.8874      -1183.2934
        45.2504         35.2504
  16052741.11347  12501787.82044  23660601.2034   23660603.4304      -3457.5054
        43.0004         26.5004
 -10377515.95347  -8061854.84845  23272399.2974   23272398.7584       3007.7624
        43.0004         30.0004
 -16322144.72747 -12697684.37946  22158008.3834   22158008.9844       2910.8084
        45.7504         36.5004
 15  7  6 20 25 30.0000000  0  9G02G01G13G15G17G28G30G24G06
  -3451837.36746  -2668572.50443  24390589.5394   24390588.9414       3361.7204
        41.0004         22.2504
   7163703.69146   5588736.21944  24803328.3444   24803329.7424      -2898.8774
        39.7504         24.0004
   8581508.52047   6698864.44944  23257155.1954   23257154.5164      -2891.3084
        43.0004         25.0004
  -1797016.73047  -1316196.03144  23868176.6484   23868175.6724      -1595.1004
        45.2504         29.7504
  -3500862.59848  -2708689.81647  20914215.8364   20914211.7704      -1194.6324
        48.5004         42.0004
   6132838.03147   4773734.38345  22289157.3674   22289152.9184      -1187.1184
        45.2504         34.0004
  16156659.20747  12582762.72744  23680376.4224   23680379.4064      -3463.9364
        43.7504         27.7504
 -10467505.85247  -8131976.80145  23255273.5864   23255273.9344       2999.6634
        43.5004         31.0004
 -16409162.80547 -12765490.57846  22141449.1174   22141449.7704       2900.6034
        45.7504         36.7504
 15  7  6 20 26  0.0000000  0  9G02G01G13G15G17G28G30G24G06
  -3552691.64146  -2747159.98043  24371397.2584   24371396.9024       3361.8094
        41.2504         22.5004
   7251000.53546   5656759.67643  24819940.7664   24819942.0474      -2909.8954
        40.0004         22.0004
   8668441.94147   6766604.66444  23273698.3834   23273697.2854      -2897.7814
        42.5004         26.0004
  -1748837.51647  -1278653.85945  23877345.2664   23877343.9804      -1605.9744
        44.7504         30.0004
  -3464718.34848  -2680525.47347  20921094.0394   20921089.6884      -1204.8084
        48.7504         42.0004
   6168566.46547   4801574.67645  22295955.6564   22295951.9844      -1190.9484
        47.0004         34.7504
  16260767.76247  12663886.05944  23700186.9694   23700191.1374      -3470.2854
        43.0004         27.0004
 -10557250.75446  -8201907.85245  23238196.2584   23238196.1994       2991.4974
        40.5004         30.5004
 -16495872.24247 -12833056.28946  22124948.8674   22124949.5554       2890.3154
        45.2504         37.0004
 15  7  6 20 26 30.0000000  0  9G02G01G13G15G17G28G30G24G06
  -3653544.94546  -2825746.76643  24352204.2974   24352205.5314       3361.7774
        40.0004         22.7504
   7338626.43446   5725039.56643  24836615.1954   24836616.8244      -2920.8634
        39.2504         22.0004
   8755567.26247   6834494.39844  23290277.8914   23290277.2074      -2904.1774
        43.5004         26.5004
  -1700333.68747  -1240858.72745  23886575.0864   23886574.0004      -1616.7944
        44.7504         30.5004
  -3428269.68048  -2652123.91047  20928030.0164   20928025.1844      -1214.9564
        49.2504         42.2504
   6204411.45747   4829505.78945  22302776.8054   22302772.9414      -1194.8334
        47.0004         34.5004
  16365065.94947  12745157.12544  23720035.5164   23720038.8954      -3476.6064
        42.5004         26.5004
 -10646746.84447  -8271645.02345  23221165.9224   23221165.4344       2983.2034
        43.2504         31.0004
 -16582269.05547 -12900378.38746  22108507.6484   22108508.4654       2879.8944
        45.7504         37.0004
 15  7  6 20 27  0.0000000  0  9G02G01G13G15G17G28G30G24G06
  -3754394.44146  -2904330.55943  24333013.8364   24333014.0474       3361.6504
        40.7504         22.0004
   7426579.35546   5793574.25443  24853352.7734   24853352.9774      -2931.7644
        40.0004         21.5004
   8842881.72347   6902531.52044  23306893.1724   23306892.4104      -2910.4824
        44.0004         26.0004
  -1651507.39847  -1202812.33245  23895866.0554   23895865.3524      -1627.5434
        44.5004         30.2504
  -3391517.96548  -2623486.21147  20935023.3834   20935018.9964      -1225.0574
        49.5004         42.5004
   6240374.34447   4857528.77045  22309620.8914   22309616.8404      -1198.7634
        47.5004         34.7504
  16469552.28147  12826574.86744  23739917.0164   23739920.9774      -3482.8784
        43.0004         26.7504
 -10735991.21547  -8341186.04344  23204183.0634   23204182.8634       2974.8124
        43.7504         29.7504
 -16668349.71547 -12967454.14146  22092126.7814   22092127.7774       2869.3554
        45.5004         37.2504
 15  7  6 20 27 30.0000000  0  9G02G01G13G15G17G28G30G24G06
  -3855239.35946  -2982910.80143  24313823.3834   24313823.8444       3361.4974
        41.7504         22.7504
   7514854.96946   5862360.41843  24870150.1724   24870151.5204      -2942.5204
        38.0004         22.0004
   8930380.37147   6970712.16044  23323544.5004   23323542.7814      -2916.6224
        43.7504         26.5004
  -1602362.52047  -1164517.67645  23905218.7424   23905217.2544      -1638.1634
        45.2504         30.0004
  -3354466.52047  -2594614.95746  20942074.0394   20942069.9454      -1235.0484
        47.0004         41.7504
   6276454.18047   4885642.88745  22316486.7664   22316482.3954      -1202.6614
        45.0004         34.2504
  16574223.03947  12908136.24244  23759836.6884   23759839.8164      -3489.0254
        44.5004         28.2504
 -10824983.23047  -8410530.42645  23187248.8204   23187248.1414       2966.4014
        43.0004         31.5004
 -16754113.14547 -13034282.69946  22075807.0004   22075807.7274       2858.7814
        46.0004         37.5004
 15  7  6 20 28  0.0000000  0  9G02G01G13G15G17G28G30G24G06
  -3956078.57846  -3061486.57044  24294634.1804   24294634.2934       3361.3074
        41.5004         24.5004
   7603449.76246   5931395.24643  24887009.6024   24887011.0514      -2953.1604
        39.2504         21.7504
   9018058.72747   7039032.82844  23340228.8054   23340227.4654      -2922.6124
        44.0004         26.7504
  -1552902.64547  -1125977.60244  23914631.0474   23914629.3984      -1648.6624
        45.7504         29.7504
  -3317118.19147  -2565512.36347  20949181.1334   20949177.0164      -1244.9444
        46.7504         42.2504
   6312650.62947   4913847.86345  22323374.8364   22323370.6804      -1206.5484
        45.0004         35.0004
  16679075.23447  12989838.98444  23779789.2584   23779793.5704      -3495.0734
        42.5004         27.7504
 -10913721.13347  -8479676.78545  23170362.4454   23170361.9844       2957.9304
        43.2504         30.7504
 -16839557.39147 -13100862.54746  22059547.2664   22059548.3484       2848.1424
        45.5004         37.5004
 15  7  6 20 28 30.0000000  0  9G02G01G13G15G17G28G30G24G06
  -4056909.62946  -3140055.97344  24275446.3204   24275446.6884       3361.0354
        41.7504         24.2504
   7692361.24646   6000676.89143  24903929.4694   24903930.0434      -2963.7164
        39.0004         22.0004
   9105913.75847   7107491.16844  23356947.6334   23356945.9574      -2928.5014
        43.5004         26.2504
  -1503130.30147  -1087194.02744  23924101.9694   23924100.7774      -1659.0784
        45.0004         29.5004
  -3279474.47348  -2536179.59847  20956344.6884   20956340.3794      -1254.7914
        48.0004         42.0004
   6348964.44147   4942144.29745  22330285.2344   22330280.3634      -1210.4604
        47.5004         35.0004
  16784107.03947  13071681.73044  23799776.6094   23799780.0434      -3501.0604
        43.5004         26.7504
 -11002202.14547  -8548622.98045  23153524.9224   23153524.0044       2949.3674
        42.5004         31.0004
 -16924679.37147 -13167191.27746  22043349.1954   22043349.9924       2837.3994
        46.0004         36.7504
 15  7  6 20 29  0.0000000  0  9G02G01G13G15G17G28G30G24G06
  -4157727.12946  -3218614.80943  24256262.0704   24256261.9884       3360.5834
        41.2504         22.5004
   7781589.36346   6070205.23043  24920908.3524   24920909.6174      -2974.2714
        39.2504         22.0004
   9193944.74647   7176086.62144  23373699.1954   23373697.8364      -2934.3664
        43.2504         27.5004
  -1453045.23847  -1048166.77344  23933633.1884   23933631.7154      -1669.5024
        44.7504         29.2504
  -3241534.71148  -2506616.15646  20963564.3524   20963560.3754      -1264.6594
        49.2504         41.7504
   6385398.90648   4970534.75845  22337218.3834   22337214.3484      -1214.4824
        48.7504         34.5004
  16889319.07047  13153664.89144  23819797.6804   23819801.7814      -3507.0684
        42.5004         27.7504
 -11090420.75847  -8617364.70745  23136737.1174   23136736.7894       2940.6204
        42.7504         30.7504
 -17009473.64547 -13233264.65646  22027213.0944   22027213.8594       2826.4764
        46.5004         37.2504
 15  7  6 20 29 30.0000000  0  9G02G01G13G15G17G28G30G24G06
  -4258530.28146  -3297162.46543  24237079.2734   24237079.3794       3360.1054
        40.7504         23.7504
   7871130.34846   6139977.39143  24937947.5704   24937948.8244      -2984.6994
        38.7504         21.5004
   9282147.34847   7244815.78944  23390483.2114   23390482.7704      -2940.0874
        44.0004         27.5004
  -1402651.45347  -1008898.95744  23943222.6254   23943221.7704      -1679.7934
        44.5004         29.7504
  -3203301.85248  -2476824.31646  20970840.0234   20970835.4264      -1274.4294
        48.0004         41.7504
   6421953.64547   4999018.93045  22344174.6174   22344170.5594      -1218.4914
        46.0004         34.2504
  16994708.08247  13235785.94144  23839852.6094   23839856.7344      -3512.9674
        43.2504         27.0004
 -11178375.88747  -8685901.11745  23119999.9924   23119999.7154       2931.8384
        42.5004         30.0004
 -17093938.50447 -13299081.34446  22011139.7424   22011140.3554       2815.4954
        46.7504         37.0004
 15  7  6 20 30  0.0000000  0  9G02G01G13G15G17G28G30G24G06
  -4359315.78546  -3375696.37543  24217899.3834   24217900.2384       3359.5174
        41.0004         22.5004
   7960982.55946   6209992.04743  24955046.0864   24955047.5204      -2995.0744
        38.7504         21.0004
   9370518.96147   7313676.64544  23407300.2664   23407299.0664      -2945.7204
        43.0004         25.5004
  -1351950.46147   -969391.76245  23952870.5554   23952869.8954      -1690.0334
        44.5004         30.0004
  -3164776.75848  -2446804.76647  20978170.8364   20978166.6604      -1284.1704
        48.7504         42.0004
   6458629.96947   5027597.84845  22351153.7194   22351149.6914      -1222.5444
        47.5004         34.7504
  17100272.95347  13318044.04344  23859941.3594   23859945.1994      -3518.8294
        43.7504         27.5004
 -11266064.23447  -8754229.64545  23103313.4614   23103313.4494       2922.9454
        42.5004         30.7504
 -17178070.23847 -13364638.45346  21995129.8834   21995130.8714       2804.3914
        46.0004         37.0004
 15  7  6 20 30 30.0000000  0  9G02G01G13G15G17G28G30G24G06
  -4460083.86746  -3454216.68744  24198724.3204   24198723.8554       3358.9364
        41.0004         25.0004
   8051140.37946   6280244.84043  24972202.4694   24972203.6414      -3005.2614
        39.0004         21.0004
   9459053.48047   7382664.46544  23424147.8594   23424146.7424      -2951.1514
        44.2504         26.2504
  -1300947.71947   -929649.43444  23962576.3134   23962575.2854      -1700.0914
        44.5004         29.5004
  -3125964.06247  -2416561.10546  20985556.9064   20985552.3244      -1293.7574
        46.5004         41.5004
   6495425.70747   5056269.81645  22358155.2814   22358151.5594      -1226.5254
        44.7504         34.2504
  17206008.77747  13400435.35244  23880061.8364   23880065.9144      -3524.5274
        42.7504         27.2504
 -11353485.87947  -8822350.35245  23086676.9304   23086677.4774       2914.0554
        43.2504         31.7504
 -17261868.83647 -13429935.97346  21979183.7504   21979184.6374       2793.2874
        46.5004         38.2504
 15  7  6 20 31  0.0000000  0  9G02G01G13G15G17G28G30G24G06
  -4560829.02046  -3532719.17243  24179553.4844   24179552.9064       3358.1724
        41.5004         22.5004
   8141604.56646   6350736.34443  24989417.2584   24989419.0234      -3015.4734
        39.0004         21.2504
   9547750.87547   7451779.19144  23441026.5164   23441025.6294      -2956.5804
        42.5004         27.2504
  -1249642.60247   -889671.48044  23972339.3364   23972338.1374      -1710.1714
        43.5004         29.0004
  -3086862.27348  -2386092.17247  20992997.8754   20992993.0354      -1303.3934
        49.5004         42.0004
   6532345.10547   5085038.14145  22365181.2114   22365177.3484      -1230.6474
        47.7504         34.2504
  17311916.73047  13482960.76644  23900216.3984   23900220.2934      -3530.2654
        43.5004         25.7504
 -11440635.42647  -8890259.02745  23070092.4144   23070092.9304       2904.9854
        42.5004         31.0004
 -17345328.24247 -13494969.18746  21963302.1884   21963302.6524       2781.9804
        46.2504         37.0004
 15  7  6 20 31 30.0000000  0  9G02G01G13G15G17G28G30G24G06
  -4661551.04347  -3611203.64844  24160385.5474   24160385.5124       3357.4014
        42.2504         24.5004
   8232370.34846   6421462.87543  25006689.6484   25006691.5824      -3025.5264
        37.7504         21.0004
   9636605.81647   7521016.66444  23457935.1954   23457933.9694      -2961.8314
        43.2504         27.5004
  -1198039.78947   -849461.57045  23982159.3984   23982157.9534      -1720.0944
        44.5004         30.0004
  -3047475.41048  -2355401.10947  21000492.3364   21000487.9494      -1312.8954
        49.7504         42.0004
   6569386.65648   5113901.64845  22372229.8754   22372226.4734      -1234.7184
        48.0004         34.0004
  17417992.78947  13565617.17644  23920402.2424   23920406.1094      -3535.8694
        42.7504         27.7504
 -11527512.30147  -8957955.23045  23053561.0554   23053560.8794       2895.8964
        42.5004         31.7504
 -17428447.64847 -13559737.46546  21947484.6024   21947485.4064       2770.6474
        46.7504         37.5004
 15  7  6 20 32  0.0000000  0  9G02G01G13G15G17G28G30G24G06
  -4762247.64846  -3689668.30544  24141224.2584   24141223.0274       3356.5544
        41.7504         24.2504
   8323434.92646   6492422.25843  25024018.3754   25024019.8054      -3035.4864
        36.7504         19.0004
   9725614.76647   7590374.15244  23474872.7344   23474872.5594      -2966.9654
        43.2504         26.0004
  -1146141.95747   -809021.77344  23992034.8364   23992033.8634      -1729.9284
        44.2504         29.5004
  -3007805.39848  -2324489.41047  21008041.9694   21008037.4534      -1322.3344
        48.0004         42.0004
   6606550.82047   5142860.68845  22379302.5004   22379298.3834      -1238.8054
        46.0004         35.0004
  17524234.74247  13648402.85944  23940618.7424   23940624.0234      -3541.3984
        43.0004         26.5004
 -11614114.00847  -9025437.01645  23037081.2114   23037081.0554       2886.7244
        43.0004         30.7504
 -17511224.34047 -13624238.68746  21931732.8284   21931733.3404       2759.2234
        47.0004         37.5004
 15  7  6 20 32 30.0000000  0 10G02G01G13G15G17G28G30G24G06G12
  -4862915.28947  -3768110.35544  24122066.9384   24122066.9804       3355.5884
        42.0004         25.0004
   8414796.83645   6563613.29743  25041403.9384   25041405.3284      -3045.3974
        35.7504         19.7504
   9814775.72347   7659850.07044  23491840.0634   23491839.6334      -2972.0324
        43.5004         26.2504
  -1093950.77347   -768353.38744  24001966.6174   24001965.7194      -1739.7064
        43.7504         29.5004
  -2967852.94148  -2293357.62946  21015644.8364   21015639.9414      -1331.7494
        48.5004         41.7504
   6643839.56647   5171916.81645  22386398.2504   22386394.1724      -1242.9584
        47.5004         34.7504
  17630641.66847  13731317.05544  23960868.7344   23960872.5234      -3546.8984
        42.7504         25.7504
 -11700436.62547  -9092701.35245  23020654.9614   23020654.1844       2877.4214
        43.0004         31.7504
 -17593654.43747 -13688469.84046  21916046.5394   21916047.1134       2747.6704
        46.5004         37.5004
   -109943.03956    -69279.32853  25054181.1334   25054180.7664
        38.0004         21.7504
 15  7  6 20 33  0.0000000  0 10G02G01G13G15G17G28G30G24G06G12
  -4963554.51247  -3846530.28944  24102917.0554   24102915.2424       3354.6414
        43.0004         25.5004
   8506450.60946   6635031.73043  25058845.5634   25058846.9224      -3055.1264
        37.0004         21.0004
   9904082.48847   7729439.62544  23508833.8204   23508834.0234      -2976.8924
        42.7504         27.2504
  -1041471.79747   -727460.75444  24011953.4144   24011952.2154      -1749.2994
        44.5004         29.0004
  -2927622.78948  -2262009.46147  21023300.1804   21023295.4414      -1341.0054
        49.7504         42.2504
   6681250.57047   5201068.21145  22393517.4774   22393513.4924      -1247.0334
        47.5004         34.5004
  17737208.62147  13814355.98044  23981148.0004   23981151.6484      -3552.2324
        42.5004         26.5004
 -11786480.90647  -9159748.79345  23004280.9224   23004280.5514       2868.1434
        44.2504         31.7504
 -17675737.96547 -13752430.93446  21900426.6884   21900427.2544       2736.1184
        47.0004         37.2504
   -188896.42646   -130801.42644  25039157.0314   25039158.0784       2631.7804
        39.5004         25.2504
 15  7  6 20 33 30.0000000  0 10G02G01G13G15G17G28G30G24G06G12
  -5064164.14847  -3924927.14844  24083771.4694   24083769.8404       3353.6554
        42.5004         25.0004
   8598392.20346   6706674.49243  25076341.3524   25076342.7344      -3064.7204
        37.5004         21.0004
   9993530.12947   7799138.92244  23525855.9844   23525854.9654      -2981.5884
        43.0004         26.0004
   -988708.76647   -686346.77044  24021993.9064   24021992.7234      -1758.7684
        44.5004         29.0004
  -2887117.99648  -2230447.28147  21031007.8984   21031003.5984      -1350.1604
        49.2504         42.0004
   6718783.08247   5230314.28145  22400659.5634   22400655.6764      -1251.0844
        47.0004         34.0004
  17843932.31347  13897517.02044  24001456.5634   24001460.6294      -3557.4564
        42.0004         26.5004
 -11872245.32047  -9226578.15645  22987960.6644   22987959.8014       2858.8144
        43.7504         32.2504
 -17757473.36347 -13816120.75846  21884873.2344   21884873.6644       2724.5134
        46.0004         38.0004
   -267889.86746   -192354.66043  25024126.8914   25024124.5704       2633.1154
        41.2504         21.2504
 15  7  6 20 34  0.0000000  0 10G02G01G13G15G17G28G30G24G06G12
  -5164743.64146  -4003300.59043  24064630.1414   24064630.0164       3352.6504
        41.5004         22.5004
   8690617.34845   6778538.16043  25093892.0634   25093892.9384      -3074.1714
        35.5004         20.5004
  10083114.12947   7868944.48444  23542902.6484   23542902.6564      -2986.1334
        43.0004         24.5004
   -935666.04347   -645014.85944  24032087.3364   24032086.3444      -1768.0914
        44.5004         29.0004
  -2846341.83648  -2198673.65647  21038767.3134   21038762.5704      -1359.2054
        49.7504         42.0004
   6756436.52347   5259654.57445  22407824.4844   22407820.4224      -1255.1154
        47.7504         33.5004
  17950809.10946  13980797.34844  24021794.6414   24021799.4344      -3562.5604
        41.0004         26.2504
 -11957728.85947  -9293188.66045  22971693.5634   22971692.8164       2849.4514
        44.0004         31.5004
 -17838859.50847 -13879538.43046  21869385.5944   21869386.1094       2712.8714
        47.0004         37.7504
   -346924.50846   -253940.12943  25009086.1804   25009085.3524       2634.4884
        38.7504         20.0004
 15  7  6 20 34 30.0000000  0 10G02G01G13G15G17G28G30G24G06G12
  -5265286.75446  -4081645.61344  24045497.5784   24045496.9654       3351.4374
        41.5004         25.2504
   8783126.93046   6850623.48443  25111494.6024   25111496.4734      -3083.6534
        37.2504         19.5004
  10172834.59847   7938856.39844  23559976.7274   23559975.9024      -2990.6824
        43.0004         25.5004
   -882342.49647   -603464.11344  24042234.3834   24042233.7544      -1777.4524
        44.5004         28.5004
  -2805292.25048  -2166686.96547  21046578.6024   21046574.1804      -1368.3204
        49.7504         42.2504
   6794215.16047   5289092.42645  22415013.7974   22415009.4144      -1259.2884
        47.5004         34.0004
  18057840.45747  14064198.15244  24042162.0864   24042166.3284      -3567.7124
        42.0004         24.5004
 -12042925.10547  -9359575.29745  22955481.2504   22955480.8834       2839.8754
        43.2504         31.7504
 -17919889.98447 -13942678.96946  21853966.1174   21853966.4344       2701.0164
        46.5004         37.7504
   -425996.77346   -315554.82043  24994038.8284   24994038.4304       2635.7424
        38.2504         20.5004
 15  7  6 20 35  0.0000000  0 10G02G01G13G15G17G28G30G24G06G12
  -5365792.85546  -4159961.87144  24026371.2814   24026371.1454       3350.2034
        41.2504         25.5004
   8875916.64846   6922927.09843  25129152.2664   25129154.3674      -3092.9914
        36.7504         19.2504
  10262686.62147   8008870.80944  23577074.4924   23577074.5354      -2995.0674
        42.7504         25.7504
   -828742.60547   -561698.04744  24052434.1094   24052433.8554      -1786.6634
        43.7504         29.5004
  -2763973.40648  -2134490.46147  21054441.5864   21054437.0394      -1377.2954
        49.7504         42.0004
   6832117.64847   5318626.78545  22422226.1094   22422222.3244      -1263.4164
        47.0004         34.2504
  18165022.58247  14147716.39144  24062559.2194   24062562.5314      -3572.7374
        42.2504         25.2504
 -12127833.86347  -9425737.91445  22939323.6724   22939323.4024       2830.2924
        44.2504         32.5004
 -18000563.84847 -14005541.61746  21838614.3054   21838614.7424       2689.1294
        46.5004         37.7504
   -505108.51246   -377200.27043  24978987.5704   24978984.3914       2637.0584
        39.5004         19.5004
 15  7  6 20 35 30.0000000  0 10G02G01G13G15G17G28G30G24G06G12
  -5466259.64847  -4238247.44144  24007252.6724   24007252.8134       3348.8934
        42.2504         25.0004
   8968983.82846   6995446.95343  25146862.9454   25146863.8324      -3102.2394
        36.2504         18.5004
  10352667.06647   8078985.27744  23594196.6414   23594197.2114      -2999.3484
        42.5004         24.7504
   -774869.10947   -519718.79744  24062686.3594   24062685.2034      -1795.7834
        44.0004         28.5004
  -2722386.77348  -2102085.30946  21062355.1484   21062350.5594      -1386.2214
        49.2504         41.7504
   6870145.07447   5348258.50045  22429462.5554   22429458.7234      -1267.5814
        47.7504         34.0004
  18272353.30147  14231350.43844  24082982.2664   24082987.3554      -3577.6914
        42.0004         24.5004
 -12212452.36347  -9491674.37545  22923220.6414   22923220.7664       2820.6174
        43.2504         32.7504
 -18080878.26647 -14068124.19146  21823330.9924   21823331.2734       2677.1474
        47.0004         38.5004
   -584259.59056   -438876.42253  24963923.1644   24963922.0784       2638.3744
        38.2504         21.5004
 15  7  6 20 36  0.0000000  0 10G02G01G13G15G17G28G30G24G06G12
  -5566683.60547  -4316499.67644  23988144.3444   23988142.2814       3347.4654
        42.2504         24.5004
   9062326.86346   7068181.65643  25164625.6414   25164627.0234      -3111.4354
        37.7504         21.0004
  10442773.69147   8149198.04744  23611344.5784   23611344.1644      -3003.5544
        43.0004         26.0004
   -720723.50847   -477527.53544  24072989.6174   24072989.2194      -1804.8534
        43.5004         28.7504
  -2680533.07448  -2069472.05547  21070319.2194   21070315.2894      -1395.1234
        50.0004         42.0004
   6908299.12947   5377988.87145  22436723.1334   22436719.2974      -1271.8024
        47.0004         34.0004
  18379831.72347  14315099.53144  24103435.6024   24103440.6374      -3582.6144
        42.5004         26.0004
 -12296777.16447  -9557381.98845  22907174.6174   22907174.1604       2810.8274
        44.7504         32.0004
 -18160829.41847 -14130423.71546  21808116.4224   21808117.0434       2665.0384
        46.7504         37.5004
   -663448.77346   -500582.45343  24948852.9304   24948852.1844       2639.6394
        37.7504         21.2504
 15  7  6 20 36 30.0000000  0 10G02G01G13G15G17G28G30G24G06G12
  -5667061.84447  -4394716.35244  23969042.0394   23969040.9304       3345.9414
        42.0004         25.5004
   9155943.59846   7141129.64843  25182440.9224   25182441.6994      -3120.5584
        37.0004         19.5004
  10533003.39547   8219506.69544  23628514.4064   23628514.4924      -3007.6574
        42.0004         24.7504
   -666307.90647   -435125.90644  24083345.2344   24083344.1684      -1813.8534
        44.0004         29.2504
  -2638413.60548  -2036651.71947  21078334.5554   21078330.3054      -1403.9824
        50.0004         42.5004
   6946580.98447   5407818.80945  22444008.0164   22444004.2464      -1276.0624
        47.2504         34.2504
  18487456.28547  14398962.45344  24123917.1094   24123920.9144      -3587.4854
        42.2504         24.2504
 -12380804.89847  -9622858.13745  22891184.5394   22891183.6174       2800.9244
        44.2504         32.5004
 -18240414.07047 -14192437.67246  21792972.1254   21792972.0044       2652.8224
        47.0004         38.0004
   -742675.53946   -562317.67243  24933776.6724   24933775.7664       2640.8924
        39.2504         21.5004
 15  7  6 20 37  0.0000000  0 10G02G01G13G15G17G28G30G24G06G12
  -5767389.52047  -4472893.52744  23949950.1254   23949948.6764       3344.2564
        42.2504         25.5004
   9249834.02046   7214290.85943  25200307.0234   25200308.8324      -3129.6814
        37.0004         18.2504
  10623355.67246   8289910.87943  23645708.1644   23645707.8444      -3011.7434
        41.7504         23.5004
   -611622.44147   -392513.97344  24093750.9534   24093750.5084      -1822.8494
        43.7504         28.7504
  -2596027.60248  -2003623.67646  21086400.6724   21086396.0434      -1412.8674
        49.7504         41.5004
   6984993.80547   5437750.81345  22451317.8204   22451313.8204      -1280.4274
        47.0004         34.0004
  18595227.42247  14482939.71943  24144424.5164   24144428.5124      -3592.3714
        42.0004         22.0004
 -12464530.69947  -9688098.98445  22875252.0234   22875251.9694       2790.8604
        44.5004         32.7504
 -18319626.87547 -14254161.86346  21777898.2114   21777898.5124       2640.4274
        47.0004         38.0004
   -821937.03146   -624079.86343  24918693.4224   24918692.9964       2642.0504
        37.7504         22.0004
 15  7  6 20 37 30.0000000  0 10G02G01G13G15G17G28G30G24G06G12
  -5867666.74647  -4551031.35244  23930868.2664   23930867.1214       3342.5744
        42.7504         25.0004
   9343993.02046   7287661.48043  25218224.1644   25218226.4924      -3138.6334
        36.7504         19.7504
  10713824.80747   8360406.15844  23662924.1954   23662923.5704      -3015.6384
        43.0004         25.5004
   -556672.52747   -349695.93444  24104207.7424   24104207.4844      -1831.6644
        44.0004         29.2504
  -2553379.12948  -1970391.10246  21094516.2274   21094511.7304      -1421.6164
        50.2504         41.7504
   7023535.88747   5467783.56345  22458652.0634   22458648.5474      -1284.7364
        46.5004         32.5004
  18703140.61746  14567027.62943  24164959.8754   24164963.8874      -3597.1074
        39.7504         22.5004
 -12547954.12547  -9753104.19145  22859377.6254   22859376.3014       2780.7814
        44.2504         32.0004
 -18398467.68748 -14315596.17246  21762895.2734   21762895.4344       2628.0274
        48.0004         38.5004
   -901235.73046   -685870.91043  24903604.2274   24903602.8674       2643.2904
        37.0004         20.2504
 15  7  6 20 38  0.0000000  0 10G02G01G13G15G17G28G30G24G06G12
  -5967888.48846  -4629126.01644  23911795.5944   23911794.9104       3340.7254
        41.2504         24.7504
   9438420.18046   7361241.05943  25236193.8524   25236195.3284      -3147.5724
        37.7504         18.5004
  10804409.67647   8430991.63744  23680161.4694   23680162.2384      -3019.4964
        42.0004         24.5004
   -501458.57447   -306672.16844  24114715.0944   24114713.8714      -1840.4654
        44.0004         28.7504
  -2510468.26248  -1936954.06647  21102681.8594   21102677.3834      -1430.3624
        50.0004         42.0004
   7062210.20747   5497919.34045  22466012.0864   22466007.9614      -1289.1444
        47.0004         33.5004
  18811196.08647  14651226.41044  24185523.3134   24185527.4774      -3601.8494
        42.2504         25.2504
 -12631071.02047  -9817870.55145  22843560.6094   22843559.9344       2770.5634
        44.0004         32.5004
 -18476931.34848 -14376736.60946  21747964.2344   21747964.4964       2615.4554
        48.0004         38.7504
   -980569.07046   -747689.12143  24888507.3754   24888505.5784       2644.4454
        37.2504         19.2504
 15  7  6 20 38 30.0000000  0 10G02G01G13G15G17G28G30G24G06G12
  -6068052.78946  -4707175.89544  23892734.2114   23892734.2854       3338.8104
        41.0004         24.7504
   9533112.37146   7435027.02743  25254213.1174   25254214.8404      -3156.4064
        38.2504         19.0004
  10895107.05146   8501664.75444  23697420.8914   23697420.9774      -3023.2464
        41.7504         24.0004
   -445983.42647   -263444.86344  24125271.2274   24125270.9344      -1849.1724
        43.7504         29.5004
  -2467296.79348  -1903313.96946  21110897.0944   21110892.6214      -1439.0494
        49.5004         41.5004
   7101017.06647   5528158.41045  22473396.7894   22473392.6604      -1293.5624
        46.7504         33.0004
  18919391.41046  14735534.09844  24206111.2734   24206117.0164      -3606.5114
        39.0004         25.5004
 -12713878.01647  -9882395.44545  22827802.5944   22827802.1804       2760.2334
        44.5004         32.0004
 -18555015.57447 -14437581.37946  21733104.8754   21733105.3834       2602.8084
        47.2504         39.0004
  -1059937.36346   -809534.56243  24873404.0164   24873402.9884       2645.6104
        36.0004         21.5004
 15  7  6 20 39  0.0000000  0 10G02G01G13G15G17G28G30G24G06G12
  -6168158.29747  -4785179.94944  23873685.8284   23873683.9414       3336.8504
        43.2504         25.7504
   9628066.47746   7509017.19543  25272282.1724   25272284.1294      -3165.1374
        38.0004         19.0004
  10985912.83647   8572422.35943  23714699.7114   23714700.8524      -3026.8604
        42.2504         22.7504
   -390250.48447   -220016.71544  24135877.7034   24135876.4024      -1857.7654
        44.0004         29.2504
  -2423867.11348  -1869472.67246  21119161.5234   21119157.1454      -1447.6564
        50.5004         41.5004
   7139956.82047   5558501.01245  22480806.7504   22480802.8484      -1297.9924
        46.7504         33.5004
  19027723.58646  14819948.49244  24226726.7194   24226732.1804      -3611.0734
        41.2504         25.0004
 -12796373.90247  -9946677.93045  22812104.0394   22812103.7734       2749.8634
        44.5004         32.5004
 -18632718.29748 -14498128.89846  21718318.2274   21718318.8984       2590.0914
        48.0004         39.0004
  -1139341.28546   -871407.70743  24858294.2734   24858293.1564       2646.7974
        36.7504         21.2504
