     2.11           OBSERVATION DATA    G (GPS)             RINEX VERSION / TYPE
teqc  2011Oct11     Joshua D Weyandt    20120316 19:31:14UTCPGM / RUN BY / DATE
Linux 2.4.21-27.ELsmp|Opteron|gcc|Linux x86_64|=+           COMMENT
BIT 2 OF LLI FLAGS DATA COLLECTED UNDER A/S CONDITION       COMMENT
vers                                                        MARKER NAME
                                                            MARKER NUMBER
Erika Noll/Jennifer University of California, Riverside     OBSERVER / AGENCY
0220413532          TRIMBLE R7          2.32                REC # / TYPE / VERS
60219588            TRM41249.00     NONE                    ANT # / TYPE
 -2430820.4574 -4704715.9438  3543698.2376                  APPROX POSITION XYZ
        1.0507        0.0000        0.0000                  ANTENNA: DELTA H/E/N
     1     1                                                WAVELENGTH FACT L1/2
     7    L1    L2    C1    P2    D1    S1    S2            # / TYPES OF OBSERV
    30.0000                                                 INTERVAL
    15                                                      LEAP SECONDS
 SNR is mapped to RINEX snr flag value [0-9]                COMMENT
  L1 & L2: min(max(int(snr_dBHz/6), 0), 9)                  COMMENT
  2011    11    21    18    23   30.0000000     GPS         TIME OF FIRST OBS
  2011    11    22    19    22    0.0000000     GPS         TIME OF LAST OBS
  2011    11    22    19    22    0.0000000     GPS         TIME OF LAST OBS
                                                            END OF HEADER
 11 11 21 18 23 30.0000000  0  4G02G09G12G29
   -321767.28958   -178031.97756  20756552.0554   20756550.1254
        51.5004         41.5004
   -192398.63757   -109019.28554  23933749.3364   23933754.6414
        43.5004         25.0004
   -408551.98858   -225886.38757  20382720.0394   20382719.3094
        51.2504         44.2504
   -503268.52357   -246924.69154  23635162.2814   23635165.3134
        42.0004         27.5004
 11 11 21 18 24  0.0000000  0  8G02G04G05G09G10G12G29G25
   -496637.58248   -314294.57846  20723275.3984   20723273.5474       5829.0104
        51.0004         41.2504
   -316923.18457   -201395.14854  23314790.4614   23314794.5434
        42.0004         26.5004
   -817588.27057   -526169.19955  22227619.4304   22227621.7154
        47.2504         35.5004
   -299803.41047   -192711.55944  23913310.8754   23913315.5004       3580.1594
        44.0004         25.0004
   -537095.61357   -345599.64555  22349693.7034   22349696.3754
        45.2504         31.0004
   -630302.14848   -398678.74247  20340522.1254   20340521.4344       7391.6724
        50.5004         44.0004
   -783115.83246   -464987.46944  23581908.2194   23581911.8444       9328.2444
        41.7504         28.5004
   -796206.64858   -503764.80156  21512657.7034   21512660.1454
        50.5004         40.5004
 11 11 21 18 24 30.0000000  0  8G02G04G05G09G10G12G29G25
   -671213.78548   -450328.03547  20690054.6884   20690052.5704       5819.2074
        52.0004         42.5004
   -428745.34447   -288529.50044  23293511.2114   23293515.7774       3727.4054
        43.5004         24.5004
  -1109177.77047   -753381.69945  22172131.7424   22172133.9344       9719.6504
        47.7504         35.0004
   -407220.80916                  23892869.852                        7160.318
        37.500
   -728072.84047   -494413.17645  22313351.9774   22313354.4024       6365.9084
        46.7504         33.0004
   -851588.85248   -571109.98047  20298412.3754   20298412.1294       7376.2234
        52.7504         43.7504
  -1062966.77346   -683053.04343  23528654.3984   23528657.8754       9328.3654
        41.2504         22.7504
  -1076133.60548   -721889.70746  21459389.4844   21459392.0514       9330.8994
        50.0004         36.7504
 11 11 21 18 25  0.0000000  0  8G02G04G05G09G10G12G29G25
   -845352.11748   -586020.27747  20656917.1644   20656914.7464       5804.6114
        52.2504         42.5004
   -540374.15647   -375513.18744  23272269.8134   23272274.2704       3720.9604
        43.2504         26.0004
  -1400332.10247   -980255.17645  22116726.6254   22116728.9844       9705.1444
        47.2504         34.7504
   -514510.87547   -270851.27754  23872453.2734   23872457.6054       3576.3364
        43.2504         27.2504
   -918341.95747   -642674.91445  22277144.8674   22277147.6524       6342.3044
        47.2504         32.0004
  -1072265.43448   -743065.78147  20256419.0784   20256418.3524       7355.8864
        52.5004         44.5004
  -1342676.06246   -901008.28544  23475428.1414   23475431.1604       9323.6434
        41.5004         25.0004
  -1355594.11348   -939651.12146  21406210.0634   21406212.2194       9315.3504
        49.7504         37.5004
 11 11 21 18 25 30.0000000  0  8G02G04G05G09G10G12G29G25
  -1019196.31248   -721483.32847  20623835.7504   20623834.3634       5794.8074
        51.5004         42.7504
   -651953.98447   -462458.69944  23251037.0084   23251040.7074       3719.3284
        42.5004         25.0004
  -1691190.31647  -1206897.86745  22061378.0474   22061380.4064       9695.2744
        46.2504         33.5004
   -621817.77747   -354467.29344  23852033.8674   23852039.6454       3576.8974
        43.2504         26.0004
  -1108045.52347   -790495.93445  22241045.5634   22241047.9494       6323.4524
        47.2504         32.7504
  -1292472.91048   -914656.04747  20214515.0474   20214514.2624       7340.2494
        52.0004         43.7504
  -1622386.14147  -1118964.12143  23422199.9844   23422203.8324       9323.6694
        42.0004         23.7504
  -1634727.93748  -1157157.98846  21353092.5864   21353094.6524       9304.4614
        49.5004         38.2504
 11 11 21 18 26  0.0000000  0  8G02G04G05G09G10G12G29G25
  -1192716.57848   -856693.94547  20590816.1094   20590814.2194       5784.0094
        50.2504         42.2504
   -763455.40647   -549343.13743  23229818.9614   23229823.3364       3716.7144
        42.5004         22.5004
  -1981718.28947  -1433283.22745  22006092.6724   22006094.6484       9684.2664
        47.2504         35.5004
   -729113.31647   -438074.43044  23831615.7194   23831621.2624       3576.5184
        42.2504         25.7504
  -1297152.53147   -937852.13345  22205059.9454   22205062.1524       6303.5674
        47.0004         34.5004
  -1512179.18748  -1085855.75847  20172706.4614   20172705.4694       7323.5434
        52.0004         44.7504
  -1902065.39547  -1336895.94144  23368978.8134   23368982.8954       9322.6424
        45.0004         24.5004
  -1913501.16048  -1374383.88346  21300043.4534   21300046.1294       9292.4414
        50.2504         37.2504
 11 11 21 18 26 30.0000000  0  8G02G04G05G09G10G12G29G25
  -1365893.28948   -991636.84846  20557861.8524   20557859.7074       5772.5574
        49.7504         39.0004
   -874858.93045   -636151.23443  23208618.6254   23208623.8094       3713.4514
        34.0004         21.2504
  -2271891.55148  -1659392.24246  21950874.7974   21950876.6484       9672.4424
        49.7504         36.0004
   -836379.33246   -521658.57443  23811203.1884   23811209.3094       3575.5344
        40.2504         21.0004
  -1485641.86347  -1084727.02045  22169191.2114   22169193.9494       6282.9784
        46.0004         32.5004
  -1731361.62548  -1256647.30147  20130997.5394   20130996.8594       7306.0814
        52.5004         44.0004
  -2181692.13747  -1554786.80144  23315768.1174   23315771.3054       9320.8914
        45.0004         29.0004
  -2191889.78548  -1591310.05146  21247067.8914   21247070.7074       9279.6214
        51.5004         39.7504
 11 11 21 18 27  0.0000000  0  8G02G04G05G09G10G12G29G25
     36709.25848    101300.10547  20824768.1174   20824765.9384       5760.5824
        52.0004         43.0004
    589267.94947    504726.66444  23487233.4064   23487238.6024       3709.7714
        43.0004         25.2504
   -986265.65647   -657605.79345  22195520.8444   22195523.1374       9659.8044
        47.7504         34.2504
    631815.87946    622389.39143  24090592.7344   24090598.6374       3574.1604
        40.0004         22.7504
    -98076.46947     -3507.25445  22433235.9774   22433238.9184       6261.8204
        45.0004         32.2504
   -374580.32448   -199415.13747  20389184.5634   20389183.2234       7287.9574
        50.5004         44.0004
   -885825.73047   -545020.74244  23562363.0084   23562366.4494       9318.4534
        43.5004         28.5004
   -894450.85548   -580318.68746  21493962.3984   21493965.0314       9266.0364
        52.5004         41.2504
 11 11 21 18 27 30.0000000  0  8G02G04G05G09G10G12G29G25
   -135764.92648    -33095.40247  20791947.1254   20791945.2704       5749.1394
        51.7504         42.2504
    478073.38347    418081.37144  23466074.2114   23466078.6644       3706.4864
        42.5004         24.5004
  -1275699.99247   -883138.98045  22140443.2894   22140445.7274       9647.8114
        46.5004         34.0004
    524619.79747    538859.73844  24070194.9144   24070199.8874       3573.2034
        43.0004         25.0004
   -285312.16847   -149405.25845  22397606.2734   22397609.5554       6241.1904
        45.5004         32.7504
   -592691.44148   -369371.87947  20347679.2114   20347678.4694       7270.3714
        52.2504         44.7504
  -1165327.58647   -762814.32844  23509176.1484   23509179.1294       9316.7294
        43.2504         29.2504
  -1172043.02048   -796624.27046  21441138.2894   21441140.8524       9253.0724
        53.7504         41.0004
 11 11 21 18 28  0.0000000  0  8G02G04G05G09G10G12G29G25
   -307898.91848   -167225.80946  20759191.3524   20759189.3914       5737.8004
        51.5004         40.5004
    366972.05947    331508.67244  23444932.5394   23444937.2194       3703.3774
        42.5004         25.0004
  -1564769.03547  -1108387.50445  22085435.3054   22085437.4454       9635.6354
        46.2504         33.2504
    417445.23447    455346.89844  24049800.0554   24049805.3874       3572.4854
        43.0004         24.0004
   -471930.08247   -294821.88345  22362094.4064   22362097.3524       6220.5974
        45.7504         31.7504
   -810273.73048   -538916.53947  20306274.6954   20306273.5274       7252.7434
        52.0004         45.0004
  -1444775.49647   -980565.82845  23455997.9694   23456001.8014       9314.9304
        43.0004         30.5004
  -1449241.60548  -1012623.16846  21388389.1484   21388391.7934       9239.9534
        52.5004         40.5004
 11 11 21 18 28 30.0000000  0  8G02G04G05G09G10G12G29G25
   -479687.99648   -301087.46546  20726501.1414   20726498.5704       5726.3034
        50.0004         38.5004
    255967.699 7                  23423808.953                        3700.145
        42.750
  -1853463.49648  -1333344.15646  22030498.8524   22030500.8404       9623.1494
        50.0004         38.5004
    310295.33647    371853.19543  24029410.4534   24029415.8874       3571.6634
        43.0004         22.7504
   -657924.59847   -439752.72744  22326701.2504   22326703.4454       6199.8174
        42.0004         28.0004
  -1027319.83648   -708043.37547  20264971.8524   20264971.2274       7234.8704
        50.2504         43.7504
  -1724163.05947  -1198270.31244  23402832.7194   23402835.4224       9312.9194
        42.7504         26.5004
  -1726037.98048  -1228308.64146  21335716.4224   21335718.9104       9226.5464
        52.0004         40.2504
 11 11 21 18 29  0.0000000  0  8G02G04G05G09G10G12G29G25
   -651128.58248   -434677.59046  20693876.9064   20693874.9104       5714.6864
        50.7504         39.0004
    145063.72746    184532.70753  23402704.7114   23402709.2234       3696.7994
        39.5004         21.7504
  -2141775.51648  -1558002.78946  21975634.9304   21975636.5004       9610.4014
        49.7504         37.5004
    203172.28147    288380.46944  24009025.0704   24009031.4024       3570.7684
        44.5004         28.0004
   -843290.77747   -584193.91844  22291426.8834   22291429.3634       6178.8734
        43.5004         28.7504
  -1243823.64148   -876747.64547  20223773.0314   20223772.0164       7216.7934
        51.5004         43.2504
  -2003485.02347  -1415923.71944  23349679.6414   23349682.6454       9310.7324
        43.0004         26.5004
  -2002424.55548  -1443674.79746  21283122.1724   21283124.4804       9212.8864
        51.0004         39.7504
 11 11 21 18 29 30.0000000  0  8G02G04G05G09G10G12G29G25
   -822221.96548   -567997.14546  20661318.8134   20661316.8794       5703.1134
        49.7504         39.7504
     34258.44547     98190.78143  23381619.3204   23381624.5164       3693.5094
        42.0004         21.5004
  -2429701.27048  -1782360.46546  21920844.3594   21920846.2304       9597.5254
        49.7504         37.5004
     96073.26646    204926.50843  23988645.3054   23988650.6804       3569.9674
        41.5004         23.5004
  -1028029.29747   -728146.03544  22256272.5164   22256275.1294       6157.9514
        42.5004         27.5004
  -1459783.81648  -1045028.31247  20182676.8054   20182675.7074       7198.6734
        51.5004         43.5004
  -2282740.81647  -1633525.58644  23296539.0554   23296541.5704       9308.5264
        45.0004         28.2504
  -2278398.26248  -1658719.25846  21230605.7274   21230607.8834       9199.1244
        51.7504         39.5004
 11 11 21 18 30  0.0000000  0  8G02G04G05G09G10G12G29G25
   -992970.76648   -701048.21146  20628826.4694   20628824.6484       5691.6274
        52.0004         41.7504
    -76451.10256     11923.42253  23360552.4774   23360557.2074       3690.2204
        40.2504         20.5004
  -2717238.75048  -2006415.56646  21866127.7344   21866129.1524       9584.5834
        48.5004         37.0004
    -11005.60546    121488.16843  23968268.6254   23968274.6024       3569.2964
        41.5004         21.7504
  -1212141.60246   -871610.13744  22221236.5164   22221239.5124       6137.0774
        41.7504         27.7504
  -1675200.06248  -1212885.14547  20141684.9144   20141683.6954       7180.5424
        53.0004         44.5004
  -2561931.36747  -1851076.60944  23243410.5314   23243413.3984       9306.3524
        43.7504         29.0004
  -2553957.62148  -1873440.82846  21178168.8054   21178171.0044       9185.3124
        51.7504         40.0004
 11 11 21 18 30 30.0000000  0  8G02G04G05G09G10G12G29G25
    412051.79348    393774.52046  20896193.6954   20896191.7274       5679.9154
        50.7504         40.5004
   1388359.44547   1153334.03144  23639296.2504   23639301.3364       3686.9824
        44.0004         26.0004
  -1428952.73448  -1002556.26246  22111280.2034   22111282.0744       9571.1334
        49.2504         37.0004
   1457359.01246   1265668.18043  24247689.3054   24247695.1054       3568.5134
        41.5004         22.0004
    179801.00047    213020.45745  22486115.1484   22486117.3634       6115.9134
        43.7504         31.7504
   -314641.62948   -152709.76247  20400590.4924   20400589.2344       7162.0524
        52.5004         44.0004
  -1265624.39847   -840967.20344  23490089.6094   23490092.5634       9303.7684
        44.5004         28.7504
  -1253668.22348   -860228.30146  21425605.6094   21425607.8554       9171.0204
        51.0004         40.5004
 11 11 21 18 31  0.0000000  0  8G02G04G05G09G10G12G29G25
    241984.91448    261254.80946  20863830.7894   20863828.9064       5668.8964
        51.2504         41.0004
   1277832.98847   1067209.34043  23618263.9924   23618269.1524       3684.2154
        43.2504         22.7504
  -1715707.13748  -1226001.14546  22056712.7424   22056714.2664       9558.4804
        49.7504         37.7504
   1350308.94146   1182252.31643  24227318.2894   24227324.7074       3568.3364
        40.5004         22.2504
     -3062.67647     70529.28545  22451317.0944   22451319.5124       6095.4564
        43.5004         31.2504
   -528969.66448   -319718.62547  20359805.2194   20359804.4414       7144.2684
        52.0004         43.5004
  -1544686.33247  -1058417.98444  23436985.5314   23436988.6524       9302.0644
        45.2504         28.5004
  -1528393.78948  -1074300.16846  21373326.7504   21373329.4104       9157.5194
        50.5004         40.0004
 11 11 21 18 31 30.0000000  0  8G02G04G05G09G10G12G29G25
     72250.66848    128994.30946  20831531.1644   20831529.7814       5657.8084
        50.2504         40.0004
   1167389.04347    981148.91444  23597247.4924   23597252.7854       3681.4654
        42.7504         24.5004
  -2002071.90248  -1449142.41446  22002218.8674   22002220.6764       9545.4924
        49.5004         37.7504
   1243262.73046   1098839.45343  24206948.8134   24206954.6054       3568.2074
        40.7504         22.5004
   -185309.15247    -71480.94545  22416636.6174   22416638.8524       6074.8834
        44.5004         31.7504
   -742758.15248   -486307.07047  20319122.5554   20319121.8054       7126.2834
        51.0004         44.7504
  -1823689.80947  -1275823.21144  23383892.9844   23383895.8094       9300.1164
        44.2504         28.2504
  -1802704.78948  -1288048.98846  21321127.3754   21321129.6024       9143.7004
        50.5004         40.5004
 11 11 21 18 32  0.0000000  0  8G02G04G05G09G10G12G29G25
    -97152.21548     -3008.00446  20799295.3134   20799293.4964       5646.7634
        50.5004         41.0004
   1057026.39847    895151.86344  23576246.6884   23576251.1994       3678.7554
        43.7504         24.5004
  -2288043.31648  -1671977.16846  21947800.5164   21947802.2424       9532.3804
        49.2504         37.5004
   1136218.05546   1015427.78944  24186579.0084   24186584.9414       3568.1564
        40.7504         24.0004
   -366938.37147   -213010.18745  22382073.6804   22382076.2384       6054.3074
        43.5004         30.2504
   -956005.19148   -652473.60247  20278543.0784   20278542.1094       7108.2354
        50.5004         44.5004
  -2102634.07047  -1493182.32444  23330811.8444   23330814.8834       9298.1424
        45.5004         28.7504
  -2076598.08648  -1501472.33246  21269006.9384   21269009.4454       9129.7774
        49.7504         40.5004
 11 11 21 18 32 30.0000000  0  8G02G04G05G09G10G12G29G25
   -266224.02048   -134752.33246  20767122.2734   20767119.8834       5635.7274
        50.5004         41.0004
    946744.18447    809217.44543  23555261.0084   23555265.4924       3676.0744
        43.0004         22.5004
  -2573617.25848  -1894502.19946  21893457.1024   21893458.9414       9519.1314
        48.5004         38.0004
   1029172.37946    932015.34843  24166208.8134   24166214.9964       3568.1894
        39.2504         22.5004
   -547950.32447   -354058.45745  22347627.8594   22347630.7234       6033.7324
        43.2504         31.2504
  -1168709.30548   -818217.07847  20238066.5164   20238065.7544       7090.1374
        49.7504         44.0004
  -2381518.05947  -1710494.46144  23277742.0634   23277744.6254       9296.1334
        46.5004         28.0004
  -2350070.27048  -1714567.53146  21216967.0704   21216969.4104       9115.7394
        51.0004         40.7504
 11 11 21 18 33  0.0000000  0  8G02G04G05G09G10G12G29G25
   -434967.40248   -266240.75446  20735010.9534   20735009.5164       5624.7794
        50.5004         40.5004
    836539.30947    723343.27043  23534289.4694   23534294.3134       3673.4964
        42.5004         22.7504
  -2858791.87148  -2116716.04746  21839190.2274   21839192.0354       9505.8204
        48.7504         38.0004
    922121.95746    848599.19943  24145837.9384   24145844.5204       3568.3474
        41.2504         22.7504
   -728346.53147   -494626.91845  22313300.2504   22313302.5234       6013.2074
        43.0004         30.7504
  -1380870.37948   -983537.40647  20197694.1414   20197692.9024       7072.0364
        50.7504         44.0004
  -2660342.48847  -1927760.21944  23224682.9454   23224686.0164       9294.1484
        45.0004         29.7504
  -2623119.78148  -1927333.37946  21165007.6804   21165009.7194       9101.6504
        49.5004         40.7504
 11 11 21 18 33 30.0000000  0  8G02G04G05G09G10G12G29G25
   -603382.41048   -397473.29346  20702963.1804   20702961.1954       5613.8344
        51.0004         41.0004
    726411.69947    637529.36744  23513332.9534   23513338.4614       3670.9204
        42.2504         24.2504
  -3143562.68748  -2338615.26246  21784999.9924   21785001.5704       9492.3614
        49.0004         37.5004
    815065.37546    765178.25443  24125466.6644   24125472.1724       3568.5534
        41.5004         22.5004
   -908126.05947   -634714.85945  22279089.0004   22279092.0664       5992.6514
        43.5004         31.5004
  -1592485.81648  -1148432.56647  20157424.9144   20157423.7464       7053.8484
        50.5004         44.5004
  -2939105.62147  -2144978.19144  23171636.6414   23171639.1374       9292.1044
        45.5004         29.5004
  -2895742.50448  -2139766.65246  21113128.9614   21113131.3984       9087.4244
        52.0004         40.5004
 11 11 21 18 34  0.0000000  0  8G02G04G05G09G10G12G29G25
    803955.55548    699153.62546  20970770.6804   20970768.5124       5602.7354
        51.0004         40.5004
   2191783.23046   1779377.05144  23792183.8364   23792189.1994       3668.2824
        41.5004         25.2504
  -1852496.87148  -1332589.81646  22030681.8914   22030683.0394       9478.4734
        49.2504         37.5004
   2283423.64546   1909353.31343  24404885.3134   24404891.3914       3568.7244
        41.5004         22.7504
    488136.71547    453282.09045  22544788.9534   22544791.6334       5971.9084
        43.2504         31.5004
   -228127.32848    -85296.09047  20417053.5634   20417052.5864       7035.3844
        49.5004         44.2504
  -1642377.28147  -1134540.47344  23418395.7664   23418397.9414       9289.7224
        45.0004         29.5004
  -1592506.62148  -1124258.16446  21361126.4454   21361129.0474       9072.8044
        51.2504         40.5004
 11 11 21 18 34 30.0000000  0  8G02G04G05G09G10G12G29G25
    636188.57048    568426.03146  20938845.5704   20938844.0474       5592.2334
        51.0004         41.0004
   2081800.28947   1693675.81644  23771255.8754   23771260.9614       3666.0984
        42.0004         24.5004
  -2136455.25448  -1553855.96146  21976646.1884   21976647.8244       9465.2794
        49.2504         37.2504
   2176342.28147   1825913.01643  24384509.2034   24384515.2194       3569.3794
        42.5004         22.2504
    309584.25047    314150.28145  22510812.2274   22510814.3874       5951.7494
        43.5004         31.0004
   -438652.78548   -249341.91847  20376991.9144   20376991.3794       7017.5154
        51.7504         44.0004
  -1921021.00847  -1351665.38345  23365371.9224   23365374.1564       9288.1244
        45.2504         30.5004
  -1864272.40648  -1336023.68446  21309410.9534   21309413.4494       9058.8604
        51.5004         41.0004
 11 11 21 18 35  0.0000000  0  8G02G04G05G09G10G12G29G25
    468741.58248    437947.78946  20906981.7504   20906980.0004       5581.5664
        50.7504         40.0004
   1971885.51646   1608027.68043  23750339.8444   23750344.8554       3663.8264
        40.0004         23.7504
  -2420004.05548  -1774802.94946  21922688.4384   21922690.1604       9451.6274
        49.0004         37.2504
   2069242.80547   1742458.66843  24364129.1484   24364135.0124       3569.9834
        42.0004         22.0004
    131642.44947    175494.29345  22476950.7734   22476953.0124       5931.3934
        43.7504         31.0004
   -648633.42648   -412963.21547  20337033.9844   20337033.2154       6999.3554
        49.2504         44.5004
  -2199605.97347  -1568744.52044  23312358.0944   23312361.5274       9286.1654
        44.7504         29.7504
  -2135607.31648  -1547453.46946  21257778.1094   21257780.5944       9044.4974
        50.0004         40.5004
 11 11 21 18 35 30.0000000  0  8G02G04G05G09G10G12G29G25
    301616.78948    307720.59846  20875179.0234   20875176.9144       5570.8264
        51.0004         40.7504
   1862040.59046   1522433.97743  23729437.1804   23729442.0554       3661.4984
        41.7504         22.5004
  -2703137.37548  -1995426.19546  21868809.7664   21868811.4774       9437.7774
        49.2504         37.5004
   1962125.47347   1658990.37143  24343744.6024   24343751.4064       3570.5784
        42.5004         22.7504
    -45685.71147     37316.46145  22443205.3284   22443208.8524       5910.9394
        44.5004         31.2504
   -858064.43748   -576156.22347  20297180.5554   20297179.5314       6981.0344
        51.7504         44.5004
  -2478128.94547  -1785775.33645  23259357.6334   23259359.9774       9284.0994
        45.0004         30.5004
  -2406505.44148  -1758542.89146  21206227.5704   21206229.9884       9029.9384
        51.0004         41.5004
 11 11 21 18 36  0.0000000  0  8G02G04G05G09G10G12G29G25
    134820.21548    177749.18046  20843438.9384   20843436.9534       5559.8864
        51.2504         40.5004
   1752271.32446   1436899.23444  23708548.6024   23708554.0824       3658.9764
        41.2504         24.7504
  -2985844.35548  -2215717.23446  21815012.0474   21815014.0314       9423.5664
        50.0004         37.0004
   1854994.89147   1575511.74643  24323359.5234   24323365.3404       3571.0194
        42.0004         22.7504
   -222393.39147   -100377.88745  22409579.7424   22409582.4064       5890.2564
        44.2504         30.2504
  -1066937.64148   -738914.57447  20257433.0784   20257431.8834       6962.4404
        51.2504         44.2504
  -2756581.47747  -2002751.27345  23206368.9924   23206372.4024       9281.7514
        44.5004         31.2504
  -2676956.64848  -1969284.07846  21154762.3524   21154764.9024       9015.0404
        50.0004         41.0004
 11 11 21 18 36 30.0000000  0  8G02G04G05G09G10G12G29G25
    -31653.47748     48029.34446  20811759.8674   20811758.1804       5549.1234
        51.2504         41.0004
   1642572.36347   1351419.25443  23687674.3754   23687679.3164       3656.6324
        43.0004         22.7504
  -3268125.67648  -2435676.60246  21761295.7114   21761297.5904       9409.3774
        49.7504         36.7504
   1747844.77047   1492017.91443  24302968.6644   24302975.9734       3571.6714
        42.0004         22.0004
   -398485.02047   -237592.21945  22376070.6564   22376073.4414       5869.7214
        44.5004         30.7504
  -1275255.84048   -901240.45747  20217791.8914   20217790.8674       6943.9404
        51.5004         44.5004
  -3034967.36347  -2219675.26645  23153394.0004   23153396.7234       9279.5304
        45.2504         30.2504
  -2946962.04748  -2179677.87546  21103382.1884   21103384.4454       9000.1804
        51.7504         41.0004
 11 11 21 18 37  0.0000000  0  8G02G04G05G09G10G12G29G25
   -197804.82848    -81439.30946  20780142.3134   20780140.6484       5538.3784
        52.0004         40.5004
   1532942.77747   1265993.34843  23666811.7274   23666817.4384       3654.3204
        42.2504         22.7504
  -3549977.71948  -2655301.47346  21707661.6094   21707662.7734       9395.0684
        48.2504         37.2504
   1640672.88346   1408507.08643  24282575.8594   24282581.9534       3572.3964
        41.5004         22.2504
   -573960.85247   -374326.70345  22342678.6024   22342681.6254       5849.1944
        44.5004         31.2504
  -1483017.52348  -1063132.69947  20178256.0234   20178255.0004       6925.3894
        50.0004         44.2504
  -3313285.36347  -2436546.35945  23100431.9844   23100434.5274       9277.2674
        43.7504         31.7504
  -3216518.48448  -2389721.83646  21052087.1724   21052089.6214       8985.2154
        50.5004         40.7504
 11 11 21 18 37 30.0000000  0  8G02G04G05G09G10G12G29G25
   -363635.84048   -210658.33646  20748585.7734   20748583.9534       5527.7004
        51.0004         40.2504
   1423380.34846   1180619.77343  23645963.0004   23645968.9104       3652.0814
        41.5004         22.7504
  -3831397.98048  -2874589.90246  21654108.8054   21654110.2664       9380.6754
        49.7504         37.2504
   1533476.22346   1324976.95343  24262176.0234   24262183.3674       3573.2224
        40.7504         22.5004
   -748821.99647   -510582.23845  22309403.8364   22309406.6334       5828.7054
        45.5004         30.5004
  -1690221.94548  -1224590.70347  20138826.1804   20138825.3754       6906.8144
        50.7504         44.2504
  -3591535.68747  -2653364.72745  23047482.1094   23047485.6254       9275.0114
        44.5004         30.0004
  -3485623.71548  -2599414.19946  21000878.1334   21000880.5164       8970.1744
        50.2504         41.0004
 11 11 21 18 38  0.0000000  0  8G02G04G05G09G10G12G29G25
   1046274.06348    887972.69546  21016882.6414   21016881.0274       5517.0034
        51.5004         40.0004
   2889303.65247   2322897.41843  23924919.2194   23924925.5394       3649.8904
        42.0004         22.7504
  -2536957.65248  -1865935.02746  21900432.3984   21900434.2194       9365.9894
        49.7504         37.2504
   3001672.12546   2469025.46143  24541564.8674   24541572.0084       3574.1374
        39.0004         21.2504
    652352.99647    581242.33245  22576038.4844   22576041.5084       5808.1674
        44.7504         30.0004
   -321445.02348   -158011.29747  20399295.5394   20399294.9534       6888.1034
        51.0004         44.2504
  -2294292.05147  -1642525.44945  23294339.7424   23294342.1954       9272.5454
        44.5004         30.7504
  -2178849.71948  -1581148.72346  21249549.0084   21249551.2894       8954.8674
        50.5004         41.2504
 11 11 21 18 38 30.0000000  0  8G02G04G05G09G10G12G29G25
    881067.81648    759240.51246  20985445.0394   20985443.2464       5506.8754
        51.5004         40.0004
   2779859.14847   2237615.76243  23904092.1024   23904099.2304       3648.1504
        42.0004         22.0004
  -2817516.90648  -2084552.55546  21847043.7274   21847045.1254       9351.9754
        50.2504         37.5004
   2894405.94946   2385441.14143  24521153.5004   24521159.7734       3575.5394
        40.0004         22.0004
    478706.76247    445933.45345  22542994.7814   22542997.8204       5788.2084
        45.0004         30.2504
   -527544.00848   -318607.92647  20360076.4614   20360075.4734       6869.9664
        49.5004         44.2504
  -2572416.94947  -1859246.06645  23241413.8204   23241417.5704       9270.8304
        45.5004         30.5004
  -2447056.43448  -1790140.94146  21198510.9454   21198513.4304       8940.2244
        49.7504         41.5004
 11 11 21 18 39  0.0000000  0  8G02G04G05G09G10G12G29G25
    716168.77748    630747.70346  20954065.8674   20954064.0744       5496.6354
        51.7504         40.5004
   2670468.30547   2152375.88743  23883276.8834   23883282.6604       3646.3614
        43.0004         22.5004
  -3097643.94548  -2302833.30146  21793736.9384   21793738.7774       9337.5684
        48.2504         37.5004
   2787098.00446   2301824.29343  24500734.5164   24500739.6804       3576.9324
        40.5004         21.5004
    305663.84847    311094.69545  22510066.2034   22510068.7034       5768.0974
        43.0004         30.7504
   -733092.05148   -478775.25447  20320962.0314   20320961.1994       6851.6014
        49.2504         44.0004
  -2850482.08247  -2075920.13745  23188500.3134   23188502.7974       9268.8384
        43.7504         31.5004
  -2714812.98848  -1998782.39146  21147558.7114   21147560.9384       8925.2184
        50.5004         41.5004
 11 11 21 18 39 30.0000000  0  8G02G04G05G09G10G12G29G25
    551575.42248    502493.10546  20922744.9844   20922743.1644       5486.4454
        52.0004         40.5004
   2561129.27047   2067176.39544  23862469.9144   23862476.2774       3644.6354
        42.5004         24.7504
  -3377335.93448  -2520775.04346  21740513.3754   21740514.8054       9323.0664
        50.0004         37.2504
   2679745.48046   2218172.69143  24480305.2274   24480312.3524       3578.4174
        40.5004         22.2504
    133223.61347    176725.55945  22477252.1334   22477254.7234       5748.0084
        43.5004         31.2504
   -938088.28948   -638512.60547  20281952.5394   20281951.8244       6833.2084
        51.0004         44.7504
  -3128486.50847  -2292546.89145  23135597.5944   23135600.4804       9266.8144
        46.2504         30.2504
  -2982116.91848  -2207071.15246  21096692.3914   21096694.7544       8910.1314
        52.0004         41.7504
 11 11 21 18 40  0.0000000  0  8G02G04G05G09G10G12G29G25
    387280.99248    374471.44146  20891480.8594   20891479.0124       5476.4814
        52.2504         39.2504
   2451835.03947   1982011.81343  23841672.0164   23841678.7974       3643.1414
        42.2504         22.7504
  -3656595.34048  -2738379.71146  21687372.3984   21687373.4654       9308.6474
        49.7504         37.2504
   2572340.48046   2134480.19943  24459866.4304   24459874.2464       3580.1674
        41.0004         22.0004
    -38620.15247     42821.20745  22444551.0314   22444553.7584       5728.1264
        43.2504         30.5004
  -1142537.23848   -797823.50047  20243047.5234   20243046.2504       6814.9654
        50.2504         44.5004
  -3406435.33647  -2509130.32845  23082706.1024   23082708.3954       9264.9614
        46.7504         31.5004
  -3248971.06648  -2415009.43046  21045911.6564   21045914.2774       8895.1384
        51.5004         41.5004
 11 11 21 18 40 30.0000000  0  8G02G04G05G09G10G12G29G25
    223283.99648    246681.54346  20860273.1094   20860271.4844       5466.5674
        51.5004         39.2504
   2342584.25846   1896881.09843  23820883.3754   23820888.8404       3641.6934
        41.2504         22.5004
  -3935419.39148  -2955645.14546  21634313.7114   21634314.9694       9294.1354
        50.2504         37.5004
   2464880.21546   2050744.64143  24439417.2814   24439425.0634       3582.0094
        39.5004         22.2504
   -209868.60947    -90619.28944  22411963.4534   22411966.5704       5708.2824
        44.2504         29.7504
  -1346437.75048   -956707.05147  20204246.4774   20204245.3674       6796.6844
        51.0004         44.2504
  -3684328.10947  -2725670.09045  23029824.4924   23029827.2504       9263.0924
        47.0004         31.0004
  -3515372.75048  -2622595.14846  20995217.4064   20995219.5984       8880.0564
        52.5004         41.7504
 11 11 21 18 41  0.0000000  0  8G02G04G05G09G10G12G29G25
     59584.52748    119123.48846  20829122.5004   20829120.4304       5456.6494
        52.2504         40.2504
   2233376.86746   1811784.18443  23800101.7424   23800107.9104       3640.2464
        41.0004         22.5004
  -4213802.91448  -3172567.31646  21581339.2034   21581340.3244       9279.4514
        50.0004         37.7504
   2357363.65646   1966965.18043  24418958.8674   24418965.9964       3583.8854
        40.2504         22.0004
   -380521.34047   -223595.56645  22379490.0234   22379492.6764       5688.4244
        44.0004         30.5004
  -1549787.80548  -1115161.66847  20165550.1644   20165549.1844       6778.3354
        50.0004         44.2504
  -3962162.66447  -2942164.49645  22976954.2424   22976957.0944       9261.1524
        46.5004         31.0004
  -3781317.93748  -2829825.15646  20944609.6024   20944611.8874       8864.8404
        51.5004         41.7504
 11 11 21 18 41 30.0000000  0  8G02G04G05G09G10G12G29G25
   1471604.21548   1219398.53946  21097820.4224   21097818.5594       5446.6774
        51.7504         39.0004
   3699632.28946   2954320.64843  24079120.5864   24079127.4614       3638.8194
        40.5004         22.7504
  -2916316.76248  -2161539.07846  21828242.5784   21828243.4614       9264.4624
        50.7504         37.7504
   3825208.94946   3110740.44543  24698280.1804   24698287.9964       3585.8244
        40.0004         22.0004
   1024843.89847    871494.10544  22646922.2194   22646925.1054       5668.4924
        43.0004         29.7504
   -177162.49648    -45583.53947  20426752.1334   20426751.4454       6759.8234
        50.5004         45.2504
  -2664511.97747  -1931008.05545  23223889.1724   23223892.0634       9258.9774
        45.7504         31.7504
  -2471377.93748  -1809092.68446  21193882.6954   21193885.4694       8849.3334
        52.5004         41.2504
 11 11 21 18 42  0.0000000  0  8G02G04G05G09G10G12G29G25
   1308490.93048   1092297.25846  21066781.2814   21066779.3794       5437.1104
        52.0004         39.7504
   3590502.19946   2869283.95743  24058354.9064   24058360.7774       3637.6704
        40.5004         22.2504
  -3193816.13748  -2377772.30146  21775435.6414   21775437.3204       9249.9794
        50.7504         38.2504
   3717566.75846   3026863.11343  24677795.9304   24677804.2344       3588.0734
        39.5004         22.0004
    855375.05947    739440.35945  22614673.3594   22614676.0784       5648.9614
        44.5004         30.0004
   -379414.25048   -203182.35247  20388265.0004   20388263.9064       6741.7254
        50.2504         44.7504
  -2942233.87547  -2147414.67245  23171040.2274   23171042.5434       9257.3974
        46.2504         31.5004
  -2736407.49648  -2015609.21546  21143449.2734   21143451.8954       8834.3194
        52.2504         41.7504
 11 11 21 18 42 30.0000000  0  8G02G04G05G09G10G12G29G25
   1145666.85948    965421.33246  21035796.8284   21035794.8554       5427.4694
        52.5004         40.2504
   3481406.87946   2784274.37943  24037594.4064   24037601.1134       3636.5114
        40.5004         22.5004
  -3470870.79748  -2593658.99646  21722714.4064   21722715.7894       9235.1554
        51.0004         38.5004
   3609856.14546   2942932.44143  24657300.3284   24657307.7704       3590.3544
        40.0004         21.0004
    686495.17647    607845.54345  22582536.6884   22582539.2034       5629.3294
        43.5004         30.0004
   -581117.17648   -360353.50447  20349881.9144   20349880.8014       6723.4314
        50.0004         44.5004
  -3219900.39847  -2363778.14845  23118201.8444   23118204.4614       9255.5514
        46.5004         31.2504
  -3000976.93048  -2221767.20346  21093103.2894   21093105.7854       8818.9814
        52.0004         41.5004
 11 11 21 18 43  0.0000000  0  8G02G04G05G09G10G12G29G25
    983125.80148    838765.93446  21004866.0944   21004864.5274       5418.0354
        51.5004         39.7504
   3372339.98446   2699286.92243  24016840.2344   24016846.2544       3635.5634
        39.7504         22.5004
  -3747482.47748  -2809200.50446  21670077.0234   21670077.8094       9220.3894
        50.5004         38.0004
   3502069.57846   2858942.53943  24636790.4924   24636797.2034       3592.8864
        39.7504         21.5004
    518198.27047    476705.01645  22550510.2344   22550513.8444       5609.8974
        45.2504         30.0004
   -782275.27748   -517100.11347  20311603.0234   20311602.0944       6705.2704
        50.0004         44.2504
  -3497515.96147  -2580101.90645  23065373.8134   23065375.8134       9253.8524
        46.7504         30.2504
  -3265088.67248  -2427568.55946  21042844.7974   21042846.8484       8803.7254
        50.5004         41.7504
 11 11 21 18 43 30.0000000  0  8G02G04G05G09G10G12G29G25
    820873.02048    712335.16846  20973990.8754   20973989.0234       5408.4264
        52.0004         39.2504
   3263306.61346   2614325.63343  23996091.8984   23996098.5084       3634.4464
        40.2504         21.5004
  -4023641.65648  -3024389.40646  21617525.6724   21617526.3984       9205.3064
        50.7504         38.5004
   3394211.12546   2774896.69943  24616265.4454   24616272.1294       3595.2824
        40.0004         20.7504
    350490.29747    346023.40645  22518597.4064   22518599.9614       5590.2664
        44.5004         30.0004
   -982881.19148   -673416.45347  20273429.2664   20273428.3984       6686.8644
        51.5004         44.0004
  -3775073.21547  -2796380.23445  23012555.9924   23012558.5594       9251.9084
        46.0004         31.2504
  -3528733.47348  -2633006.06246  20992674.8054   20992676.9734       8788.1604
        53.0004         41.5004
 11 11 21 18 44  0.0000000  0  8G02G04G05G09G10G12G29G25
    658901.30548    586123.40646  20943168.3914   20943166.6764       5399.0574
        51.2504         39.5004
   3154299.62946   2529384.87143  23975348.5084   23975355.6134       3633.5664
        40.5004         23.0004
  -4299350.93748  -3239227.75446  21565059.7194   21565060.5164       9190.3094
        49.0004         38.7504
   3286272.59846   2690788.41043  24595726.2274   24595732.8094       3597.9514
        39.0004         20.0004
    183364.42247    215795.38345  22486793.8914   22486797.2814       5570.8634
        45.5004         30.0004
  -1182940.32048   -829306.72347  20235358.9614   20235358.3364       6668.6384
        50.7504         43.7504
  -4052577.50447  -3012617.29345  22959748.5474   22959751.2304       9250.1434
        42.7504         31.2504
  -3791914.56648  -2838082.23846  20942592.8524   20942595.0514       8772.7034
        52.7504         41.2504
 11 11 21 18 44 30.0000000  0  8G02G04G05G09G10G12G29G25
    497210.81648    460130.77346  20912400.2504   20912398.3914       5389.6834
        51.5004         39.7504
   3045319.12946   2444464.73443  23954609.9304   23954616.9534       3632.6834
        40.5004         21.7504
  -4574606.23048  -3453712.34046  21512680.4844   21512681.3014       9175.1764
        50.2504         38.7504
   3178252.91046   2606616.90243  24575170.3134   24575178.0004       3600.6564
        37.7504         20.7504
     16821.02347     86021.24645  22455101.9224   22455105.1454       5551.4474
        44.2504         30.0004
  -1382449.99648   -984768.85247  20197393.5634   20197392.7384       6650.3234
        50.7504         44.0004
  -4330026.71947  -3228811.44145  22906951.8984   22906954.2584       9248.3074
        45.5004         31.0004
  -4054627.94548  -3042793.96146  20892600.1804   20892602.7734       8757.1134
        51.2504         41.0004
 11 11 21 18 45  0.0000000  0  8G02G04G05G09G10G12G29G25
    335801.84848    334357.50446  20881684.6334   20881683.4064       5380.2994
        51.7504         39.7504
   2936365.39846   2359565.47343  23933877.2344   23933884.3484       3631.7914
        39.5004         22.2504
  -4849402.72748  -3667839.42646  21460388.1254   21460389.2854       9159.8834
        49.2504         39.0004
   3070151.28146   2522381.50043  24554599.5944   24554606.8714       3603.3884
        38.0004         21.5004
   -149139.17647    -43298.44145  22423521.3524   22423524.2934       5532.0074
        45.0004         30.2504
  -1581407.79748  -1139800.94947  20159533.4844   20159532.5514       6631.9274
        51.2504         44.0004
  -4607418.45747  -3444960.79745  22854165.7504   22854168.2734       9246.3914
        45.5004         31.0004
  -4316869.34848  -3247137.91446  20842697.3524   20842699.9144       8741.3804
        53.0004         41.5004
 11 11 21 18 45 30.0000000  0  8G02G04G05G09G10G12G29G25
   1750096.37548   1436405.13746  21150815.9844   21150814.6414       5370.8494
        51.5004         40.0004
   4402858.32046   3502286.98043  24212941.9064   24212948.6484       3630.9034
        39.0004         21.0004
  -3548310.93048  -2654001.60246  21707977.4694   21707979.0904       9144.2734
        49.7504         39.0004
   4537386.51246   3665681.32043  24833805.3674   24833813.1374       3606.1594
        38.7504         20.0004
   1260905.69947   1055437.77745  22691843.7504   22691846.5164       5512.5044
        43.2504         30.2504
   -204388.92248    -66799.27347  20421571.2814   20421570.1724       6613.3714
        51.5004         44.0004
  -3309325.72347  -2433459.90645  23101184.7194   23101187.5314       9244.2424
        44.5004         30.7504
  -3003209.88348  -2223507.15246  21092678.3594   21092680.5904       8725.3514
        52.2504         41.7504
 11 11 21 18 46  0.0000000  0  8G02G04G05G09G10G12G29G25
   1589240.18048   1311062.58646  21120206.2584   21120204.3594       5361.8734
        51.0004         39.7504
   4293947.35246   3417421.03943  24192216.6334   24192223.9884       3630.3664
        37.7504         22.0004
  -3822187.82048  -2867412.12146  21655860.2734   21655861.5474       9129.2304
        48.0004         39.0004
   4429107.09846   3581307.39543  24813200.6414   24813208.8634       3609.3144
        37.2504         20.2504
   1096101.72347    927019.05544  22660482.6414   22660485.5554       5493.4664
        43.5004         29.5004
   -402247.93448   -220975.16447  20383919.7424   20383918.9264       6595.3004
        50.5004         43.7504
  -3586607.82047  -2649523.83645  23048419.5784   23048421.9804       9242.7374
        43.5004         31.5004
  -3264506.30948  -2427114.76646  21042955.1884   21042957.9694       8709.8814
        51.5004         41.5004
 11 11 21 18 46 30.0000000  0  8G02G04G05G09G10G12G29G25
   1428654.44948   1185930.78146  21089647.7974   21089645.8674       5352.8584
        51.2504         40.2504
   4185052.02746   3332567.29343  24171494.8674   24171502.2344       3629.8444
        37.5004         21.7504
  -4095604.32448  -3080463.87946  21603830.8594   21603832.6844       9113.8834
        49.0004         39.0004
   4320731.18046   3496858.22743  24792577.9224   24792585.8284       3612.5314
        37.0004         20.5004
    931870.25847    799046.44545  22629229.9694   22629233.3164       5474.3824
        43.5004         30.0004
   -599560.42648   -374725.20347  20346372.5704   20346371.7664       6577.0834
        51.7504         44.5004
  -3863837.71547  -2865547.07445  22995665.1024   22995666.7584       9240.9964
        44.7504         31.5004
  -3525330.27348  -2630354.21146  20993322.0864   20993324.3834       8694.1324
        52.2504         41.5004
 11 11 21 18 47  0.0000000  0  8G02G04G05G09G10G12G29G25
   1268342.83648   1061012.57446  21059141.6884   21059139.9184       5343.7204
        51.5004         39.7504
   4076175.87546   3247728.49643  24150777.1884   24150783.6564       3629.2054
        39.0004         21.0004
  -4368552.54748  -3293150.75446  21551890.4614   21551892.1454       9098.2744
        49.2504         39.0004
   4212261.34446   3412335.87543  24771937.8914   24771945.0274       3615.6614
        38.2504         20.5004
    768215.60247    671523.27744  22598088.1954   22598090.9454       5455.1554
        44.7504         29.5004
   -796320.57448   -528044.84447  20308930.6174   20308929.6174       6558.6724
        49.5004         43.7504
  -4141010.24647  -3081525.62945  22942920.3674   22942922.6454       9239.0844
        45.0004         31.0004
  -3785674.33248  -2833219.71147  20943780.4144   20943782.8284       8678.1354
        52.0004         42.0004
 11 11 21 18 47 30.0000000  0  8G02G04G05G09G10G12G29G25
   1108301.41048    936304.90246  21028686.5944   21028685.0474       5334.7144
        51.0004         39.5004
   3967315.08246   3162901.64143  24130060.6254   24130068.5204       3628.6934
        38.7504         21.5004
  -4641032.28148  -3505472.57046  21500039.6884   21500040.9144       9082.6584
        50.0004         39.5004
   4103692.73046   3327736.63743  24751276.6414   24751285.2034       3618.9544
        37.5004         20.5004
    605133.88747    544446.57444  22567054.1884   22567057.4384       5436.0574
        43.5004         29.7504
   -992530.18448   -680935.48447  20271593.1414   20271592.3094       6540.3204
        51.0004         44.0004
  -4418127.01647  -3297460.73445  22890186.6484   22890188.6604       9237.2264
        45.0004         31.0004
  -4045538.39548  -3035711.18446  20894329.8754   20894332.4614       8662.1354
        52.2504         41.2504
 11 11 21 18 48  0.0000000  0  8G02G04G05G09G10G12G29G25
    948526.51248    811804.90646  20998282.7734   20998281.2384       5325.8304
        50.7504         39.2504
   3858465.82446   3078083.79343  24109348.1024   24109355.7704       3628.3094
        40.0004         21.2504
  -4913042.99248  -3717428.91446  21448277.0234   21448278.5664       9067.0244
        50.0004         39.2504
   3995020.34846   3243056.44943  24730598.6174   24730606.4804       3622.4134
        40.2504         20.2504
    442621.41447    417813.42644  22536129.3284   22536132.2304       5417.0824
        45.0004         29.5004
  -1188191.28548   -833398.72347  20234360.0314   20234359.2234       6522.0374
        51.5004         44.0004
  -4695190.11347  -3513354.02745  22837463.4694   22837465.4304       9235.4374
        45.0004         31.5004
  -4304922.45748  -3237828.63346  20844970.7974   20844973.2734       8646.1354
        53.0004         41.5004
 11 11 21 18 48 30.0000000  0  8G02G04G05G09G10G12G29G25
    789016.58248    687511.37546  20967929.0704   20967927.2424       5316.9984
        50.5004         39.2504
   3749626.82446   2993273.92643  24088637.1884   24088644.2424       3627.9674
        41.2504         20.0004
  -5184581.94948  -3929017.65646  21396605.5554   21396606.5394       9051.2994
        50.5004         39.0004
   3886241.77346   3158293.55543  24709898.0084   24709906.9184       3625.9524
        41.0004         21.0004
    280676.84047    291622.78944  22505312.3204   22505315.6054       5398.1524
        44.2504         29.7504
  -1383303.31648   -985434.10947  20197231.5864   20197230.7504       6503.7344
        51.7504         44.5004
  -4972198.74247  -3729204.87945  22784749.7664   22784752.4064       9233.6214
        44.5004         31.5004
  -4563824.19548  -3439570.23847  20795703.4384   20795706.0084       8630.0584
        52.2504         42.2504
 11 11 21 18 49  0.0000000  0  8G02G04G05G09G10G12G29G25
   2205195.76248   1791027.54346  21237418.9614   21237417.4694       5308.0274
        49.5004         39.5004
   5216220.54746   4136073.98843  24367721.2974   24367727.7854       3627.5434
        40.7504         21.5004
  -3880217.16448  -2912629.46146  21644817.7814   21644818.9844       9035.1744
        49.5004         39.2504
   5352778.11846   4301048.75243  24988971.5004   24988979.8094       3629.4554
        38.7504         21.2504
   1694724.55547   1393478.07845  22774396.8284   22774399.7854       5379.0764
        42.2504         30.5004
     -2438.85948     90564.13347  20460001.5234   20460000.7194       6485.1854
        52.2504         44.2504
  -3673722.84447  -2717405.44945  23031842.4774   23031844.4064       9231.4704
        45.0004         30.7504
  -3246812.36748  -2413327.25047  21046322.1414   21046325.0004       8613.6064
        53.0004         42.0004
 11 11 21 18 49 30.0000000  0  8G02G04G05G09G10G12G29G25
   2046210.66448   1667142.97346  21207165.3204   21207163.4694       5299.5034
        50.0004         39.5004
   5107396.96546   4051276.14543  24347012.8834   24347019.9454       3627.4534
        39.2504         21.5004
  -4150805.37548  -3123477.37946  21593326.3444   21593327.6604       9019.6074
        49.7504         39.0004
   5243778.34046   4216113.48843  24968228.9144   24968238.4104       3633.3264
        39.0004         19.7504
   1533911.28547   1268168.97744  22743794.9774   22743799.0904       5360.4424
        44.2504         29.0004
   -196452.33648    -60615.23447  20423081.8834   20423080.9844       6467.1164
        51.7504         44.5004
  -3950621.84847  -2933170.88345  22979149.5784   22979152.1174       9229.9674
        44.5004         31.5004
  -3504743.27048  -2614312.35947  20997239.5004   20997242.1294       8597.6974
        52.5004         42.2504
 11 11 21 18 50  0.0000000  0  8G02G04G05G09G10G12G29G25
   1887484.53148   1543460.19546  21176960.8754   21176958.9924       5290.8714
        49.5004         39.5004
   4998577.39846   3966481.43443  24326305.5944   24326312.1024       3627.3194
        40.7504         21.5004
  -4420916.09848  -3333953.22346  21541925.9304   21541927.1764       9003.6914
        49.0004         38.5004
   5134662.51646   4131087.72743  24947466.3284   24947474.5784       3637.1944
        39.2504         20.0004
   1373660.08647   1143297.83244  22713300.1564   22713303.6214       5341.7074
        42.2504         28.5004
   -389917.45748   -211367.31247  20386266.4774   20386266.0204       6448.8374
        52.5004         44.7504
  -4227466.93447  -3148894.30545  22926468.1254   22926470.2544       9228.1704
        44.7504         32.0004
  -3762186.69948  -2814917.62947  20948249.6024   20948252.0354       8581.4484
        52.7504         42.2504
 11 11 21 18 50 30.0000000  0  8G02G04G05G09G10G12G29G25
   1729015.93448   1419978.09046  21146805.3134   21146803.3914       5282.2874
        50.2504         39.0004
   4889760.61346   3881688.88743  24305598.1254   24305605.1804       3627.2264
        39.2504         21.5004
  -4690546.07848  -3544054.45346  21490617.0704   21490618.2464       8987.6664
        48.2504         38.5004
   5025428.35546   4045969.79343  24926679.6094   24926688.1884       3641.1394
        38.7504         19.7504
   1213969.53547   1018863.56344  22682912.2194   22682915.6374       5323.0184
        43.7504         29.7504
   -582833.69148   -361691.68047  20349555.7274   20349555.1954       6430.5414
        51.5004         44.2504
  -4504257.24247  -3364575.04745  22873796.7274   22873798.5744       9226.3444
        45.0004         31.5004
  -4019140.28948  -3015141.20747  20899353.1024   20899355.7114       8565.1204
        53.0004         42.0004
 11 11 21 18 51  0.0000000  0  8G02G04G05G09G10G12G29G25
   1570801.82048   1296694.28546  21116698.0634   21116696.4384       5273.8044
        50.0004         39.0004
   4780943.72746   3796896.25443  24284891.0004   24284898.6294       3627.2304
        38.2504         21.2504
  -4959694.15248  -3753780.18046  21439399.8284   21439400.9964       8971.6024
        48.7504         39.2504
   4916072.24246   3960756.80543  24905870.3524   24905878.8054       3645.2044
        39.7504         19.7504
   1054836.78547    894863.92644  22652630.8134   22652634.0554       5304.4254
        42.0004         28.7504
   -775202.25448   -511589.28947  20312949.4064   20312948.7074       6412.2854
        51.2504         43.5004
  -4780993.70347  -3580213.82445  22821135.5554   22821137.6454       9224.5494
        45.7504         32.2504
  -4275603.15648  -3214982.40646  20850549.7894   20850552.6054       8548.7624
        52.2504         41.7504
 11 11 21 18 51 30.0000000  0  8G02G04G05G09G10G12G29G25
   1412841.75848   1173608.44146  21086639.2814   21086638.0164       5265.3354
        49.5004         39.0004
   4672126.23046   3712103.14143  24264183.5704   24264191.4614       3627.2504
        39.7504         21.5004
  -5228357.07048  -3963127.85946  21388274.8914   21388276.2814       8955.4314
        48.7504         38.7504
   4806592.38746   3875447.43843  24885037.2194   24885045.9844       3649.3294
        39.0004         19.7504
    896261.16047    771298.42245  22622454.4384   22622457.8674       5285.8544
        42.2504         30.2504
   -967021.76648   -661059.06247  20276447.3834   20276446.8444       6393.9844
        51.5004         44.0004
  -5057675.05947  -3795809.66045  22768484.8834   22768486.6684       9222.7124
        45.0004         32.7504
  -4531572.19148  -3414438.80146  20801840.6094   20801843.5474       8532.3014
        53.2504         41.7504
 11 11 21 18 52  0.0000000  0  8G02G04G05G09G10G12G29G25
   1255134.54748   1050719.62946  21056628.8524   21056627.3244       5256.9074
        49.2504         38.5004
   4563307.43446   3627309.01243  24243477.2034   24243484.7154       3627.2934
        39.2504         20.7504
  -5496531.82048  -4172095.16446  21337243.2504   21337244.0634       8939.1584
        48.5004         38.5004
   4696986.50046   3790039.82443  24864180.4144   24864188.6884       3653.5304
        40.0004         18.5004
    738241.75047    648166.33244  22592384.2344   22592388.2544       5267.3144
        43.0004         29.5004
  -1158291.58648   -810100.50847  20240049.6884   20240049.4454       6375.6614
        51.5004         44.2504
  -5334300.34447  -4011361.80545  22715844.0554   22715846.7194       9220.8434
        45.5004         32.2504
  -4787044.78948  -3613508.35547  20753226.0084   20753228.2464       8515.7534
        53.2504         42.2504
 11 11 21 18 52 30.0000000  0  8G02G04G05G09G10G12G29G25
   1097678.08248    928026.21146  21026665.8284   21026664.7504       5248.5494
        49.2504         39.5004
   4454484.97746   3542512.06343  24222768.5084   24222776.3404       3627.4154
        40.2504         20.7504
  -5764216.39848  -4380680.51646  21286304.4924   21286305.4574       8922.8194
        50.2504         38.5004
   4587251.44946   3704531.60243  24843297.5234   24843307.2544       3657.8354
        39.5004         19.0004
    580776.24247    525465.84844  22562419.5554   22562423.3524       5248.8504
        43.5004         29.0004
  -1349012.44148   -958714.18447  20203757.0634   20203756.1884       6357.3624
        50.7504         44.0004
  -5610869.74647  -4226870.39845  22663214.8204   22663217.4534       9218.9804
        45.0004         31.7504
  -5042019.41448  -3812189.88347  20704705.7344   20704708.5044       8499.1544
        53.5004         42.7504
 11 11 21 18 53  0.0000000  0  8G02G04G05G09G10G12G29G25
   2515896.58648   2033131.47346  21296543.6884   21296542.4454       5240.0504
        49.0004         38.5004
   5921081.44946   4685314.24643  24501853.9454   24501860.7424       3627.4514
        40.5004         20.7504
  -4455979.16048  -3361274.84846  21535253.4384   21535254.6564       8906.0924
        49.2504         39.0004
   6052808.79746   4846523.87143  25122185.4534   25122194.3324       3662.0884
        40.2504         20.2504
   1999288.64547   1630800.09045  22832353.4774   22832356.9694       5230.2534
        42.0004         30.0004
     36242.71948    120705.40647  20467362.5784   20467361.8914       6338.8284
        50.7504         43.7504
  -4311953.11747  -3214727.52745  22910391.2344   22910393.1334       9216.7794
        45.5004         32.5004
  -3721065.10949  -2782874.84447  20956075.1024   20956077.7774       8482.1904
        54.5004         42.7504
 11 11 21 18 53 30.0000000  0  8G02G04G05G09G10G12G29G25
   2358940.23448   1910827.75046  21266676.3524   21266674.8594       5231.8784
        48.7504         38.7504
   5812250.73446   4600510.84043  24481143.7424   24481150.8244       3627.6904
        41.2504         20.0004
  -4722673.07448  -3569088.25046  21484503.2114   21484504.4494       8889.7974
        50.0004         39.2504
   5942811.06346   4760810.96143  25101254.1094   25101262.3594       3666.5914
        41.2504         19.7504
   1842929.51646   1508961.71144  22802599.5554   22802602.9024       5211.9714
        41.5004         29.5004
   -153375.97748    -27049.43747  20431278.9774   20431278.4304       6320.6234
        50.7504         43.7504
  -4588405.90247  -3430145.24245  22857782.9534   22857785.9534       9215.0934
        45.0004         32.5004
  -3975034.19949  -2980772.83247  20907746.3674   20907748.9064       8465.6364
        54.2504         43.0004
 11 11 21 18 54  0.0000000  0  8G02G04G05G09G10G12G29G25
   2202227.85548   1788714.14546  21236854.7034   21236853.3674       5223.7464
        49.0004         39.2504
   5703409.91847   4515699.57443  24460432.1024   24460439.5124       3628.0274
        42.5004         21.2504
  -4988871.94948  -3776515.91446  21433847.5474   21433848.6564       8873.2964
        50.5004         39.7504
   5832674.32846   4674989.70743  25080295.5704   25080305.1564       3671.2244
        40.0004         20.5004
   1687117.07847   1387549.32444  22772949.8204   22772952.9224       5193.7484
        43.5004         29.7504
   -342447.08648   -174377.59447  20395300.2664   20395299.3914       6302.3704
        51.0004         43.7504
  -4864803.47747  -3645519.91445  22805186.5314   22805188.8754       9213.2524
        44.5004         33.0004
  -4228501.07049  -3178279.47747  20859513.2344   20859515.7934       8448.8964
        54.7504         42.5004
 11 11 21 18 54 30.0000000  0  8G02G04G05G09G10G12G29G25
   2045759.73048   1666790.87946  21207080.0004   21207078.3364       5215.6044
        48.7504         39.5004
   5594559.48846   4430880.82443  24439717.7974   24439726.6054       3628.3484
        41.0004         21.2504
  -5254571.43048  -3983554.44546  21383286.4924   21383287.3444       8856.6494
        50.7504         39.7504
   5722398.10546   4589059.71943  25059310.9774   25059320.7734       3675.8744
        41.0004         19.0004
   1531851.48846   1266563.04344  22743403.8914   22743406.9144       5175.5204
        41.5004         29.0004
   -530968.96948   -321277.77747  20359425.5634   20359424.9804       6284.0634
        50.7504         44.0004
  -5141143.57847  -3860849.79745  22752600.8754   22752603.2344       9211.3374
        45.5004         32.7504
  -4481461.93448  -3375391.83647  20811376.6484   20811379.1414       8432.0294
        53.7504         42.5004
 11 11 21 18 55  0.0000000  0  8G02G04G05G09G10G12G29G25
   1889536.09048   1545058.12146  21177351.7974   21177350.0434       5207.4554
        49.5004         39.0004
   5485699.77347   4346054.78543  24419003.9454   24419011.0124       3628.6574
        42.0004         20.5004
  -5519767.16048  -4190200.44146  21332821.3674   21332822.5004       8839.8584
        50.7504         39.5004
   5611981.39846   4503020.25443  25038300.0004   25038309.7344       3680.5574
        40.5004         19.7504
   1377133.09846   1146003.15644  22713961.9534   22713965.1454       5157.2804
        41.7504         28.7504
   -718939.57048   -467748.39847  20323655.8834   20323655.3324       6265.6874
        50.2504         43.5004
  -5417424.02047  -4076133.20345  22700026.3524   22700029.1764       9209.3484
        45.0004         33.0004
  -4733912.89148  -3572106.85947  20763336.5704   20763338.8324       8415.0324
        53.2504         42.7504
 11 11 21 18 55 30.0000000  0  8G02G04G05G09G10G12G29G25
   1733554.56648   1423514.03546  21147669.5944   21147668.1844       5199.3844
        49.2504         39.2504
   5376828.82046   4261220.02743  24398285.7424   24398293.7234       3629.0324
        41.2504         19.7504
  -5784457.49648  -4396452.63346  21282452.2814   21282453.2664       8823.0114
        51.0004         39.0004
   5501421.11746   4416868.93443  25017262.4064   25017270.6804       3685.3434
        40.2504         19.7504
   1222959.99246   1025868.18444  22684623.7344   22684627.3634       5139.1044
        41.5004         28.0004
   -906360.03148   -613790.33247  20287991.3134   20287990.7424       6247.3494
        51.0004         43.7504
  -5693644.89847  -4291370.18745  22647463.6564   22647465.5634       9207.3634
        45.5004         33.0004
  -4985852.58249  -3768423.48447  20715394.3754   20715396.7074       8397.9904
        54.5004         42.7504
 11 11 21 18 56  0.0000000  0  8G02G04G05G09G10G12G29G25
   1577812.76248   1302156.73046  21118032.6094   21118031.2384       5191.3934
        49.7504         39.2504
   5267943.98846   4176374.44943  24377566.8444   24377574.1024       3629.4944
        41.7504         20.7504
  -6048641.51648  -4602310.27746  21232179.9924   21232180.5354       8806.1344
        51.5004         39.5004
   5390713.56646   4330602.81643  24996194.4384   24996204.7194       3690.2524
        38.2504         19.2504
   1069328.70346    906155.39544  22655389.1724   22655392.0394       5121.0434
        41.7504         27.5004
  -1093230.92248   -759404.03547  20252430.8364   20252429.8554       6229.0304
        51.5004         43.5004
  -5969806.86347  -4506561.28145  22594910.7034   22594913.8834       9205.3994
        45.5004         33.0004
  -5237280.09449  -3964341.01647  20667549.0164   20667551.5314       8380.9174
        55.0004         43.0004
 11 11 21 18 56 30.0000000  0  8G02G04G05G09G10G12G29G25
   2997735.67248   2408590.11746  21388234.9844   21388233.7274       5183.2364
        50.2504         39.0004
   6734469.16046   5319121.05143  24656637.2504   24656644.5634       3629.8284
        41.5004         19.7504
  -4736886.28548  -3580163.32046  21481798.6564   21481799.4614       8788.8264
        51.5004         39.0004
   6855281.56646   5471824.19943  25274892.9454   25274902.4024       3695.0674
        37.7504         19.2504
   2491663.90246   2014468.42644  22926050.1644   22926053.5634       5102.8274
        41.7504         29.0004
    295875.30548    323016.38347  20516768.9064   20516768.1054       6210.4594
        51.0004         43.5004
  -4670478.49647  -3494097.54745  22842165.5944   22842167.3524       9203.0544
        45.0004         33.5004
  -3912763.51648  -2932250.17247  20919596.0164   20919598.2854       8363.4474
        53.7504         42.7504
 11 11 21 18 57  0.0000000  0  8G02G04G05G09G10G12G29G25
   2842470.48448   2287604.20346  21358689.2034   21358687.6214       5175.5064
        50.0004         39.0004
   6625554.46946   5234252.23843  24635910.9614   24635919.9304       3630.4904
        39.2504         19.5004
  -5000048.52048  -3785224.77746  21431720.5704   21431721.4344       8772.0744
        51.7504         39.5004
   6744274.05146   5385324.33643  25253769.6884   25253778.8244       3700.2514
        38.7504         18.2504
   2339112.49247   1895597.10544  22897020.8444   22897024.4184       5085.0474
        42.0004         29.2504
    110105.12948    178260.39147  20481418.0164   20481417.5044       6192.3394
        51.5004         43.5004
  -4946519.18747  -3709194.13345  22789636.6484   22789638.8594       9201.3564
        45.0004         33.2504
  -4163158.78949  -3127363.36347  20871947.3914   20871949.8834       8346.5094
        54.5004         42.5004
 11 11 21 18 57 30.0000000  0  8G02G04G05G09G10G12G29G25
   2687440.42248   2166801.50446  21329187.7664   21329186.7734       5167.6694
        49.2504         38.5004
   6516622.12146   5149369.64143  24615182.0164   24615190.4104       3631.0784
        39.0004         19.0004
  -5262696.78148  -3989885.73846  21381740.2274   21381740.6644       8754.9424
        52.0004         40.0004
   6633112.01246   5298704.09443  25232616.5314   25232626.1954       3705.4014
        40.0004         19.0004
   2187098.04346   1777144.17644  22868093.8674   22868096.9774       5067.1484
        41.7504         28.5004
    -75115.48048     33932.60947  20446171.8204   20446171.2384       6174.0204
        50.5004         43.5004
  -5222499.29347  -3924243.52045  22737118.9384   22737121.1564       9199.3374
        44.0004         34.0004
  -4413035.68049  -3322072.62147  20824397.8594   20824399.9414       8329.2304
        54.0004         42.7504
 11 11 21 18 58  0.0000000  0  8G02G04G05G09G10G12G29G25
   2532645.44548   2046181.97746  21299731.4614   21299729.7034       5159.8334
        49.7504         39.2504
   6407671.89546   5064473.09043  24594449.8834   24594458.1254       3631.6744
        39.0004         19.7504
  -5524828.25048  -4194143.99246  21331858.1564   21331859.0234       8737.7164
        51.5004         39.7504
   6521794.27346   5211962.42243  25211434.4384   25211443.7544       3710.5914
        39.7504         18.5004
   2035620.07847   1659109.30544  22839268.6484   22839271.6954       5049.2654
        43.0004         28.5004
   -259785.36348   -109966.01647  20411030.2974   20411029.4064       6155.6634
        50.7504         43.5004
  -5498416.91047  -4139244.20745  22684614.0554   22684616.1334       9197.2544
        43.7504         34.5004
  -4662390.87948  -3516375.36347  20776946.8444   20776948.9414       8311.8404
        53.5004         43.2504
 11 11 21 18 58 30.0000000  0  9G02G04G05G09G10G12G29G31G25
   2378081.94148   1925742.84046  21270318.9694   21270317.7114       5152.1174
        49.2504         39.0004
   6298700.53946   4979560.05543  24573714.1484   24573721.5744       3632.3794
        38.5004         19.0004
  -5786442.41848  -4397999.16446  21282074.5394   21282075.0554       8720.4724
        51.7504         39.7504
   6410316.38346   5125096.04343  25190220.6484   25190230.6764       3715.9304
        38.0004         18.5004
   1884674.25046   1541489.07444  22810544.4384   22810547.7544       5031.5284
        41.5004         28.5004
   -443906.55148   -253437.09447  20375993.3674   20375992.4654       6137.3734
        50.7504         43.5004
  -5774273.75447  -4354197.54745  22632120.1954   22632121.9884       9195.2284
        44.0004         33.5004
  13691907.41856  10729702.31353  25363663.6884   25363669.0634
        40.2504         20.5004
  -4911224.55549  -3710271.72747  20729595.1564   20729597.6524       8294.4564
        54.0004         42.7504
 11 11 21 18 59  0.0000000  0  9G02G04G05G09G10G12G29G31G25
   2223744.40648   1805479.76646  21240949.8754   21240948.3014       5144.5854
        48.7504         38.7504
   6189702.81346   4894626.51243  24552973.0234   24552980.8094       3633.2584
        39.0004         18.2504
  -6047541.29748  -4601452.79746  21232389.1644   21232389.7194       8703.2964
        51.5004         39.5004
   6298671.78546   5038099.78143  25168974.8674   25168986.1994       3721.4874
        39.0004         18.5004
   1734254.88747   1424279.09844  22781920.7814   22781923.8134       5013.9794
        42.0004         28.5004
   -627483.37148   -396483.99247  20341059.4534   20341059.1134       6119.2274
        50.7504         43.2504
  -6050073.01647  -4569106.02745  22579636.4694   22579639.0514       9193.3094
        43.7504         34.2504
  13443127.80146  10535848.09443  25316321.6254   25316327.9304       8292.6544
        39.5004         19.5004
  -5159538.69148  -3903763.26247  20682342.6484   20682344.8094       8277.1384
        53.0004         42.7504
 11 11 21 18 59 30.0000000  0  9G02G04G05G09G10G12G29G31G25
   2069628.87147   1685389.67246  21211622.7114   21211621.0704       5137.1854
        47.7504         39.0004
   6080675.02746   4809669.58643  24532224.9304   24532233.7344       3634.2604
        40.0004         18.2504
  -6308124.13348  -4804504.32046  21182802.0314   21182802.5394       8686.0954
        51.5004         39.7504
   6186855.78546   4950969.81643  25147698.3984   25147709.0744       3727.2004
        39.5004         19.5004
   1584357.87147   1307476.12144  22753396.5234   22753399.9534       4996.5674
        43.0004         29.0004
   -810518.07848   -539108.46547  20306229.3674   20306228.6254       6101.1574
        50.2504         43.0004
  -6325816.37947  -4783970.93445  22527164.7114   22527166.7114       9191.4454
        44.0004         34.5004
  13194808.34046  10342352.37543  25269068.0944   25269074.1294       8277.3154
        39.0004         20.7504
  -5407333.67648  -4096850.25847  20635188.7344   20635191.0044       8259.8334
        52.7504         42.7504
 11 11 21 19  0  0.0000000  0  9G02G04G05G09G10G12G29G31G25
   1915736.16047   1565473.21146  21182337.7734   21182336.2304       5129.7574
        47.5004         38.7504
   5971618.33246   4724690.11743  24511472.9774   24511480.3874       3635.2234
        40.5004         18.5004
  -6568186.84448  -5007150.54346  21133313.2274   21133314.1024       8668.7574
        51.7504         40.2504
   6074868.24246   4863706.22343  25126388.4844   25126399.0944       3732.9184
        37.5004         18.2504
   1434983.48046   1191080.41044  22724971.9384   22724975.0594       4979.1464
        41.5004         28.2504
   -993008.60948   -681308.91047  20271502.4924   20271501.7934       6083.0184
        49.5004         43.5004
  -6601501.03147  -4998790.09845  22474703.5704   22474705.7384       9189.4884
        43.7504         34.0004
  12946952.23046  10149217.72743  25221902.6484   25221908.8484       8261.8704
        40.0004         20.0004
  -5654605.30148  -4289529.43747  20588134.5394   20588136.8874       8242.3884
        52.7504         42.5004
 11 11 21 19  0 30.0000000  0  9G02G04G05G09G10G12G29G31G25
   3337491.60547   2673334.52746  21452888.7664   21452887.5394       5122.1524
        47.5004         38.7504
   7437956.60946   5867291.11342  24790507.5314   24790516.3284       3636.0574
        40.5004         17.7504
  -5252297.08648  -3981781.85946  21383719.2814   21383719.7504       8651.0084
        51.5004         40.0004
   7538132.64846   6003911.71142  25404838.5314   25404848.8834       3738.5204
        37.5004         17.7504
   2861556.64546   2302695.77744  22996439.2114   22996443.2424       4961.5614
        41.7504         26.7504
    400473.05548    404520.92247  20536673.1884   20536672.7704       6064.6114
        49.7504         43.5004
  -5301695.64147  -3985954.68045  22722048.2664   22722050.6054       9187.1544
        45.0004         34.0004
  14274990.61746  11184052.82043  25474619.6564   25474626.6884       8246.0544
        39.5004         20.7504
  -4325921.65248  -3254191.52747  20840974.4224   20840976.9344       8224.5454
        53.5004         42.5004
 11 11 21 19  1  0.0000000  0  9G02G04G05G09G10G12G29G31G25
   3184044.95347   2553765.63746  21423689.0084   21423687.7034       5114.8884
        47.2504         38.5004
   7328842.55946   5782266.90643  24769744.2974   24769752.5944       3637.1354
        39.7504         19.2504
  -5511308.87948  -4183609.18046  21334430.5004   21334431.3874       8633.7264
        51.5004         39.7504
   7425800.07046   5916379.21543  25383463.4694   25383473.6294       3744.4194
        39.0004         19.7504
   2713226.85947   2187114.04344  22968212.2734   22968216.6454       4944.3264
        42.2504         29.0004
    219075.24648    263171.94947  20502154.4224   20502153.9734       6046.5944
        50.5004         43.0004
  -5577256.97747  -4200677.75845  22669610.7584   22669612.8204       9185.3784
        45.5004         33.5004
  14028069.10946  10991646.42643  25427632.2734   25427638.2894       8230.7174
        40.5004         19.5004
  -4572136.27048  -3446047.05947  20794121.6564   20794123.9144       8207.1544
        53.2504         42.2504
 11 11 21 19  1 30.0000000  0 10G02G04G05G09G10G12G29G31G21G25
   3030818.23047   2434368.11746  21394530.9304   21394529.9494       5107.5574
        47.0004         39.0004
   7219697.33646   5697218.41843  24748975.1804   24748983.1134       3638.1744
        39.7504         19.2504
  -5769792.67248  -4385025.08246  21285243.1804   21285243.6954       8616.1264
        51.7504         39.7504
   7313290.34446   5828708.68843  25362053.4924   25362064.6414       3750.3244
        39.7504         18.5004
   2565415.43047   2071936.22344  22940084.7584   22940088.9804       4927.0484
        42.0004         28.5004
     38222.53948    122247.73047  20467739.3984   20467738.6484       6028.4244
        50.0004         43.0004
  -5852756.50447  -4415352.66445  22617184.8984   22617186.8324       9183.3184
        45.5004         34.0004
  13781615.64546  10799604.78943  25380733.7504   25380739.9454       8215.1154
        40.2504         20.2504
  15227571.18456  11926226.57052  25493713.4694   25493721.2704
        36.0004         15.5004
  -4817820.29748  -3637489.15247  20747369.3594   20747371.8054       8189.4684
        53.0004         42.7504
 11 11 21 19  2  0.0000000  0 10G02G04G05G09G10G12G29G31G21G25
   2877806.72347   2315138.29346  21365413.7894   21365412.7704       5100.3844
        47.0004         39.0004
   7110516.23046   5612142.05143  24728199.2814   24728206.8284       3639.3704
        38.5004         18.5004
  -6027749.35948  -4586030.23846  21236155.0234   21236156.1174       8598.5564
        51.5004         39.5004
   7200598.02046   5740895.87142  25340610.0474   25340620.3444       3756.4114
        39.2504         17.7504
   2418117.73446   1957158.69944  22912055.8984   22912059.2774       4909.9234
        41.2504         28.2504
   -142088.13348    -18254.13347  20433427.2584   20433426.5394       6010.3564
        50.0004         42.5004
  -6128196.60547  -4629981.26645  22564770.0704   22564772.3834       9181.3374
        45.5004         33.7504
  13535627.71546  10607925.83243  25333923.5394   25333929.2154       8199.5984
        39.5004         20.5004
  14936256.52745  11699228.54342  25438277.4304   25438286.4694       9710.4894
        35.5004         16.2504
  -5062975.05948  -3828518.82847  20700718.0864   20700719.9964       8171.8254
        52.5004         42.5004
 11 11 21 19  2 30.0000000  0 10G02G04G05G09G10G12G29G31G21G25
   2725008.03547   2196074.30946  21336337.1254   21336336.1684       5093.2904
        47.5004         39.0004
   7001297.11746   5527036.02343  24707415.0944   24707424.0274       3640.6374
        37.0004         18.2504
  -6285178.41048  -4786624.26246  21187168.0234   21187168.6054       8580.9684
        51.5004         38.7504
   7087719.45746   5652937.93043  25319129.4304   25319141.0554       3762.6194
        39.5004         18.2504
   2271330.27347   1842778.77044  22884122.7504   22884126.7424       4892.9154
        43.2504         27.7504
   -321858.76648   -158335.17647  20399218.2194   20399217.4454       5992.3544
        50.0004         42.0004
  -6403578.14847  -4844564.22745  22512367.3204   22512369.0234       9179.3854
        44.5004         34.0004
  13290105.07846  10416609.48443  25287202.2664   25287208.4734       8184.0884
        40.0004         20.2504
  14645066.54745  11472327.67642  25382864.4534   25382874.0474       9706.3334
        35.5004         16.2504
  -5307600.03948  -4019135.69547  20654167.3594   20654169.7384       8154.1664
        52.5004         42.0004
 11 11 21 19  3  0.0000000  0 10G02G04G05G09G10G12G29G31G21G25
   2572423.56348   2077177.23846  21307301.6414   21307300.3634       5086.1494
        48.2504         38.5004
   6892041.53146   5441901.52342  24686624.4774   24686633.4614       3641.8534
        37.0004         17.2504
  -6542074.53948  -4986803.01246  21138282.2974   21138282.9064       8563.2044
        51.5004         38.7504
   6974655.26646   5564835.39842  25297615.0234   25297625.9964       3768.8064
        39.0004         17.2504
   2125053.90647   1728797.09044  22856288.2504   22856291.2894       4875.8794
        42.7504         28.5004
   -501086.38348   -297993.10547  20365112.1024   20365111.9734       5974.2544
        48.7504         43.0004
  -6678897.50847  -5059098.73445  22459975.2974   22459977.2894       9177.3124
        43.7504         33.5004
  13045051.73846  10225658.80143  25240570.2734   25240576.0944       8168.4454
        39.5004         20.5004
  14354004.86746  11245526.75042  25327478.9144   25327486.8244       9702.0564
        39.0004         16.2504
  -5551690.48448  -4209336.03147  20607718.3204   20607720.7424       8136.3484
        50.7504         42.5004
 11 11 21 19  3 30.0000000  0 10G02G04G05G09G10G12G29G31G21G25
   2420051.46547   1958445.64846  21278306.1334   21278304.8754       5079.0704
        47.7504         38.5004
   6782748.16446   5356737.67242  24665826.4844   24665835.8204       3643.1124
        38.0004         17.7504
  -6798436.20748  -5186565.30946  21089498.2274   21089499.0004       8545.3894
        52.0004         39.7504
   6861403.16046   5476586.32443  25276063.7344   25276075.6804       3775.0704
        38.0004         18.2504
   1979286.44147   1615211.95344  22828548.9694   22828553.1374       4858.9154
        43.0004         27.5004
   -679771.30948   -437228.14547  20331109.7584   20331109.0164       5956.1644
        49.7504         43.0004
  -6954153.97747  -5273584.23045  22407595.6174   22407597.4924       9175.2164
        44.7504         34.0004
  12800468.47746  10035074.44143  25194027.3134   25194033.5124       8152.7754
        37.2504         20.5004
  14063072.19946  11018826.21142  25272115.3984   25272123.2194       9697.7564
        37.0004         16.7504
  -5795244.55148  -4399118.41447  20561371.6174   20561373.8364       8118.4694
        52.5004         42.5004
 11 11 21 19  4  0.0000000  0 10G02G04G05G09G10G12G29G31G21G25
   3843316.19148   3067483.02046  21549144.1414   21549143.3324       5071.8424
        48.0004         38.5004
   8248840.22746   6499146.87142  24944814.2734   24944823.8444       3644.2654
        38.0004         17.7504
  -5478831.41048  -4158301.78146  21340610.8594   21340611.2344       8527.1734
        51.5004         40.0004
   8323385.27046   6615792.46942  25554270.4224   25554282.7704       3781.2634
        38.7504         17.2504
   3409451.69147   2729626.32044  23100700.5554   23100704.5354       4841.8254
        44.0004         28.7504
    717512.73448    651564.57447  20597003.9064   20597003.6454       5937.8654
        51.0004         42.7504
  -5653917.16847  -4260412.62945  22655022.3594   22655024.4104       9172.7734
        45.0004         34.2504
  14131785.10546  11072463.97343  25447367.8444   25447374.8284       8136.7794
        37.7504         21.2504
  15347699.77046  12019835.05142  25516571.6484   25516579.8444       9693.0814
        38.5004         16.2504
  -4462831.71948  -3360874.63747  20814921.3834   20814923.6954       8100.2394
        52.5004         42.7504
 11 11 21 19  4 30.0000000  0 10G02G04G05G09G10G12G29G31G21G25
   3691367.80948   2949081.59846  21520229.6024   21520228.5594       5064.9464
        48.2504         38.7504
   8139470.98046   6413923.84043  24924002.8524   24924012.0514       3645.6424
        39.2504         18.5004
  -5734113.64148  -4357222.95746  21292032.1414   21292032.2734       8509.4084
        51.7504         39.7504
   8209753.37546   6527247.46543  25532647.7974   25532659.7074       3787.7304
        38.5004         18.5004
   3264699.67647   2616832.43844  23073154.6884   23073159.3754       4825.0674
        43.0004         29.2504
    539915.14548    513176.79746  20563208.5394   20563207.8954       5919.9204
        51.0004         41.5004
  -5929043.19147  -4474796.47745  22602667.4844   22602669.7624       9170.8674
        45.0004         34.5004
  13888147.93446  10882616.82843  25401005.7894   25401012.1884       8121.2394
        37.5004         20.0004
  15057030.44146  11793339.69942  25461259.1334   25461266.5204       9688.9784
        38.2504         16.7504
  -4705304.71948  -3549814.62147  20768780.3204   20768782.4344       8082.4334
        52.0004         42.2504
 11 11 21 19  5  0.0000000  0 10G02G04G05G09G10G12G29G31G21G25
   3539628.53148   2830843.12546  21491354.9454   21491353.5944       5057.9764
        50.0004         38.5004
   8030061.40646   6328669.41043  24903183.7034   24903192.1484       3646.9864
        41.0004         18.2504
  -5988853.96148  -4555721.85946  21243556.2734   21243557.3324       8491.3444
        51.7504         40.0004
   8095927.42646   6438551.17243  25510987.9304   25511000.1294       3794.1984
        38.2504         18.2504
   3120452.03947   2504431.53944  23045706.9304   23045709.9264       4808.2554
        42.5004         27.5004
    362860.08248    375211.78147  20529515.5864   20529515.1374       5901.8354
        51.7504         42.0004
  -6204103.45747  -4689129.08645  22550325.1174   22550327.1414       9168.6764
        44.5004         34.0004
  13644984.66046  10693138.94943  25354733.6724   25354740.1484       8105.4424
        37.0004         19.7504
  14766493.24246  11566947.32842  25405971.5084   25405979.4844       9684.5734
        37.5004         15.5004
  -4947235.06648  -3738331.76247  20722742.1174   20722744.6334       8064.3454
        52.5004         42.2504
 11 11 21 19  5 30.0000000  0 10G02G04G05G09G10G12G29G31G21G25
   3388100.01648   2712768.87146  21462519.7894   21462519.2274       5050.9514
        48.7504         38.5004
   7920613.39146   6243385.05143  24882356.7584   24882364.8164       3648.2674
        41.0004         19.0004
  -6243047.61348  -4753794.80146  21195184.7664   21195185.5084       8473.1224
        50.7504         40.0004
   7981908.13746   6349704.25442  25489291.7344   25489304.2384       3800.6434
        36.0004         17.7504
   2976709.16047   2392423.97344  23018352.1724   23018356.6454       4791.4294
        42.2504         28.2504
    186350.02048    237671.43447  20495927.1724   20495926.9454       5883.6694
        51.7504         42.2504
  -6479094.49247  -4903407.75445  22497995.6884   22497998.0514       9166.3684
        45.5004         34.0004
  13402298.57046  10504032.91043  25308552.1724   25308558.0664       8089.5364
        39.2504         21.0004
  14476092.12146  11340660.82042  25350708.5474   25350717.1954       9680.0374
        36.0004         16.7504
  -5188618.20348  -3926422.51247  20676808.6094   20676811.1454       8046.1054
        53.7504         42.0004
 11 11 21 19  6  0.0000000  0 10G02G04G05G09G10G12G29G31G21G25
   3236775.91448   2594853.91446  21433724.0164   21433722.9924       5044.1374
        50.5004         38.5004
   7811121.08246   6158066.04743  24861520.7974   24861529.9144       3649.7444
        40.5004         19.5004
  -6496697.33648  -4951443.89546  21146917.0554   21146917.9344       8454.9914
        51.2504         39.5004
   7867688.53146   6260701.18042  25467556.0634   25467569.2504       3807.3204
        37.5004         17.7504
   2833464.52746   2280804.64544  22991094.6884   22991098.9184       4774.8214
        41.7504         27.5004
     10380.07048    100551.95347  20462441.4144   20462441.0634       5865.6654
        51.5004         42.5004
  -6754020.44547  -5117635.71545  22445680.0944   22445681.6914       9164.1984
        45.7504         34.5004
  13160086.04346  10315295.84843  25262460.7734   25262466.9574       8073.7514
        39.2504         20.2504
  14185823.17246  11114477.44942  25295473.0634   25295480.9734       9675.6324
        36.5004         14.7504
  -5429457.02748  -4114089.12947  20630978.6954   20630981.0664       8027.9614
        52.7504         42.5004
 11 11 21 19  6 30.0000000  0  9G02G04G05G10G12G29G31G21G25
   3085657.34448   2477099.10546  21404967.0164   21404966.2584       5037.2864
        49.7504         38.2504
   7701585.57846   6072713.48443  24840677.6884   24840686.3714       3651.1834
        40.0004         19.0004
  -6749798.48048  -5148665.52746  21098753.1644   21098754.2974       8436.7054
        51.7504         39.5004
   2690718.46146   2169573.81344  22963931.1564   22963934.7424       4758.2024
        41.5004         27.7504
   -165047.70348    -36145.05147  20429058.5394   20429058.0634       5847.5924
        51.5004         42.7504
  -7028878.02747  -5331810.40645  22393376.0314   22393377.8404       9161.9194
        46.7504         34.5004
  12918350.30546  10126930.31343  25216459.4844   25216466.0314       8057.8584
        39.5004         20.0004
  13895689.23046  10888399.19942  25240262.7974   25240270.2194       9671.1314
        36.7504         14.7504
  -5669747.46548  -4301328.41447  20585253.0394   20585255.1524       8009.6814
        53.5004         42.0004
 11 11 21 19  7  0.0000000  0  9G02G04G05G10G12G29G31G21G25
   2934745.88348   2359505.68846  21376249.6884   21376248.4884       5030.3824
        48.7504         38.2504
   7592008.79346   5987328.74643  24819824.8524   24819834.0164       3652.5604
        38.7504         18.5004
  -7002346.47748  -5345456.14146  21050695.2734   21050695.8284       8418.2674
        51.0004         39.7504
   2548471.68846   2058732.02344  22936862.0704   22936866.1254       4741.5594
        41.2504         27.7504
   -339930.92648   -172417.73047  20395779.3204   20395778.6724       5829.4414
        51.5004         42.5004
  -7303663.85947  -5545929.18745  22341085.8204   22341087.7074       9159.5284
        47.5004         34.0004
  12677095.02746   9938939.16043  25170550.6174   25170556.7854       8041.8434
        39.7504         20.2504
  13605693.78546  10662428.89142  25185077.3134   25185085.5474       9666.5154
        36.7504         15.5004
  -5909484.85248  -4488136.76247  20539632.5084   20539634.5984       7991.2464
        52.5004         42.5004
 11 11 21 19  7 30.0000000  0  9G02G04G05G10G12G29G31G21G25
   2784038.07847   2242070.95746  21347571.0634   21347569.6844       5023.5934
        47.5004         38.2504
   7482387.87546   5901909.61343  24798963.9534   24798974.6054       3654.0314
        38.5004         19.5004
  -7254341.22348  -5541815.64846  21002742.0164   21002742.4144       8399.8254
        51.2504         40.2504
   2406720.27346   1948276.23844  22909888.0234   22909892.1254       4725.0474
        41.0004         27.5004
   -514272.10548   -308268.02347  20362603.5554   20362603.0124       5811.3734
        51.5004         42.0004
  -7578378.96947  -5759992.85945  22288809.2034   22288811.1524       9157.1704
        47.2504         34.2504
  12436319.12145   9751321.52743  25124731.5944   25124738.9344       8025.8644
        35.5004         21.2504
  13315836.03946  10436565.85542  25129920.0004   25129926.5944       9661.9254
        36.5004         14.7504
  -6148669.41448  -4674514.33247  20494117.1484   20494119.3594       7972.8194
        51.7504         43.0004
 11 11 21 19  8  0.0000000  0  9G02G04G05G10G12G29G31G21G25
   4208958.07447   3352398.16846  21618724.2344   21618723.4304       5016.6674
        47.7504         38.2504
   8948145.64146   7044058.29343  25077889.8914   25077898.6684       3655.4084
        39.0004         19.7504
  -5930351.64548  -4510135.42646  21254688.9614   21254689.7384       8381.0144
        51.7504         40.0004
   3840887.41447   3065808.93444  23182800.4924   23182805.0984       4708.4294
        42.0004         27.0004
    887354.69148    783908.66447  20629324.0864   20629323.7544       5793.1074
        52.2504         42.0004
  -6277592.94547  -4746393.31245  22536340.4924   22536342.5394       9154.4664
        47.0004         34.5004
  13771451.93446  10791684.70343  25378799.7274   25378805.7814       8009.5734
        38.2504         19.2504
  14601547.09846  11438418.78942  25374582.7894   25374589.2384       9656.9654
        37.0004         16.2504
  -4811871.01648  -3632853.23847  20748501.5234   20748503.4064       7954.0534
        52.0004         42.0004
 11 11 21 19  8 30.0000000  0  9G02G04G05G10G12G29G31G21G25
   4058656.32048   3235279.85246  21590122.8674   21590121.7704       5010.0584
        48.7504         38.2504
   8838435.64846   6958569.72742  25057013.9064   25057022.2584       3657.0004
        39.0004         17.2504
  -6181231.05548  -4705625.84846  21206948.1414   21206948.8054       8362.6474
        51.2504         40.0004
   3700123.21547   2956122.41444  23156014.8134   23156018.7074       4692.1404
        42.2504         26.7504
    714098.87148    648904.09847  20596354.6954   20596354.1914       5775.1944
        51.5004         42.7504
  -6552161.69147  -4960342.95345  22484091.8444   22484093.6684       9152.2924
        46.5004         34.0004
  13531639.74246  10604818.10543  25333165.0314   25333171.8794       7993.7404
        38.5004         21.5004
  14311969.75845  11212774.23842  25319477.3284   25319484.7544       9652.5784
        35.7504         15.5004
  -5049942.23048  -3818363.28147  20703198.0314   20703200.4924       7935.7074
        52.2504         42.5004
 11 11 21 19  9  0.0000000  0  9G02G04G05G10G12G29G31G21G25
   3908554.35548   3118317.21946  21561559.2734   21561558.3674       5003.3994
        48.2504         38.0004
   8728678.58246   6873044.44543  25036127.3834   25036136.3444       3658.5694
        37.5004         18.5004
  -6431551.32848  -4900680.57446  21159313.7584   21159314.4654       8344.0094
        51.2504         40.0004
   3559848.20346   2846817.07844  23129321.0944   23129325.4494       4675.8344
        41.7504         26.2504
    541384.20348    514321.20347  20563488.5704   20563487.8714       5757.1564
        52.0004         42.7504
  -6826657.23447  -5174235.53545  22431856.8754   22431858.6174       9149.8514
        47.0004         34.2504
  13292309.49246  10418326.96543  25287621.9614   25287627.2664       7977.6754
        39.0004         20.5004
  14022532.41445  10987238.80542  25264398.3674   25264406.8054       9647.9114
        35.5004         17.2504
  -5287455.49248  -4003438.54347  20658000.6094   20658003.0124       7917.1094
        52.0004         42.0004
 11 11 21 19  9 30.0000000  0  9G02G04G05G10G12G29G31G21G25
   3758647.64848   3001506.74246  21533033.2424   21533032.3524       4996.8904
        48.2504         38.2504
   8618870.12146   6787479.21142  25015230.9774   25015240.7384       3660.2824
        37.0004         17.7504
  -6681313.65648  -5095300.53546  21111785.3674   21111785.9924       8325.4114
        51.5004         40.5004
   3420057.22347   2737888.89844  23102719.8594   23102724.3404       4659.6994
        42.5004         28.0004
    369206.99648    380157.10547  20530724.0394   20530723.8484       5739.2404
        51.2504         42.2504
  -7101082.01247  -5388072.99245  22379635.7894   22379637.5634       9147.4934
        46.2504         34.7504
  13053458.61746  10232209.40643  25242168.9304   25242176.5984       7961.6964
        37.2504         20.5004
  13733232.79345  10761810.67242  25209346.8524   25209355.1024       9643.3214
        34.5004         17.2504
  -5524412.14548  -4188080.09447  20612909.1254   20612911.6454       7898.5554
        52.7504         42.5004
 11 11 21 19 10  0.0000000  0  9G02G04G05G10G12G29G31G21G25
   3608935.60248   2884847.94146  21504543.6804   21504543.2384       4990.4024
        49.0004         38.0004
   8509010.39146   6701873.98043  24994326.1094   24994335.5664       3661.9914
        39.5004         19.2504
  -6930515.37548  -5289483.66046  21064364.0474   21064364.5084       8306.7244
        50.5004         40.0004
   3280749.25847   2629337.08244  23076210.4454   23076214.6844       4643.5994
        43.0004         26.7504
    197567.63748    246412.11347  20498062.1804   20498061.8594       5721.3124
        51.2504         43.0004
  -7375434.32847  -5601853.97745  22327427.8134   22327430.0704       9145.0774
        47.2504         34.0004
  12815088.86746  10046466.72743  25196810.2894   25196815.9064       7945.6584
        37.5004         21.2504
  13444072.28146  10536491.02342  25154322.1644   25154329.0234       9638.6844
        36.5004         17.2504
  -5760809.72748  -4372286.00847  20567924.1804   20567926.6764       7879.9194
        53.2504         42.5004
 11 11 21 19 10 30.0000000  0  9G02G04G05G10G12G29G31G21G25
   3459416.60948   2768339.57446  21476091.6724   21476090.8484       4983.9664
        49.2504         38.0004
   8399097.24646   6616227.16443  24973410.7814   24973419.3444       3663.7714
        40.5004         20.0004
  -7179155.64548  -5483229.29746  21017049.2424   21017050.1024       8288.0094
        50.2504         40.5004
   3141921.31647   2521159.32444  23049792.0084   23049796.7344       4627.5984
        42.0004         26.7504
     26464.48448    113084.94547  20465502.1884   20465501.9614       5703.4384
        52.2504         42.5004
  -7649714.19547  -5815578.52045  22275234.4844   22275236.6564       9142.6624
        46.5004         34.2504
  12577200.13746   9861098.90243  25151542.0004   25151547.4304       7929.6244
        37.7504         21.2504
  13155050.88346  10311279.66842  25099322.3364   25099329.7464       9634.0474
        37.0004         16.2504
  -5996647.59048  -4556055.77347  20523045.8204   20523047.6954       7861.2624
        53.2504         42.0004
 11 11 21 19 11  0.0000000  0  9G02G04G05G10G12G29G31G21G25
   3310087.62948   2651979.27346  21447675.4384   21447674.3204       4977.6334
        48.5004         37.7504
   8289128.37946   6530536.86343  24952484.2114   24952494.0944       3665.6294
        39.2504         18.5004
  -7427233.84848  -5676536.95746  20969841.3054   20969842.2624       8269.2734
        51.0004         40.5004
   3003569.39146   2413352.48444  23023464.4694   23023469.3284       4611.7314
        40.2504         26.0004
   -144104.09048    -19825.66847  20433044.1334   20433043.9184       5685.6194
        51.5004         42.7504
  -7923922.23047  -6029247.08245  22223054.4304   22223055.7584       9140.2684
        45.0004         34.0004
  12339791.48446   9676105.12943  25106363.6954   25106369.8874       7913.6224
        38.2504         21.5004
  12866167.84845  10086176.16843  25044349.5164   25044356.5474       9629.4354
        35.5004         18.5004
  -6231925.54749  -4739389.25047  20478273.9454   20478276.1644       7842.5994
        54.0004         42.2504
 11 11 21 19 11 30.0000000  0  9G02G04G05G10G12G29G31G21G25
   4736372.84848   3763370.28946  21719088.1804   21719087.1994       4971.1594
        49.0004         38.0004
   9754527.25846   7672405.91442  25231340.0864   25231350.2464       3667.3714
        38.7504         17.7504
  -6099319.06648  -4641798.13346  21222535.2504   21222535.9694       8250.1744
        51.0004         40.5004
   4441116.98447   3533519.26244  23297021.2814   23297025.9384       4595.7474
        42.2504         27.2504
   1261287.48048   1075284.60247  20700481.3754   20700481.0164       5667.6144
        52.0004         42.2504
  -6622627.72747  -5015251.34045  22470682.1414   22470683.9454       9137.5174
        45.7504         34.5004
  13678292.28146  10719092.75043  25361071.9924   25361078.8054       7897.3074
        38.5004         20.0004
  14152854.35246  11088789.23042  25289198.3754   25289205.4884       9624.4504
        37.2504         17.7504
  -4891213.21149  -3694678.34047  20733403.1024   20733405.2304       7823.5894
        54.2504         42.2504
 11 11 21 19 12  0.0000000  0  9G02G04G05G10G12G29G31G21G25
   4587420.79748   3647303.69146  21690743.6414   21690742.7974       4965.0684
        49.0004         37.7504
   9644445.88746   7586627.95342  25210393.1564   25210402.3874       3669.3794
        38.5004         17.2504
  -6346266.44948  -4834224.62546  21175542.5314   21175543.4694       8231.5794
        50.2504         40.0004
   4303712.44146   3426450.63344  23270874.1804   23270878.5204       4580.1514
        41.2504         25.0004
   1091787.46548    943206.63347  20668226.8754   20668226.4614       5650.0014
        52.2504         43.0004
  -6896688.34447  -5228805.03945  22418530.0164   22418531.7894       9135.3544
        46.0004         34.5004
  13441847.31346  10534849.89143  25316078.4534   25316084.4104       7881.4994
        37.0004         20.5004
  13864251.87546  10863904.33642  25234279.2894   25234285.3834       9620.0834
        36.0004         16.7504
  -5125364.94948  -3877134.24647  20688845.4304   20688847.5704       7805.0584
        53.7504         42.7504
 11 11 21 19 12 30.0000000  0  9G02G04G05G10G12G29G31G21G25
   4438655.48048   3531382.59446  21662434.5084   21662433.7114       4958.8444
        50.0004         36.7504
   9534306.34845   7500804.73042  25189433.9144   25189443.8054       3671.3184
        34.7504         16.7504
  -6592646.04348  -5026208.68046  21128657.9844   21128659.5394       8212.6534
        50.0004         40.2504
   4166778.16047   3319748.41844  23244816.9924   23244820.8914       4564.4764
        43.0004         27.2504
    922820.35948    811543.91447  20636073.2344   20636073.0824       5632.2374
        52.5004         42.5004
  -7170674.13347  -5442300.43045  22366392.7974   22366394.7664       9132.8604
        46.7504         34.5004
  13205884.78146  10350982.96543  25271175.4144   25271181.9264       7865.4184
        36.0004         20.0004
  13575790.35046  10639129.34042  25179386.2194   25179393.0354       9615.3844
        38.7504         17.2504
  -5358951.69149  -4059149.88747  20644395.5164   20644397.8634       7786.2254
        54.0004         42.2504
 11 11 21 19 13  0.0000000  0  9G02G04G05G10G12G29G31G21G25
   4290074.26648   3415604.95346  21634160.7734   21634159.8164       4952.7074
        48.7504         37.0004
   9424107.03545   7414934.94142  25168463.0944   25168474.0044       3673.3104
        35.0004         17.2504
  -6838456.69148  -5217749.40646  21081881.6954   21081882.3984       8193.6884
        50.2504         39.5004
   4030311.26647   3213410.41444  23218848.2034   23218852.4654       4548.8964
        43.0004         26.0004
    754384.92248    680295.48047  20604021.2734   20604020.6684       5614.5154
        51.7504         42.7504
  -7444585.06647  -5655737.49245  22314269.3914   22314270.9344       9130.3644
        46.5004         34.5004
  12970404.70746  10167491.94943  25226364.8054   25226371.6334       7849.3364
        39.5004         19.7504
  13287469.90646  10414464.15642  25124519.7814   25124527.5394       9610.6814
        37.0004         16.7504
  -5591972.60548  -4240724.61747  20600052.8284   20600055.1294       7767.3644
        53.7504         43.5004
 11 11 21 19 13 30.0000000  0  9G02G04G05G10G12G29G31G21G25
   4141672.38347   3299967.05546  21605920.8364   21605919.8444       4946.7294
        47.7504         37.0004
   9313843.46146   7329015.04342  25147481.8524   25147491.9734       3675.4524
        36.0004         17.7504
  -7083700.81648  -5408848.68046  21035213.6414   21035214.0164       8174.8044
        50.5004         40.0004
   3894305.78947   3107431.94944  23192966.9144   23192971.5824       4533.5164
        43.0004         27.2504
    586476.92248    549458.03946  20572069.3284   20572068.9694       5596.9334
        52.2504         41.7504
  -7718424.07047  -5869118.50445  22262159.1334   22262160.9774       9127.9674
        46.2504         35.0004
  12735403.96946   9984374.51643  25181646.0474   25181652.2814       7833.3584
        40.5004         20.2504
  12999287.37146  10189906.55142  25069680.4144   25069688.1334       9606.0854
        38.5004         17.2504
  -5824429.85949  -4421860.14147  20555817.8284   20555820.1644       7748.5754
        54.0004         42.2504
 11 11 21 19 14  0.0000000  0  9G02G04G05G10G12G29G31G21G25
   3993453.46948   3184471.72346  21577715.7814   21577715.0124       4940.6304
        49.7504         37.0004
   9203519.42245   7243048.07042  25126487.6884   25126498.6884       3677.4684
        33.5004         16.7504
  -7328371.89548  -5599501.42646  20988654.2274   20988654.6414       8155.7034
        50.0004         40.2504
   3758764.23847   3001814.97744  23167175.1484   23167179.4454       4518.0524
        42.5004         26.5004
    419100.02348    419034.43847  20540218.8754   20540218.2194       5579.2304
        51.7504         42.5004
  -7992185.38747  -6082438.97745  22210064.0164   22210065.8834       9125.3774
        47.0004         35.0004
  12500887.64846   9801634.50443  25137019.2814   25137025.3754       7817.2114
        40.5004         20.7504
  12711248.04746   9965460.56642  25014869.3284   25014875.5744       9601.3114
        37.0004         16.2504
  -6056317.40649  -4602551.73847  20511691.0084   20511693.4024       7729.5854
        54.7504         42.5004
 11 11 21 19 14 30.0000000  0  9G02G04G05G10G12G29G31G21G25
   3845414.33248   3069116.47346  21549545.0314   21549544.1684       4934.6384
        49.5004         38.0004
   9093131.95346   7157031.70742  25105482.1174   25105492.8444       3679.5824
        37.2504         16.2504
  -7572469.66848  -5789707.43746  20942203.7424   20942204.5164       8136.5924
        49.7504         40.7504
   3623682.45747   2896556.27344  23141470.1174   23141473.9024       4502.7264
        42.5004         26.5004
    252251.97348    289022.93447  20508468.5164   20508468.4614       5561.6024
        52.0004         42.2504
  -8265870.29748  -6295699.92245  22157983.9774   22157985.6214       9122.8304
        48.5004         35.0004
  12266854.67246   9619271.13343  25092484.5704   25092490.7854       7801.0994
        38.0004         21.0004
  12423350.95745   9741125.35542  24960083.5474   24960090.0234       9596.5704
        35.5004         17.2504
  -6287635.38749  -4782799.51247  20467672.9304   20467674.9264       7710.5994
        54.5004         42.7504
 11 11 21 19 15  0.0000000  0  8G02G05G10G12G29G31G21G25
   3697552.00848   2953898.99646  21521407.3284   21521406.7704       4928.7444
        48.0004         37.0004
  -7815994.79348  -5979467.23446  20895862.3914   20895863.2074       8117.5044
        49.2504         39.7504
   3489056.75847   2791652.95744  23115850.9064   23115855.8324       4487.5234
        43.0004         26.7504
     85930.42248    159421.68847  20476818.6254   20476818.1884       5544.0524
        51.5004         42.0004
  -8539479.34847  -6508901.75445  22105917.0314   22105919.5704       9120.3024
        46.5004         35.7504
  12033303.60246   9437283.24643  25048040.7814   25048047.0234       7785.0364
        40.5004         20.7504
  12135595.06645   9516900.14542  24905324.5864   24905331.3524       9591.8634
        34.0004         17.2504
  -6518384.03949  -4962603.66047  20423762.5944   20423764.8674       7691.6224
        54.5004         42.7504
 11 11 21 19 15 30.0000000  0  8G02G05G10G12G29G31G21G25
   5125293.07848   4066424.42646  21793097.1254   21793096.8714       4922.6314
        49.0004         36.7504
  -6483514.49248  -4941170.84846  21149424.9224   21149425.7664       8097.9904
        50.0004         40.2504
   4930311.91847   3914708.73044  23390113.3754   23390117.8674       4472.1614
        43.7504         26.2504
   1495563.25848   1257836.84047  20745062.8834   20745062.5744       5526.2394
        51.7504         42.2504
  -7237579.66447  -5494434.43045  22353660.9694   22353662.9144       9117.3444
        47.5004         34.7504
  13375666.21546  10483280.10543  25303483.8524   25303490.9024       7768.5804
        40.7504         20.5004
  13423414.00445  10520395.66442  25150388.4614   25150394.6844       9586.7024
        35.5004         17.2504
  -5173131.51249  -3914354.93747  20679755.7424   20679758.0944       7672.2494
        54.7504         42.2504
 11 11 21 19 16  0.0000000  0  8G02G05G10G12G29G31G21G25
   4977787.13348   3951484.63746  21765028.6644   21765027.8364       4916.8654
        49.0004         37.0004
  -6725882.63748  -5130029.11346  21103303.8134   21103304.8594       8078.9384
        48.2504         40.5004
   4796597.78147   3810515.72744  23364668.9534   23364673.4454       4457.1384
        43.5004         26.5004
   1330299.30948   1129059.69946  20713614.2814   20713613.9104       5508.7984
        52.5004         41.5004
  -7511027.84847  -5707510.91445  22301624.9454   22301627.0164       9114.9394
        45.0004         35.2504
  13143087.80146  10302050.14843  25259225.8914   25259232.7114       7752.6144
        40.2504         20.2504
  13135949.21545  10296397.31342  25095685.2424   25095692.0474       9582.1604
        35.5004         16.7504
  -5402731.07049  -4093263.68747  20636064.5474   20636066.8954       7653.3194
        55.2504         42.7504
 11 11 21 19 16 30.0000000  0  8G02G05G10G12G29G31G21G25
   4830458.68848   3836683.16446  21736992.6804   21736991.9344       4910.9484
        48.5004         37.2504
  -6967668.62948  -5318433.75046  21057293.7114   21057294.1844       8059.5334
        49.2504         40.7504
   4663337.20346   3706676.14544  23339309.5164   23339314.8634       4442.0194
        41.5004         25.0004
   1165563.96948   1000694.45747  20682266.0634   20682265.8984       5491.1784
        51.2504         42.0004
  -7784392.98847  -5920522.67645  22249605.4304   22249607.4384       9112.1714
        46.0004         35.5004
  12910997.54746  10121200.59443  25215061.3524   25215067.1564       7736.3424
        37.0004         20.7504
  12848632.27346  10072514.21542  25041011.3754   25041017.4264       9577.2314
        36.5004         16.2504
  -5631752.81249  -4271722.18747  20592483.1564   20592485.3484       7634.0584
        54.5004         42.5004
 11 11 21 19 17  0.0000000  0  8G02G05G10G12G29G31G21G25
   4683301.84848   3722015.41446  21708989.4304   21708988.9844       4905.2284
        48.5004         37.0004
  -7208875.58648  -5506387.19546  21011392.9774   21011393.9064       8040.2324
        50.7504         40.5004
   4530523.20746   3603184.52744  23314036.3204   23314041.3794       4427.1334
        41.2504         25.7504
   1001352.51648    872737.43447  20651017.7344   20651017.5474       5473.7154
        51.2504         42.5004
  -8057678.96147  -6133472.75046  22197600.6094   22197602.8284       9109.5324
        47.2504         36.0004
  12679390.97346   9940727.93043  25170987.5944   25170993.9924       7720.2194
        40.5004         20.2504
  12561459.47345   9848743.41442  24986364.8444   24986370.5824       9572.4274
        35.5004         16.7504
  -5860200.02049  -4449733.00447  20549010.9384   20549013.3164       7614.9074
        54.0004         42.7504
 11 11 21 19 17 30.0000000  0  8G02G05G10G12G29G31G21G25
   4536318.90248   3607483.15646  21681019.9224   21681018.7544       4899.4324
        48.5004         36.7504
  -7449498.47748  -5693885.52746  20965604.2274   20965604.6844       8020.7634
        49.7504         40.5004
   4398157.27047   3500042.07044  23288847.8984   23288853.1914       4412.1984
        43.0004         26.7504
    837666.68848    745189.99247  20619869.5234   20619869.4844       5456.1944
        51.7504         42.0004
  -8330881.00047  -6346357.41445  22145612.5314   22145614.1094       9106.7354
        46.2504         35.5004
  12448272.37146   9760635.49243  25127007.4454   25127012.6024       7703.9534
        37.5004         21.5004
  12274434.40646   9625087.68042  24931744.8524   24931751.3594       9567.5024
        36.2504         17.2504
  -6088067.65649  -4627292.20747  20505649.2344   20505651.7344       7595.5884
        54.2504         43.0004
 11 11 21 19 18  0.0000000  0  8G02G05G10G12G29G31G21G25
   4389506.05948   3493083.44146  21653082.4774   21653081.9734       4893.7614
        48.5004         37.5004
  -7689538.23048  -5880929.46946  20919926.2584   20919926.7854       8001.3254
        50.2504         40.7504
   4266234.86747   3397245.19944  23263743.8674   23263749.2734       4397.4134
        42.2504         25.5004
    674504.16048    618050.32447  20588820.7194   20588820.4144       5438.7514
        50.5004         42.2504
  -8604000.35247  -6559177.66045  22093639.6334   22093641.1214       9103.9784
        46.0004         35.5004
  12217639.83646   9580921.80543  25083119.1954   25083125.8674       7687.7514
        37.5004         20.2504
  11987555.77346   9401546.14842  24877153.8984   24877159.5234       9562.6214
        37.7504         16.7504
  -6315356.84849  -4804400.67247  20462397.7584   20462400.2074       7576.3064
        54.2504         42.5004
 11 11 21 19 18 30.0000000  0  8G02G05G10G12G29G31G21G25
   4242859.91047   3378813.62146  21625176.6094   21625176.6254       4888.2054
        47.2504         37.5004
  -7928996.00048  -6067519.92646  20874358.9304   20874359.3954       7981.9264
        49.5004         40.5004
   4134750.93047   3294790.01644  23238723.8594   23238728.5904       4382.7984
        42.2504         25.5004
    511860.57848    491315.02346  20557870.6954   20557870.4024       5421.4534
        51.5004         41.2504
  -8877039.37147  -6771935.30545  22041681.6174   22041683.6804       9101.3014
        46.7504         35.5004
  11987491.03946   9401585.06343  25039322.5634   25039329.8094       7671.6274
        38.5004         21.2504
  11700821.25846   9178116.91442  24822589.6174   24822595.9574       9557.8174
        37.5004         17.2504
  -6542069.03149  -4981059.52047  20419255.7664   20419257.9494       7557.0734
        54.5004         42.7504
 11 11 21 19 19  0.0000000  0  8G02G05G10G12G29G31G21G25
   5671806.58247   4492278.46546  21897096.4224   21897095.6884       4882.4444
        47.5004         37.5004
  -6592439.84448  -5026047.57846  21128697.4224   21128697.6024       7962.1284
        49.0004         41.2504
   5579129.78147   4420279.84044  23513579.9224   23513585.0164       4368.0384
        42.2504         25.5004
   1925163.37948   1592589.88747  20826813.3754   20826812.9614       5403.9074
        51.2504         42.0004
  -7574565.27047  -5757020.37945  22289534.1024   22289536.0634       9098.1974
        46.2504         35.5004
  13333256.43046  10450233.38343  25295413.5314   25295420.0554       7655.1544
        39.7504         21.0004
  12989663.56346  10182409.84442  25067847.3284   25067854.2504       9552.5904
        37.5004         17.7504
  -5192772.84049  -3929659.89547  20676018.2034   20676020.5234       7537.4604
        54.5004         43.2504
 11 11 21 19 19 30.0000000  0  8G02G05G10G12G29G31G21G25
   5525492.48047   4378267.38346  21869253.6254   21869253.0944       4877.1374
        47.5004         37.5004
  -6830726.52348  -5211725.50046  21083352.4924   21083352.8014       7942.8894
        48.5004         40.5004
   5448518.30547   4318504.48043  23488726.1334   23488730.7114       4353.7164
        43.2504         23.5004
   1763558.79748   1466664.19146  20796060.9304   20796060.6844       5386.8194
        51.2504         41.7504
  -7847437.30547  -5969647.89545  22237607.9924   22237610.1524       9095.7354
        47.5004         35.5004
  13104078.67646  10271653.29343  25251802.9614   25251809.2074       7639.2584
        39.7504         22.0004
  12703222.23046   9959209.09443  25013339.2894   25013345.3554       9548.0444
        36.2504         18.2504
  -5418324.38748  -4105414.34047  20633097.0634   20633099.3634       7518.3854
        53.7504         43.0004
 11 11 21 19 20  0.0000000  0  8G02G05G10G12G29G31G21G25
   5379339.91848   4264382.17246  21841441.7274   21841441.4614       4871.7524
        48.5004         37.2504
  -7068428.27348  -5396947.62146  21038119.5784   21038120.2034       7923.3924
        49.0004         40.2504
   5318337.10247   4217064.39144  23463953.8984   23463958.1134       4339.3734
        43.5004         25.5004
   1602469.57848   1341140.08246  20765406.7974   20765406.6294       5369.6414
        50.0004         41.5004
  -8120227.22347  -6182211.41845  22185698.2274   22185700.1174       9092.9974
        45.7504         35.2504
  12875384.17246  10093449.75843  25208284.4384   25208290.0434       7623.1504
        39.5004         21.5004
  12416925.70346   9736121.12942  24958858.8834   24958864.7194       9543.2184
        36.0004         16.7504
  -5643296.48048  -4280717.27347  20590286.3364   20590288.8954       7499.0704
        53.7504         43.5004
 11 11 21 19 20 30.0000000  0  8G02G05G10G12G29G31G21G25
   5233347.02748   4150621.37946  21813660.2274   21813659.8794       4866.4304
        49.0004         37.2504
  -7305544.25848  -5581713.31246  20992997.7814   20992998.5474       7903.8664
        50.2504         40.7504
   5188583.17647   4115957.25044  23439261.8524   23439267.1844       4325.1314
        43.5004         25.7504
   1441894.12148   1216016.30946  20734850.1724   20734850.2034       5352.5154
        50.0004         41.5004
  -8392934.84447  -6394710.81645  22133803.3054   22133805.4654       9090.2544
        46.5004         35.5004
  12647172.82446   9915622.71143  25164856.9224   25164863.3014       7607.0454
        41.0004         21.7504
  12130773.56646   9513145.72742  24904406.0474   24904411.8404       9538.4054
        36.2504         17.2504
  -5867688.55549  -4455568.23847  20547585.8284   20547588.4304       7479.7364
        54.2504         43.0004
 11 11 21 19 21  0.0000000  0  8G02G05G10G12G29G31G21G25
   5087514.53548   4036985.57046  21785909.4534   21785909.0824       4861.0834
        49.0004         37.0004
  -7542071.34448  -5766020.11346  20947988.2274   20947988.8164       7884.2364
        50.7504         41.2504
   5059255.99647   4015182.65644  23414652.3754   23414657.0664       4310.9064
        42.0004         25.0004
   1281833.65248   1091293.82846  20704391.8284   20704391.7664       5335.3494
        49.7504         41.5004
  -8665556.99247  -6607143.62546  22081924.7734   22081927.2384       9087.4054
        46.7504         36.5004
  12419446.74646   9738173.77743  25121522.2194   25121528.0514       7590.8694
        41.0004         21.2504
  11844768.87945   9290285.14142  24849980.0864   24849986.5594       9533.4904
        35.0004         17.7504
  -6091497.45349  -4629964.78547  20504996.6804   20504998.7194       7460.2974
        54.0004         43.0004
 11 11 21 19 21 30.0000000  0  8G02G05G10G12G29G31G21G25
   4941838.13348   3923471.39546  21758188.7504   21758188.0944       4855.8804
        50.0004         37.5004
  -7778011.48048  -5949869.55946  20903090.4224   20903090.7304       7864.6714
        51.7504         41.0004
   4930349.88747   3914736.13344  23390122.4454   23390127.4454       4296.8704
        42.7504         25.0004
   1122283.75448    966969.19146  20674030.3984   20674030.4064       5318.3304
        50.5004         41.7504
  -8938095.84447  -6819511.52345  22030062.6484   22030064.6024       9084.6284
        47.0004         35.7504
  12192203.20746   9561100.90243  25078278.3754   25078285.2854       7574.7854
        39.7504         20.0004
  11558909.00846   9067537.48442  24795583.2814   24795589.0664       9528.6624
        36.0004         16.7504
  -6314725.32449  -4803908.57847  20462517.8134   20462520.1484       7440.9294
        54.2504         43.0004
 11 11 21 19 22  0.0000000  0  8G02G05G10G12G29G31G21G25
   4796316.73448   3810077.98846  21730496.9614   21730496.2504       4850.7134
        49.5004         37.2504
  -8013362.61748  -6133260.03546  20858304.2274   20858304.7274       7845.0384
        51.7504         41.0004
   4801862.66447   3814616.02343  23365672.6724   23365676.9924       4282.9074
        42.2504         23.2504
    963244.00848    843042.07846  20643766.0944   20643765.7154       5301.3254
        50.5004         41.5004
  -9210549.97347  -7031813.39846  21978216.6884   21978218.5634       9081.8044
        47.7504         36.0004
  11965442.36346   9384404.13743  25035127.1484   25035133.6484       7558.6954
        40.0004         21.2504
  11273194.83245   8844903.30542  24741213.8284   24741218.6454       9523.8064
        35.7504         16.2504
  -6537370.59049  -4977398.38747  20420149.8754   20420152.2624       7421.5094
        54.0004         42.7504
 11 11 21 19 22 30.0000000  0  8G02G05G10G12G29G31G21G25
   4650950.99248   3696805.88346  21702834.6094   21702833.9184       4845.5254
        49.7504         36.5004
  -8248122.40648  -6316189.71546  20813631.3524   20813631.9104       7825.3264
        52.0004         41.2504
   4673793.69147   3714821.83244  23341301.8284   23341306.6484       4268.9664
        42.0004         24.0004
    804714.61748    719512.64546  20613598.8754   20613598.9184       5284.3134
        50.7504         41.5004
  -9482917.05947  -7244047.46546  21926386.7974   21926388.3324       9078.9034
        47.2504         36.5004
  11739166.28546   9208085.11743  24992069.3364   24992075.5744       7542.5364
        41.2504         20.5004
  10987628.24646   8622384.11742  24686871.5634   24686877.3984       9518.8864
        37.5004         17.7504
  -6759430.68749  -5150432.23047  20377893.1884   20377895.7114       7402.0034
        54.5004         43.2504
 11 11 21 19 23  0.0000000  0  8G02G05G10G12G29G31G21G25
   6081163.78148   4811257.30946  21974994.7664   21974994.8164       4840.2404
        49.5004         36.7504
  -6906862.64148  -5271052.21146  21068864.5554   21068865.0434       7805.3414
        51.5004         41.0004
   6121564.32847   4842954.60544  23616802.9224   23616808.3554       4254.9794
        42.0004         24.0004
   2222119.34048   1823983.82046  20883322.1724   20883322.3364       5267.1764
        50.7504         41.5004
  -8179767.78147  -6228606.43046  22174367.9064   22174369.8404       9075.6914
        47.2504         36.5004
  13088801.77747  10259749.11743  25248896.7584   25248902.7814       7526.1504
        42.2504         20.2504
  12277638.98446   9627587.47743  24932352.1804   24932357.6134       9513.6424
        38.7504         19.5004
  -5405477.86749  -4095404.05947  20635542.0084   20635544.2974       7382.2394
        54.7504         43.2504
 11 11 21 19 23 30.0000000  0  8G02G05G10G12G29G31G21G25
   5936102.57048   4698222.49246  21947391.0004   21947390.6294       4835.3744
        48.7504         36.7504
  -7140439.02048  -5453059.75046  21024416.3984   21024417.0474       7785.8794
        51.0004         41.0004
   5994321.84046   4743804.40243  23592589.6024   23592595.4494       4241.4164
        40.0004         22.7504
   2064605.27048   1701245.54746  20853348.2974   20853348.0784       5250.4694
        48.5004         40.7504
  -8451960.59847  -6440704.68746  22122571.4774   22122572.9574       9073.0944
        47.5004         36.0004
  12863492.80947  10084183.67643  25206020.6254   25206027.6294       7510.2994
        42.2504         22.5004
  11992366.49246   9405297.42243  24878066.3204   24878072.3754       9509.0834
        37.0004         18.5004
  -5626367.44148  -4267525.80147  20593508.0864   20593510.4104       7362.9864
        52.5004         43.5004
 11 11 21 19 24  0.0000000  0  8G02G05G10G12G29G31G21G25
   5791192.66047   4585305.57446  21919815.4614   21919815.1564       4830.3304
        47.2504         36.7504
  -7373420.91448  -5634604.05546  20980081.5084   20980081.4574       7766.0634
        50.0004         40.7504
   5867489.69546   4644973.95743  23568454.2424   23568460.0824       4227.7384
        41.2504         23.2504
   1907597.62548   1578901.89546  20823471.1174   20823470.7274       5233.5884
        48.2504         40.5004
  -8724064.16447  -6652733.41046  22070791.4064   22070793.4024       9070.1194
        47.0004         36.0004
  12638668.27046   9908995.68843  25163238.1484   25163244.9884       7494.1514
        41.2504         21.2504
  11707242.69546   9183123.24643  24823809.9614   24823814.7304       9504.1274
        38.7504         18.2504
  -5846669.39848  -4439189.66847  20551585.5634   20551588.2034       7343.3994
        53.0004         43.0004
 11 11 21 19 24 30.0000000  0  8G02G05G10G12G29G31G21G25
   5646432.84848   4472505.62146  21892268.6644   21892268.3984       4825.3274
        48.2504         36.2504
  -7605807.74648  -5815684.68046  20935859.3984   20935860.0354       7746.2284
        49.7504         41.2504
   5741065.42646   4546461.34044  23544397.0784   23544402.3484       4214.1424
        40.7504         24.0004
   1751095.34048   1456952.02346  20793689.6334   20793689.5394       5216.7434
        48.5004         40.5004
  -8996077.27347  -6864691.63746  22019029.4694   22019030.7074       9067.1044
        46.7504         36.5004
  12414328.00446   9734185.11343  25120547.4304   25120553.9924       7478.0094
        40.2504         20.2504
  11422268.16846   8961065.36343  24769580.3054   24769585.9184       9499.1514
        39.0004         19.5004
  -6066383.00448  -4610395.07847  20509775.7664   20509777.8364       7323.7874
        52.7504         43.0004
 11 11 21 19 25  0.0000000  0  8G02G05G10G12G29G31G21G25
   5501820.91848   4359820.89846  21864749.9224   21864749.7504       4820.3984
        48.7504         36.5004
  -7837599.05148  -5996301.25046  20891750.9454   20891751.4494       7726.3774
        50.7504         41.5004
   5615045.51946   4448263.79944  23520416.1414   23520421.7584       4200.6644
        38.7504         24.7504
   1595096.44548   1335394.41046  20764003.6724   20764003.7234       5199.9634
        49.7504         40.5004
  -9268000.03148  -7076579.46946  21967284.1254   21967285.6174       9064.0924
        48.7504         36.7504
  12190471.23446   9559751.26643  25077949.6484   25077955.2544       7461.8924
        40.5004         21.0004
  11137442.07446   8739123.08243  24715378.6094   24715384.6174       9494.2034
        38.5004         19.2504
  -6285508.12948  -4781141.93047  20468077.4454   20468079.5864       7304.1714
        52.5004         43.5004
 11 11 21 19 25 30.0000000  0  8G02G05G10G12G29G31G21G25
   5357355.82448   4247250.59445  21837259.5314   21837259.1214       4815.5034
        49.2504         35.5004
  -8068793.38348  -6176452.64146  20847756.3984   20847756.7774       7706.4784
        50.7504         41.0004
   5489427.56346   4350379.48044  23496512.2114   23496517.3834       4187.2654
        40.7504         25.0004
   1439599.89548   1214228.23846  20734413.8134   20734413.6254       5183.2184
        48.7504         40.7504
  -9539831.19547  -7288395.93046  21915556.4304   21915557.8484       9061.0394
        47.5004         36.5004
  11967098.33246   9385694.45343  25035441.5784   25035449.2504       7445.7634
        40.5004         21.2504
  10852765.75046   8517297.52343  24661207.7894   24661212.4384       9489.2114
        39.2504         19.2504
  -6504043.70348  -4951429.39547  20426491.6094   20426494.0984       7284.5194
        52.7504         43.5004
 11 11 21 19 26  0.0000000  0  8G02G05G10G12G29G31G21G25
   5213035.03948   4134792.73845  21809796.1804   21809795.7584       4810.6934
        49.0004         35.7504
  -8299391.44148  -6356139.41046  20803874.6884   20803875.4734       7686.6024
        51.5004         41.0004
   5364207.77046   4252805.39143  23472683.8674   23472689.3634       4173.9934
        38.5004         23.0004
   1284603.23848   1093451.58246  20704919.2274   20704918.7074       5166.5554
        48.2504         41.2504
  -9811571.16847  -7500141.33646  21863845.9144   21863847.5944       9057.9994
        47.7504         36.2504
  11744208.29346   9212013.92243  24993028.4224   24993035.1884       7429.6684
        41.0004         21.5004
  10568237.69546   8295587.46143  24607063.8364   24607069.2034       9484.2684
        38.7504         19.0004
  -6721990.14848  -5121257.80147  20385018.0004   20385020.2814       7264.8824
        52.5004         43.0004
 11 11 21 19 26 30.0000000  0  8G02G05G10G12G29G31G21G25
   6644283.34048   5250051.06345  22082153.5864   22082153.0824       4805.7234
        48.5004         35.2504
  -6953963.16448  -5307753.69946  21059901.3754   21059902.0434       7666.3914
        51.2504         41.2504
   6814808.95346   5383143.77044  23748723.9534   23748729.1884       4160.6274
        38.2504         24.5004
   2705531.44548   2200668.33246  20975312.9384   20975312.6484       5149.7264
        48.2504         41.0004
  -8507788.66447  -6484206.88746  22111947.2664   22111948.7504       9054.5834
        47.5004         37.0004
  13097228.97746  10266315.73043  25250499.6954   25250506.6054       7413.3114
        41.0004         20.5004
  11859289.23846   9301601.80543  24852741.9844   24852746.9574       9478.9494
        38.7504         21.0004
  -5363918.33648  -4063020.03547  20643450.3284   20643452.5274       7244.9404
        52.7504         43.2504
 11 11 21 19 27  0.0000000  0  8G02G05G10G12G29G31G21G25
   6500249.36348   5137816.69945  22054744.8834   22054745.0784       4801.1334
        50.0004         35.0004
  -7183363.70348  -5486507.32446  21016247.9774   21016248.1174       7646.6854
        51.5004         41.2504
   6690379.84046   5286185.78143  23725046.2664   23725052.0274       4147.6374
        38.2504         23.5004
   2551532.52748   2080669.14546  20946007.8524   20946007.6914       5133.2974
        48.7504         40.7504
  -8779341.25047  -6695806.27046  22060272.8914   22060274.3134       9051.7534
        47.7504         36.7504
  12875305.47346  10093388.31343  25208268.7504   25208275.6374       7397.4504
        40.0004         20.7504
  11575061.35946   9080125.69543  24798654.8674   24798660.1644       9474.2634
        39.2504         19.7504
  -5580682.39148  -4231927.10247  20602201.4534   20602203.7274       7225.4684
        51.7504         42.5004
 11 11 21 19 27 30.0000000  0  8G02G05G10G12G29G31G21G25
   6356353.97748   5025690.33245  22027362.5084   22027362.3984       4796.5134
        49.0004         34.7504
  -7412167.48848  -5664795.94946  20972707.7814   20972708.0984       7626.7934
        51.7504         41.5004
   6566338.99246   5189530.34843  23701442.9384   23701448.3094       4134.6954
        38.2504         22.7504
   2398027.10948   1961054.49646  20916796.8834   20916796.5434       5116.8474
        48.5004         41.0004
  -9050802.01648  -6907334.09846  22008615.2664   22008617.2464       9048.6924
        48.0004         37.2504
  12653861.73046   9920834.68043  25166130.2504   25166136.4144       7381.4584
        40.7504         21.0004
  11290981.04746   8858764.57443  24744597.2504   24744601.7624       9469.3444
        40.0004         19.2504
  -5796857.35948  -4400375.13347  20561064.9304   20561066.8204       7205.8324
        53.7504         42.7504
 11 11 21 19 28  0.0000000  0  8G02G05G10G12G29G31G21G25
   6212599.29348   4913673.60245  22000007.0474   22000006.6954       4791.8234
        49.5004         35.5004
  -7640369.60548  -5842615.74246  20929282.4144   20929282.5704       7606.7374
        52.2504         41.2504
   6442687.59846   5093178.37943  23677913.3674   23677918.2234       4121.7134
        39.0004         22.5004
   2245017.76648   1841826.39846  20887679.9924   20887679.9024       5100.3114
        48.0004         41.0004
  -9322166.15247  -7118786.64846  21956976.7114   21956978.1254       9045.4714
        47.0004         36.5004
  12432901.76246   9748658.10543  25124082.5164   25124089.3244       7365.3324
        41.0004         20.7504
  11007052.34446   8637521.58643  24690566.7894   24690571.7814       9464.2904
        39.7504         20.0004
  -6012438.67248  -4568360.58647  20520040.7424   20520043.4654       7186.0444
        52.5004         42.7504
 11 11 21 19 28 30.0000000  0  8G02G05G10G12G29G31G21G25
   6068983.44548   4801765.05545  21972677.8054   21972677.6414       4787.1954
        48.7504         35.2504
  -7867970.35248  -6019966.94146  20885971.2114   20885971.5944       7586.6924
        51.7504         41.2504
   6319421.98446   4997127.05544  23654456.1804   23654461.7934       4108.8544
        39.5004         24.0004
   2092502.56648   1722983.34846  20858657.6804   20858657.0904       5083.8404
        48.0004         40.5004
  -9593433.53147  -7330163.78546  21905355.8914   21905357.4414       9042.2464
        47.2504         36.2504
  12212424.41846   9576857.57843  25082127.3364   25082133.2194       7349.2454
        41.5004         21.0004
  10723274.68846   8416396.32443  24636565.0164   24636570.2704       9459.2554
        38.2504         19.7504
  -6227426.51248  -4735883.59047  20479130.2424   20479132.2154       7166.2614
        50.7504         43.0004
 11 11 21 19 29  0.0000000  0  8G02G05G10G12G29G31G21G25
   5925504.86348   4689963.48045  21945374.5944   21945374.7234       4782.6194
        49.0004         35.2504
  -8094969.36348  -6196849.25446  20842774.7424   20842775.4344       7566.6344
        51.5004         41.2504
   6196539.17546   4901374.01043  23631072.0314   23631078.1214       4096.0944
        38.5004         22.7504
   1940479.02348   1604523.41046  20829728.3524   20829728.2504       5067.4514
        49.5004         40.7504
  -9864603.63347  -7541465.11746  21853754.2894   21853755.5474       9039.0034
        47.0004         36.5004
  11992429.03147   9405432.58643  25040263.3834   25040269.5124       7333.1804
        42.7504         21.0004
  10439648.21546   8195388.87943  24582593.2274   24582597.9654       9454.2164
        40.0004         19.7504
  -6441820.74248  -4902944.03547  20438332.3364   20438334.6764       7146.4744
        50.7504         42.5004
 11 11 21 19 29 30.0000000  0  8G02G05G10G12G29G31G21G25
   5782160.02748   4578266.11345  21918097.3284   21918096.9844       4778.1614
        48.7504         34.7504
  -8321367.92648  -6373263.69146  20799692.5474   20799693.1804       7546.6194
        51.7504         41.2504
   6074034.46946   4805915.57443  23607761.0004   23607766.4694       4083.4904
        38.7504         23.2504
   1788943.87548   1486444.03146  20800892.2344   20800891.9224       5051.1724
        48.2504         40.5004
 -10135677.89547  -7752691.77346  21802169.9694   21802171.8364       9035.8094
        46.0004         37.0004
  11772913.19147   9234381.27743  24998490.3364   24998497.0864       7317.1954
        42.5004         21.5004
  10156171.17246   7974497.87943  24528649.3674   24528653.9344       9449.2354
        38.7504         19.0004
  -6655622.80148  -5069543.05547  20397647.3444   20397649.4884       7126.7354
        51.0004         43.0004
 11 11 21 19 30  0.0000000  0  8G02G05G10G12G29G31G21G25
   7214373.05148   5694276.16845  22190638.4614   22190638.3754       4773.5664
        48.7504         35.5004
  -6971737.25848  -5321603.39546  21056519.1644   21056519.3284       7526.3114
        51.7504         41.7504
   7527329.98746   5938353.45843  23884313.3524   23884319.3094       4070.8164
        38.5004         22.7504
   3213321.53948   2596348.66446  21071941.9774   21071942.1414       5034.7454
        49.5004         40.5004
  -8831225.10247  -6736235.00046  22050399.1564   22050400.9304       9032.2404
        47.7504         36.7504
  13129304.69546  10291309.65643  25256603.6484   25256609.5234       7300.9504
        40.5004         20.5004
  11448273.89846   8981331.35543  24774527.4064   24774532.2704       9443.9094
        37.5004         20.0004
  -5293404.41448  -4008074.18447  20656868.6174   20656870.8714       7106.7204
        50.7504         43.0004
 11 11 21 19 30 30.0000000  0  8G02G05G10G12G29G31G21G25
   7071296.38748   5582787.76645  22163411.7114   22163411.9924       4769.2224
        48.5004         34.7504
  -7196928.64548  -5497077.18746  21013666.2194   21013666.6454       7506.3804
        52.0004         41.2504
   7405578.32846   5843481.82843  23861145.0704   23861151.2424       4058.3894
        39.5004         22.0004
   3062763.55948   2479030.71146  21043292.0864   21043291.6134       5018.5994
        48.5004         40.5004
  -9102099.46147  -6947305.86746  21998853.6804   21998855.0594       9029.1454
        47.7504         36.7504
  12910751.73446  10121008.59443  25215014.5004   25215020.4104       7285.0994
        41.5004         21.2504
  11165100.87946   8760677.25043  24720641.7814   24720645.9884       9439.1014
        39.7504         20.2504
  -5506016.10248  -4173745.63747  20616410.1564   20616412.3554       7087.0564
        51.5004         43.2504
 11 11 21 19 31  0.0000000  0  8G02G05G10G12G29G31G21G25
   6928350.02748   5471400.89145  22136210.0474   22136210.1914       4764.8794
        48.5004         34.7504
  -7421517.41848  -5672081.41846  20970928.4304   20970928.4774       7486.2924
        51.7504         41.2504
   7284197.23046   5748898.95743  23838047.4614   23838053.6374       4046.0374
        39.5004         22.7504
   2912689.74648   2362090.03546  21014733.7034   21014733.8914       5002.4604
        48.0004         40.2504
  -9372874.81247  -7158299.59046  21947326.9534   21947328.1054       9025.8454
        46.0004         36.7504
  12692677.54746   9951080.65643  25173516.3984   25173522.8554       7269.1404
        41.7504         20.7504
  10882077.89846   8540140.03143  24666783.7974   24666788.6214       9434.0994
        39.5004         19.7504
  -5718033.82848  -4338954.25447  20576064.4844   20576066.6484       7067.2584
        51.5004         42.7504
 11 11 21 19 31 30.0000000  0  8G02G05G10G12G29G31G21G25
   6785534.32448   5360115.82045  22109033.3984   22109033.6644       4760.5234
        48.5004         34.7504
  -7645501.21548  -5846614.23046  20928305.7664   20928305.9804       7466.1274
        51.5004         41.5004
   7163185.38746   5654603.80543  23815019.9844   23815025.4884       4033.7284
        39.2504         22.2504
   2763100.55948   2245526.98446  20986268.3914   20986267.8054       4986.3064
        48.2504         40.5004
  -9643548.10247  -7369213.78546  21895819.2504   21895820.9064       9022.4434
        46.7504         37.2504
  12475084.02046   9781527.21143  25132109.3674   25132116.2114       7253.1184
        40.5004         20.2504
  10599207.42246   8319721.68043  24612954.8834   24612960.5234       9429.0164
        39.2504         20.2504
  -5929455.25848  -4503698.22347  20535832.3444   20535834.7584       7047.3814
        53.5004         43.0004
 11 11 21 19 32  0.0000000  0  8G02G05G10G12G29G31G21G25
   6642845.74648   5248929.82045  22081880.5864   22081880.7074       4756.2864
        49.0004         35.2504
  -7868881.93448  -6020677.13746  20885797.9694   20885798.0784       7446.0244
        52.0004         41.0004
   7042537.68946   5560592.41643  23792061.0164   23792067.3984       4021.5904
        39.0004         22.7504
   2613991.60548   2129338.14846  20957893.5784   20957893.5274       4970.2984
        48.5004         39.7504
  -9914121.16847  -7580049.87146  21844330.8594   21844332.5864       9019.1024
        46.5004         37.0004
  12257967.80146   9612345.73043  25090793.6414   25090800.4264       7237.2074
        41.2504         22.0004
  10316487.30146   8099420.43443  24559155.3594   24559159.8754       9424.0044
        40.0004         20.0004
  -6140282.59048  -4667979.25447  20495713.2194   20495715.1844       7027.5784
        53.2504         42.7504
 11 11 21 19 32 30.0000000  0  8G02G05G10G12G29G31G21G25
   6500286.16448   5137844.33245  22054752.5004   22054752.9574       4751.9864
        49.0004         34.7504
  -8091656.06648  -6194267.37946  20843405.4304   20843405.8594       7425.8044
        51.5004         41.0004
   6922254.62146   5466865.14843  23769172.8674   23769178.7344       4009.4364
        40.2504         22.5004
   2465364.52347   2013524.79346  20929610.8054   20929610.7704       4954.2364
        47.7504         39.7504
 -10184589.68447  -7790804.50046  21792862.3204   21792864.0004       9015.6174
        47.2504         37.2504
  12041332.11746   9443538.69543  25049569.0704   25049575.8014       7221.1894
        41.2504         20.2504
  10033920.60946   7879238.80943  24505384.7034   24505389.2304       9418.8904
        40.5004         20.2504
  -6350512.07848  -4831794.43447  20455707.8444   20455709.8634       7007.6504
        53.2504         42.7504
 11 11 21 19 33  0.0000000  0  8G02G05G10G12G29G31G21G25
   6357851.29748   5026856.01645  22027648.4614   22027648.7114       4747.8294
        49.2504         35.5004
  -8313825.60248  -6367386.51646  20801127.9694   20801128.1214       7405.6514
        52.7504         41.0004
   6802330.57446   5373417.64143  23746351.4924   23746358.6954       3997.4684
        40.5004         22.5004
   2317215.00448   1898083.55946  20901418.8054   20901418.7034       4938.3174
        48.0004         40.0004
 -10454955.35947  -8001478.99646  21741413.3054   21741415.1054       9012.1894
        46.5004         37.0004
  11825173.46946   9275103.37543  25008435.4774   25008441.6334       7205.2884
        41.2504         21.5004
   9751505.09046   7659174.88743  24451642.5004   24451646.8324       9413.8514
        40.5004         19.7504
  -6560146.25848  -4995145.73447  20415816.0474   20415818.1524       6987.8064
        52.7504         42.7504
 11 11 21 19 33 30.0000000  0  8G02G05G10G12G29G31G21G25
   6215540.87948   4915964.67245  22000567.5234   22000567.7734       4743.6814
        49.5004         35.5004
  -8535389.41848  -6540033.66046  20758965.8524   20758966.3014       7385.4614
        52.0004         41.2504
   6682763.35546   5280248.17643  23723598.0004   23723605.4774       3985.5744
        37.7504         22.5004
   2169542.21148   1783013.80546  20873317.7034   20873317.7154       4922.4264
        48.5004         39.7504
 -10725216.81247  -8212072.26646  21689984.2814   21689985.5274       9008.7154
        46.7504         36.7504
  11609491.89546   9107039.82443  24967393.5474   24967399.4224       7189.3864
        40.2504         21.0004
   9469241.55146   7439229.51643  24397929.9304   24397933.6524       9408.7854
        39.7504         20.0004
  -6769184.09448  -5158032.35547  20376037.2344   20376039.3594       6967.9284
        53.0004         43.2504
 11 11 21 19 34  0.0000000  0  8G02G05G10G12G29G31G21G25
   7648779.87948   6032774.17645  22273304.3134   22273304.4534       4739.3674
        49.2504         35.2504
  -7180918.46948  -5484601.77346  21016713.0084   21016713.2114       7364.9684
        51.5004         41.7504
   8138975.96246   6414959.07543  24000707.7814   24000713.5554       3973.5804
        38.2504         22.5004
   3597770.98048   2895919.29346  21145100.5864   21145100.7114       4906.3744
        48.2504         39.5004
  -9419942.25447  -7194975.14846  21938369.5234   21938371.0164       9004.8484
        47.0004         37.5004
  12969715.94546  10166954.66843  25226235.4774   25226241.1054       7173.1984
        39.2504         21.5004
  10762561.43446   8447011.35243  24644040.2504   24644044.0704       9403.3374
        39.5004         20.2504
  -5402196.73848  -4092847.39847  20636166.3444   20636168.2584       6947.7554
        52.0004         43.2504
 11 11 21 19 34 30.0000000  0  8G02G05G10G12G29G31G21G25
   7506716.30948   5922075.18045  22246270.4144   22246270.3484       4735.4524
        49.2504         34.5004
  -7401267.98848  -5656302.71546  20974781.9924   20974782.1564       7344.9844
        51.5004         41.7504
   8020116.34446   6322340.97344  23978089.4614   23978095.6724       3961.9874
        38.5004         24.0004
   3451048.33248   2781589.90646  21117180.7274   21117180.2074       4890.7554
        49.5004         40.2504
  -9689989.91047  -7405401.83246  21886981.6174   21886982.6294       9001.5894
        47.0004         37.2504
  12754989.37546   9999635.25443  25185373.9924   25185379.8284       7157.5524
        39.7504         20.7504
  10480604.73446   8227305.03543  24590384.4224   24590389.6604       9398.5574
        37.2504         20.5004
  -5610039.05548  -4254802.44547  20596615.1644   20596617.0634       6928.0774
        53.5004         43.2504
 11 11 21 19 35  0.0000000  0  8G02G05G10G12G29G31G21G25
   7364770.50048   5811467.95745  22219259.1644   22219259.3834       4731.5274
        48.5004         35.5004
  -7621013.67248  -5827533.13746  20932965.5784   20932965.8874       7324.8564
        52.5004         41.0004
   7901602.45746   6229992.25843  23955536.6724   23955543.5314       3950.4634
        38.0004         22.0004
   3304794.85548   2667626.11346  21089349.4144   21089349.5634       4875.1164
        49.5004         39.7504
  -9959933.34447  -7615747.31246  21835612.6564   21835613.7894       8998.1144
        46.5004         37.7504
  12540735.82046   9832684.42243  25144602.8134   25144608.4534       7141.7854
        37.7504         19.7504
  10198797.63346   8007715.26643  24536759.7114   24536762.7934       9393.5704
        39.7504         19.2504
  -5817287.05148  -4416294.38347  20557177.2974   20557179.5784       6908.2674
        51.5004         43.0004
 11 11 21 19 35 30.0000000  0  8G02G05G10G12G29G31G21G25
   7222943.57448   5700953.35945  22192270.4384   22192270.8404       4727.5644
        48.7504         34.5004
  -7840152.75448  -5998290.87546  20891264.6954   20891265.2974       7304.6364
        52.5004         41.0004
   7783434.12946   6137912.79344  23933051.0394   23933057.4024       3938.9444
        38.7504         24.5004
   3159010.45748   2554027.82846  21061607.3444   21061607.4734       4859.4804
        50.0004         40.2504
 -10229768.82847  -7826008.67646  21784264.8204   21784266.3324       8994.5164
        46.5004         37.0004
  12326956.88346   9666103.36743  25103922.8204   25103928.5044       7125.9654
        36.7504         19.7504
   9917142.75046   7788244.08643  24483160.3134   24483165.7344       9388.4964
        37.2504         19.2504
  -6023938.02348  -4577321.10947  20517852.8984   20517854.9614       6888.3664
        52.7504         43.0004
 11 11 21 19 36  0.0000000  0  8G02G05G10G12G29G31G21G25
   7081239.07848   5590534.17245  22165305.1254   22165304.8754       4723.4834
        48.0004         35.0004
  -8058680.29348  -6168572.08646  20849680.5554   20849680.8954       7284.2514
        51.2504         40.7504
   7665613.07446   6046103.93443  23910630.1724   23910637.1564       3927.3684
        38.5004         22.7504
   3013698.15648   2440797.41046  21033955.9844   21033955.2664       4843.7434
        50.5004         40.0004
 -10499490.95347  -8036181.70346  21732938.2894   21732939.6254       8990.7384
        47.5004         37.2504
  12113656.73046   9499895.44143  25063333.3204   25063339.3404       7110.0054
        36.2504         19.7504
   9635644.85946   7568895.30543  24429595.4454   24429598.2074       9383.2634
        40.5004         19.2504
  -6229987.13748  -4737878.85247  20478642.8444   20478644.8364       6868.3044
        53.5004         42.7504
 11 11 21 19 36 30.0000000  0  8G02G05G10G12G29G31G21G25
   6939652.16847   5480206.60245  22138362.0634   22138362.2624       4719.5644
        45.5004         34.2504
  -8276599.12548  -6338378.97746  20808212.1174   20808212.1804       7263.9614
        50.7504         41.0004
   7548133.18046   5954560.93043  23888274.5784   23888281.1294       3915.9964
        38.5004         22.2504
   2868853.02748   2327931.02746  21006392.5234   21006392.4414       4828.1714
        50.0004         39.7504
 -10769102.11747  -8246268.27346  21681633.0784   21681634.3404       8987.0394
        47.5004         37.2504
  11900831.35546   9334057.47743  25022833.7114   25022839.8874       7094.1794
        38.0004         20.2504
   9354301.02746   7349666.48843  24376055.3204   24376060.0394       9378.1284
        38.7504         19.7504
  -6435437.67248  -4897970.17247  20439547.1644   20439549.3524       6848.3514
        53.0004         43.0004
 11 11 21 19 37  0.0000000  0  8G02G05G10G12G29G31G21G25
   6798180.70347   5369969.00445  22111440.5634   22111440.7154       4715.7154
        46.7504         33.7504
  -8493910.54348  -6507712.55946  20766858.8674   20766859.5204       7243.7144
        52.2504         41.2504
   7430990.38346   5863280.59844  23865983.7424   23865989.8594       3904.7604
        38.7504         24.5004
   2724472.12548   2215426.38346  20978917.8134   20978917.6954       4812.6974
        50.5004         40.5004
 -11038602.50047  -8456268.51646  21630348.6564   21630350.0704       8983.3464
        47.7504         37.0004
  11688479.02345   9168588.15243  24982423.7274   24982430.6914       7078.4114
        35.7504         20.7504
   9073109.83646   7130556.70743  24322547.3674   24322550.9454       9373.0404
        40.2504         20.0004
  -6640290.59448  -5057595.82447  20400564.7894   20400567.2154       6828.4314
        52.5004         43.0004
 11 11 21 19 37 30.0000000  0  8G02G05G10G12G29G31G21G25
   8232247.56647   6487423.59045  22384334.7814   22384334.9454       4711.7714
        46.5004         34.5004
  -7135187.39848  -5448967.25046  21025415.3834   21025415.6994       7223.2294
        52.5004         40.7504
   8889605.30146   6999863.40243  24143548.0944   24143555.1724       3893.5034
        38.5004         23.0004
   4155977.90648   3330885.37946  21251324.5704   21251324.6724       4797.1414
        51.0004         40.0004
  -9732562.44148  -7438574.91846  21878879.6884   21878881.3164       8979.3314
        49.2504         37.2504
  13052025.75546  10231092.06243  25241898.5634   25241905.2854       7062.4424
        38.0004         21.5004
  10367500.66446   8139173.10943  24568860.7664   24568864.4454       9367.6394
        40.2504         20.0004
  -5269119.50849  -3989150.82047  20661490.1804   20661492.0704       6808.2974
        54.0004         43.7504
 11 11 21 19 38  0.0000000  0  8G02G05G10G12G29G31G21G25
   8091003.98447   6377363.55945  22357456.8054   22357457.2464       4708.1194
        47.2504         34.2504
  -7351281.70748  -5617352.42246  20984294.0944   20984294.1174       7203.1444
        51.5004         41.0004
   8773129.52346   6909102.79743  24121383.3834   24121390.9344       3882.5264
        39.2504         22.5004
   4012521.05548   3219100.76646  21224025.5084   21224025.7814       4781.8954
        51.5004         40.0004
 -10001836.91848  -7648399.14146  21827638.4384   21827639.7544       8975.8164
        49.0004         37.2504
  12840618.22746  10066358.93043  25201668.8204   25201676.5164       7046.9184
        40.5004         21.7504
  10086616.92246   7920302.84443  24515411.0314   24515414.8674       9362.7914
        41.0004         19.5004
  -5472775.97749  -4147844.17647  20622735.4614   20622737.4654       6788.5494
        54.0004         43.0004
 11 11 21 19 38 30.0000000  0  8G02G05G10G12G29G31G21G25
   7949871.84047   6267390.35945  22330600.4304   22330601.0164       4704.4054
        47.2504         34.0004
  -7566768.03148  -5785263.84046  20943288.3444   20943288.6054       7182.8774
        51.0004         41.2504
   8656982.36346   6818598.23843  24099282.2664   24099289.3054       3871.5724
        38.2504         22.2504
   3869522.83648   3107673.54346  21196813.5634   21196813.5784       4766.6074
        51.5004         40.5004
 -10270997.88348  -7858134.90646  21776418.7974   21776420.2194       8972.0324
        48.7504         37.5004
  12629681.55946   9901992.70343  25161527.9614   25161536.3164       7031.2224
        41.0004         21.5004
   9805886.25846   7701551.85243  24461989.8284   24461993.1094       9357.6894
        39.7504         19.2504
  -5675834.76648  -4306071.80147  20584094.6724   20584096.5984       6768.6264
        53.5004         43.2504
 11 11 21 19 39  0.0000000  0  8G02G05G10G12G29G31G21G25
   7808851.40647   6157504.19145  22303765.4924   22303765.8714       4700.6814
        47.2504         34.0004
  -7781644.59048  -5952700.11746  20902398.7424   20902398.5944       7162.5524
        51.7504         40.7504
   8541162.43446   6728348.68443  24077242.8594   24077249.9064       3860.6644
        38.5004         21.7504
   3726982.91448   2996603.41846  21169689.6804   21169689.3284       4751.3314
        51.7504         40.0004
 -10540042.48448  -8067780.00046  21725221.7114   21725223.1414       8968.1534
        48.5004         37.5004
  12419216.73846   9737994.10243  25121477.8754   25121486.4844       7015.4944
        40.7504         21.0004
   9525310.41846   7482921.52743  24408597.2664   24408601.2344       9352.5284
        41.0004         20.7504
  -5878294.28948  -4463832.47747  20545567.7894   20545570.5514       6748.6514
        53.2504         42.7504
 11 11 21 19 39 30.0000000  0  8G02G05G10G12G29G31G21G25
   7667940.85547   6047703.66845  22276950.8524   22276951.1914       4697.0184
        47.0004         33.2504
  -7995912.32048  -6119661.96946  20861624.7504   20861625.3134       7142.2584
        48.0004         41.5004
   8425666.02046   6638351.26243  24055264.6564   24055272.0314       3849.8804
        38.0004         22.0004
   3584898.45748   2885888.20746  21142651.7894   21142651.8714       4736.1494
        50.5004         39.7504
 -10808970.74648  -8277334.44546  21674046.0784   21674046.9694       8964.2754
        48.7504         37.2504
  12209221.93847   9574361.78143  25081517.8444   25081525.9224       6999.8274
        42.0004         22.0004
   9244888.50046   7264411.10543  24355234.7814   24355238.3164       9347.3974
        41.0004         21.0004
  -6080155.46149  -4621126.91047  20507155.0314   20507157.3244       6728.7064
        54.2504         43.2504
 11 11 21 19 40  0.0000000  0  8G02G05G10G12G29G31G21G25
   7527139.26647   5937988.01645  22250157.3444   22250158.1024       4693.3864
        47.5004         34.0004
  -8209570.78948  -6286149.08246  20820966.9924   20820967.1764       7121.9494
        50.7504         41.2504
   8310491.09846   6548604.29343  24033347.9064   24033354.5864       3839.1644
        39.0004         21.7504
   3443268.10248   2775526.84446  21115700.3364   21115700.4104       4721.0124
        50.5004         39.5004
 -11077781.01248  -8486796.94546  21622893.1484   21622894.4454       8960.3424
        48.5004         38.0004
  11999696.73446   9411095.38343  25041646.0314   25041653.6844       6984.1734
        40.5004         19.7504
   8964621.00446   7046021.01243  24301901.7344   24301905.4534       9342.2504
        41.0004         20.0004
  -6281417.82049  -4777954.73847  20468856.2734   20468858.3594       6708.7454
        54.7504         43.5004
 11 11 21 19 40 30.0000000  0  8G02G05G10G12G29G31G21G25
   7386445.12148   5828356.12145  22223384.1414   22223384.7544       4689.8054
        48.0004         33.0004
  -8422620.22748  -6452161.62146  20780425.0864   20780425.4734       7101.6484
        51.5004         41.0004
   8195633.99646   6459105.00443  24011491.5864   24011498.2974       3828.5704
        39.0004         22.0004
   3302089.39148   2665517.41046  21088834.9844   21088835.0744       4705.9574
        51.0004         40.5004
 -11346472.62148  -8696166.98446  21571762.7344   21571763.9574       8956.3874
        48.0004         38.0004
  11790639.98846   9248194.00443  25001864.4924   25001870.9844       6968.5584
        41.0004         21.0004
   8684507.53546   6827750.93843  24248597.4454   24248601.0904       9337.1164
        41.7504         19.2504
  -6482081.89549  -4934316.36747  20430670.9924   20430673.3794       6688.8024
        54.0004         43.0004
 11 11 21 19 41  0.0000000  0  8G02G05G10G12G29G31G21G25
   7245859.62547   5718808.87145  22196631.8914   22196632.2854       4686.1834
        46.2504         32.7504
  -8635058.13348  -6617697.64846  20739999.2274   20739999.6804       7081.2644
        48.7504         41.0004
   8081094.22346   6369852.95743  23989695.1644   23989702.3984       3817.9924
        38.5004         20.0004
   3161362.89148   2555860.34446  21062055.6024   21062056.0704       4690.8834
        50.5004         39.7504
 -11615042.36347  -8905442.05946  21520655.7814   21520657.1094       8952.3254
        47.7504         37.7504
  11582053.18846   9085658.81343  24962171.0004   24962179.0164       6952.8934
        39.7504         21.0004
   8404550.66446   6609602.86743  24195323.7504   24195327.1414       9331.8964
        40.5004         20.5004
  -6682145.32849  -5090209.96947  20392600.1484   20392602.4104       6668.7814
        54.2504         43.0004
 11 11 21 19 41 30.0000000  0  8G02G05G10G12G29G31G21G25
   8680803.58247   6836946.91445  22469693.0004   22469693.2774       4682.5354
        47.5004         33.5004
  -7271460.30148  -5555153.87546  20999483.3204   20999483.5084       7060.7394
        52.0004         40.7504
   9542290.20346   7508446.97343  24267750.5004   24267759.1564       3807.4674
        38.7504         20.5004
   4596508.66448   3674155.71146  21335154.8914   21335155.3444       4675.8084
        50.0004         39.0004
 -10308062.70747  -7887016.30146  21769365.1954   21769366.7664       8948.0114
        47.7504         37.7504
  12949359.79746  10151092.48843  25222361.6334   25222368.2974       6937.1134
        40.0004         20.5004
   9700177.03546   7619182.00443  24441872.6254   24441876.6644       9326.4544
        41.0004         21.7504
  -5306184.26648  -4018032.53147  20654436.7274   20654438.9924       6648.6314
        53.0004         43.5004
 11 11 21 19 42  0.0000000  0  8G02G05G10G12G29G31G21G25
   8540426.55947   6727562.11345  22442979.9064   22442980.2544       4679.2344
        44.5004         33.5004
  -7482680.94148  -5719741.38746  20959289.4694   20959289.5554       7040.6884
        50.2504         41.2504
   9428371.57846   7419678.93843  24246074.5234   24246081.5004       3797.2884
        38.7504         21.2504
   4456675.59848   3565194.83646  21308545.7664   21308545.8674       4661.1024
        50.5004         39.7504
 -10576390.78547  -8096103.06646  21718304.5084   21718305.5234       8944.2694
        46.5004         37.7504
  12741705.25846   9989283.71543  25182846.9614   25182852.4144       6921.8184
        39.0004         20.2504
   9420528.46146   7401274.16443  24388657.6954   24388661.1334       9321.6194
        40.5004         20.7504
  -5505052.10548  -4172994.50447  20616593.5634   20616595.7464       6628.9284
        53.0004         42.7504
 11 11 21 19 42 30.0000000  0  8G02G05G10G12G29G31G21G25
   8400154.08247   6618258.77345  22416287.0474   22416288.0434       4675.7494
        46.2504         33.0004
  -7693290.69548  -5883852.88346  20919211.7424   20919212.2774       7020.3254
        50.2504         40.7504
   9314761.25446   7331151.11343  24224455.0004   24224462.0474       3787.0114
        39.2504         20.5004
   4317288.39848   3456581.38746  21282021.4304   21282021.5124       4646.2404
        50.0004         39.7504
 -10844594.23047  -8305092.71146  21667266.9774   21667268.1524       8940.1154
        47.5004         38.2504
  12534517.66046   9827838.79343  25143419.9534   25143425.2274       6906.2534
        36.5004         21.5004
   9141036.41447   7183488.26243  24335472.6024   24335475.3014       9316.4024
        42.0004         21.2504
  -5703320.15648  -4327489.11347  20578864.5314   20578866.3094       6608.9354
        53.2504         43.0004
 11 11 21 19 43  0.0000000  0  8G02G05G10G12G29G31G21G25
   8259982.66847   6509034.17645  22389613.5704   22389613.7774       4672.3804
        44.5004         33.7504
  -7903291.85248  -6047490.14546  20879249.7664   20879250.1914       7000.0394
        51.0004         41.5004
   9201454.19546   7242859.66843  24202893.9534   24202900.9454       3776.9024
        39.2504         21.5004
   4178342.59848   3348311.88346  21255580.7664   21255580.5084       4631.5274
        51.0004         39.7504
 -11112674.36747  -8513986.27346  21616252.9454   21616254.6484       8936.0054
        47.5004         38.7504
  12327793.99246   9666755.34043  25104082.0704   25104087.2544       6890.7894
        36.0004         20.7504
   8861698.69946   6965822.60243  24282315.2274   24282319.1764       9311.2574
        40.0004         22.0004
  -5900990.91448  -4481518.29747  20541249.0474   20541251.2304       6589.0254
        52.5004         43.0004
 11 11 21 19 43 30.0000000  0  8G02G05G10G12G29G31G21G25
   8119910.49247   6399886.91445  22362958.7894   22362959.6524       4669.0734
        46.5004         33.5004
  -8112684.84448  -6210653.51646  20839403.8594   20839404.1564       6979.7664
        50.2504         41.0004
   9088446.97346   7154801.86743  24181389.0394   24181396.6564       3766.9074
        39.5004         20.0004
   4039835.79748   3240384.44946  21229223.7894   21229223.7894       4616.8934
        48.7504         40.5004
 -11380630.38348  -8722783.11746  21565262.5944   21565263.8134       8931.8674
        48.0004         38.0004
  12121532.59046   9506032.17643  25064830.9304   25064836.9804       6875.3804
        36.7504         20.7504
   8582514.67646   6748276.71943  24229187.6254   24229191.5944       9306.1344
        41.0004         22.0004
  -6098065.15648  -4635082.66047  20503747.2344   20503749.2194       6569.1414
        52.2504         43.0004
 11 11 21 19 44  0.0000000  0  8G02G05G10G12G29G31G21G25
   7979939.46147   6290818.46945  22336323.4384   22336324.1174       4665.7014
        47.5004         33.2504
  -8321468.06648  -6373341.73446  20799673.5314   20799674.0594       6959.4414
        50.5004         41.2504
   8975739.19546   7066977.36343  24159942.0004   24159949.0634       3756.9264
        40.0004         20.7504
   3901768.70348   3132799.65246  21202950.4694   21202950.6604       4602.2364
        51.0004         39.7504
 -11648458.72348  -8931480.48446  21514296.1644   21514297.5904       8927.6114
        48.7504         38.0004
  11915735.05146   9345670.42243  25025669.2814   25025675.0394       6859.9184
        40.2504         21.7504
   8303486.48446   6530852.24243  24176091.0004   24176094.7704       9300.9404
        41.5004         21.0004
  -6294540.63749  -4788180.45747  20466358.8524   20466360.9694       6549.1834
        54.2504         43.5004
 11 11 21 19 44 30.0000000  0  8G02G05G10G12G29G31G21G25
   7840067.71548   6181827.38345  22309706.8984   22309707.7934       4662.3924
        48.0004         34.2504
  -8529641.78948  -6535555.02746  20760059.5634   20760059.9024       6939.1244
        48.0004         41.2504
   8863327.65646   6979383.71943  24138550.5634   24138558.2624       3747.0514
        39.0004         21.2504
   3764138.48448   3025555.27046  21176760.5314   21176760.5084       4587.6744
        50.0004         40.0004
 -11916158.65248  -9140077.78946  21463354.6954   21463356.3094       8923.3314
        48.2504         38.0004
  11710400.17646   9185669.20343  24986595.0164   24986601.8554       6844.4964
        39.7504         21.2504
   8024614.15246   6313549.21543  24123023.0394   24123026.3094       9295.7444
        41.2504         21.5004
  -6490418.06249  -4940812.24247  20429084.3364   20429086.4414       6529.2484
        54.5004         43.0004
 11 11 21 19 45  0.0000000  0  8G02G05G10G12G29G31G21G25
   9275720.46948   7300517.72745  22582902.3054   22582902.9964       4658.9084
        48.5004         34.7504
  -7161777.34848  -5469686.63346  21020355.3134   21020355.7664       6918.5194
        48.5004         40.7504
  10326635.15446   8119623.08543  24417008.6804   24417016.6684       3737.0834
        39.5004         21.5004
   5202369.62147   4146254.80946  21450446.6174   21450446.7974       4572.9624
        47.7504         39.0004
 -10608298.78548  -8120966.16046  21712232.0784   21712233.4024       8918.6714
        49.2504         38.5004
  13080955.36746  10253634.21943  25247403.2584   25247410.4414       6828.8274
        40.5004         21.5004
   9321328.92247   7323976.37543  24369779.7814   24369783.5354       9290.1744
        42.0004         22.0004
  -5110269.32448  -3865371.68747  20691718.3524   20691720.3404       6509.0424
        53.2504         43.0004
 11 11 21 19 45 30.0000000  0  8G02G05G10G12G29G31G21G25
   9136045.70747   7191680.13345  22556323.4614   22556323.8324       4655.8254
        45.7504         33.7504
  -7368730.81248  -5630949.07446  20980973.3284   20980973.5084       6898.4494
        48.5004         41.0004
  10214809.39546   8032485.90643  24395728.8674   24395737.0704       3727.5254
        38.2504         21.2504
   5065609.07048   4039688.09046  21424422.0944   21424422.3634       4558.6854
        49.0004         39.0004
 -10875737.49648  -8329359.91046  21661340.3674   21661341.5164       8914.6244
        49.7504         38.2504
  12876544.23046  10094352.77343  25208505.6024   25208512.8484       6813.7054
        36.0004         21.7504
   9042770.21546   7106917.71943  24316771.7424   24316775.4264       9285.2904
        41.5004         21.7504
  -5304949.68048  -4017070.69547  20654671.7584   20654673.9224       6489.3454
        53.0004         42.7504
 11 11 21 19 46  0.0000000  0  8G02G05G10G12G29G31G21G25
   8996465.33648   7082916.09045  22529761.9774   22529762.6764       4652.6794
        48.0004         34.0004
  -7575076.76248  -5791738.12546  20941707.1564   20941707.5744       6878.1984
        51.0004         40.7504
  10103270.09446   7945571.94943  24374504.0004   24374512.0904       3717.9774
        38.5004         20.5004
   4929277.93448   3933455.98046  21398479.0554   21398479.1484       4544.3714
        50.0004         39.0004
 -11143045.89548  -8537652.12946  21610473.0864   21610474.1054       8910.2804
        48.0004         38.5004
  12672591.66046   9935428.62543  25169695.3594   25169701.0554       6798.4194
        37.2504         21.5004
   8764366.07046   6889979.50843  24263792.9844   24263796.3324       9280.1384
        41.5004         21.7504
  -5499034.16848  -4168305.38747  20617738.9064   20617741.4144       6469.4834
        53.7504         43.0004
 11 11 21 19 46 30.0000000  0  8G02G05G10G12G29G31G21G25
   8856980.46947   6974226.46945  22503218.9144   22503219.9964       4649.4964
        47.7504         33.0004
  -7780812.83648  -5952051.95346  20902556.9064   20902557.1174       6857.8694
        49.2504         40.7504
   9992016.13746   7858880.33643  24353333.1804   24353341.6134       3708.4654
        39.5004         20.5004
   4793376.40248   3827558.62546  21372618.0704   21372618.2114       4530.0514
        49.2504         40.0004
 -11410220.82448  -8745840.34846  21559631.3054   21559632.6454       8905.8314
        48.5004         38.0004
  12469098.32845   9776862.35943  25130970.3524   25130977.1294       6783.1114
        34.7504         20.5004
   8486118.92246   6673163.59843  24210844.1724   24210847.8284       9274.9054
        41.2504         22.0004
  -5692521.03948  -4319074.40647  20580919.6564   20580921.9144       6449.5624
        53.5004         42.5004
 11 11 21 19 47  0.0000000  0  8G02G05G10G12G29G31G21G25
   8717589.40648   6865609.93845  22476694.2424   22476694.9184       4646.3694
        48.2504         33.0004
  -7985941.09048  -6111892.15646  20863522.2194   20863522.6914       6837.6084
        48.0004         40.5004
   9881043.97346   7772408.28143  24332216.3204   24332224.2464       3699.0724
        38.0004         20.2504
   4657901.44948   3721993.66446  21346837.5394   21346838.4614       4515.8324
        49.5004         39.0004
 -11677262.29748  -8953924.57446  21508814.8754   21508815.9534       8901.3824
        48.0004         38.0004
  12266062.23046   9618652.40643  25092334.3594   25092340.7934       6767.8704
        39.2504         22.2504
   8208027.12546   6456468.74643  24157925.3364   24157928.6054       9269.7274
        40.7504         22.0004
  -5885411.81248  -4469378.93447  20544213.5944   20544215.8754       6429.6924
        53.5004         42.5004
 11 11 21 19 47 30.0000000  0  8G02G05G10G12G29G31G21G25
   8578292.59447   6757066.84045  22450186.9384   22450187.5784       4643.2274
        47.7504         33.0004
  -8190459.69548  -6271257.30546  20824603.8204   20824604.1294       6817.2874
        51.0004         40.7504
   9770352.78946   7686155.19143  24311152.0004   24311160.6174       3689.7064
        38.7504         20.5004
   4522852.88348   3616760.95346  21321139.1024   21321139.7194       4501.6194
        48.7504         38.5004
 -11944166.54748  -9161901.87946  21458025.0004   21458025.9574       8896.8084
        48.5004         38.5004
  12063484.27046   9460799.42243  25053785.3284   25053792.1724       6752.5994
        37.2504         21.5004
   7930093.39546   6239897.05943  24105036.5394   24105040.3754       9264.4584
        40.5004         22.0004
  -6077704.73848  -4619217.60547  20507621.4924   20507623.9454       6409.7644
        53.5004         43.0004
 11 11 21 19 48  0.0000000  0  8G02G05G10G12G29G31G21G25
   8439085.80147   6648593.89145  22423696.6564   22423697.5234       4640.2264
        47.2504         32.7504
  -8394372.21548  -6430150.18446  20785800.1414   20785800.4924       6797.0844
        50.2504         41.0004
   9659936.18846   7600116.07443  24290141.5474   24290149.6564       3680.5534
        37.2504         19.7504
   4388225.07048   3511856.09846  21295520.5314   21295520.8874       4487.5944
        49.2504         39.0004
 -12210936.41848  -9369774.48046  21407260.0784   21407261.3594       8892.3294
        48.0004         38.7504
  11861360.03156   9303299.88353  25015323.5704   25015329.6644       6737.3274
        37.0004         20.2504
   7652314.01246   6023445.65643  24052176.8134   24052179.9774       9259.3134
        40.5004         22.5004
  -6269403.68049  -4768593.42647  20471142.5784   20471144.9694       6389.9654
        54.0004         42.0004
 11 11 21 19 48 30.0000000  0  8G02G05G10G12G29G31G21G25
   8299966.44147   6540189.07045  22397223.4224   22397224.0744       4637.3124
        46.7504         33.0004
  -8597680.74648  -6588572.41046  20747112.2424   20747112.3284       6776.9514
        51.0004         40.5004
   9549790.18846   7514287.79743  24269182.0864   24269189.8014       3671.5334
        39.5004         20.2504
   4254014.53148   3407276.39146  21269980.7344   21269981.1294       4473.6854
        50.2504         39.0004
 -12477572.22748  -9577542.60546  21356520.9844   21356522.2304       8887.8604
        49.0004         38.7504
  11659687.07846   9146152.11743  24976946.0704   24976951.3484       6722.4324
        41.0004         20.7504
   7374687.33246   5807113.21543  23999346.0004   23999349.2624       9254.2234
        39.5004         22.2504
  -6460510.55948  -4917507.90247  20434776.0704   20434778.0634       6370.2294
        53.5004         42.7504
 11 11 21 19 49  0.0000000  0  8G02G05G10G12G29G31G21G25
   9736360.30547   7659456.89545  22670559.9144   22670560.5514       4634.2054
        46.7504         32.5004
  -7224956.09448  -5518916.83646  21008332.8364   21008333.2274       6756.5124
        51.2504         41.0004
  11015337.61346   8656272.60943  24548065.9534   24548074.5354       3662.4194
        39.0004         19.7504
   5695645.89848   4530625.43846  21544314.3984   21544314.8594       4459.6214
        50.0004         38.7504
 -11168641.42248  -8557596.48846  21605602.1724   21605603.4804       8882.9734
        49.0004         38.7504
  13033893.07447  10216962.00843  25238448.1954   25238454.2034       6707.1334
        42.0004         22.0004
   8672644.82446   6818508.71943  24246339.3054   24246342.2114       9248.7504
        39.5004         22.5004
  -5075597.20349  -3838354.66447  20698316.3984   20698318.6564       6350.2214
        54.0004         42.2504
 11 11 21 19 49 30.0000000  0  8G02G05G10G12G29G31G21G25
   9597418.24247   7551190.22345  22644120.0554   22644121.1254       4631.4024
        46.2504         32.2504
  -7427051.55948  -5676393.82846  20969875.3284   20969875.6174       6736.5154
        50.5004         40.5004
  10905729.14546   8570863.20343  24527208.0554   24527216.9494       3653.6164
        38.2504         21.5004
   5562269.27748   4426695.53946  21518933.4454   21518933.9804       4445.8874
        50.0004         38.5004
 -11434999.59048  -8765148.27746  21554916.3284   21554917.2384       8878.6064
        50.0004         38.5004
  12833124.45745  10060518.88343  25200242.9694   25200249.6724       6692.2874
        35.2504         21.5004
   8395329.47746   6602418.87143  24193567.9064   24193571.0434       9243.8454
        38.2504         22.0004
  -5265515.95348  -3986343.32447  20662175.8524   20662178.4964       6330.6254
        53.2504         42.5004
 11 11 21 19 50  0.0000000  0  8G02G05G10G12G29G31G21G25
   9458562.28547   7442990.65245  22617696.3984   22617697.5234       4628.5324
        46.5004         32.5004
  -7628542.23048  -5833399.56246  20931532.8594   20931533.3674       6716.3564
        51.2504         41.5004
  10796384.21946   8485659.14543  24506401.1024   24506409.5084       3644.8314
        39.2504         20.2504
   5429304.91048   4323086.87146  21493631.2114   21493631.6374       4432.1464
        49.7504         38.0004
 -11701218.02748  -8972591.18746  21504256.1484   21504257.4064       8873.9484
        50.2504         38.5004
  12632805.62946   9904426.18043  25162123.1884   25162132.2704       6677.2944
        40.2504         21.2504
   8118168.97746   6386449.69143  24140825.9454   24140829.0234       9238.6834
        40.0004         22.0004
  -5454842.28148  -4133870.36347  20626148.6414   20626151.0474       6310.8784
        53.0004         42.7504
 11 11 21 19 50 30.0000000  0  8G02G05G10G12G29G31G21G25
   9319790.37947   7334856.56645  22591289.6644   22591290.1374       4625.7304
        46.2504         31.5004
  -7829429.64548  -5989935.21946  20893305.3834   20893305.6644       6696.2474
        49.7504         40.5004
  10687299.53146   8400657.94143  24485642.7584   24485651.3054       3636.1564
        39.2504         21.0004
   5296750.13348   4219797.36346  21468407.3134   21468407.5554       4418.4934
        48.2504         38.5004
 -11967296.52748  -9179925.05546  21453623.2894   21453624.2464       8869.2834
        50.5004         39.0004
  12432934.32446   9748682.29343  25124088.9924   25124097.1484       6662.3774
        41.5004         20.7504
   7841162.28946   6170600.34843  24088113.3204   24088116.4654       9233.5564
        40.0004         22.0004
  -5643577.75848  -4280936.98847  20590233.0314   20590235.3324       6291.1834
        53.2504         43.0004
 11 11 21 19 51  0.0000000  0  8G02G05G10G12G29G31G21G25
   9181103.93447   7226789.07445  22564898.4304   22564899.4654       4622.8824
        45.5004         31.5004
  -8029711.97348  -6145999.39146  20855192.9064   20855193.2114       6676.0784
        50.7504         41.0004
  10578473.82846   8315858.44543  24464934.5234   24464942.8794       3627.5234
        38.2504         20.2504
   5164604.70348   4116826.83246  21443260.7274   21443261.3634       4404.8484
        50.7504         38.2504
 -12233231.72748  -9387147.25846  21403017.5314   21403018.6724       8864.5074
        49.7504         39.5004
  12233511.34046   9593287.74643  25086140.6564   25086147.0984       6647.4334
        36.2504         20.0004
   7564311.43046   5954872.45743  24035430.2734   24035433.7344       9228.3624
        40.2504         22.7504
  -5831720.73049  -4427541.92247  20554431.0084   20554433.3594       6271.4324
        54.0004         43.0004
 11 11 21 19 51 30.0000000  0  8G02G05G10G12G29G31G21G25
   9042501.40647   7118786.98845  22538523.5634   22538524.6884       4620.0844
        47.0004         32.2504
  -8229390.12148  -6301592.77046  20817195.4064   20817195.9384       6655.9384
        51.0004         40.7504
  10469904.14846   8231258.48843  24444274.9144   24444282.6914       3618.9894
        39.5004         20.0004
   5032866.10548   4014173.31346  21418191.5314   21418192.2504       4391.2874
        50.0004         38.2504
 -12499022.47748  -9594256.90246  21352438.9844   21352440.2424       8859.6924
        50.5004         38.5004
  12034533.41056   9438239.43453  25048278.4064   25048283.4774       6632.4894
        37.5004         20.0004
   7287616.18047   5739265.80543  23982776.6954   23982780.7114       9223.1754
        42.0004         22.2504
  -6019272.27749  -4573686.00847  20518741.0004   20518743.4184       6251.7184
        54.5004         43.0004
 11 11 21 19 52  0.0000000  0  8G02G05G10G12G29G31G21G25
   8903981.12947   7010848.98845  22512163.5314   22512165.5354       4617.3434
        46.2504         32.0004
  -8428465.45748  -6456716.43746  20779313.2114   20779312.9614       6635.8454
        50.7504         41.0004
  10361586.73046   8146855.11343  24423663.0554   24423670.6374       3610.5814
        39.2504         20.2504
   4901531.46148   3911834.55946  21393199.5474   21393200.2384       4377.8214
        50.2504         38.0004
 -12764668.95348  -9801254.12946  21301887.9144   21301889.0864       8854.8834
        50.7504         38.7504
  11836002.16447   9283539.71143  25010497.8284   25010506.2304       6617.7084
        44.2504         22.5004
   7011075.82846   5523779.86743  23930152.4224   23930156.4614       9218.0124
        41.2504         22.2504
  -6206233.67249  -4719370.23047  20483163.6644   20483165.8284       6232.0464
        54.2504         43.0004
 11 11 21 19 52 30.0000000  0  8G02G05G10G12G29G31G21G25
  10340968.29347   8130579.10545  22785613.7974   22785614.7734       4614.4284
        47.0004         32.0004
  -7051510.09848  -5383764.23846  21041338.5234   21041339.1174       6615.4884
        50.7504         40.7504
  11828944.07446   9290250.28943  24702890.8984   24702900.1214       3602.0894
        39.5004         19.2504
   6346024.44548   5037413.44146  21668077.9144   21668077.6954       4364.2344
        49.5004         38.0004
 -11454739.09848  -8780529.53146  21551159.4774   21551160.5124       8849.6714
        49.7504         38.5004
  13213342.86746  10356792.20743  25272595.9304   25272604.5634       6602.6434
        38.7504         20.5004
   8310121.11746   6536022.99243  24177352.6884   24177356.3984       9212.4904
        41.2504         22.7504
  -4817177.82449  -3636989.06647  20747491.8754   20747494.6334       6212.1384
        54.0004         42.5004
 11 11 21 19 53  0.0000000  0  8G02G05G10G12G29G31G21G25
  10202610.00047   8022767.32045  22759285.2974   22759285.9694       4611.9434
        47.0004         31.5004
  -7249380.81648  -5537949.24646  21003685.1334   21003685.6054       6595.6914
        51.7504         40.7504
  11721123.70746   9206234.15243  24682373.7424   24682382.3984       3594.0124
        39.5004         19.2504
   6215492.26248   4935699.98846  21643238.2664   21643238.6414       4351.0734
        50.0004         38.0004
 -11720091.97348  -8987297.97346  21500664.5634   21500665.7934       8845.0964
        50.2504         38.7504
  13015698.52756  10202783.53553  25234985.8134   25234992.5354       6587.5784
        38.2504         20.2504
   8033890.89546   6320778.77043  24124788.4384   24124791.2274       9207.6744
        40.5004         22.0004
  -5002960.42248  -3781754.74247  20712138.8524   20712141.3594       6192.7534
        53.7504         42.7504
 11 11 21 19 53 30.0000000  0  8G02G05G10G12G29G31G21G25
  10064330.46947   7915016.91045  22732971.3204   22732972.6994       4609.3184
        45.5004         31.7504
  -7446651.13748  -5691666.41446  20966146.1724   20966146.3284       6575.6774
        50.7504         41.0004
  11613546.66846   9122407.68443  24661903.2734   24661911.7384       3585.9014
        39.5004         19.7504
   6085356.51248   4834295.44146  21618474.3674   21618475.1174       4337.8584
        50.0004         38.0004
 -11985296.99248  -9193951.20346  21450197.7504   21450198.9654       8840.1674
        50.5004         39.0004
  12818494.81646  10049118.39843  25197458.0234   25197468.3324       6573.4574
        39.7504         21.7504
   7757814.82146   6105654.62444  24072252.1174   24072255.3484       9202.5364
        39.7504         24.0004
  -5188155.43448  -3926062.56647  20676897.1954   20676899.6174       6173.1674
        53.7504         42.5004
 11 11 21 19 54  0.0000000  0  8G02G05G10G12G29G31G21G25
   9926128.23447   7807326.72345  22706672.7034   22706673.8244       4606.7414
        45.5004         32.0004
  -7643321.97748  -5844916.44946  20928720.5944   20928721.1454       6555.6954
        51.0004         40.7504
  11506209.90246   9038768.44943  24641477.9774   24641485.4654       3577.8924
        39.7504         19.0004
   5955614.45748   4733197.67246  21593784.9304   21593785.4844       4324.7354
        49.5004         38.5004
 -12250353.45748  -9400488.67646  21399759.2274   21399759.9614       8835.2154
        50.0004         38.7504
  12621730.31356   9895795.11753  25160018.4924   25160025.1134       6559.3364
        39.2504         19.7504
   7481892.43446   5890650.26643  24019745.9534   24019749.4534       9197.4134
        39.2504         22.7504
  -5372763.98049  -4069913.40247  20641767.5704   20641770.2624       6153.6184
        54.2504         42.5004
 11 11 21 19 54 30.0000000  0  8G02G05G10G12G29G31G21G25
   9788003.15647   7699696.66045  22680388.0864   22680389.8484       4604.1694
        45.5004         31.2504
  -7839393.11748  -5997699.18746  20891409.4774   20891410.0984       6535.7054
        50.7504         41.0004
  11399111.23446   8955314.75443  24621097.4774   24621105.5824       3569.9564
        38.2504         20.7504
   5826264.70348   4632405.58246  21569170.7344   21569171.4344       4311.6584
        50.5004         37.2504
 -12515258.84448  -9606908.42246  21349349.0944   21349349.9384       8830.1804
        51.0004         39.0004
  12425403.80547   9742813.50443  25122657.7114   25122662.4774       6544.2174
        43.7504         22.5004
   7206124.57046   5675766.29743  23967268.6174   23967272.1884       9192.2624
        39.7504         22.7504
  -5556786.06248  -4213307.25447  20606749.3984   20606751.7624       6134.0694
        53.7504         42.5004
 11 11 21 19 55  0.0000000  0  8G02G05G10G12G29G31G21G25
   9649955.03947   7592126.55945  22654118.8444   22654120.1724       4601.6044
        46.2504         31.7504
  -8034864.60548  -6150014.66446  20854212.5314   20854212.9494       6515.7164
        51.0004         41.0004
  11292248.37146   8872044.73443  24600762.3914   24600771.2464       3562.0954
        38.5004         19.5004
   5697306.04348   4531918.24246  21544630.8984   21544631.4104       4298.6224
        49.5004         36.7504
 -12780011.51248  -9813209.17246  21298968.8134   21298969.6954       8825.0894
        50.5004         39.0004
  12229515.09045   9590172.90643  25085381.3204   25085388.6134       6529.6244
        35.7504         22.0004
   6930511.92246   5461003.32043  23914821.5394   23914824.7774       9187.0884
        39.7504         22.7504
  -5740221.80148  -4356244.21547  20571842.6644   20571845.1484       6114.5254
        53.0004         42.5004
 11 11 21 19 55 30.0000000  0  8G02G05G10G12G29G31G21G25
   9511982.19947   7484615.12545  22627863.1254   22627864.1644       4599.0954
        45.5004         31.0004
  -8229737.98848  -6301864.08246  20817129.6724   20817129.8204       6495.7794
        50.5004         41.2504
  11185618.10546   8788956.02343  24580471.5004   24580480.5354       3554.3424
        38.2504         19.2504
   5568735.24248   4431733.13346  21520164.6724   21520165.2544       4285.6934
        49.7504         37.5004
 -13044610.95748 -10019390.52046  21248616.9224   21248618.1844       8819.9824
        50.0004         39.0004
  12034062.12546   9437871.77743  25048187.8364   25048194.4534       6515.0994
        39.7504         21.5004
   6655053.54346   5246360.56344  23862403.6644   23862406.4224       9181.9464
        40.0004         24.2504
  -5923072.74649  -4498725.50047  20537047.4844   20537049.7584       6095.0324
        54.2504         43.2504
 11 11 21 19 56  0.0000000  0  9G02G30G05G10G12G29G31G21G25
   9374082.63347   7377160.78545  22601622.1724   22601623.1174       4596.6524
        46.5004         31.5004
  37205562.15656  29085175.98852  24752660.3984   24752668.9964
        37.5004         16.7504
  -8424015.04348  -6453248.82046  20780159.8054   20780160.1724       6475.9024
        51.2504         41.0004
  11079216.19146   8706045.21543  24560224.2584   24560233.0434       3546.7304
        38.7504         19.5004
   5440548.93448   4331847.62546  21495771.6174   21495772.0824       4272.8774
        50.2504         38.0004
 -13309056.71948 -10225452.12546  21198294.6564   21198295.6294       8814.8594
        50.0004         38.7504
  11839042.08645   9285908.13343  25011074.7894   25011083.1954       6500.6684
        35.0004         22.2504
   6379748.32046   5031837.14543  23810014.6254   23810017.5514       9176.8414
        39.5004         22.2504
  -6105340.71548  -4640752.51247  20502362.9924   20502365.4064       6075.5994
        52.0004         43.2504
 11 11 21 19 56 30.0000000  0  9G02G30G05G10G12G29G31G21G25
  10811679.49247   8497365.98045  22875187.9614   22875188.5984       4594.1054
        45.5004         32.0004
  38470141.38746  30070562.55942  24993301.6564   24993309.4964      10361.3594
        36.7504         15.5004
  -7042270.13748  -5376564.49246  21043097.1884   21043097.7034       6455.8364
        51.5004         41.2504
  12548463.28946   9850912.94943  24839812.8524   24839820.9964       3539.0974
        37.5004         18.5004
   6888168.79748   5459863.02746  21771244.4144   21771245.4844       4260.0054
        50.5004         37.2504
 -11997919.26248  -9203786.54346  21447795.6884   21447796.8634       8809.4184
        50.0004         38.0004
  13219880.10247  10361885.68443  25273840.6804   25273849.3754       6486.0664
        42.5004         22.5004
   7680024.78946   6045039.71943  24057448.1954   24057451.9574       9171.4514
        39.0004         22.2504
  -4711600.86349  -3554721.48047  20767582.6564   20767585.1994       6056.0054
        54.0004         42.5004
 11 11 21 19 57  0.0000000  0  9G02G30G05G10G12G29G31G21G25
  10673920.05947   8390020.83245  22848973.2344   22848974.3364       4591.9814
        47.5004         31.7504
  38159546.31345  29828540.55542  24934196.9224   24934205.5864      10353.1694
        35.5004         16.7504
  -7235360.21948  -5527024.31246  21006353.4534   21006353.5234       6436.3364
        51.0004         41.2504
  12442506.74646   9768349.18843  24819649.3834   24819658.2304       3531.8854
        38.5004         20.2504
   6760741.37548   5360568.84846  21746995.6724   21746996.7274       4247.5814
        50.0004         37.7504
 -12262057.59448  -9409608.58646  21397531.6254   21397532.5944       8804.6114
        50.7504         39.2504
  13025719.00046  10210591.34043  25236892.9534   25236899.4964       6472.0374
        38.5004         21.2504
   7405021.99646   5830751.94543  24005116.9454   24005120.5234       9166.7604
        39.7504         23.0004
  -4892709.11349  -3695844.81247  20733119.0084   20733121.1054       6036.9424
        54.0004         42.7504
 11 11 21 19 57 30.0000000  0  9G02G30G05G10G12G29G31G21G25
  10536229.85947   8282729.63745  22822771.6954   22822772.9774       4589.6734
        47.0004         31.2504
  37849212.21946  29586721.94542  24875141.6564   24875150.5164      10344.4704
        36.0004         16.2504
  -7427857.33648  -5677022.07046  20969722.4924   20969722.5434       6416.5714
        51.5004         40.7504
  12336769.23446   9685956.14843  24799529.1254   24799537.5594       3524.5844
        37.5004         19.2504
   6633690.21548   5261567.85546  21722819.2894   21722819.6884       4235.0394
        50.2504         37.2504
 -12526039.80548  -9615308.98046  21347297.7194   21347298.7624       8799.4074
        51.5004         39.2504
  12831985.77346  10059630.21143  25200027.9384   25200033.3754       6457.7744
        40.7504         20.7504
   7130171.12146   5616582.58244  23952814.3984   23952817.7774       9161.6964
        40.7504         24.2504
  -5073238.20349  -3836516.85247  20698765.7734   20698768.0234       6017.6364
        54.7504         43.0004
 11 11 21 19 58  0.0000000  0  9G02G30G05G10G12G29G31G21G25
  10398606.97747   8175490.88345  22796583.7424   22796584.5354       4587.4294
        47.5004         31.0004
  37539140.85546  29345108.00042  24816137.9774   24816145.6414      10335.7124
        37.5004         17.7504
  -7619763.57848  -5826559.40246  20933203.9144   20933204.5514       6396.8754
        51.7504         40.7504
  12231246.56346   9603730.55943  24779447.6094   24779457.1454       3517.4224
        37.0004         19.2504
   6507011.70348   5162857.25446  21698713.0234   21698713.7544       4222.6174
        50.0004         37.7504
 -12789865.61748  -9820887.50046  21297093.1564   21297093.9804       8794.1944
        50.0004         39.5004
  12638677.68846   9909000.59843  25163241.5864   25163250.5744       6443.6034
        40.7504         21.2504
   6855471.02046   5402530.66443  23900540.4774   23900543.6954       9156.6704
        40.7504         23.0004
  -5253190.16448  -3976739.18447  20664522.0234   20664524.2154       5998.3994
        53.5004         42.5004
 11 11 21 19 58 30.0000000  0 10G02G30G05G26G10G12G29G31G21G25
  10261049.98847   8068303.48045  22770407.0634   22770408.5394       4585.2334
        47.5004         30.5004
  37229334.50445  29103700.53142  24757182.1644   24757190.9104      10326.8784
        35.7504         16.7504
  -7811080.40648  -5975637.44546  20896797.6094   20896798.0314       6377.2284
        51.5004         40.7504
  38805915.06355  30301699.61353  25157408.0704   25157419.3984
        35.0004         19.0004
  12125936.02046   9521670.20343  24759408.9924   24759417.8324       3510.3514
        38.0004         19.2504
   6380703.10948   5064434.88346  21674677.6094   21674678.2194       4210.2864
        50.0004         37.2504
 -13053534.02348 -10026343.37946  21246918.9144   21246919.7074       8788.9474
        50.2504         39.5004
  12445793.33246   9758700.93843  25126538.2274   25126544.7774       6429.4794
        40.5004         21.2504
   6580920.75046   5188595.50843  23848295.9694   23848298.8674       9151.6764
        41.5004         22.7504
  -5432566.46948  -4116512.94547  20630387.6254   20630389.9104       5979.2104
        53.5004         43.0004
 11 11 21 19 59  0.0000000  0 10G02G30G05G26G10G12G29G31G21G25
  10123557.76247   7961166.53545  22744243.0394   22744244.3984       4583.0744
        47.7504         32.2504
  36919795.89546  28862501.71142  24698280.3204   24698287.6484      10317.9544
        37.7504         16.2504
  -8001808.73448  -6124256.91446  20860502.9774   20860503.4144       6357.6114
        51.5004         41.2504
  38508540.75845  30069979.79742  25100819.0084   25100831.0234       9912.4774
        35.5004         17.2504
  12020834.02346   9439772.35543  24739408.3834   24739417.7344       3503.4004
        37.5004         18.2504
   6254762.04348   4966298.89846  21650711.8594   21650712.5314       4198.0364
        50.0004         38.0004
 -13317044.11748 -10231675.88746  21196774.1484   21196775.6174       8783.6704
        50.5004         39.0004
  12253330.32446   9608729.82043  25089912.5474   25089920.4574       6415.4344
        39.7504         22.5004
   6306520.05546   4974776.90243  23796078.7114   23796082.1094       9146.6904
        41.5004         22.7504
  -5611368.36748  -4255839.12947  20596362.7274   20596365.1334       5960.0634
        52.7504         42.5004
 11 11 21 19 59 30.0000000  0 10G02G30G05G26G10G12G29G31G21G25
   9986127.72347   7854078.05145  22718090.7814   22718092.6764       4581.0014
        47.2504         30.5004
  36610526.36346  28621512.52742  24639427.1564   24639436.0634      10308.9844
        38.7504         16.2504
  -8191951.12548  -6272419.80946  20824320.2504   20824320.7034       6338.0804
        51.2504         41.0004
  38211146.35546  29838244.26642  25044226.7734   25044238.0474       9913.1474
        36.0004         17.7504
  11915936.39546   9358033.76642  24719446.7664   24719456.7114       3496.5884
        38.5004         17.7504
   6129184.91048   4868446.50046  21626815.1564   21626816.1054       4185.9044
        50.5004         37.2504
 -13580396.00448 -10436885.12146  21146659.8834   21146661.4494       8778.3964
        49.7504         39.0004
  12061285.94947   9459084.65243  25053368.9454   25053375.7194       6401.4794
        42.2504         21.2504
   6032267.21546   4761073.48443  23743890.9304   23743893.9534       9141.7614
        41.5004         23.7504
  -5789598.37148  -4394719.67247  20562446.8524   20562449.2464       5941.0004
        52.7504         43.0004
 11 11 21 20  0  0.0000000  0 10G02G30G05G26G10G12G29G31G21G25
  11424185.81647   8974642.65645  22991744.4454   22991745.9534       4578.7304
        47.0004         30.7504
  37876961.18846  29608344.95342  24880421.9454   24880430.3874      10299.5064
        36.7504         17.2504
  -6806080.12948  -5192520.32846  21088042.6254   21088043.0514       6318.3004
        50.2504         40.5004
  39489167.45746  30834105.25843  25287424.9844   25287437.4264       9913.2974
        36.2504         18.5004
  13386666.12146  10504056.71942  24999318.4224   24999327.1914       3489.6764
        38.0004         17.7504
   7579395.21148   5998480.41046  21902781.2894   21902782.1414       4173.6574
        49.7504         37.7504
 -12268157.25048  -9414361.37946  21396371.1094   21396371.8714       8772.7084
        50.0004         39.2504
  13445087.16045  10537371.45343  25316695.3284   25316703.3484       6387.2934
        35.5004         20.7504
   7333593.53546   5775094.07844  23991524.7424   23991527.9024       9136.4564
        41.2504         24.0004
  -4391829.26648  -3305548.96147  20828433.3444   20828435.9184       5921.6964
        53.0004         42.7504
 11 11 21 20  0 30.0000000  0 10G02G30G05G26G10G12G29G31G21G25
  11286885.41047   8867655.19545  22965616.6804   22965618.4844       4576.6804
        46.2504         30.7504
  37568245.87646  29367787.71642  24821675.4614   24821683.2894      10290.5104
        38.2504         17.2504
  -6995046.19148  -5339766.60246  21052083.8054   21052084.0664       6298.8694
        50.7504         40.7504
  39191750.55546  30602352.26243  25230828.3594   25230840.6094       9913.8974
        36.5004         18.2504
  13282176.46546  10422636.00843  24979434.5314   24979443.8134       3482.9894
        38.0004         19.2504
   7454545.26648   5901194.64846  21879022.8914   21879023.9104       4161.6654
        49.2504         37.5004
 -12531180.95348  -9619314.88346  21346319.0634   21346320.4414       8767.4574
        50.2504         39.5004
  13253881.25057  10388379.16053  25280313.2504   25280321.4964       6373.1074
        42.7504         21.0004
   7059643.72746   5561626.77744  23939393.2894   23939396.6414       9131.6604
        41.7504         25.5004
  -4568910.83248  -3443534.61747  20794736.1334   20794738.3954       5902.7194
        53.5004         43.0004
 11 11 21 20  1  0.0000000  0 10G02G30G05G26G10G12G29G31G21G25
  11149649.51647   8760717.99645  22939501.7194   22939503.6374       4574.5304
        46.5004         30.5004
  37259812.55546  29127450.15643  24762982.8204   24762990.4924      10281.1114
        38.2504         19.0004
  -7183424.62148  -5486554.98846  21016236.5234   21016236.5784       6279.2814
        51.0004         41.7504
  38894327.71145  30370594.53543  25174231.0634   25174242.3164       9914.0954
        35.5004         18.2504
  13177887.37946  10341371.61743  24959589.7664   24959598.4654       3476.3034
        38.5004         18.2504
   7330056.10248   5804190.01246  21855333.7274   21855334.0944       4149.6394
        49.0004         37.0004
 -12794037.85948  -9824138.40646  21296298.8914   21296299.8364       8761.8974
        48.5004         39.5004
  13063095.46146  10239714.96143  25244005.5634   25244013.1054       6359.5264
        36.7504         18.5004
   6785846.43847   5348278.31643  23887292.0784   23887294.3014       9126.5764
        42.2504         23.7504
  -4745419.16848  -3581073.60547  20761147.5394   20761149.8204       5883.6114
        53.7504         43.0004
 11 11 21 20  1 30.0000000  0 10G02G30G05G26G10G12G29G31G21G25
  11012477.96547   8653830.93445  22913399.8054   22913401.1254       4572.3854
        47.0004         31.0004
  36951664.98446  28887335.32042  24704344.8204   24704351.6054      10271.5864
        38.5004         16.7504
  -7371215.79348  -5632885.77046  20980500.9844   20980501.4414       6259.7064
        51.0004         40.5004
  38596903.28945  30138835.54343  25117632.4144   25117643.4454       9914.1474
        35.2504         18.2504
  13073796.62546  10260261.76243  24939781.6884   24939791.0314       3469.6924
        38.5004         18.5004
   7205926.35948   5707465.43846  21831712.6564   21831713.2734       4137.6584
        49.0004         37.7504
 -13056725.84848 -10028830.30946  21246311.0164   21246311.9964       8756.2664
        49.0004         39.7504
  12872727.68847  10091376.31643  25207781.8204   25207789.1454       6345.5924
        42.0004         21.5004
   6512202.07446   5135049.02044  23835219.2274   23835222.0274       9121.4794
        40.2504         24.2504
  -4921354.53948  -3718166.12547  20727668.3284   20727670.5744       5864.5124
        53.5004         42.7504
 11 11 21 20  2  0.0000000  0 10G02G30G05G26G10G12G29G31G21G25
  10875369.68047   8546993.18045  22887309.5784   22887310.5274       4570.2764
        46.5004         30.5004
  36643805.93846  28647445.31342  24645760.0784   24645767.9804      10261.9684
        37.0004         17.2504
  -7558420.61748  -5778759.66446  20944877.0234   20944877.5824       6240.1614
        50.5004         40.2504
  38299480.09445  29907077.53542  25061034.6644   25061045.6994       9914.1074
        35.5004         17.7504
  12969901.37946  10179304.20343  24920011.3134   24920020.4454       3463.1754
        39.5004         19.2504
   7082153.62947   5611019.05946  21808159.7194   21808160.2504       4125.7584
        47.5004         37.5004
 -13319243.63748 -10233389.59046  21196355.6884   21196356.7854       8750.5934
        48.5004         40.0004
  12682775.66846   9943361.69943  25171634.5004   25171642.3444       6331.7344
        38.7504         19.7504
   6238710.07446   4921938.45344  23783174.7114   23783178.0824       9116.4004
        41.2504         25.7504
  -5096718.11748  -3854813.09447  20694297.7814   20694300.0164       5845.4534
        52.5004         42.5004
 11 11 21 20  2 30.0000000  0 10G02G30G05G26G10G12G29G31G21G25
  10738324.53147   8440204.60945  22861230.5314   22861231.8794       4568.1724
        47.0004         30.7504
  36336239.14546  28407783.05942  24587231.6484   24587239.7704      10252.2264
        36.2504         17.2504
  -7745039.23848  -5924176.78546  20909364.7274   20909365.4064       6220.6214
        50.7504         41.0004
  38002062.66446  29675323.99643  25004438.3524   25004448.7384       9913.9144
        37.2504         19.2504
  12866200.10546  10098497.81343  24900277.7194   24900287.3134       3456.7094
        38.2504         18.2504
   6958735.44948   5514848.94546  21784673.8204   21784674.6994       4113.9394
        48.2504         37.7504
 -13581588.93447 -10437814.45746  21146433.0704   21146434.0474       8744.8434
        47.5004         39.7504
  12493239.06647   9795670.85543  25135566.6254   25135572.8914       6317.8874
        42.0004         20.5004
   5965371.70746   4708947.57443  23731159.9384   23731163.2234       9111.2794
        40.2504         23.2504
  -5271510.18748  -3991014.73847  20661035.8594   20661038.3134       5826.4024
        52.7504         43.0004
 11 11 21 20  3  0.0000000  0 10G02G30G05G26G10G12G29G31G21G25
  10601340.41847   8333463.61345  22835163.2814   22835164.4924       4566.1374
        47.0004         30.5004
  36028965.81646  28168349.46543  24528759.6024   24528767.1724      10242.4444
        37.7504         18.5004
  -7931074.67248  -6069139.47346  20873963.1954   20873963.6054       6201.1814
        50.0004         40.7504
  37704652.50846  29443576.06642  24947842.6254   24947853.0704       9913.6724
        36.7504         17.7504
  12762688.19046  10017838.96243  24880580.2504   24880589.7544       3450.3974
        38.5004         19.5004
   6835668.48848   5418952.50846  21761255.3364   21761255.9104       4102.2324
        48.0004         37.7504
 -13843761.85947 -10642105.01246  21096543.0394   21096544.2734       8739.0984
        47.5004         39.2504
  12304114.97346   9648301.32843  25099578.2974   25099585.8714       6304.1364
        36.5004         20.7504
   5692185.03546   4496074.92244  23679174.6564   23679177.3714       9106.2224
        40.5004         25.2504
  -5445733.47348  -4126773.17247  20627882.1334   20627884.6914       5807.4434
        52.5004         42.7504
 11 11 21 20  3 30.0000000  0 10G02G30G05G26G10G12G29G31G21G25
  10464417.18447   8226770.05945  22809107.8524   22809109.2424       4564.1084
        46.2504         31.0004
  35721989.84846  27929147.60242  24470343.9774   24470351.7304      10232.5324
        38.0004         17.2504
  -8116526.73448  -6213647.59846  20838673.0004   20838673.1644       6181.7354
        50.0004         41.0004
  37407254.05946  29211837.28543  24891249.2504   24891259.9024       9913.2824
        38.2504         19.2504
  12659364.06346   9937326.47342  24860918.0474   24860928.5824       3444.1384
        38.0004         17.7504
   6712951.34048   5323328.65646  21737902.8204   21737904.0234       4090.5724
        48.0004         37.2504
 -14105759.85248 -10846259.25446  21046686.4384   21046687.2704       8733.2664
        50.0004         39.5004
  12115402.00046   9501252.28143  25063667.1564   25063673.7274       6290.4324
        40.7504         20.5004
   5419150.79346   4283321.03144  23627217.6254   23627220.8014       9101.1414
        40.0004         25.0004
  -5619388.14148  -4262088.52047  20594837.0164   20594839.3444       5788.4894
        53.0004         42.5004
 11 11 21 20  4  0.0000000  0 10G02G30G05G26G10G12G29G31G21G25
  11902976.81647   9347725.50045  23082856.0394   23082858.1724       4562.0124
        46.2504         30.2504
  36990741.93446  28917785.78543  24711779.1414   24711786.9884      10222.2644
        36.7504         18.2504
  -6725972.81648  -5130099.11346  21103286.4064   21103286.9454       6162.2034
        50.5004         41.2504
  38685298.27046  30207716.12543  25134452.9694   25134463.6804       9912.5264
        38.2504         20.0004
  14131645.97746  11084558.96142  25141084.1564   25141094.1454       3437.9364
        38.2504         17.7504
   8166003.18447   6455576.73446  22014409.7034   22014410.5904       4078.9394
        47.0004         37.2504
 -12792155.44148  -9822671.36746  21296657.3204   21296658.0044       8727.1864
        48.5004         39.7504
  13502523.20746  10582125.79743  25327627.5234   25327634.9304       6276.6264
        40.0004         19.5004
   6721695.93846   5298291.36343  23875083.9694   23875086.5274       9095.8294
        40.0004         23.0004
  -4217051.98848  -3169359.08647  20861692.5784   20861695.0164       5769.4624
        53.0004         42.5004
 11 11 21 20  4 30.0000000  0 10G02G30G05G26G10G12G29G31G21G25
  11766172.21547   9241124.39145  23056823.4384   23056825.3674       4560.1534
        46.0004         31.5004
  36684367.76246  28679052.86743  24653478.2114   24653486.0944      10212.4724
        36.7504         18.2504
  -6910263.24648  -5273702.07446  21068217.4844   21068217.6374       6143.0144
        49.7504         41.0004
  38387931.92246  29976002.37143  25077865.9384   25077875.8134       9912.2124
        38.2504         19.0004
  14028687.62546  11004331.50843  25121492.5004   25121501.8754       3431.9454
        38.0004         18.5004
   8043976.44547   6360490.85946  21991188.6414   21991189.8834       4067.5584
        47.5004         37.2504
 -13053801.20748 -10026551.14846  21246867.3914   21246868.4734       8721.5264
        50.0004         39.5004
  13314627.24245  10435713.45343  25291870.6334   25291878.0944       6263.1994
        33.2504         19.5004
   6448965.25846   5085774.03544  23823184.3984   23823187.3954       9091.0234
        39.7504         25.5004
  -4389574.60548  -3303792.32447  20828862.7894   20828864.9654       5750.7544
        53.5004         43.0004
 11 11 21 20  5  0.0000000  0 11G02G30G05G26G10G12G29G31G21G25G18
  11629424.55147   9134567.62944  23030800.8674   23030803.5274       4558.2554
        45.2504         29.5004
  36378297.72746  28440556.93842  24595235.1484   24595242.7074      10202.3354
        36.2504         16.7504
  -7093975.57048  -5416854.56646  21033258.0314   21033258.6374       6123.7444
        49.5004         40.7504
  38090585.50046  29744303.99242  25021283.0944   25021292.5084       9911.5474
        40.0004         17.7504
  13925907.26646  10924242.75842  25101934.1024   25101943.6914       3426.0124
        38.7504         17.2504
   7922290.16447   6265670.27346  21968032.7734   21968033.6604       4056.2094
        47.5004         37.2504
 -13315269.60548 -10230292.72346  21197111.8594   21197112.5744       8715.6134
        50.7504         39.5004
  13127136.39846  10289616.54743  25256193.5084   25256201.5824       6249.6954
        41.0004         21.0004
   6176385.25846   4873374.12544  23771314.5944   23771317.1134       9086.0004
        40.7504         24.2504
  -4561533.94148  -3437786.64547  20796140.0314   20796142.4454       5731.9784
        53.7504         43.0004
  41921976.41856  32856153.67252  25121023.2424   25121035.6414
        39.2504         15.5004
 11 11 21 20  5 30.0000000  0 11G02G30G05G26G10G12G29G31G21G25G18
  11492731.14547   9028053.17645  23004789.1564   23004790.9414       4556.4474
        44.7504         30.0004
  36072532.69546  28202298.67243  24537049.2194   24537057.3164      10192.1684
        36.7504         19.2504
  -7277112.71948  -5559558.88346  20998408.3204   20998408.4694       6104.5724
        49.0004         41.0004
  37793260.50046  29512622.38743  24964702.7424   24964713.7544       9910.8334
        38.0004         18.5004
  13823300.02346  10844288.90243  25082408.9844   25082418.3484       3420.2414
        38.5004         18.5004
   7800940.05947   6171111.63346  21944940.7274   21944941.6294       4045.0044
        47.7504         36.7504
 -13576561.30148 -10433896.60946  21147389.4064   21147390.0124       8709.7234
        50.5004         40.0004
  12940046.87945  10143832.43443  25220593.7664   25220598.3674       6236.3174
        33.7504         18.2504
   5903953.71546   4661089.89844  23719472.2034   23719475.4924       9081.0514
        41.2504         24.5004
  -4732933.32449  -3571344.62947  20763523.8594   20763526.1844       5713.3134
        54.0004         43.0004
  41607633.59046  32611212.03142  25061204.5004   25061217.8284      10478.0944
        39.2504         16.7504
 11 11 21 20  6  0.0000000  0 11G02G30G05G26G10G12G29G31G21G25G18
  11356090.28547   8921579.65645  22978787.5634   22978789.3094       4554.6954
        44.7504         30.0004
  35767074.44946  27964279.48042  24478922.4304   24478930.0514      10181.9424
        37.7504         17.7504
  -7459677.30148  -5701817.03546  20963667.3834   20963667.6604       6085.4864
        49.0004         40.7504
  37495959.14146  29280959.16043  24908129.0164   24908138.7814       9910.0454
        38.7504         18.5004
  13720861.96146  10764466.93843  25062915.8134   25062925.1994       3414.6024
        38.5004         18.5004
   7679922.55548   6076812.16446  21921911.9694   21921912.5634       4033.9174
        48.0004         36.7504
 -13837676.06248 -10637362.62946  21097701.1724   21097701.7504       8703.8254
        51.2504         39.7504
  12753355.52046   9998358.70743  25185064.5164   25185075.1954       6223.0454
        40.0004         21.5004
   5631669.21546   4448920.25444  23667658.0314   23667661.1524       9076.1504
        40.5004         24.0004
  -4903775.18748  -3704468.20347  20731013.3674   20731015.9924       5694.7294
        53.5004         42.2504
  41293303.52346  32366280.25842  25001389.4304   25001401.5204      10477.6694
        40.0004         16.7504
 11 11 21 20  6 30.0000000  0 10G02G30G05G26G12G29G31G21G25G18
  11219501.99247   8815147.10944  22952795.4454   22952797.9024       4552.9434
        42.5004         29.7504
  35461926.98846  27726502.44543  24420853.9304   24420862.1454      10171.5824
        36.5004         19.0004
  -7641669.41448  -5843629.12546  20929035.5784   20929035.7664       6066.4044
        50.0004         40.5004
  37198685.93046  29049317.83243  24851559.3984   24851569.3444       9909.1074
        37.5004         18.2504
   7559236.05948   5982770.61346  21898946.7894   21898947.5554       4022.8834
        48.2504         36.5004
 -14098610.91848 -10840688.45746  21048046.9454   21048047.4964       8697.8294
        51.0004         38.5004
  12567062.16047   9853195.00043  25149616.3984   25149621.3364       6209.7794
        43.0004         19.7504
   5359532.77346   4236865.98843  23615871.8984   23615875.8284       9071.2154
        40.0004         22.7504
  -5074059.68048  -3837157.44947  20698610.2274   20698612.3324       5676.1504
        53.2504         42.2504
  40978989.53546  32121361.00842  24941576.9304   24941589.4304      10477.1334
        38.7504         16.2504
 11 11 21 20  7  0.0000000  0 10G02G30G05G26G12G29G31G21G25G18
  11083142.13347   8708892.55545  22926847.3524   22926849.4654       4545.3294
        45.0004         30.7504
  35157269.34446  27489107.12943  24362879.2734   24362887.0744      10155.2554
        37.0004         19.0004
  -7822913.59848  -5984858.39846  20894545.7814   20894546.4344       6041.4734
        50.2504         41.0004
  36901620.50446  28817838.46943  24795029.3204   24795039.4264       9902.1814
        36.5004         19.0004
   7439054.44548   5889122.49646  21876076.1334   21876077.7304       4006.0544
        48.5004         37.2504
 -14359188.38348 -11043735.79746  20998460.7114   20998461.1334       8685.9154
        50.0004         39.5004
  12381341.29746   9708477.34043  25114274.8054   25114282.9104       6190.6954
        38.2504         20.5004
   5087720.50446   4025064.32444  23564148.5314   23564150.8484       9060.4094
        40.2504         24.0004
  -5243611.85948  -3969276.07047  20666345.0084   20666347.5864       5651.7394
        53.7504         42.5004
  40664869.77046  31876593.04742  24881801.6414   24881813.2734      10470.6594
        40.7504         16.7504
 11 11 21 20  7 30.0000000  0 10G02G30G05G26G12G29G31G21G25G18
  12522265.22347   9830287.05545  23200703.2734   23200705.5904       4543.2304
        43.5004         30.0004
  36428365.53946  28479571.86342  24604760.7664   24604769.4304      10144.1274
        36.2504         17.7504
  -6428154.51248  -4898033.18746  21159960.0234   21159960.0944       6022.0304
        50.0004         40.7504
  38180027.19546  29813999.68043  25038301.6954   25038312.3524       9900.4444
        36.5004         18.5004
   8894630.24247   7023337.28146  22153063.2504   22153064.6024       3994.8074
        47.7504         36.7504
 -13044147.45348 -10019028.53946  21248704.2664   21248704.8834       8679.3024
        49.0004         39.5004
  13771448.21547  10791677.55943  25378803.4304   25378808.6604       6177.1034
        43.5004         20.7504
   6391492.15246   5040990.37544  23812247.7584   23812250.7814       9054.9454
        40.0004         25.0004
  -3837176.54748  -2873352.49647  20933980.6484   20933983.0634       5632.8234
        52.5004         42.5004
  41926207.66046  32859454.39542  25121826.3914   25121837.2154      10469.4044
        39.5004         17.7504
 11 11 21 20  8  0.0000000  0 10G02G30G05G26G12G29G31G21G25G18
  12386019.05147   9724121.09445  23174777.5634   23174778.9884       4541.5394
        44.2504         30.2504
  36124355.44146  28242681.10943  24546910.2974   24546917.8674      10133.6704
        38.0004         18.5004
  -6608248.09448  -5038365.89546  21125688.9774   21125689.5744       6003.1194
        50.0004         40.7504
  37883046.93845  29582586.69143  24981788.3984   24981797.9844       9899.3424
        34.7504         18.2504
   8775110.25048   6930204.70346  22130319.8134   22130320.5744       3984.0004
        48.0004         36.5004
 -13304346.41848 -10221780.95346  21199190.0164   21199191.0234       8673.2994
        48.0004         39.5004
  13586526.60946  10647582.72343  25343612.6954   25343621.7734       6164.0544
        39.0004         21.5004
   6119987.18446   4829428.17244  23760582.2894   23760584.4574       9050.1664
        40.0004         26.0004
  -4005608.94948  -3004598.55947  20901929.1564   20901931.7704       5614.4134
        52.7504         42.2504
  41612141.70746  32614728.23042  25062060.4694   25062071.4144      10468.8654
        39.0004         16.7504
 11 11 21 20  8 30.0000000  0 10G02G30G05G26G12G29G31G21G25G18
  12249827.67647   9617997.82845  23148860.7664   23148862.8014       4539.7134
        44.5004         30.0004
  35820672.50046  28006045.18842  24489121.8204   24489128.4144      10122.7654
        38.5004         17.7504
  -6787768.87948  -5178252.26646  21091527.5234   21091527.8874       5984.0264
        50.2504         40.0004
  37586113.37946  29351210.08643  24925282.7894   24925293.1954       9897.7854
        36.2504         19.0004
   8655916.85547   6837326.60546  22107637.6724   22107638.9654       3973.1134
        47.2504         36.0004
 -13564354.98048 -10424385.00446  21149712.2584   21149712.9734       8666.9524
        48.5004         39.5004
  13402000.60246  10503796.23043  25308498.8524   25308504.7034       6150.8674
        40.5004         20.5004
   5848634.63346   4617984.73444  23708945.6254   23708947.4064       9045.0854
        39.5004         25.2504
  -4173484.46948  -3135410.68447  20869983.3834   20869985.9734       5595.8514
        53.0004         42.0004
  41298105.22345  32370024.98443  25002299.8754   25002312.2894      10467.8834
        35.7504         18.2504
 11 11 21 20  9  0.0000000  0 11G02G30G05G26G15G12G29G31G21G25G18
  12113691.23047   9511917.35544  23122955.2034   23122957.3674       4537.8824
        42.5004         29.5004
  35517320.24246  27769667.02343  24431395.1644   24431402.7774      10111.7424
        37.2504         18.5004
  -6966717.66448  -5317692.93446  21057474.6094   21057474.8014       5964.9604
        50.0004         40.7504
  37289230.93045  29119873.27343  24868788.9454   24868799.0434       9896.0824
        35.7504         18.2504
  43543946.99656  33992372.82453  25153820.5164   25153832.7774
        40.0004         21.7504
   8537047.34847   6744700.89845  22085017.8284   22085019.0044       3962.3174
        47.5004         35.7504
 -13824170.59448 -10626838.69946  21100271.1254   21100271.4304       8660.5204
        48.5004         40.0004
  13217869.32047  10360317.22343  25273460.2974   25273467.6094       6137.7094
        42.5004         19.7504
   5577435.40246   4406660.73444  23657336.6804   23657340.3634       9039.9744
        40.5004         24.5004
  -4340803.68748  -3265789.34047  20838143.7894   20838146.3054       5577.3074
        52.7504         42.5004
  40984101.37546  32125347.13343  24942548.1954   24942558.4104      10466.7954
        38.0004         18.2504
 11 11 21 20  9 30.0000000  0 11G02G30G05G26G15G12G29G31G21G25G18
  11977605.40247   9405876.32845  23097058.4304   23097060.8794       4536.1944
        44.0004         30.2504
  35214297.92646  27533545.90643  24373730.9534   24373738.2384      10100.7444
        37.7504         19.2504
  -7145099.62148  -5456691.90646  21023529.7504   21023529.9534       5946.0654
        50.0004         40.7504
  36992399.41046  28888576.19143  24812303.0784   24812313.6134       9894.3844
        38.0004         18.5004
  43252397.22346  33765191.66443  25098339.9534   25098352.9494       9718.3264
        39.5004         20.5004
   8418495.98447   6652323.08646  22062458.0234   22062459.6914       3951.7124
        47.7504         36.7504
 -14083795.39148 -10829143.70746  21050865.8984   21050866.3674       8654.1604
        48.5004         39.2504
  13034127.58246  10217141.71943  25238496.7424   25238500.8754       6124.7254
        38.7504         18.5004
   5306385.23446   4195452.92244  23605758.5554   23605760.7464       9035.0064
        40.5004         25.2504
  -4507571.74248  -3395738.51647  20806408.9454   20806411.5824       5558.9354
        53.0004         42.5004
  40670128.24246  31880693.19542  24882800.5314   24882810.8524      10465.7714
        38.5004         17.2504
 11 11 21 20 10  0.0000000  0 11G02G30G05G26G15G12G29G31G21G25G18
  11841568.32047   9299873.27744  23071171.3054   23071173.6294       4534.5694
        43.7504         29.0004
  34911607.19946  27297683.19143  24316131.7424   24316138.3984      10089.6914
        38.0004         20.0004
  -7322916.95748  -5595250.91446  20989692.3674   20989692.6484       5927.2454
        49.5004         40.2504
  36695621.02746  28657320.59443  24755828.5234   24755837.7424       9892.6134
        36.5004         19.2504
  42960701.95346  33537896.98443  25042831.0864   25042843.5084       9723.1764
        38.0004         19.0004
   8300259.20348   6560190.39845  22039958.6884   22039959.8094       3941.2264
        48.0004         35.5004
 -14343229.12948 -11031299.84846  21001497.0004   21001497.9384       8647.7914
        48.7504         39.0004
  12850772.22344  10074267.47743  25203598.8594   25203612.3404       6111.8454
        28.2504         19.7504
   5035483.26246   3984360.57044  23554207.4224   23554209.8444       9030.0664
        40.7504         26.0004
  -4673791.19148  -3525260.20347  20774778.2194   20774781.0984       5540.6484
        53.5004         42.7504
  40356187.00046  31636064.05542  24823059.8444   24823068.8554      10464.7084
        38.7504         17.2504
 11 11 21 20 10 30.0000000  0 11G02G30G05G26G15G12G29G31G21G25G18
  11705576.70347   9193905.64145  23045293.3364   23045295.5984       4533.0544
        44.5004         30.0004
  34609248.36346  27062079.06343  24258594.7584   24258600.9694      10078.6284
        38.5004         20.0004
  -7500173.90648  -5733373.24646  20955961.3444   20955961.9184       5908.5654
        50.5004         40.7504
  36398896.55146  28426107.00843  24699363.4224   24699372.3364       9890.8164
        39.0004         19.2504
  42668860.47746  33310488.41043  24987296.2584   24987308.1644       9728.0494
        38.7504         20.2504
   8182332.01247   6468298.96145  22017517.8364   22017519.2344       3930.9064
        47.2504         35.0004
 -14602472.86348 -11233307.93046  20952164.6254   20952165.2544       8641.4584
        48.7504         39.0004
  12667799.43046   9931691.24643  25168784.4454   25168792.5234       6099.0934
        41.5004         20.5004
   4764726.52046   3773381.37544  23502684.4224   23502686.5394       9025.2254
        41.7504         24.7504
  -4839466.11748  -3654357.59447  20743251.6804   20743254.1564       5522.4984
        53.7504         42.2504
  40042277.01246  31391459.26643  24763323.5314   24763333.5594      10463.6664
        37.5004         18.2504
 11 11 21 20 11  0.0000000  0 11G02G30G05G26G15G12G29G31G21G25G18
  11569632.19147   9087974.71944  23019424.0314   23019426.6334       4531.4844
        43.5004         29.5004
  34307226.70746  26826737.70743  24201121.5084   24201128.1914      10067.3894
        38.7504         19.0004
  -7676869.14548  -5871057.87946  20922337.3364   20922337.6954       5889.8414
        50.0004         40.5004
  36102232.16846  28194940.26643  24642909.7114   24642919.2584       9888.8134
        38.2504         20.2504
  42376877.98046  33082969.83643  24931732.8204   24931745.4614       9732.7504
        38.7504         19.5004
   8064714.07447   6376648.48445  21995136.4774   21995137.3014       3920.5984
        47.5004         35.5004
 -14861522.86748 -11435165.05146  20902869.0634   20902869.7424       8635.0004
        49.5004         38.7504
  12485209.18046   9789413.02043  25134040.1644   25134046.7424       6086.3424
        41.5004         19.5004
   4494117.37146   3562517.21144  23451189.1174   23451191.2624       9020.3054
        41.5004         24.7504
  -5004595.71549  -3783030.04747  20711828.2894   20711830.9844       5504.3204
        54.0004         42.2504
  39728403.02746  31146882.52342  24703594.4144   24703604.6844      10462.4664
        37.5004         17.7504
 11 11 21 20 11 30.0000000  0 11G02G30G05G26G15G12G29G31G21G25G18
  13009160.20747  10209684.71144  23293357.3284   23293359.6254       4529.7334
        42.2504         29.2504
  35580976.56646  27819270.18843  24443507.2194   24443514.9774      10055.6714
        37.7504         19.5004
  -6277576.87548  -4780700.30546  21188613.8284   21188614.7034       5870.9244
        50.7504         41.0004
  37381062.27046  29191431.62143  24886262.2424   24886272.0124       9886.3304
        39.0004         19.2504
  43660188.30146  34082952.09043  25175939.7734   25175951.1054       9736.9894
        39.5004         18.2504
   9522828.36348   7512841.31645  22272606.2274   22272607.6254       3910.1904
        48.0004         35.7504
 -13544947.28948 -10409261.97346  21153405.1564   21153406.0474       8628.1474
        50.5004         39.7504
  13878427.35545  10875037.54343  25399160.5004   25399166.5514       6073.3944
        35.0004         19.5004
   5799085.93847   4579375.91844  23699516.2034   23699518.6644       9015.0484
        42.5004         26.5004
  -3593754.43748  -2683673.25047  20980302.6644   20980305.2344       5485.9574
        53.5004         42.2504
  40989999.31346  32129945.03543  24943668.2664   24943678.4924      10460.7904
        39.5004         18.5004
 11 11 21 20 12  0.0000000  0 11G02G30G05G26G15G12G29G31G21G25G18
  12873311.54747  10103828.47345  23267506.5864   23267508.7464       4528.2894
        42.0004         30.7504
  35279641.15246  27584463.60243  24386165.3364   24386172.6134      10044.5144
        39.5004         19.2504
  -6453149.87548  -4917510.46546  21155203.4534   21155203.9304       5852.4334
        50.5004         40.5004
  37084531.37146  28960368.93843  24829834.2584   24829843.5234       9884.3634
        39.0004         19.2504
  43367935.26246  33855222.58243  25120324.0634   25120336.3284       9741.7684
        37.0004         20.7504
   9405824.66847   7421669.46945  22250341.6564   22250342.6844       3900.1234
        47.0004         35.0004
 -13803601.22748 -10610810.46946  21104184.9144   21104185.7934       8621.7984
        51.0004         39.5004
  13696600.18846  10733354.02743  25364558.3984   25364567.4144       6060.9064
        36.0004         21.7504
   5528774.87147   4368744.02044  23648076.9694   23648079.2774       9010.3694
        43.0004         26.0004
  -3757794.32849  -2811496.58247  20949086.8834   20949089.5234       5467.9964
        54.0004         42.2504
  40676207.43446  31885432.41443  24883955.9534   24883964.9654      10459.7294
        40.5004         18.2504
 11 11 21 20 12 30.0000000  0 11G02G30G05G26G15G12G29G31G21G25G18
  12737511.23447   9998009.89844  23241664.7504   23241666.8554       4526.6774
        43.5004         29.5004
  34978654.27746  27349928.53943  24328890.0004   24328896.1804      10032.8964
        40.2504         19.7504
  -6628162.52348  -5053883.98046  21121899.5704   21121900.2274       5833.7554
        49.7504         40.7504
  36788073.84446  28729363.41843  24773420.2194   24773429.2584       9881.9184
        38.7504         19.0004
  43075551.64146  33627391.30143  25064686.3524   25064697.4264       9746.1214
        39.0004         19.0004
   9289125.37147   7330734.82445  22228134.0944   22228135.3714       3889.9774
        46.7504         35.2504
 -14062053.59048 -10812201.88746  21055002.8444   21055003.8874       8615.0794
        50.5004         39.0004
  13515153.12546  10591966.64143  25330032.1254   25330038.0824       6048.2354
        39.5004         20.0004
   5258613.77047   4158228.95344  23596667.6804   23596669.6914       9005.3704
        42.5004         24.7504
  -3921290.45749  -2938896.20347  20917974.5634   20917977.1334       5449.8714
        54.2504         42.5004
  40362461.14146  31640955.30142  24824250.3364   24824260.2424      10458.2104
        39.5004         16.7504
 11 11 21 20 13  0.0000000  0 11G02G30G05G26G15G12G29G31G21G25G18
  12601756.72347   9892227.01644  23215831.7114   23215833.5084       4525.1504
        43.2504         29.2504
  34678017.31646  27115666.19543  24271679.7664   24271686.7304      10021.2324
        39.0004         18.5004
  -6802618.27748  -5189823.55946  21088702.2114   21088702.5474       5815.1924
        50.0004         40.2504
  36491691.30546  28498416.35243  24717018.9144   24717029.5004       9879.4184
        38.0004         19.2504
  42783038.54746  33399459.20743  25009021.7664   25009034.7504       9750.4364
        38.7504         20.2504
   9172726.54747   7240034.31345  22205984.2424   22205985.8754       3879.9614
        46.0004         35.5004
 -14320304.50848 -11013436.34046  21005859.5164   21005859.9884       8608.3644
        50.7504         39.5004
  13334082.68846  10450872.62943  25295575.5944   25295583.1954       6035.6814
        37.5004         19.5004
   4988600.73847   3947829.28544  23545285.5634   23545288.6294       9000.4344
        42.2504         25.7504
  -4084246.01249  -3065874.60547  20886965.4224   20886967.9184       5431.8524
        54.2504         42.2504
  40048760.98046  31396514.23843  24764555.5554   24764564.6804      10456.6724
        39.5004         19.2504
 11 11 21 20 13 30.0000000  0 11G02G30G05G26G15G12G29G31G21G25G18
  12466045.68447   9786477.99644  23190006.6724   23190008.5784       4523.7014
        43.5004         29.2504
  34377731.17246  26881677.19943  24214537.3914   24214543.7464      10009.5384
        40.7504         20.0004
  -6976520.18048  -5325331.55946  21055609.7034   21055610.3954       5796.7304
        50.5004         40.7504
  36195385.67246  28267529.23843  24660634.8204   24660643.8914       9876.8544
        38.7504         19.5004
  42490397.53946  33171427.34443  24953334.5164   24953345.7304       9754.7004
        38.5004         21.0004
   9056623.91047   7149564.60245  22183890.8364   22183892.1564       3870.0884
        47.0004         35.2504
 -14578354.38348 -11214514.13346  20956754.2664   20956754.7814       8601.6634
        51.2504         39.2504
  13153385.27046  10310069.46943  25261189.2814   25261197.6994       6023.2474
        40.0004         21.5004
   4718734.08247   3737543.68444  23493931.4144   23493933.8634       8995.5554
        42.5004         26.2504
  -4246664.30149  -3192434.34847  20856058.0634   20856060.8754       5413.9434
        54.5004         42.5004
  39735107.04746  31152109.23042  24704869.0164   24704877.7704      10455.1314
        38.7504         16.7504
 11 11 21 20 14  0.0000000  0 11G02G30G05G26G15G12G29G31G21G25G18
  12330381.37547   9680765.39544  23164190.7194   23164192.7544       4522.1444
        44.0004         29.0004
  34077802.20746  26647966.52743  24157463.2114   24157469.5984       9997.6324
        41.0004         20.2504
  -7149866.14848  -5460406.36746  21022622.8444   21022623.4184       5778.1994
        50.2504         40.2504
  35899163.77746  28036707.38743  24604265.3134   24604274.7194       9874.0634
        38.7504         19.5004
  42197634.04346  32943300.17243  24897623.6804   24897634.9614       9758.7834
        39.0004         21.2504
   8940818.19547   7059326.25845  22161853.6564   22161855.3324       3860.1904
        47.7504         35.2504
 -14836198.13348 -11415431.31246  20907688.2194   20907688.7154       8594.7924
        51.0004         39.7504
  12973062.33246  10169558.03143  25226875.6954   25226881.1174       6010.7654
        40.5004         19.2504
   4449016.85247   3527374.52344  23442605.5784   23442608.4144       8990.5744
        42.5004         27.5004
  -4408543.66449  -3318574.16047  20825253.5784   20825256.2464       5395.9794
        54.5004         42.2504
  39421505.20346  30907744.88342  24645191.3444   24645200.8874      10453.3954
        37.7504         17.7504
 11 11 21 20 14 30.0000000  0 11G02G30G05G26G15G12G29G31G21G25G18
  12194762.70747   9575088.34444  23138383.3134   23138386.1994       4520.6224
        44.0004         28.7504
  33778233.09446  26414536.28143  24100456.0084   24100463.1994       9985.6374
        39.7504         20.0004
  -7322657.89848  -5595049.32046  20989741.7974   20989742.3364       5759.7254
        51.0004         40.7504
  35603029.36746  27805953.69943  24547912.4384   24547921.0314       9871.1474
        39.5004         19.5004
  41904750.87946  32715079.78543  24841889.2974   24841900.4574       9762.7724
        39.5004         19.0004
   8825306.71547   6969317.18845  22139872.5314   22139874.3014       3850.3834
        47.5004         35.2504
 -15093833.68048 -11616186.24246  20858661.8204   20858662.5084       8587.8524
        50.5004         40.2504
  12793111.92255  10029336.84853  25192631.2894   25192640.6644       5998.2824
        34.0004         19.2504
   4179449.21947   3317321.94544  23391308.6804   23391311.3634       8985.5884
        43.2504         26.7504
  -4569885.59449  -3444295.18746  20794551.1644   20794554.0474       5378.0644
        54.7504         41.7504
  39107957.59846  30663422.71943  24585524.7974   24585534.2344      10451.5874
        36.0004         18.5004
 11 11 21 20 15  0.0000000  0 11G02G30G05G26G15G12G29G31G21G25G18
  13634610.34847  10697047.37944  23412377.1484   23412380.2584       4519.0794
        44.2504         28.2504
  35054453.22746  27408993.69943  24343312.8754   24343319.6094       9973.3294
        39.5004         20.2504
  -5919474.76648  -4501659.90246  21256758.3284   21256759.2384       5741.2294
        50.7504         39.7504
  36882412.26646  28802875.81643  24791370.4144   24791379.4414       9867.9034
        37.5004         19.0004
  43187177.17646  33714373.27343  25085926.3134   25085938.3714       9766.4574
        39.0004         21.5004
  10285507.46148   8107135.81645  22417740.3444   22417741.3914       3840.6424
        48.2504         35.2504
 -13775834.97348 -10589174.23446  21109468.5394   21109469.1564       8580.7104
        51.0004         40.2504
  14188954.53546  11117006.45743  25458249.4844   25458260.1294       5985.9134
        37.5004         20.0004
   5485456.05947   4334989.72344  23639833.7034   23639835.8834       8980.4394
        43.0004         25.5004
  -3155269.98849  -2341997.35947  21063743.6564   21063746.5984       5360.1464
        54.2504         42.2504
  40369893.53946  31646750.19543  24825663.0394   24825671.6414      10449.4694
        38.2504         19.2504
 11 11 21 20 15 30.0000000  0 11G02G30G05G26G15G12G29G31G21G25G18
  13499075.00447  10591435.25844  23386586.2344   23386588.4884       4517.8454
        45.0004         27.7504
  34755605.96946  27176125.96543  24286443.1334   24286450.1564       9961.5754
        39.2504         19.7504
  -6091169.14148  -4635447.76246  21224086.3984   21224086.8874       5723.1464
        51.2504         40.0004
  36586456.59046  28572261.46943  24735051.9064   24735060.6094       9865.1894
        37.2504         19.7504
  42894056.42646  33485967.85943  25030147.8524   25030158.5984       9770.6924
        38.5004         20.2504
  10170570.48848   8017574.42645  22395868.0164   22395869.5704       3831.2324
        48.2504         35.0004
 -14033056.71148 -10789606.71946  21060520.7114   21060521.5204       8574.0584
        50.5004         39.7504
  14009737.12146  10977356.45343  25424146.5394   25424156.2704       5973.9144
        36.5004         20.5004
   5216179.82447   4125164.18844  23588591.8984   23588594.2234       8975.8744
        42.5004         25.5004
  -3315548.68449  -2466889.89547  21033243.6094   21033246.5124       5342.6234
        54.7504         42.0004
  40056454.19946  31402512.38743  24766016.1024   24766024.9104      10447.9784
        36.5004         19.0004
 11 11 21 20 16  0.0000000  0 11G02G30G05G26G15G12G29G31G21G25G18
  13363581.74647  10485855.91044  23360803.3134   23360805.3754       4516.4424
        44.5004         28.7504
  34457125.07046  26943543.64843  24229645.2974   24229650.9574       9949.3634
        39.0004         19.7504
  -6262316.02748  -4768809.01246  21191518.2194   21191518.8284       5704.8964
        50.0004         40.5004
  36290596.82846  28341721.78143  24678751.7344   24678759.5594       9861.9924
        39.0004         18.5004
  42600822.06346  33257473.98843  24974346.7734   24974357.5594       9774.4794
        40.5004         21.5004
  10055918.10947   7928234.78545  22374050.5394   22374052.3244       3821.7464
        47.0004         35.0004
 -14290067.93448 -10989875.16046  21011613.0314   21011613.8484       8567.0414
        50.7504         40.0004
  13830884.62546  10837990.79743  25390112.2504   25390120.6564       5961.7504
        38.2504         20.7504
   4947050.59047   3915453.20344  23537378.6644   23537380.0084       8970.9744
        43.7504         26.5004
  -3475296.97348  -2591369.12946  21002844.5944   21002847.4414       5324.9434
        53.5004         41.7504
  39743073.28546  31158320.13342  24706381.2274   24706390.0784      10446.0304
        37.5004         17.7504
 11 11 21 20 16 30.0000000  0 11G02G30G05G26G15G12G29G31G21G25G18
  13228132.59847  10380310.96144  23335026.9694   23335029.9804       4514.9724
        43.7504         28.5004
  34159015.92246  26711251.02043  24172916.4064   24172922.5664       9936.9724
        39.7504         19.7504
  -6432914.15648  -4901742.66046  21159054.4454   21159055.0744       5686.6044
        50.2504         40.5004
  35994839.32446  28111261.80543  24622469.7424   24622478.6024       9858.5834
        38.2504         19.0004
  42307479.44146  33028895.77743  24918524.8984   24918536.6524       9778.0874
        39.0004         19.7504
   9941550.40648   7839116.97745  22352287.0704   22352289.0274       3812.2574
        48.7504         35.5004
 -14546864.09448 -11189976.02746  20962746.6414   20962747.3714       8559.8724
        50.0004         40.0004
  13652397.41446  10698909.82443  25356149.3054   25356155.3484       5949.5744
        41.0004         20.5004
   4678070.66047   3705858.57444  23486193.5234   23486195.5354       8965.9984
        43.2504         27.0004
  -3634514.03148  -2715434.41447  20972546.6804   20972549.6414       5307.2354
        53.7504         42.0004
  39429755.96546  30914177.44542  24646758.9224   24646767.3554      10443.9114
        38.0004         17.7504
 11 11 21 20 17  0.0000000  0 11G02G30G05G26G15G12G29G31G21G25G18
  13092727.08247  10274800.00844  23309260.7664   23309263.6054       4513.5174
        44.5004         27.7504
  33861281.59046  26479250.44143  24116258.3834   24116265.5984       9924.4784
        38.7504         19.7504
  -6602965.05548  -5034249.89546  21126694.9534   21126695.2734       5668.3634
        50.2504         40.0004
  35699187.59846  27880884.19143  24566208.5554   24566217.5664       9855.0584
        38.5004         18.2504
  42014031.11746  32800235.30543  24862683.8204   24862694.6524       9781.6114
        40.5004         22.0004
   9827464.89848   7750219.05945  22330577.2734   22330579.2584       3802.8504
        48.0004         35.0004
 -14803443.91048 -11389908.31646  20913920.9614   20913921.8714       8552.6614
        50.0004         40.2504
  13474273.69946  10560112.07843  25322253.7894   25322259.8204       5937.4574
        41.0004         19.2504
   4409239.87147   3496380.13344  23435036.4224   23435038.1254       8961.0264
        42.0004         26.5004
  -3793201.41448  -2839086.97747  20942349.4694   20942352.1134       5289.5794
        53.5004         42.0004
  39116504.10546  30670085.68443  24587148.4064   24587156.9024      10441.7294
        39.5004         19.0004
 11 11 21 20 17 30.0000000  0 11G02G30G05G26G15G12G29G31G21G25G18
  12957363.77347  10169321.95344  23283502.3754   23283505.1724       4512.1104
        44.5004         28.7504
  33563923.67246  26247543.20343  24059673.9304   24059679.8014       9911.9314
        39.2504         19.7504
  -6772471.32448  -5166332.74246  21094438.9224   21094439.4264       5650.2094
        49.2504         40.2504
  35403644.27346  27650591.10543  24509968.9304   24509977.0984       9851.4444
        39.0004         19.7504
  41720478.73046  32571493.63743  24806822.0084   24806832.2194       9785.0804
        41.0004         21.0004
   9713658.27048   7661538.44945  22308921.0004   22308922.7894       3793.5544
        48.2504         35.2504
 -15059806.53548 -11589671.35546  20865136.8754   20865137.5004       8545.4214
        49.7504         40.2504
  13296510.58246  10421595.34443  25288425.4774   25288432.6914       5925.4374
        38.7504         21.2504
   4140557.07446   3287017.00844  23383907.1644   23383909.5274       8956.0934
        41.5004         27.0004
  -3951361.81248  -2962328.88747  20912252.5394   20912255.1374       5272.0134
        53.2504         42.2504
  38803319.36746  30426046.23843  24527551.5704   24527558.4774      10439.4914
        39.0004         19.0004
 11 11 21 20 18  0.0000000  0 11G02G30G05G26G15G12G29G31G21G25G18
  12822039.26247  10063874.11744  23257750.7664   23257753.7154       4510.8174
        44.2504         28.2504
  33266942.53546  26016129.52343  24003158.8364   24003166.0394       9899.3714
        38.5004         18.5004
  -6941437.48848  -5297994.73446  21062285.8754   21062286.3244       5632.2054
        50.0004         40.0004
  35108210.44546  27420383.28543  24453749.2344   24453757.1334       9847.7944
        40.2504         19.0004
  41426822.41847  32342671.22743  24750942.1024   24750951.5664       9788.5444
        42.2504         19.7504
   9600125.02748   7573070.87545  22287316.3204   22287318.3914       3784.4414
        48.0004         34.2504
 -15315952.93448 -11789265.91846  20816393.3834   20816394.2704       8538.2134
        48.7504         40.2504
  13119103.55146  10283356.05143  25254665.9924   25254673.4454       5913.5684
        38.7504         20.2504
   3872019.68447   3077767.19144  23332806.6644   23332808.4224       8951.2464
        42.5004         27.2504
  -4108999.59448  -3085163.56647  20882255.1094   20882258.0314       5254.5934
        53.7504         42.7504
  38490201.17646  30182058.57443  24467965.7974   24467973.7234      10437.2734
        38.7504         18.2504
 11 11 21 20 18 30.0000000  0 11G02G30G05G26G15G12G29G31G21G25G18
  12686753.37547   9958456.37544  23232007.5704   23232009.7814       4509.5304
        43.5004         26.7504
  32970340.91046  25785011.55943  23946717.2194   23946724.5634       9886.7214
        38.2504         20.2504
  -7109864.80548  -5429236.84046  21030235.0164   21030235.9884       5614.2444
        49.7504         40.5004
  34812889.50846  27190263.41043  24397550.7734   24397559.3524       9844.0314
        40.5004         20.2504
  41133065.16446  32113769.84443  24695040.1884   24695050.4844       9791.9084
        40.5004         20.5004
   9486862.35548   7484814.12945  22265763.3284   22265764.7814       3775.4224
        48.7504         34.2504
 -15571881.35948 -11988690.63346  20767691.5864   20767692.7734       8530.9484
        49.0004         39.7504
  12942050.19946  10145392.35243  25220974.6094   25220982.3874       5901.7784
        39.0004         21.5004
   3603627.35247   2868630.40244  23281733.1094   23281734.5084       8946.4114
        43.5004         27.0004
  -4266116.60948  -3207592.45347  20852356.8524   20852359.6644       5237.2344
        53.5004         42.2504
  38177151.43446  29938124.23043  24408393.9694   24408402.3244      10434.9914
        39.2504         19.0004
 11 11 21 20 19  0.0000000  0 11G02G30G05G26G15G12G29G31G21G25G18
  14126930.80947  11080672.42644  23506063.9924   23506066.6764       4508.0864
        43.5004         25.7504
  34249552.30546  26781799.85543  24190142.8914   24190149.7854       9873.6204
        39.0004         19.7504
  -5702328.75048  -4332455.54746  21298080.3284   21298081.2074       5596.1324
        49.0004         40.7504
  36093115.80146  28187842.65643  24641170.5474   24641177.9184       9839.7904
        39.7504         20.7504
  42414640.09846  33112400.15643  24938915.8594   24938925.3754       9794.8364
        40.7504         21.0004
  10949292.33647   8624369.85245  22544054.9844   22544056.2074       3766.3344
        47.7504         34.5004
 -14252160.96948 -10960337.05546  21018826.4924   21018827.0594       8523.3204
        48.5004         40.2504
  14340775.66446  11235308.28943  25487141.1884   25487149.8054       5889.8184
        37.5004         21.5004
   4910809.78947   3887214.19944  23530481.3754   23530483.3134       8941.2524
        43.0004         26.5004
  -2847288.60548  -2102012.24247  21122350.8134   21122353.8954       5219.7334
        53.0004         42.0004
  39439603.58246  30921853.70343  24648629.6884   24648638.0904      10432.2624
        38.2504         19.0004
 11 11 21 20 19 30.0000000  0 11G02G30G05G26G15G12G29G31G21G25G18
  13991719.87147  10975313.09844  23480334.1254   23480337.0704       4507.0314
        42.2504         26.5004
  33953717.37946  26551279.32843  24133847.6414   24133854.0164       9861.1644
        38.5004         20.0004
  -5869684.48448  -4462862.66446  21266233.8674   21266234.0204       5578.5244
        49.7504         40.2504
  35798031.04346  27957906.81643  24585016.3914   24585025.1134       9836.1594
        40.2504         21.0004
  42120688.11346  32883347.15643  24882977.9144   24882988.3874       9798.3994
        39.7504         21.5004
  10836562.91848   8536528.62145  22522603.0704   22522605.0124       3757.6474
        48.5004         34.2504
 -14507649.18048 -11159418.75846  20970208.7034   20970209.6294       8516.2744
        48.7504         40.2504
  14164423.72746  11097891.17643  25453584.5944   25453592.0824       5878.3984
        39.5004         22.7504
   4642706.48047   3678302.61744  23479463.2974   23479465.0554       8936.7774
        43.0004         26.2504
  -3003370.02348  -2223634.16847  21092649.7114   21092652.2624       5202.7144
        53.2504         42.0004
  39126697.00846  30678030.85943  24589086.2194   24589093.6294      10430.2194
        38.5004         19.0004
 11 11 21 20 20  0.0000000  0 11G02G30G05G26G15G12G29G31G21G25G18
  13856548.85947  10869984.88744  23454612.1644   23454614.4924       4505.7004
        43.7504         27.0004
  33658273.45346  26321063.44943  24077626.5864   24077633.4024       9848.1314
        38.0004         20.5004
  -6036503.53948  -4592851.59846  21234489.3444   21234489.5824       5560.6354
        50.5004         40.2504
  35503073.21946  27728069.79343  24528888.7734   24528896.1094       9831.9274
        39.2504         20.0004
  41826646.62946  32654224.35943  24827022.4844   24827033.1604       9801.3834
        39.5004         22.2504
  10724099.72348   8448894.84045  22501202.5004   22501204.0314       3748.7734
        48.0004         34.0004
 -14762911.57048 -11358324.49246  20921633.6174   20921634.6174       8508.7464
        50.5004         40.7504
  13988422.96146  10960747.67243  25420092.1334   25420098.3594       5866.6924
        39.0004         21.0004
   4374750.74247   3469506.02344  23428472.6884   23428474.6564       8931.8584
        42.0004         26.7504
  -3158933.00848  -2344852.12146  21063047.1174   21063049.5744       5185.4334
        53.2504         41.7504
  38813868.59446  30434268.89843  24529556.3054   24529564.2304      10427.6144
        39.2504         19.2504
 11 11 21 20 20 30.0000000  0 11G02G30G05G26G15G12G29G31G21G25G18
  13721414.96147  10764685.59444  23428897.1884   23428899.9184       4504.4634
        43.7504         26.5004
  33363220.79746  26091152.46543  24021480.0314   24021485.9454       9835.0894
        38.7504         20.2504
  -6202790.05548  -4722425.55546  21202846.2114   21202846.5784       5542.8844
        50.0004         39.7504
  35208243.45746  27498332.59043  24472784.2814   24472791.4964       9827.6594
        40.7504         20.2504
  41532515.60546  32425031.78543  24771050.6724   24771061.6174       9804.3674
        38.5004         21.0004
  10611897.51248   8361464.43045  22479850.6644   22479852.1374       3740.0744
        48.2504         33.7504
 -15017948.86348 -11557054.82446  20873101.8284   20873102.4614       8501.2434
        49.7504         40.5004
  13812768.95346  10823874.32843  25386666.7114   25386674.1214       5855.1344
        38.5004         20.5004
   4106940.25047   3260822.60244  23377510.2814   23377511.8364       8927.0164
        43.5004         26.7504
  -3313981.77348  -2465669.38346  21033542.0864   21033545.2774       5168.2924
        53.2504         41.7504
  38501118.27346  30190567.77343  24470040.9694   24470049.6294      10425.0114
        37.5004         20.2504
 11 11 21 20 21  0.0000000  0 11G02G30G05G26G15G12G29G31G21G25G18
  13586315.97747  10659413.51244  23403188.8134   23403191.3054       4503.2994
        43.7504         27.0004
  33068560.36346  25861547.13343  23965408.4924   23965413.6994       9822.0144
        40.0004         20.5004
  -6368547.78948  -4851587.47346  21171303.2814   21171304.4024       5525.2584
        50.7504         40.2504
  34913543.66046  27268696.61343  24416703.7194   24416711.7704       9823.3274
        40.0004         20.2504
  41238295.89346  32195770.19543  24715062.7894   24715072.9304       9807.3244
        38.2504         20.7504
  10499952.03148   8274234.06345  22458548.1174   22458550.1094       3731.5164
        48.0004         34.0004
 -15272761.25848 -11755609.91446  20824612.5634   20824612.8054       8493.7464
        50.5004         40.0004
  13637457.61346  10687268.04743  25353306.8914   25353312.6684       5843.7114
        38.2504         20.0004
   3839272.83647   3052250.65644  23326574.7734   23326576.9224       8922.2474
        43.2504         28.0004
  -3468520.05148  -2586088.86746  21004134.5084   21004137.3794       5151.2764
        52.5004         41.5004
  38188446.21546  29946927.63343  24410542.3364   24410549.1294      10422.4024
        39.2504         20.7504
 11 11 21 20 21 30.0000000  0 10G02G30G05G26G15G12G29G21G25G18
  13451253.89547  10554170.16444  23377487.0474   23377490.5354       4502.0694
        43.5004         27.5004
  32774297.22346  25632251.34843  23909410.8524   23909417.2974       9808.7714
        39.5004         19.2504
  -6533776.05148  -4980336.82046  21139861.1414   21139861.9144       5507.6094
        51.5004         39.7504
  34618979.60946  27039166.43043  24360649.5784   24360658.0824       9818.8024
        40.0004         20.5004
  40943992.79746  31966443.46943  24659057.8444   24659068.0204       9810.1034
        38.5004         22.0004
  10388262.79748   8187203.36745  22437294.6094   22437296.7974       3722.9744
        48.0004         33.0004
 -15527344.59848 -11953986.52746  20776167.1094   20776168.0864       8486.1114
        51.0004         40.5004
   3571750.53947   2843791.78544  23275666.6724   23275668.2814       8917.4104
        42.5004         27.5004
  -3622547.41848  -2706110.24246  20974824.1414   20974826.6524       5134.2464
        52.2504         41.5004
  37875857.35246  29703352.32843  24351058.4064   24351065.0204      10419.6294
        38.2504         20.0004
 11 11 21 20 22  0.0000000  0 10G02G30G05G26G15G12G29G21G25G18
  13316228.24247  10448955.22744  23351793.0314   23351796.1994       4500.8554
        43.5004         26.5004
  32480434.46946  25403267.54743  23853491.1254   23853496.7154       9795.4254
        40.0004         20.5004
  -6698475.80948  -5108674.34446  21108519.8594   21108521.1134       5489.9924
        51.5004         40.2504
  34324555.52346  26809745.25843  24304623.5944   24304630.5984       9814.1364
        40.5004         20.5004
  40649609.44546  31737054.30943  24603038.5394   24603049.3164       9812.7784
        40.7504         22.5004
  10276827.73047   8100370.71945  22416089.1954   22416091.2814       3714.5024
        47.5004         33.5004
 -15781696.95748 -12152183.14846  20727765.6644   20727766.3444       8478.4124
        51.2504         40.7504
   3304373.32847   2635445.98444  23224786.5234   23224788.3914       8912.5744
        42.5004         26.2504
  -3776065.45748  -2825734.73446  20945610.5944   20945613.7034       5117.2684
        51.5004         41.7504
  37563353.86346  29459843.50443  24291590.4924   24291597.0554      10416.7834
        39.2504         19.2504
 11 11 21 20 22 30.0000000  0 10G02G30G05G26G15G12G29G21G25G18
  14756664.17647  11571372.68844  23625899.1414   23625902.2154       4499.4694
        43.5004         26.5004
  33762405.52746  26402206.19943  24097441.7114   24097447.6134       9781.6314
        38.7504         20.2504
  -5287222.93748  -4008996.84046  21377072.6174   21377073.2034       5472.2384
        51.5004         39.7504
  35605705.54346  27808044.17243  24548417.5944   24548424.9344       9808.9994
        39.5004         20.0004
  41930579.34446  32735213.11343  24846799.0554   24846808.9734       9815.0034
        40.5004         21.7504
  11741068.66047   9241337.55945  22694725.4454   22694727.2734       3705.9694
        47.7504         34.0004
 -14460387.24648 -11122591.14846  20979202.1884   20979203.1024       8470.3434
        51.5004         40.5004
   4612570.98847   3654820.84844  23473728.5704   23473729.9494       8907.4114
        43.2504         27.0004
  -2353650.05548  -1717359.14546  21216287.1724   21216290.5124       5100.1534
        52.5004         41.2504
  38826369.29346  30444011.70743  24531934.2504   24531940.9304      10413.4864
        38.5004         21.0004
 11 11 21 20 23  0.0000000  0 10G02G30G05G26G15G12G29G21G25G18
  14621711.73446  11466214.79744  23600218.3054   23600221.9024       4498.4154
        41.2504         27.0004
  33469352.93046  26173853.68843  24041675.0394   24041681.6054       9768.4204
        38.5004         19.7504
  -5450870.63348  -4136514.56646  21345931.7034   21345932.5744       5454.9234
        51.2504         40.0004
  35311573.19546  27578850.34443  24492445.9614   24492453.1954       9804.4124
        40.2504         20.2504
  41636044.89246  32505706.17443  24790750.6094   24790760.8014       9817.8154
        38.5004         20.7504
  11630134.97347   9154895.59045  22673614.8834   22673617.5944       3697.7904
        47.5004         33.5004
 -14714271.27348 -11320422.83646  20930889.6254   20930890.3714       8462.8014
        51.2504         41.0004
   4345484.90647   3446701.88344  23422903.4694   23422905.0084       8902.8694
        43.5004         27.5004
  -2506153.99648  -1836193.43446  21187266.7974   21187269.7854       5083.4654
        52.0004         41.0004
  38514044.40946  30200642.03243  24472499.3444   24472507.1374      10410.8294
        38.5004         19.7504
 11 11 21 20 23 30.0000000  0 10G02G30G05G26G15G12G29G21G25G18
  14486794.49247  11361084.34044  23574544.7734   23574548.1764       4497.2414
        42.7504         27.7504
  33176709.05946  25945819.68843  23985987.0704   23985992.7074       9754.7964
        39.0004         20.7504
  -5613995.77048  -4263625.10546  21314890.0474   21314890.6804       5437.5054
        51.5004         40.2504
  35017591.74246  27349774.03543  24436503.3524   24436510.1254       9799.3824
        40.0004         20.0004
  41341439.05546  32276143.51643  24734688.4384   24734698.1174       9820.1954
        40.5004         22.5004
  11519447.61747   9068645.57445  22652552.1884   22652554.4924       3689.5794
        47.5004         33.2504
 -14967919.11348 -11518070.48446  20882621.9144   20882622.7584       8454.9284
        51.0004         40.7504
   4078543.78947   3238695.87944  23372105.8984   23372108.0394       8898.0374
        43.5004         26.7504
  -2658154.33248  -1954635.30546  21158342.0944   21158345.1134       5066.6784
        52.0004         41.5004
  38201811.63346  29957344.16443  24413084.3364   24413091.0274      10407.7594
        40.0004         20.5004
 11 11 21 20 24  0.0000000  0 10G02G30G05G26G15G12G29G21G25G18
  14351914.76246  11255983.09844  23548877.6174   23548881.2544       4495.9914
        41.0004         26.2504
  32884479.18046  25718108.25843  23930377.1884   23930383.3674       9740.9964
        40.0004         21.7504
  -5776597.29348  -4390327.62946  21283948.0944   21283948.9494       5420.0514
        50.7504         40.0004
  34723767.39846  27120820.17243  24380589.5864   24380597.2234       9794.1454
        39.5004         21.0004
  41046766.83646  32046529.25843  24678614.0084   24678622.7504       9822.4074
        41.2504         21.7504
  11409006.52748   8982587.43445  22631536.5234   22631538.6174       3681.3704
        48.0004         34.0004
 -15221326.43448 -11715530.71546  20834400.3674   20834400.9184       8446.9114
        50.7504         40.5004
   3811749.98847   3030804.66844  23321336.9844   23321338.6484       8893.1274
        43.5004         26.5004
  -2809650.41048  -2072684.25446  21129513.5554   21129516.3524       5049.8694
        52.0004         41.7504
  37889675.80546  29714121.79343  24353686.7274   24353693.3634      10404.5284
        41.2504         19.5004
 11 11 21 20 24 30.0000000  0 10G02G30G05G26G15G12G29G21G25G18
  14217070.15246  11150909.23444  23523217.8594   23523221.7974       4494.8204
        41.2504         28.2504
  32592664.28546  25490720.18843  23874846.5234   23874852.4964       9727.1634
        40.5004         21.7504
  -5938678.53948  -4516624.74246  21253105.1334   21253105.6524       5402.7084
        50.5004         39.7504
  34430102.24646  26891990.31343  24324707.2814   24324714.6884       9788.8384
        41.2504         21.2504
  40752029.39146  31816864.13743  24622525.9924   24622536.4024       9824.5824
        38.2504         21.0004
  11298807.21947   8896717.69945  22610566.4304   22610567.8984       3673.3104
        47.7504         32.5004
 -15474493.22748 -11912803.52746  20786224.0314   20786225.2154       8438.8934
        50.5004         41.0004
   3545101.39147   2823026.59444  23270595.5704   23270597.0554       8888.2874
        42.2504         27.0004
  -2960645.89848  -2190343.13346  21100780.1564   21100783.0904       5033.1834
        52.5004         41.5004
  37577637.23846  29470975.28143  24294306.7974   24294313.8874      10401.2864
        41.0004         21.2504
 11 11 21 20 25  0.0000000  0 10G02G30G05G26G15G12G29G21G25G18
  14082255.18047  11045858.44944  23497563.4924   23497567.2274       4493.8324
        42.0004         27.2504
  32301261.66046  25263653.36343  23819394.7424   23819400.6724       9713.4214
        40.7504         22.0004
  -6100247.13748  -4642522.38746  21222359.4614   21222359.8674       5385.6204
        49.0004         39.5004
  34136594.21146  26663282.89143  24268854.4774   24268861.6914       9783.6014
        41.0004         20.2504
  40457224.19546  31587146.27343  24566427.5474   24566435.9774       9826.8404
        41.5004         21.7504
  11188841.79748   8811030.21945  22589640.6174   22589642.7424       3665.5144
        48.0004         33.2504
 -15727423.33648 -12109891.90246  20738093.1254   20738094.0314       8431.0044
        50.0004         40.5004
   3278592.49247   2615357.38344  23219880.4924   23219881.9844       8883.6304
        43.0004         27.7504
  -3111148.35948  -2307617.83646  21072140.4534   21072143.2624       5016.7494
        53.0004         41.7504
  37265692.94146  29227902.23443  24234945.7974   24234952.0354      10398.1434
        41.0004         20.7504
 11 11 21 20 25 30.0000000  0 10G02G30G05G26G15G12G29G21G25G18
  13947472.54747  10940832.88344  23471914.9844   23471919.1524       4492.7544
        42.5004         29.0004
  32010277.22346  25036912.42243  23764022.0004   23764027.4614       9699.4814
        39.5004         21.5004
  -6261301.62548  -4768019.41846  21191712.1024   21191713.0164       5368.4834
        49.5004         40.2504
  33843250.42246  26434703.43443  24213033.5164   24213040.3444       9778.1264
        41.7504         21.5004
  40162357.44146  31357380.31343  24510315.6644   24510324.5044       9828.8924
        40.2504         22.0004
  11079110.98047   8725525.55945  22568759.2734   22568761.6254       3657.6944
        47.2504         32.7504
 -15980111.78948 -12306791.98046  20690008.0004   20690009.1094       8422.9484
        50.0004         40.7504
   3012226.32447   2407799.39144  23169192.3834   23169193.9454       8878.8724
        42.5004         27.7504
  -3261156.54748  -2424507.39146  21043594.8054   21043597.9024       5000.2734
        51.7504         41.2504
  36953848.24246  28984906.77743  24175602.8984   24175609.6254      10394.8234
        40.7504         21.0004
 11 11 21 20 26  0.0000000  0 10G02G30G05G26G15G12G29G21G25G18
  13812722.15247  10835832.41844  23446273.5864   23446276.9534       4491.6804
        43.0004         27.0004
  31719713.99246  24810499.68043  23708728.9694   23708735.5234       9685.4414
        40.2504         21.5004
  -6421843.59048  -4893117.07846  21161161.9384   21161162.6644       5351.3994
        49.5004         39.7504
  33550074.91446  26206255.07043  24157243.6644   24157250.3914       9772.5174
        41.0004         21.7504
  39867432.06646  31127568.77743  24454193.7584   24454201.2664       9830.8464
        40.0004         21.0004
  10969612.26647   8640201.74245  22547923.2194   22547924.9104       3649.9574
        47.0004         32.5004
 -16232556.57848 -12503502.18746  20641969.8054   20641970.3674       8414.8264
        50.0004         41.2504
   2746002.96947   2200352.66844  23118531.7504   23118533.6024       8874.1124
        43.0004         27.5004
  -3410672.12148  -2541013.08646  21015143.1804   21015146.1094       4983.8524
        53.0004         41.5004
  36642105.71946  28741991.01243  24116280.0084   24116286.2894      10391.4174
        40.0004         20.5004
 11 11 21 20 26 30.0000000  0 10G02G30G05G26G15G12G29G21G25G18
  15253424.97747  11958457.84044  23720430.6884   23720434.3754       4490.5734
        42.5004         27.2504
  33005001.11346  25812022.29343  23953311.7584   23953317.2114       9671.0964
        41.2504         22.0004
  -5006452.96948  -3790215.32046  21430501.3054   21430502.5204       5334.3134
        49.0004         39.5004
  34832497.80546  27205545.73043  24401280.4534   24401286.7774       9766.5704
        40.0004         21.5004
  41147877.77746  32125319.01643  24697852.3134   24697862.5664       9832.4764
        38.2504         22.7504
  12435763.26247   9782656.91445  22826922.2274   22826924.2114       3642.3004
        47.0004         32.2504
 -14909330.67248 -11472417.04746  20893771.1024   20893771.3984       8406.4704
        49.5004         40.7504
   4055348.13747   3220621.68844  23367691.7194   23367693.4454       8869.1614
        42.0004         29.0004
  -1984275.47348  -1429535.24246  21286577.6254   21286580.6684       4967.4454
        52.2504         41.7504
  37905894.63746  29726762.04743  24356771.0004   24356777.0234      10387.7034
        39.7504         20.7504
 11 11 21 20 27  0.0000000  0 10G02G30G05G26G15G12G29G21G25G18
  15118733.81647  11853503.54744  23694799.6954   23694803.2274       4489.7054
        43.7504         27.5004
  32715284.34447  25586269.14143  23898179.9064   23898185.9144       9657.2264
        42.0004         22.2504
  -5165979.84048  -3914521.98846  21400144.8134   21400145.4654       5317.5624
        48.5004         40.5004
  34539665.74246  26977365.03143  24345555.3984   24345562.9024       9761.0694
        41.0004         20.5004
  40852840.02046  31895419.81643  24641710.1724   24641717.8284       9834.5924
        39.7504         22.7504
  12326716.64547   9697685.38345  22806171.2664   22806173.6994       3634.8874
        47.2504         32.5004
 -15161286.97748 -11668746.61746  20845825.4774   20845825.8524       8398.5434
        49.5004         41.2504
   3789405.73847   3013393.91844  23317084.4694   23317086.2304       8864.7474
        42.0004         27.0004
  -2132816.16848  -1545281.29746  21258310.9614   21258314.4144       4951.3574
        51.2504         41.7504
  37594358.54746  29484007.12543  24297486.6884   24297492.9844      10384.5364
        40.0004         21.2504
 11 11 21 20 27 30.0000000  0 10G02G30G05G26G15G12G29G21G25G18
  14984071.51647  11748571.75844  23669174.6484   23669178.2664       4488.7434
        43.5004         28.5004
  32425994.46946  25360848.64143  23843129.9064   23843135.4024       9642.9964
        41.0004         22.5004
  -5325001.97748  -4038435.36746  21369884.1644   21369885.0314       5300.7384
        49.5004         40.2504
  34247010.77346  26749322.27743  24289865.4224   24289873.5864       9755.1664
        41.5004         22.2504
  40557750.26246  31665480.06343  24585555.3284   24585563.6844       9836.3254
        39.7504         22.5004
  12217892.13347   9612886.91845  22785462.3054   22785465.1884       3627.4844
        47.2504         32.0004
 -15412996.65248 -11864884.00046  20797926.7504   20797927.0514       8390.3234
        50.0004         41.0004
   3523603.51647   2806275.35544  23266503.6644   23266505.8794       8860.0744
        43.0004         28.0004
  -2280872.69148  -1660650.08246  21230136.9224   21230140.1294       4935.2174
        50.7504         41.5004
  37282929.06646  29241335.26643  24238224.2034   24238229.6054      10380.9834
        40.7504         21.7504
 11 11 21 20 28  0.0000000  0 10G02G30G05G26G15G12G29G21G25G18
  14849436.05947  11643660.85244  23643553.7664   23643557.6414       4487.8494
        43.5004         28.0004
  32137132.54347  25135761.62943  23788161.2734   23788166.3834       9628.7314
        42.0004         22.5004
  -5483523.21548  -4161958.43046  21339718.1254   21339719.2814       5284.0414
        48.7504         39.5004
  33954535.04346  26521419.17243  24234209.3444   24234216.8244       9749.1914
        40.7504         22.2504
  40262609.71546  31435500.73444  24529392.1254   24529401.2464       9838.0184
        40.7504         25.0004
  12109285.27347   9528258.05145  22764795.7734   22764797.7074       3620.2294
        47.2504         32.5004
 -15664459.58648 -12060829.11746  20750074.5164   20750075.5434       8382.0984
        49.0004         41.5004
   3257939.48847   2599264.48044  23215949.9304   23215951.6094       8855.4684
        42.0004         28.7504
  -2428448.74648  -1775644.48046  21202054.1254   21202057.0004       4919.2024
        51.5004         41.2504
  36971606.31346  28998746.55543  24178980.4384   24178986.4064      10377.4254
        40.7504         20.7504
 11 11 21 20 28 30.0000000  0 10G02G30G05G26G15G12G29G21G25G18
  14714830.08247  11538772.92244  23617939.6484   23617943.0274       4486.8664
        44.0004         28.0004
  31848704.46946  24911012.64143  23733274.5234   23733280.4614       9614.2694
        41.7504         22.2504
  -5641542.24248  -4285090.15646  21309648.3674   21309648.7734       5267.3014
        49.7504         40.0004
  33662245.27047  26293661.00843  24178588.6094   24178595.7934       9742.9924
        42.7504         22.0004
  39967424.62146  31205486.65243  24473219.0394   24473227.8324       9839.5034
        39.2504         22.5004
  12000896.76247   9443799.31645  22744170.3754   22744172.5124       3612.9504
        47.0004         32.0004
 -15915670.80148 -12256578.09046  20702270.6254   20702271.4494       8373.7074
        50.0004         41.2504
   2992416.19147   2392363.28944  23165422.5234   23165424.2194       8850.7774
        42.5004         27.0004
  -2575543.57848  -1890263.89846  21174062.8834   21174066.1454       4903.1614
        51.5004         41.5004
  36660395.64846  28756245.20743  24119758.6724   24119764.0594      10373.6894
        41.7504         21.0004
 11 11 21 20 29  0.0000000  0 10G02G30G05G26G15G12G29G21G25G18
  14580251.45747  11433906.31344  23592330.2424   23592333.9534       4485.9544
        43.2504         27.7504
  31560710.53546  24686601.96143  23678470.7814   23678476.5594       9599.7984
        40.2504         21.5004
  -5799063.39848  -4407833.93746  21279673.1024   21279674.2114       5250.7054
        49.5004         39.7504
  33370142.87146  26066048.82043  24123003.5164   24123010.1644       9736.7474
        41.2504         22.5004
  39672195.69546  30975438.42643  24417039.0164   24417048.4144       9840.9644
        39.2504         22.5004
  11892721.48447   9359506.73445  22723585.2734   22723587.6174       3605.8434
        47.0004         32.5004
 -16166630.68048 -12452131.21947  20654514.8134   20654515.3244       8365.3294
        49.7504         42.0004
   2727031.72747   2185570.27044  23114921.0084   23114923.0084       8846.1494
        43.7504         28.0004
  -2722161.27748  -2004511.52346  21146162.5864   21146165.7464       4887.2574
        52.2504         41.0004
  36349297.07047  28513831.16043  24060558.6174   24060564.0084      10369.9534
        43.0004         21.5004
 11 11 21 20 29 30.0000000  0 10G02G30G05G26G15G12G29G21G25G18
  14445700.78947  11329061.48844  23566725.8754   23566729.7034       4485.0224
        44.2504         27.0004
  31273154.53546  24462532.53543  23623751.7814   23623756.8014       9585.2004
        41.5004         22.7504
  -5956087.46148  -4530190.37146  21249792.5394   21249793.2934       5234.1354
        50.0004         39.7504
  33078232.64847  25838586.41043  24067454.7034   24067461.9494       9730.3414
        42.0004         22.5004
  39376926.39546  30745358.64143  24360850.5474   24360859.7704       9842.3104
        40.0004         22.7504
  11784758.19147   9275379.34445  22703040.4614   22703043.3554       3598.7764
        47.0004         31.7504
 -16417336.61748 -12647486.46946  20606807.0394   20606807.5474       8356.8654
        50.5004         41.0004
   2461786.82047   1978885.98844  23064446.9304   23064448.4924       8841.4974
        43.7504         28.5004
  -2868302.95748  -2118388.21946  21118352.8834   21118355.9304       4871.3894
        51.7504         41.5004
  36038313.95747  28271507.07843  24001380.5394   24001385.3874      10366.1044
        42.0004         22.5004
 11 11 21 20 30  0.0000000  0 10G02G30G05G26G15G12G29G21G25G18
  15886602.41047  12451841.82844  23840920.8594   23840924.5234       4483.9464
        43.7504         28.5004
  32561468.88346  25466414.00843  23868909.2894   23868913.8364       9570.1884
        41.2504         22.0004
  -4537190.75448  -3424556.60246  21519799.2894   21519800.3524       5217.4434
        50.0004         39.5004
  34361948.56646  26838884.62543  24311736.9064   24311744.7384       9723.4694
        40.2504         22.0004
  40657050.30946  31742858.01243  24604450.4774   24604458.6294       9843.2034
        40.7504         22.5004
  13252427.78947  10419017.82845  22982329.3284   22982331.6254       3591.6804
        46.2504         33.0004
 -15092357.94948 -11615035.53546  20858942.2584   20858942.5044       8348.0444
        50.5004         41.5004
   3772110.37547   2999917.41044  23313793.2504   23313794.7424       8836.5484
        43.7504         28.5004
  -1438545.70748  -1004291.73046  21390426.4224   21390429.8984       4855.4254
        52.2504         41.5004
  37302879.03947  29256882.87143  24242018.4384   24242023.4184      10361.8314
        43.0004         21.5004
 11 11 21 20 30 30.0000000  0 10G02G30G05G26G15G12G29G21G25G18
  15752104.55147  12347038.15244  23815326.9304   23815330.3054       4483.2624
        44.5004         27.0004
  32274794.73846  25243031.74243  23814357.1254   23814361.9734       9555.8054
        41.5004         22.2504
  -4693228.27348  -3546144.30146  21490106.3674   21490107.5704       5201.2514
        49.7504         39.7504
  34070432.38346  26611729.26643  24256263.6024   24256271.0594       9717.2064
        40.5004         22.5004
  40361708.37547  31512721.68044  24548248.7974   24548257.4344       9844.7314
        42.7504         24.7504
  13144878.08247  10335212.69545  22961862.8524   22961865.3674       3584.9904
        47.5004         32.2504
 -15342552.22348 -11809992.07846  20811331.3674   20811331.8634       8339.8094
        51.2504         41.2504
   3507142.05547   2793448.65644  23263371.4614   23263373.1334       8832.2774
        44.2504         28.5004
  -1583743.71148  -1117433.09446  21362796.2974   21362799.4734       4839.9334
        52.5004         41.0004
  36992131.49247  29014742.28543  24182884.7274   24182890.0124      10358.2524
        43.0004         22.0004
 11 11 21 20 31  0.0000000  0 10G02G30G05G26G15G12G29G21G25G18
  15617633.06347  12242255.01244  23789737.8054   23789741.2424       4482.3834
        43.2504         26.0004
  31988565.60946  25019996.20343  23759889.2114   23759894.6374       9540.9714
        41.2504         22.7504
  -4848775.42248  -3667349.90246  21460506.3594   21460507.8244       5184.9054
        50.0004         39.5004
  33779119.01646  26384731.91043  24200827.9384   24200835.7974       9710.4464
        40.5004         21.7504
  40066334.86346  31282560.68443  24492040.2894   24492048.7704       9845.7844
        39.7504         22.5004
  13037531.65647  10251565.96945  22941435.4774   22941438.5354       3578.2144
        46.7504         31.5004
 -15592487.87548 -12004747.09846  20763770.0474   20763770.7154       8331.1884
        50.5004         41.5004
   3242312.27047   2587087.85544  23212975.9384   23212977.5234       8827.6604
        44.5004         28.5004
  -1728472.83248  -1230209.10246  21335255.6024   21335258.6914       4824.3044
        52.2504         40.2504
  36681505.23047  28772696.19543  24123774.0864   24123779.5514      10354.2094
        42.2504         22.5004
 11 11 21 20 31 30.0000000  0 10G02G30G05G26G15G12G29G21G25G18
  15483188.25047  12137492.67644  23764154.5784   23764157.5164       4481.4944
        44.5004         27.7504
  31702785.25047  24797310.37943  23705506.7664   23705512.2504       9526.0124
        42.0004         22.5004
  -5003833.19548  -3788174.18046  21431000.3754   21431001.3714       5168.5924
        50.0004         39.0004
  33488013.10546  26157896.25843  24145433.0004   24145439.9614       9703.5304
        41.2504         22.7504
  39770933.76646  31052378.21143  24435827.4454   24435836.2074       9846.7034
        39.0004         23.2504
  12930386.98047  10168076.44945  22921046.5474   22921049.9104       3571.4894
        46.5004         31.0004
 -15842162.07448 -12199298.39146  20716258.8444   20716259.2274       8322.4734
        50.5004         41.2504
   2977621.49647   2380835.37544  23162606.6334   23162608.4574       8823.0264
        44.0004         28.0004
  -1872734.27348  -1342620.68746  21307803.4224   21307806.5204       4808.7154
        52.5004         41.0004
  36371003.36747  28530747.01643  24064687.6334   24064692.5124      10350.0624
        42.5004         21.5004
 11 11 21 20 32  0.0000000  0 10G02G30G05G26G15G12G29G21G25G18
  15348768.53547  12032749.89144  23738574.4224   23738578.3794       4480.6574
        42.5004         26.7504
  31417454.37947  24574974.79343  23651209.6724   23651215.3134       9511.0294
        42.0004         22.5004
  -5158405.44548  -3908620.12546  21401586.7344   21401587.3324       5152.4084
        50.2504         39.0004
  33197116.66846  25931223.80943  24090077.2114   24090083.8984       9696.5484
        41.0004         22.7504
  39475505.87946  30822174.83643  24379609.7194   24379617.7934       9847.5964
        39.7504         22.5004
  12823439.39847  10084740.49245  22900695.1884   22900698.1764       3564.9194
        46.2504         31.7504
 -16091575.08248 -12393646.15646  20668797.2974   20668797.4924       8313.7674
        50.5004         41.0004
   2713067.74247   2174689.66844  23112263.4694   23112265.1524       8818.4584
        43.7504         29.2504
  -2016532.12148  -1454671.02046  21280440.0164   21280442.9614       4793.2624
        52.2504         41.2504
  36060626.38347  28288895.11743  24005624.9064   24005629.6024      10345.8994
        42.5004         22.2504
 11 11 21 20 32 30.0000000  0 10G02G30G05G26G15G12G29G21G25G18
  15214373.14147  11928026.04744  23713000.7584   23713004.0634       4479.8464
        43.7504         27.2504
  31132575.16846  24352991.16043  23596998.8134   23597004.3484       9495.9744
        41.7504         22.7504
  -5312494.50448  -4028689.57046  21372264.2194   21372265.0634       5136.3024
        49.7504         39.0004
  32906433.10546  25704717.26643  24034761.5084   24034768.4384       9689.4524
        39.7504         22.7504
  39180054.29746  30591953.05143  24323387.4454   24323394.7194       9848.3864
        39.5004         22.5004
  12716685.98847  10001555.85545  22880380.0004   22880383.5124       3558.4474
        46.0004         31.0004
 -16340725.21548 -12587789.08646  20621385.6334   20621385.6484       8305.0044
        51.2504         40.7504
   2448650.54747   1968650.35944  23061946.5554   23061948.4344       8813.9074
        43.0004         29.7504
  -2159869.00448  -1566362.17646  21253163.4774   21253166.6524       4777.8964
        51.0004         40.7504
  35750376.00847  28047141.85543  23946585.1644   23946590.9144      10341.6794
        42.5004         21.7504
 11 11 21 20 33  0.0000000  0 10G02G30G05G26G15G12G29G21G25G18
  15080001.87547  11823321.00044  23687430.4224   23687434.3134       4479.0424
        43.7504         26.5004
  30848150.63346  24131361.81643  23542874.4534   23542880.0124       9480.8184
        41.5004         23.5004
  -5466101.92248  -4148383.71146  21343033.8914   21343034.6804       5120.2474
        49.2504         40.0004
  32615966.39846  25478379.72743  23979487.2274   23979495.3714       9682.2244
        41.0004         22.2504
  38884582.31646  30361715.34043  24267160.5474   24267168.2274       9849.0664
        40.7504         21.7504
  12610124.71547   9918520.91845  22860103.0634   22860106.2034       3552.0424
        46.5004         31.5004
 -16589610.13748 -12781725.35946  20574024.2114   20574024.8674       8296.1644
        50.7504         41.5004
   2184370.36747   1762717.84044  23011655.6804   23011657.7304       8809.3394
        42.7504         28.7504
  -2302746.61348  -1677695.44946  21225974.8134   21225978.1564       4762.5874
        51.7504         40.2504
  35440254.86347  27805489.28143  23887570.3524   23887576.0904      10337.3714
        42.5004         21.5004
 11 11 21 20 33 30.0000000  0 10G02G30G05G26G15G12G29G21G25G18
  14945653.91447  11718634.11744  23661864.9304   23661868.7384       4478.2654
        43.2504         26.5004
  30564182.37547  23910088.02743  23488837.5944   23488842.8244       9465.6094
        42.0004         23.2504
  -5619231.00048  -4267705.12146  21313893.9304   21313895.3484       5104.3034
        49.7504         39.5004
  32325719.68046  25252213.54343  23924255.3524   23924262.0554       9674.8914
        41.0004         22.5004
  38589091.90246  30131463.32043  24210930.1724   24210937.6684       9849.6804
        40.5004         22.5004
  12503751.42247   9835632.46545  22839861.8284   22839864.3014       3545.7764
        46.5004         31.7504
 -16838229.13348 -12975454.41446  20526713.5394   20526714.1024       8287.3004
        51.0004         41.2504
   1920225.60947   1556890.82044  22961390.8054   22961392.5354       8804.8254
        43.5004         28.5004
  -2445168.26648  -1788673.43046  21198873.1954   21198875.9344       4747.3884
        52.0004         40.5004
  35130264.45347  27563938.52743  23828581.7034   23828586.6174      10333.0144
        42.5004         22.0004
 11 11 21 20 34  0.0000000  0 10G02G30G05G26G15G12G29G21G25G18
  16386754.03947  12841569.11744  23936097.3134   23936101.3834       4477.3294
        43.5004         25.0004
  31856103.22347  24916779.77043  23734681.8674   23734686.3754       9449.9724
        42.0004         23.7504
  -4196457.48848  -3159050.49646  21584639.3674   21584640.2194       5088.2164
        49.5004         39.0004
  33611126.98846  26253829.78143  24168860.0314   24168867.0904       9667.0904
        40.2504         21.5004
  39869017.10246  31128807.88343  24454490.8134   24454498.9734       9849.8274
        39.5004         22.7504
  13972988.45747  10980492.32045  23119448.4614   23119450.4804       3539.4324
        46.0004         31.0004
 -15511151.30548 -11941367.76246  20779248.1094   20779248.6334       8278.0724
        50.5004         41.2504
   3231645.98847   2578776.90244  23210945.5704   23210947.3834       8799.9874
        42.7504         29.0004
  -1011710.52348   -671693.44146  21471651.2664   21471654.4024       4732.0754
        52.5004         40.2504
  36395837.89546  28550099.86743  24069412.2814   24069417.0474      10328.2194
        41.7504         22.0004
 11 11 21 20 34 30.0000000  0 10G02G30G05G26G15G12G29G21G25G18
  16252454.96147  12736920.30144  23910541.5864   23910544.9344       4476.6364
        43.0004         26.0004
  31573058.71146  24696225.78143  23680819.9614   23680825.4574       9434.8174
        41.2504         22.7504
  -4348632.18048  -3277628.23046  21555681.3444   21555682.2034       5072.4904
        48.7504         39.2504
  33321334.52746  26028017.66443  24113714.7894   24113721.3674       9659.7494
        41.0004         22.7504
  39573503.07046  30898537.53943  24398257.0944   24398264.6994       9850.4684
        40.5004         22.7504
  13866987.64847  10897894.12145  23099277.1174   23099280.0554       3533.3604
        46.0004         31.2504
 -15759229.62548 -12134675.51646  20732040.4454   20732041.0394       8269.2774
        51.0004         41.0004
   2967775.39547   2373163.52344  23160732.3524   23160734.6414       8795.6864
        43.5004         29.0004
  -1153223.35248   -781963.25046  21444722.3054   21444725.1804       4717.0944
        52.2504         39.7504
  36086118.61347  28308760.40243  24010474.4614   24010479.4144      10323.9764
        42.2504         22.0004
 11 11 21 20 35  0.0000000  0 10G02G30G05G26G15G12G29G21G25G18
  16118178.68447  12632289.29744  23884988.8984   23884993.2274       4475.8764
        42.7504         26.5004
  31290478.25846  24476033.37543  23627046.6414   23627051.4024       9419.3484
        41.2504         23.5004
  -4500334.21548  -3395837.66446  21526813.1644   21526814.5084       5056.7354
        50.0004         38.7504
  33031773.40646  25802385.77043  24058613.0004   24058619.2344       9652.0374
        41.2504         23.5004
  39277980.14547  30668260.27743  24342019.9694   24342028.2424       9850.7644
        42.0004         22.7504
  13761167.49647  10815436.67245  23079140.8134   23079143.1414       3527.3384
        46.0004         30.5004
 -16007036.53948 -12327771.78146  20684884.0164   20684884.5474       8260.2304
        50.5004         41.0004
   2704040.04347   2167655.52744  23110545.5634   23110546.9534       8791.1784
        43.2504         28.5004
  -1294286.76248   -891882.86346  21417878.6954   21417881.7774       4702.1144
        52.7504         40.0004
  35776536.61346  28067527.85943  23951563.3054   23951567.3914      10319.4004
        40.5004         21.7504
 11 11 21 20 35 30.0000000  0 10G02G30G05G26G15G12G29G21G25G18
  15983924.25047  12527675.28543  23859442.2664   23859445.8714       4475.1484
        43.0004         23.2504
  31008363.91446  24256204.19143  23573360.8834   23573366.3874       9403.8114
        41.5004         23.0004
  -4651566.59848  -3513681.13746  21498034.9384   21498035.8874       5041.0794
        49.0004         38.7504
  32742446.66847  25576936.52343  24003556.1724   24003562.0124       9644.2254
        42.0004         22.0004
  38982450.79347  30437978.00843  24285783.5084   24285790.2704       9850.9784
        42.7504         22.7504
  13655525.01247  10733117.68045  23059036.8444   23059040.2544       3521.4164
        45.5004         30.7504
 -16254570.55548 -12520655.39146  20637780.1024   20637780.8954       8251.1344
        51.2504         41.5004
   2440439.17247   1962252.32044  23060383.9224   23060385.3054       8786.6964
        44.5004         28.7504
  -1434903.60248  -1001454.50446  21391120.2894   21391123.9024       4687.2284
        53.0004         39.2504
  35467093.57046  27826403.64143  23892678.4064   23892682.4734      10314.7684
        41.2504         22.5004
 11 11 21 20 36  0.0000000  0 10G02G30G05G26G15G12G29G21G25G18
  15849690.97747  12423077.76243  23833897.5864   23833901.6914       4474.4424
        42.7504         23.0004
  30726717.50046  24036739.60943  23519765.2274   23519771.0864       9388.2144
        41.2504         22.0004
  -4802331.62948  -3631160.43746  21469345.1804   21469346.2544       5025.5014
        50.0004         38.7504
  32453357.69946  25351672.53944  23948543.7274   23948550.3834       9636.2994
        41.2504         24.5004
  38686917.60246  30207692.76243  24229543.8834   24229551.5904       9851.1064
        41.5004         22.5004
  13550056.86347  10650934.52045  23038967.0394   23038970.4574       3515.6054
        46.2504         31.5004
 -16501830.54348 -12713325.48046  20590728.1334   20590728.5084       8242.0004
        51.0004         41.5004
   2176972.10547   1756953.37945  23010247.5784   23010249.3674       8782.2364
        44.5004         30.2504
  -1575076.76248  -1110680.41446  21364446.2194   21364449.3594       4672.4394
        52.0004         40.2504
  35157791.12946  27585388.93043  23833819.0084   23833824.3014      10310.0814
        40.5004         22.2504
 11 11 21 20 36 30.0000000  0 10G02G30G05G26G15G12G29G21G25G18
  15715478.73446  12318496.63343  23808357.9844   23808362.6454       4473.7414
        41.7504         23.2504
  30445541.88746  23817641.87543  23466259.8524   23466264.8714       9372.5204
        41.7504         22.7504
  -4952631.28548  -3748277.11346  21440743.9774   21440745.3054       5009.9894
        50.5004         39.0004
  32164510.28947  25126596.83243  23893578.0864   23893583.3204       9628.2474
        42.7504         22.5004
  38391383.59046  29977406.89543  24173305.2504   24173313.0474       9851.1344
        41.5004         22.5004
  13444760.59847  10568885.32045  23018930.1024   23018933.1414       3509.8764
        45.7504         30.5004
 -16748814.58648 -12905780.54746  20543728.2974   20543728.9104       8232.8014
        51.5004         41.0004
   1913638.89547   1551758.73844  22960137.1334   22960138.8714       8777.7744
        45.0004         29.5004
  -1714808.29748  -1219562.20746  21337856.7194   21337859.3134       4657.7184
        53.0004         39.5004
  34848631.67646  27344485.66043  23774988.2194   23774992.9304      10305.3154
        41.5004         22.7504
 11 11 21 20 37  0.0000000  0 10G02G30G05G26G15G12G29G21G25G18
  15581288.19546  12213932.41843  23782823.3674   23782827.2584       4473.0184
        41.5004         23.2504
  30164840.25847  23598913.49244  23412844.3754   23412849.1954       9356.7214
        42.0004         24.0004
  -5102466.62148  -3865031.97346  21412231.6414   21412232.3054       4994.5114
        50.5004         38.5004
  31875909.12147  24901712.99643  23838659.2504   23838665.6254       9620.0394
        42.5004         23.0004
  38095852.98846  29747123.72743  24117068.2814   24117075.3484       9851.0204
        40.7504         22.5004
  13339634.38347  10486968.60245  22998925.6254   22998928.8874       3504.2074
        45.5004         30.2504
 -16995519.82048 -13098018.35946  20496781.9924   20496782.2734       8223.5084
        51.0004         41.5004
   1650440.04347   1346668.78544  22910051.9844   22910053.4144       8773.2954
        45.0004         29.7504
  -1854099.73848  -1328101.06646  21311350.3444   21311353.7274       4643.0484
        52.5004         39.2504
  34539618.18046  27103696.12543  23716184.9774   23716188.7934      10300.4504
        41.5004         22.0004
 11 11 21 20 37 30.0000000  0 10G02G30G05G26G15G12G29G21G25G18
  17022541.48046  13336986.76643  24057084.4774   24057088.5234       4472.2244
        41.0004         22.7504
  31460042.28146  24608161.98043  23659312.1254   23659317.7504       9340.5994
        41.2504         23.2504
  -3676417.58648  -2753824.98446  21683599.9774   21683600.9534       4979.0324
        49.5004         38.5004
  33162985.54347  25904629.84043  24083581.3984   24083587.6134       9611.4534
        43.0004         23.7504
  39375756.47346  30744451.48843  24360624.0704   24360631.3484       9850.5514
        40.7504         22.7504
  14810097.34447  11632783.72345  23278745.5944   23278748.3364       3498.5684
        45.2504         30.0004
 -15666518.34848 -12062432.76246  20749682.4224   20749682.9614       8213.9514
        49.7504         41.5004
   2962802.13747   2369288.68445  23159786.3204   23159787.3134       8768.5974
        45.0004         30.0004
   -417530.92648   -208696.88346  21584720.2814   21584723.3134       4628.3734
        51.7504         39.2504
  35806180.95746  28090628.36743  23957202.8834   23957207.7194      10295.2414
        40.5004         22.7504
 11 11 21 20 38  0.0000000  0 10G02G30G05G26G15G12G29G21G25G18
  16888388.95747  13232452.17643  24031557.0004   24031560.0984       4471.7514
        43.5004         22.5004
  31180291.04747  24390174.14143  23606077.7034   23606082.5824       9325.0414
        42.0004         23.0004
  -3825336.69148  -2869865.89146  21655261.1724   21655262.6414       4963.9704
        48.5004         38.7504
  32874883.27747  25680134.69944  24028757.3284   24028763.8444       9603.4094
        42.7504         25.2504
  39080236.76246  30514176.79743  24304389.2504   24304396.3954       9850.6574
        40.5004         22.7504
  14705298.74647  11551122.29745  23258802.9614   23258806.3284       3493.2874
        45.0004         30.5004
 -15912665.57048 -12254235.76246  20702842.4844   20702842.5634       8204.9074
        50.5004         41.0004
   2699866.83247   2164404.09845  23109751.1954   23109752.4224       8764.5104
        45.2504         30.0004
   -555954.22348   -316559.27046  21558379.0864   21558382.5594       4614.1104
        52.2504         39.5004
  35497460.59446  27850067.27343  23898456.4224   23898460.1564      10290.6794
        41.7504         22.2504
 11 11 21 20 38 30.0000000  0 10G02G30G05G26G15G12G29G21G25G18
  16754257.27746  13127933.83243  24006032.1414   24006035.7584       4471.0564
        41.5004         22.7504
  30901020.88346  24172561.17244  23552934.4534   23552939.3984       9309.0054
        41.5004         24.5004
  -3973798.50848  -2985550.47346  21627010.0634   21627011.1094       4948.7274
        49.2504         38.2504
  32587038.02747  25455839.82044  23973981.5474   23973987.8134       9594.8424
        42.2504         24.5004
  38784729.27046  30283911.58643  24248155.4454   24248162.8014       9850.2504
        39.5004         22.5004
  14600662.15647  11469587.11345  23238891.1174   23238894.7624       3487.8864
        44.0004         30.5004
 -16158528.80148 -12445817.46546  20656055.8284   20656056.4844       8195.4414
        50.7504         41.2504
   2437065.27347   1959623.72345  23059741.7734   23059743.2384       8760.0524
        45.7504         30.0004
   -693944.78548   -424084.46546  21532120.5004   21532123.9414       4599.6854
        51.2504         40.0004
  35188892.64147  27609624.93443  23839736.1254   23839741.0234      10285.5984
        42.0004         22.5004
 11 11 21 20 39  0.0000000  0 10G02G30G05G26G15G12G29G21G25G18
  16620146.79347  13023432.01243  23980511.7974   23980516.0704       4470.3494
        43.5004         22.0004
  30622234.71946  23955325.33244  23499883.0944   23499887.7624       9292.8724
        41.5004         25.5004
  -4121804.69948  -3100880.02046  21598845.7894   21598846.5664       4933.5404
        48.2504         38.5004
  32299454.41047  25231748.84843  23919255.8204   23919261.6844       9586.1214
        43.5004         23.0004
  38489237.76246  30053658.82843  24191925.5394   24191932.5984       9849.7174
        41.0004         23.5004
  14496185.27047  11388176.35245  23219010.5004   23219013.7624       3482.5634
        44.2504         30.0004
 -16404105.87548 -12637176.20346  20609324.0394   20609324.3444       8185.9024
        51.2504         41.5004
   2174397.43447   1754947.55144  23009757.7584   23009759.0474       8755.5954
        46.2504         29.2504
   -831504.52748   -531273.94946  21505943.7344   21505947.1024       4585.3254
        52.7504         39.7504
  34880479.71147  27369303.45743  23781048.5084   23781051.8284      10280.4314
        43.0004         22.5004
 11 11 21 20 39 30.0000000  0 10G02G30G05G26G15G12G29G21G25G18
  16486053.92246  12918943.92243  23954994.6564   23954998.6094       4469.7624
        39.0004         22.5004
  30343931.59447  23738465.89543  23446923.4384   23446928.0084       9276.7714
        42.0004         22.7504
  -4269360.55148  -3215858.65246  21570766.7194   21570767.2304       4918.5284
        48.2504         38.5004
  32012132.51647  25007861.82044  23864580.5634   23864587.5594       9577.3964
        43.0004         24.5004
  38193761.87946  29823418.23044  24135697.4844   24135704.8634       9849.1964
        40.7504         24.7504
  14391862.18447  11306885.44944  23199158.9384   23199161.6334       3477.4364
        44.2504         29.7504
 -16649398.28548 -12828313.10947  20562646.6254   20562646.7384       8176.4144
        50.0004         42.0004
   1911859.77047   1550372.82044  22959798.1254   22959799.1954       8751.2554
        46.2504         29.7504
   -968639.25048   -638132.25446  21479847.9064   21479850.9574       4571.1574
        51.0004         39.5004
  34572220.46146  27129101.68443  23722387.6484   23722391.4884      10275.3084
        41.2504         23.0004
 11 11 21 20 40  0.0000000  0 10G02G30G05G26G15G12G29G21G25G18
  16351979.82446  12814470.42643  23929481.3984   23929485.7704       4469.1374
        41.2504         22.5004
  30066115.17247  23521985.69144  23394056.4064   23394061.5864       9260.5474
        42.0004         25.0004
  -4416467.56248  -3330487.52746  21542773.0004   21542773.8754       4903.5674
        49.5004         38.2504
  31725077.50446  24784182.68044  23809955.4534   23809962.1804       9568.5004
        41.7504         25.0004
  37898305.96147  29593193.18443  24079474.4384   24079480.8134       9848.5314
        42.0004         22.7504
  14287691.49647  11225713.30545  23179336.0084   23179339.1174       3472.3564
        44.7504         30.5004
 -16894402.94548 -13019225.80146  20516023.9064   20516024.0594       8166.8224
        51.0004         41.5004
   1649453.58247   1345900.52745  22909863.6024   22909865.3094       8746.8734
        46.0004         30.5004
  -1105350.09048   -744660.26646  21453832.5234   21453836.2034       4557.0284
        52.7504         39.5004
  34264118.14847  26889022.21143  23663757.2734   23663761.7114      10270.0774
        42.0004         22.5004
 11 11 21 20 40 30.0000000  0 10G02G30G05G26G15G12G29G21G25G18
  16217924.33646  12710011.46543  23903971.3754   23903976.0164       4468.5164
        41.7504         22.5004
  29788787.76246  23305886.53943  23341283.0084   23341287.2384       9244.2474
        40.0004         23.7504
  -4563127.78548  -3444768.25446  21514864.6174   21514865.6094       4888.6744
        49.5004         38.5004
  31438293.22747  24560714.48044  23755382.0784   23755388.5204       9559.4764
        42.2504         24.2504
  37602873.29747  29362986.30144  24023255.5554   24023262.1054       9847.7554
        42.0004         24.5004
  14183670.82847  11144658.03945  23159541.7274   23159545.2304       3467.3564
        45.7504         30.2504
 -17139117.99648 -13209912.83646  20469455.8054   20469456.4104       8157.1684
        50.5004         41.7504
   1387178.74647   1141530.59444  22859954.6954   22859956.2234       8742.4954
        45.0004         29.7504
  -1241639.43448   -850859.84446  21427897.9224   21427901.1954       4542.9784
        52.2504         39.5004
  33956175.14847  26649066.92644  23605158.2034   23605161.8714      10264.7674
        43.0004         24.2504
 11 11 21 20 41  0.0000000  0 10G02G30G05G26G15G12G29G21G25G18
  16083884.27046  12605564.50843  23878464.4924   23878469.6174       4468.0024
        40.2504         22.5004
  29511948.85946  23090168.06343  23288602.4454   23288607.2274       9227.9634
        41.7504         22.0004
  -4709346.45348  -3558704.92646  21487040.4774   21487041.1054       4873.9564
        50.2504         38.5004
  31151780.36747  24337457.82844  23700860.9454   23700867.1414       9550.4294
        42.2504         24.5004
  37307464.01247  29132797.59444  23967040.7584   23967047.4924       9846.9764
        42.0004         26.7504
  14079794.35247  11063715.14845  23139775.1804   23139778.1994       3462.5494
        43.7504         30.2504
 -17383544.59848 -13400375.09047  20422942.7664   20422943.4734       8147.5534
        50.7504         42.0004
   1125032.00447    937260.46545  22810069.5164   22810071.1134       8738.2254
        45.5004         30.7504
  -1377512.74248   -956735.22746  21402041.9924   21402045.9304       4529.1104
        52.0004         39.7504
  33648390.51247  26409235.00443  23546588.3984   23546591.9574      10259.4884
        42.0004         23.0004
 11 11 21 20 41 30.0000000  0 10G02G30G05G26G15G12G29G21G25G18
  17525289.27746  13728737.11343  24152755.5474   24152759.3754       4467.1664
        39.5004         22.5004
  30811035.38746  24102443.40644  23535809.6024   23535814.2234       9211.1164
        41.0004         25.5004
  -3279695.21148  -2444691.00846  21759093.6094   21759094.8754       4858.9594
        49.7504         37.7504
  32440977.58247  25342027.14143  23946186.5784   23946192.7974       9540.7604
        42.5004         23.0004
  38587516.92247  30130241.69944  24210625.5784   24210632.4534       9845.5704
        42.5004         26.2504
  15551488.75847  12210489.81345  23419828.6884   23419832.4454       3457.5204
        44.5004         30.0004
 -16052247.35948 -12363000.59047  20676280.5394   20676280.6764       8137.4254
        50.5004         42.2504
   2438446.98847   1960700.77744  23060004.2114   23060005.6684       8733.5014
        45.5004         29.5004
     62457.55548    165319.46946  21676059.4064   21676063.0514       4514.9904
        51.5004         39.5004
  34916201.96547  27397140.30943  23787843.9304   23787848.0084      10253.6184
        42.7504         22.7504
 11 11 21 20 42  0.0000000  0 10G02G30G05G26G15G12G29G21G25G18
  17391287.69147  13624320.13743  24127255.2974   24127259.8914       4466.7204
        43.0004         22.7504
  30535188.37146  23887497.80544  23483317.9924   23483322.2974       9194.9014
        40.7504         24.5004
  -3425028.85248  -2557938.03946  21731437.5704   21731438.5664       4844.4554
        49.7504         38.0004
  32155026.72347  25119208.37944  23891771.6644   23891778.3714       9531.6954
        42.0004         26.0004
  38292171.84847  29900103.00444  24154423.2034   24154430.1644       9844.8364
        42.7504         26.0004
  15447901.06347  12129771.93445  23400116.8524   23400120.8594       3452.9234
        44.5004         31.0004
 -16296083.65248 -12553002.86746  20629879.7584   20629880.1684       8127.8764
        50.0004         41.5004
   2176563.46547   1756635.74245  23010169.5554   23010170.4734       8729.4514
        45.5004         30.0004
    -72582.96548     60093.00846  21650361.8284   21650365.6374       4501.3514
        52.2504         39.5004
  34608748.28147  27157566.27044  23729338.1954   23729341.3244      10248.4564
        43.0004         25.5004
 11 11 21 20 42 30.0000000  0 10G02G30G05G26G15G12G29G21G25G18
  17257301.68447  13519915.32843  24101759.0164   24101763.4064       4466.2004
        42.0004         22.2504
  30259837.25047  23672938.61344  23430920.3834   23430924.7974       9178.3714
        42.0004         24.7504
  -3569926.96148  -2670845.69546  21703864.2274   21703865.4344       4829.9374
        50.0004         37.7504
  31869358.83247  24896610.07044  23837410.9774   23837417.6564       9522.2634
        42.0004         26.5004
  37996860.00446  29669990.19144  24098227.0084   24098234.0204       9843.7284
        41.7504         25.7504
  15344450.25447  12049160.71144  23380431.0234   23380434.7384       3448.3604
        44.7504         29.7504
 -16539625.42648 -12742775.65647  20583535.5634   20583535.4734       8118.0594
        50.2504         42.5004
   1914807.91847   1552670.43844  22960358.8444   22960360.0314       8725.1854
        46.0004         29.5004
   -207214.34848    -44814.65246  21624742.6884   21624746.1914       4487.7134
        51.2504         39.2504
  34301459.98847  26918121.08643  23670862.4774   23670866.0124      10242.9434
        42.5004         22.5004
 11 11 21 20 43  0.0000000  0 10G02G30G05G26G15G12G29G21G25G18
  17123334.17247  13415524.88743  24076265.8054   24076270.3244       4465.5844
        42.7504         22.5004
  29984987.36346  23458770.01244  23378617.3594   23378622.5514       9161.6634
        41.0004         24.5004
  -3714389.04348  -2783413.59846  21676374.1484   21676375.3914       4815.4034
        50.0004         37.7504
  31583980.93046  24674237.72344  23783105.4454   23783111.7034       9512.5974
        41.7504         24.2504
  37701587.62146  29439908.11344  24042038.5864   24042045.6484       9842.4134
        41.2504         26.2504
  15241136.74647  11968656.47745  23360771.4614   23360775.2504       3443.7844
        43.5004         30.2504
 -16782867.98048 -12932315.27346  20537248.0554   20537248.4694       8108.0854
        49.7504         41.7504
   1653183.29347   1348807.14145  22910573.3984   22910574.8364       8720.8214
        45.0004         30.0004
   -341436.04348   -149403.06646  21599201.3134   21599204.8594       4474.0574
        51.5004         38.7504
  33994342.03147  26678808.65244  23612420.1254   23612423.2704      10237.2654
        43.5004         25.2504
 11 11 21 20 43 30.0000000  0 10G02G30G05G26G15G12G29G21G25G18
  16989383.43447  13311147.57044  24050776.6884   24050780.6644       4465.0254
        43.0004         25.0004
  29710639.59447  23244992.66444  23326410.7274   23326415.3634       9144.9264
        42.0004         25.2504
  -3858418.30548  -2895644.24246  21648966.3834   21648967.1094       4800.9754
        49.0004         38.0004
  31298895.19547  24452093.03144  23728855.3134   23728861.6764       9502.8584
        42.2504         25.0004
  37406356.50847  29209858.17644  23985856.7344   23985864.3554       9841.0374
        42.0004         26.5004
  15137956.26247  11888255.89545  23341137.0474   23341140.9144       3439.3494
        44.7504         30.0004
 -17025810.96548 -13121621.46946  20491017.7894   20491017.9654       8098.0994
        50.2504         41.5004
   1391687.53947   1145044.25844  22860811.9224   22860813.3444       8716.5254
        44.5004         29.7504
   -475251.96948   -253675.30146  21573736.8204   21573740.7894       4460.5314
        51.7504         39.0004
  33687395.16047  26439629.50044  23554009.1884   23554012.8094      10231.5624
        42.7504         26.2504
 11 11 21 20 44  0.0000000  0 10G02G30G05G26G15G12G29G21G25G18
  16855447.02347  13206781.41843  24025289.5864   24025293.6564       4464.5474
        43.0004         23.5004
  29436793.68846  23031606.35944  23274300.7664   23274304.4694       9128.1974
        41.2504         26.0004
  -4002019.69548  -3007541.47746  21621640.1254   21621641.0784       4786.7134
        49.5004         38.2504
  31014103.00047  24230177.07443  23674661.5634   23674667.0314       9493.0734
        43.0004         22.7504
  37111167.41046  28979840.97344  23929684.3834   23929690.9384       9839.6374
        41.2504         26.0004
  15034904.08647  11807955.28545  23321527.5944   23321530.8714       3435.0734
        43.7504         30.2504
 -17268454.85248 -13310694.60246  20444844.0234   20444844.3634       8088.1304
        49.7504         41.7504
   1130318.25447    941379.91845  22811075.0474   22811076.4104       8712.3104
        45.0004         30.0004
   -608667.06648   -357635.19546  21548348.9384   21548352.3754       4447.1704
        52.0004         39.2504
  33380619.12947  26200583.48444  23495632.5784   23495635.1994      10225.8684
        43.5004         24.5004
