     2.11           OBSERVATION DATA    G (GPS)             RINEX VERSION / TYPE
teqc  2010Oct21     Michael A Floyd     20110221 00:03:41UTCPGM / RUN BY / DATE
OSX ker:9.8.0|G5|gcc 3.3|OSX ker:9.8.0+|G3+                 COMMENT
BIT 2 OF LLI FLAGS DATA COLLECTED UNDER A/S CONDITION       COMMENT
VERS                                                        MARKER NAME
                                                            MARKER NUMBER
Michael A Floyd     University of California, Riverside     OBSERVER / AGENCY
0220413522          TRIMBLE R7          NP 2.32 / SP 2.30   REC # / TYPE / VERS
60219588            TRM41249.00     NONE                    ANT # / TYPE
 -2430817.8898 -4704713.0649  3543695.1926                  APPROX POSITION XYZ
        0.8861        0.0000        0.0000                  ANTENNA: DELTA H/E/N
     1     1                                                WAVELENGTH FACT L1/2
     7    L1    L2    C1    P2    D1    S1    S2            # / TYPES OF OBSERV
    30.0000                                                 INTERVAL
    15                                                      LEAP SECONDS
 SNR is mapped to RINEX snr flag value [0-9]                COMMENT
  L1 & L2: min(max(int(snr_dBHz/6), 0), 9)                  COMMENT
  2010     5    26    22     6   30.0000000     GPS         TIME OF FIRST OBS
  2010     5    27     1    50    0.0000000     GPS         TIME OF LAST OBS
  2010     5    27     1    50    0.0000000     GPS         TIME OF LAST OBS
                                                            END OF HEADER
 10  5 26 22  6 30.0000000  0  9G03G06G07G08G10G16G19G20G23
    -20928.08657    -11834.63354  22352101.8204   22352101.0124
        44.5004         29.2504
     -3858.57457     -2120.78954  23116348.9454   23116348.5664
        42.5004         27.2504
    -18150.57858     -9944.40656  21457155.0164   21457152.6214
        48.0004         39.0004
    -38371.46557    -13309.20354  24034417.3914   24034417.0394
        42.0004         24.0004
    -39480.24656    -14368.96953  23891598.6024   23891597.4304
        41.2504         22.5004
     76884.82857     44634.39854  23476932.7344   23476930.8134
        42.0004         25.0004
    -43732.65257    -15819.28154  23733027.4224   23733025.6134
        42.0004         26.0004
     81069.44157     44008.39554  23232837.5634   23232837.3524
        43.7504         27.7504
     22613.60258     12013.53156  20206884.9534   20206880.5864
        51.0004         41.5004
 10  5 26 22  7  0.0000000  0 10G03G06G07G08G10G16G19G20G23G32
    -52531.98447    -36461.05144  22346087.8984   22346086.6724       1053.4634
        44.0004         28.5004
    -10062.43747     -6954.97744  23115168.8364   23115167.8954        206.7954
        44.0004         26.2504
    -45366.99248    -31152.00846  21451975.9774   21451973.3554        907.2144
        48.5004         38.2504
    -94998.11347    -57433.81644  24023641.2734   24023641.1174       1887.5554
        42.0004         25.0004
   -101636.60546    -62802.48443  23879770.9924   23879769.6094       2071.8794
        40.2504         22.7504
    187590.12947    130898.22744  23497999.3364   23497997.0944      -3690.1774
        42.0004         24.0004
   -109371.59046    -66966.41044  23720537.4534   23720535.0704       2187.9654
        41.2504         25.2504
    197747.15647    134925.96144  23255040.6174   23255040.4654      -3889.2574
        43.5004         27.0004
     54436.07448     36810.22746  20212940.6024   20212935.9304      -1060.7494
        50.5004         40.2504
    192431.20756    100594.20353  24769619.9694   24769624.0554
        39.7504         18.5004
 10  5 26 22  7 30.0000000  0 11G03G06G07G08G10G13G16G19G20G23G32
    -83943.12147    -60937.23044  22340111.2664   22340109.8404       1047.0384
        42.5004         28.0004
    -16080.61347    -11644.48044  23114023.4224   23114022.7774        200.6064
        43.5004         25.0004
    -72667.43748    -52425.07846  21446780.4694   21446778.4304        910.0154
        48.0004         37.7504
   -151796.73846   -101692.43043  24012832.5864   24012833.1684       1893.2874
        41.2504         22.7504
   -163665.48046   -111136.66043  23867967.0164   23867966.0984       2067.6294
        41.5004         22.0004
    -33861.79758    -24355.68756  20170281.8754   20170279.0664
        51.0004         41.2504
    298228.73046    217110.06343  23519053.5944   23519050.8634      -3687.9534
        41.0004         22.7504
   -175147.75047   -118220.46944  23708020.2034   23708018.3874       2192.5394
        42.5004         26.0004
    314248.44147    225706.04344  23277210.8674   23277209.8484      -3883.3764
        44.0004         26.0004
     86409.43848     61724.50046  20219025.0864   20219020.7424      -1065.7794
        51.5004         40.0004
    309379.44946    191722.38743  24791874.7814   24791878.6724      -3898.2754
        39.2504         18.5004
 10  5 26 22  8  0.0000000  0 11G03G06G07G08G10G13G16G19G20G23G32
   -114909.95347    -85067.21144  22334218.0004   22334216.9774       1032.2284
        44.0004         27.2504
    -21662.44147    -15993.94144  23112961.7194   23112960.9494        186.0614
        43.5004         27.2504
    -99803.24248    -73569.85546  21441616.8054   21441614.3874        904.5274
        50.0004         38.2504
   -208518.57047   -145891.22744  24002038.8754   24002038.8554       1890.7284
        42.7504         24.0004
   -225315.39846   -159175.54743  23856235.3444   23856234.2234       2054.9974
        41.5004         21.5004
    -46231.29748    -33994.28546  20167927.8984   20167925.2814        412.3174
        51.0004         40.7504
    409046.72747    303461.68044  23540141.1564   23540138.8634      -3693.9334
        42.5004         24.5004
   -240808.84846   -169384.86744  23695524.2814   23695523.7894       2188.7034
        41.5004         25.2504
    430819.78147    316540.71544  23299394.0474   23299392.6054      -3885.7114
        43.2504         26.5004
    118783.36348     86950.91046  20225185.6414   20225181.2664      -1079.1314
        51.7504         40.2504
    426285.08646    282817.36742  24814120.7344   24814125.4024      -3896.8554
        37.5004         17.2504
 10  5 26 22  8 30.0000000  0 11G03G06G07G08G10G13G16G19G20G23G32
   -145403.86747   -108828.72344  22328415.7034   22328414.4454       1016.4644
        43.7504         29.0004
    -26780.64547    -19982.14144  23111988.0234   23111987.0044        170.6074
        43.5004         27.2504
   -126748.93448    -94566.49646  21436489.4384   21436486.8594        898.1904
        48.7504         38.0004
   -265137.67647   -190009.96543  23991265.0314   23991264.6214       1887.3044
        42.5004         23.2504
   -286558.36746   -206897.30543  23844581.3594   23844579.6414       2041.4324
        41.2504         22.2504
    -58243.90248    -43354.77746  20165642.3054   20165639.1884        400.4204
        51.0004         40.7504
    520067.46146    389971.29343  23561267.9774   23561265.5634      -3700.6914
        41.7504         22.7504
   -306326.15247   -220437.21144  23683057.4924   23683056.0554       2183.9104
        42.2504         28.0004
    547484.02747    407447.77344  23321594.2034   23321593.3984      -3888.8084
        44.0004         26.5004
    151584.53548    112510.23046  20231427.6954   20231422.7704      -1093.3724
        51.7504         40.5004
    543171.68846    373897.53942  24836363.5944   24836368.6334      -3896.2204
        38.2504         17.7504
 10  5 26 22  9  0.0000000  0 11G03G06G07G08G10G13G16G19G20G23G32
   -175405.38347   -132206.50045  22322705.7664   22322704.9494       1000.0514
        43.7504         30.2504
    -31416.55947    -23594.55144  23111105.3754   23111104.3794        154.5304
        44.0004         26.2504
   -153487.53148   -115401.76246  21431401.0084   21431398.6054        891.2874
        49.5004         39.0004
   -321637.03947   -234035.37943  23980513.1254   23980513.1844       1883.3124
        43.5004         23.2504
   -347374.93046   -254286.82443  23833008.1414   23833007.1134       2027.2194
        40.5004         22.7504
    -69881.21148    -52422.82446  20163427.4144   20163424.7774        387.9104
        51.5004         41.2504
    631305.66447    476650.36343  23582435.9694   23582433.0864      -3707.9404
        42.2504         22.2504
   -371678.71947   -271361.18444  23670621.4774   23670619.7304       2178.4194
        42.5004         24.7504
    664255.73847    498438.57844  23343814.6334   23343814.3914      -3892.3904
        43.5004         25.7504
    184831.25048    138416.73046  20237754.2734   20237749.6844      -1108.2244
        51.5004         40.2504
    660054.19946    464974.48042  24858606.8524   24858610.3954      -3896.0844
        39.0004         17.7504
 10  5 26 22  9 30.0000000  0 11G03G06G07G08G10G13G16G19G20G23G32
   -204935.87947   -155217.25444  22317087.2034   22317085.8554        984.3504
        45.2504         29.2504
    -35592.05147    -26848.15644  23110310.6884   23110309.7774        139.1834
        44.5004         26.0004
   -180042.67648   -136094.06246  21426347.6804   21426345.0234        885.1714
        48.7504         38.0004
   -378039.97747   -277985.69944  23969780.6804   23969780.1604       1880.0984
        42.7504         24.0004
   -407785.86746   -301360.27743  23821512.2734   23821510.8714       2013.6984
        41.5004         22.2504
    -81164.26648    -61214.82846  20161280.4844   20161277.8364        376.1024
        51.0004         41.0004
    742734.88746    563478.27343  23603639.6724   23603637.7384      -3714.3074
        41.0004         22.7504
   -436886.69146   -322172.53944  23658212.8524   23658210.6884       2173.5994
        40.5004         24.5004
    781108.74647    589492.72744  23366051.1644   23366051.0044      -3895.1004
        43.2504         24.5004
    218500.75048    164652.67646  20244161.3054   20244156.2894      -1122.3174
        51.5004         40.7504
    776907.00046    556028.29343  24880842.0234   24880847.5314      -3895.0934
        38.5004         18.2504
 10  5 26 22 10  0.0000000  0 11G03G06G07G08G10G13G16G19G20G23G32
   -233998.13747   -177863.17644  22311556.2194   22311555.3674        968.7424
        42.5004         28.7504
    -39311.69547    -29746.57044  23109602.8834   23109602.1684        123.9884
        44.0004         27.0004
   -206420.27748   -156648.03546  21421328.1804   21421325.9964        879.2534
        48.0004         38.7504
   -434352.91847   -321865.83244  23959064.3524   23959063.8524       1877.0984
        43.5004         24.2504
   -467794.97746   -348120.59844  23810093.1484   23810092.0474       2000.3044
        41.0004         24.5004
    -92097.48848    -69734.23846  20159200.0944   20159197.1884        364.4414
        50.5004         41.0004
    854346.48446    650448.29343  23624879.4064   23624876.8014      -3720.3874
        41.5004         22.7504
   -501952.93046   -372873.43044  23645830.7504   23645829.2234       2168.8754
        41.7504         27.0004
    898034.35247    680603.44144  23388302.0004   23388301.0944      -3897.5204
        44.7504         26.5004
    252587.42248    191213.69146  20250647.7274   20250643.1564      -1136.2224
        52.5004         40.2504
    893721.59446    647052.30143  24903072.2504   24903076.8364      -3893.8204
        38.5004         18.2504
 10  5 26 22 10 30.0000000  0 11G03G06G07G08G10G13G16G19G20G23G32
   -262579.25847   -200134.17644  22306117.2814   22306116.2774        952.7044
        45.7504         29.7504
    -42563.23447    -32280.23443  23108984.7194   23108984.0434        108.3854
        42.5004         22.0004
   -232610.50048   -177055.98446  21416344.2814   21416342.0824        873.0074
        49.0004         38.2504
   -490565.14847   -365667.51644  23948367.6484   23948367.0434       1873.7414
        42.5004         25.5004
   -527389.43446   -394557.82043  23798752.4384   23798751.3204       1986.4824
        40.0004         22.5004
   -102668.37548    -77971.31646  20157188.6024   20157185.5474        352.3634
        51.2504         41.0004
    966149.05146    737567.16443  23646155.0314   23646152.4104      -3726.7524
        41.0004         21.5004
   -566863.32046   -423452.85944  23633478.5784   23633477.2304       2163.6804
        41.2504         27.5004
   1015040.57047    771776.98444  23410566.8284   23410566.9064      -3900.2074
        43.5004         26.0004
    287102.77748    218108.74646  20257215.9844   20257211.1724      -1150.5124
        51.0004         40.0004
   1010506.54746    738053.26642  24925296.6254   24925300.6604      -3892.8324
        39.5004         16.7504
 10  5 26 22 11  0.0000000  0 11G03G06G07G08G10G13G16G19G20G23G32
   -290678.01247   -222029.28544  22300770.8754   22300769.2194        936.6254
        42.0004         29.0004
    -45346.60547    -34449.09444  23108455.3594   23108453.6914         92.7794
        44.0004         26.5004
   -258614.33247   -197318.71146  21411396.1334   21411393.2464        866.7944
        47.5004         37.7504
   -546678.12146   -409391.87544  23937689.6254   23937689.5744       1870.4324
        41.0004         26.0004
   -586568.06646   -440671.04743  23787491.0234   23787489.8554       1972.6214
        40.0004         22.7504
   -112876.77348    -85925.92646  20155245.9384   20155242.9414        340.2804
        51.2504         41.0004
   1078138.51246    824831.59443  23667465.5394   23667462.8594      -3732.9824
        41.2504         22.2504
   -631616.29746   -473909.65644  23621156.7504   23621154.9804       2158.4334
        41.5004         25.5004
   1132123.36347    863010.18844  23432847.4144   23432847.1804      -3902.7604
        44.2504         25.7504
    322046.59448    245337.66046  20263865.2894   20263860.8164      -1164.7944
        51.0004         40.2504
   1127258.47356    829028.44553  24947513.7194   24947518.2734      -3891.8444
        40.7504         19.0004
 10  5 26 22 11 30.0000000  0 11G03G06G07G08G10G13G16G19G20G23G32
   -318288.49247   -243543.93044  22295516.4534   22295515.4734        920.3494
        44.2504         29.2504
    -47656.60547    -36249.07444  23108014.7664   23108014.0204         77.0004
        44.5004         26.7504
   -284428.90648   -217433.94546  21406483.3444   21406481.2034        860.4864
        48.7504         38.0004
   -602688.12946   -453035.99644  23927030.1334   23927030.1844       1867.0004
        41.2504         25.2504
   -645325.18746   -486455.78143  23776309.9534   23776308.7424       1958.5714
        40.0004         22.5004
   -122716.79748    -93593.48846  20153373.4384   20153370.5044        328.0014
        51.2504         40.7504
   1190315.77047    912242.41043  23688812.3674   23688809.6294      -3739.2424
        42.2504         23.5004
   -696204.57047   -524238.10544  23608865.8134   23608864.3754       2152.9424
        43.2504         27.0004
   1249283.62547    954303.73844  23455142.0554   23455141.8594      -3905.3424
        43.5004         25.7504
    357423.01648    272903.68046  20270597.2734   20270592.7194      -1179.2144
        51.5004         40.0004
   1243978.56646    919978.92642  24969724.4924   24969729.0944      -3890.6704
        39.0004         16.2504
 10  5 26 22 12  0.0000000  0 11G03G06G07G08G10G13G16G19G20G23G32
   -345409.68047   -264677.32444  22290355.2584   22290354.4104        904.0404
        44.7504         28.2504
    -49493.34447    -37680.30544  23107665.4454   23107664.2974         61.2254
        44.5004         26.5004
   -310055.44948   -237402.66846  21401607.0314   21401604.6294        854.2184
        49.5004         37.7504
   -658596.70747   -496601.07044  23916392.2894   23916391.6954       1863.6194
        42.0004         25.2504
   -703659.96946   -531911.45743  23765209.3134   23765207.4574       1944.4934
        40.7504         23.7504
   -132188.00448   -100973.66446  20151570.9224   20151568.0634        315.7074
        51.2504         41.5004
   1302676.92647    999796.51243  23710194.0164   23710191.2664      -3745.3724
        42.0004         23.5004
   -760626.00447   -574436.55944  23596606.5394   23596604.8094       2147.3814
        43.0004         28.0004
   1366517.27047   1045654.50444  23477451.2114   23477450.8674      -3907.7884
        43.2504         25.0004
    393231.28548    300806.19946  20277411.5004   20277406.8164      -1193.6094
        50.5004         40.5004
   1360663.39846   1010901.79742  24991929.6884   24991934.1954      -3889.4944
        38.2504         17.2504
 10  5 26 22 12 30.0000000  0 11G03G06G07G08G10G13G16G19G20G23G32
   -372037.87947   -285426.53144  22285288.1174   22285286.8134        887.6074
        44.5004         29.5004
    -50854.05947    -38740.59444  23107406.7504   23107405.9264         45.3574
        44.2504         26.5004
   -335493.13348   -257224.22746  21396766.3364   21396763.8484        847.9234
        48.5004         38.2504
   -714402.83646   -540086.32044  23905772.2664   23905772.3714       1860.2044
        40.7504         24.5004
   -761568.40646   -577034.88743  23754189.1954   23754188.6094       1930.2814
        39.5004         23.0004
   -141288.11748   -108064.67246  20149838.9534   20149836.5164        303.3374
        51.2504         41.2504
   1415220.62547   1087492.85543  23731610.5634   23731607.6134      -3751.4574
        42.5004         22.5004
   -824876.64147   -624501.91044  23584380.7114   23584378.4104       2141.6884
        44.0004         28.2504
   1483823.15647   1137061.54344  23499773.6804   23499773.6254      -3910.1964
        43.5004         24.5004
    429473.53548    329046.88346  20284308.1334   20284303.5314      -1208.0754
        51.2504         40.5004
   1477311.94546   1101796.42242  25014126.8674   25014131.6954      -3888.2854
        38.2504         16.2504
 10  5 26 22 13  0.0000000  0 11G03G06G07G08G10G13G16G19G20G23G32
   -398178.06647   -305795.50844  22280313.5234   22280312.5474        871.3404
        43.7504         29.5004
    -51744.72747    -39434.62544  23107236.8134   23107236.1844         29.6894
        44.5004         27.0004
   -360749.50448   -276904.51246  21391960.2274   21391957.6604        841.8794
        48.0004         37.7504
   -770114.11746   -583497.65644  23895170.7344   23895170.4104       1857.0434
        41.0004         24.5004
   -819055.75046   -621830.21543  23743250.1414   23743248.8874       1916.2454
        41.0004         23.7504
   -150022.47748   -114870.67646  20148177.1334   20148174.6174        291.1454
        51.5004         41.0004
   1527937.01247   1175323.74643  23753060.0164   23753056.7234      -3757.2134
        42.5004         22.7504
   -888960.34047   -674437.19144  23572185.7034   23572183.6334       2136.1234
        43.7504         29.5004
   1601190.98447   1228516.84044  23522108.7424   23522107.8094      -3912.2614
        43.5004         25.2504
    466142.99248    357620.46146  20291286.2814   20291281.4614      -1222.3154
        50.7504         40.0004
   1593914.64846   1192655.38342  25036315.9384   25036321.1174      -3886.7574
        36.5004         17.7504
 10  5 26 22 13 30.0000000  0 11G03G06G07G08G10G13G16G19G20G23G32
   -423823.64147   -325779.05944  22275433.8524   22275432.5394        854.8524
        43.5004         29.7504
    -52159.68447    -39757.94944  23107158.6254   23107157.2274         13.8324
        44.0004         26.7504
   -385820.66047   -296440.46946  21387189.2424   21387186.6134        835.7054
        46.7504         38.0004
   -825726.18446   -626831.69943  23884588.2584   23884587.4774       1853.7364
        41.0004         22.7504
   -876115.71146   -666292.51243  23732391.8054   23732390.5744       1901.9994
        40.5004         23.0004
   -158385.12148   -121387.03546  20146585.9304   20146582.7234        278.7554
        51.0004         41.2504
   1640827.68847   1263290.47744  23774542.3364   23774539.8674      -3763.0234
        42.5004         24.0004
   -952869.59047   -724236.54744  23560023.8204   23560021.4694       2130.3084
        43.5004         28.5004
   1718622.31347   1320021.62144  23544455.1094   23544454.8794      -3914.3784
        43.5004         27.0004
    503244.55148    386530.74246  20298346.3594   20298341.6294      -1236.7194
        50.0004         40.5004
   1710473.39146   1283480.05142  25058496.0234   25058501.3524      -3885.2914
        36.7504         16.7504
 10  5 26 22 14  0.0000000  0 12G03G06G07G08G10G13G16G19G20G23G32G28
   -448979.22347   -345380.79344  22270646.6174   22270644.9384        838.5194
        44.0004         29.2504
    -52104.99247    -39715.33644  23107168.6254   23107167.7504         -1.8234
        43.7504         27.0004
   -410714.12148   -315837.96146  21382452.5164   21382449.6334        829.7824
        48.5004         38.7504
   -881246.99246   -670094.61344  23874022.7114   23874022.4064       1850.6944
        41.5004         24.2504
   -932753.40646   -710425.77043  23721614.4844   23721613.2424       1887.9234
        41.0004         22.5004
   -166381.43048   -127617.93746  20145064.3984   20145061.2624        266.5444
        51.0004         41.0004
   1753883.02346   1351385.47343  23796055.2814   23796053.5234      -3768.5114
        41.2504         22.5004
  -1016608.30147   -773902.99644  23547895.2504   23547892.8284       2124.6244
        44.0004         29.5004
   1836107.34847   1411568.27044  23566811.5864   23566811.8164      -3916.1684
        43.0004         25.0004
    540771.64148    415772.60546  20305487.7504   20305483.0634      -1250.9034
        50.5004         40.5004
   1826978.99246   1374263.20342  25080666.3054   25080672.3524      -3883.5204
        36.2504         17.2504
   -130359.19556    -79740.65252  25010343.7974   25010346.7894
        37.7504         16.7504
 10  5 26 22 14 30.0000000  0 12G03G06G07G08G10G13G16G19G20G23G32G28
   -473637.30547   -364594.85244  22265955.0004   22265952.9344        821.9364
        44.0004         28.7504
    -51573.87947    -39301.48844  23107269.2274   23107268.6054        -17.7044
        44.5004         27.0004
   -435425.05148   -335093.23046  21377750.1804   21377747.5904        823.6984
        48.5004         38.5004
   -936671.37946   -713282.38344  23863475.6954   23863475.7854       1847.4804
        41.0004         25.0004
   -988961.19946   -754224.03143  23710918.3444   23710917.0354       1873.5934
        40.5004         22.5004
   -174004.50048   -133558.00846  20143613.5704   20143610.5634        254.1024
        51.5004         40.5004
   1867105.64547   1439610.83243  23817601.3754   23817599.1454      -3774.0874
        42.0004         23.0004
  -1080168.14547   -823430.07844  23535799.7194   23535798.1724       2118.6614
        43.5004         29.2504
   1953648.77047   1503158.82444  23589179.5394   23589179.2774      -3918.0474
        43.5004         25.5004
    578730.48848    445350.90246  20312710.9224   20312706.2664      -1265.2954
        50.5004         39.7504
   1943434.47346   1465007.36342  25102827.1804   25102834.2154      -3881.8494
        36.0004         16.7504
   -221633.39846   -150863.25042  24992974.3754   24992978.0984       3042.4734
        37.5004         17.2504
 10  5 26 22 15  0.0000000  0 12G03G06G07G08G10G13G16G19G20G23G32G28
   -497801.59447   -383424.17644  22261355.7194   22261354.8634        805.4764
        43.0004         29.0004
    -50571.04347    -38520.03144  23107460.1414   23107459.9304        -33.4284
        43.5004         26.5004
   -459959.37548   -354210.87146  21373081.3754   21373078.4804        817.8114
        48.0004         38.2504
   -992004.73046   -756399.23844  23852946.1174   23852945.9144       1844.4454
        41.7504         25.0004
  -1044742.89146   -797690.28143  23700302.9384   23700302.0704       1859.3904
        40.7504         22.5004
   -181258.59048   -139210.54746  20142233.3834   20142230.5004        241.8034
        51.2504         41.0004
   1980487.06647   1527959.97343  23839176.7344   23839174.6684      -3779.3814
        42.5004         22.7504
  -1143551.52347   -872819.66044  23523738.4144   23523736.1764       2112.7794
        43.0004         28.5004
   2071237.91847   1594786.59044  23611556.5634   23611555.9414      -3919.6384
        42.5004         26.2504
    617115.77748    475261.48446  20320015.3674   20320010.8484      -1279.5104
        50.5004         39.7504
   2059831.67645   1555706.16842  25124976.5554   25124984.2814      -3879.9074
        35.0004         15.5004
   -312826.14146   -221922.40243  24975620.8524   24975624.7894       3039.7584
        38.0004         19.0004
 10  5 26 22 15 30.0000000  0 12G03G06G07G08G10G13G16G19G20G23G32G28
   -521464.91847   -401863.09844  22256853.0864   22256852.1524        788.7774
        44.0004         29.5004
    -49090.21147    -37366.15644  23107741.8364   23107741.3134        -49.3614
        44.0004         26.5004
   -484312.11348   -373187.02046  21368447.3054   21368444.3284        811.7584
        48.5004         38.0004
  -1047242.09847   -799441.28544  23842434.8284   23842434.9264       1841.2464
        42.0004         25.2504
  -1100091.31646   -840818.89844  23689770.9304   23689769.6684       1844.9484
        40.5004         24.5004
   -188136.84048   -144570.23046  20140924.2814   20140921.2814        229.2754
        51.2504         41.2504
   2094029.80546   1616434.76644  23860783.3834   23860781.3754      -3784.7584
        41.7504         24.2504
  -1206750.15647   -922065.27044  23511711.8914   23511710.0864       2106.6214
        44.0004         28.5004
   2188877.05147   1686453.29344  23633942.2664   23633942.2774      -3921.3044
        42.5004         25.5004
    655932.52748    505508.27346  20327402.1564   20327397.5164      -1293.8924
        50.5004         39.7504
   2176173.43046   1646361.72742  25147116.7344   25147123.1954      -3878.0584
        36.0004         16.2504
   -403930.14546   -292912.37142  24958284.7114   24958288.0864       3036.8004
        38.2504         16.2504
 10  5 26 22 16  0.0000000  0 12G03G06G07G08G10G13G16G19G20G23G32G28
   -544618.12147   -419904.55144  22252447.5084   22252446.1374        771.7734
        44.5004         29.7504
    -47123.80147    -35833.87944  23108116.8364   23108115.5204        -65.5474
        44.0004         26.5004
   -508477.38748   -392017.09846  21363848.6644   21363845.9654        805.5094
        48.7504         38.7504
  -1102377.87947   -842404.18744  23831942.2894   23831942.5904       1837.8594
        42.0004         25.2504
  -1154997.90646   -883603.24643  23679321.7974   23679321.2934       1830.2204
        40.0004         22.5004
   -194631.51248   -149631.02046  20139688.4064   20139685.6094        216.4894
        51.2504         41.5004
   2207737.64847   1705038.23443  23882421.1094   23882418.9454      -3790.2614
        42.2504         22.0004
  -1269754.35947   -971159.37544  23499722.5314   23499720.5704       2100.1404
        43.5004         29.2504
   2306570.03947   1778161.95744  23656338.6174   23656338.6094      -3923.1004
        43.0004         24.2504
    695188.32048    536097.17646  20334872.0634   20334867.3014      -1308.5264
        50.7504         40.0004
   2292463.77346   1736977.20743  25169247.0704   25169252.9804      -3876.3454
        36.5004         18.2504
   -494937.21146   -363826.82042  24940966.1884   24940969.7384       3033.5694
        37.5004         16.2504
 10  5 26 22 16 30.0000000  0 12G03G06G07G08G10G13G16G19G20G23G32G28
   -567256.72347   -437544.99645  22248139.7114   22248138.1254        754.6204
        45.2504         30.0004
    -44668.10947    -33920.34444  23108583.5164   23108583.0354        -81.8564
        43.7504         27.2504
   -532453.06648   -410699.44146  21359286.3444   21359283.7384        799.1894
        49.2504         38.0004
  -1157409.32447   -885285.78544  23821470.7584   23821469.9654       1834.3824
        42.5004         25.2504
  -1209458.07446   -926039.70744  23668958.9144   23668957.8284       1815.3394
        41.0004         24.2504
   -200738.08248   -154389.39546  20138526.4534   20138523.2584        203.5524
        52.0004         41.2504
   2321610.50847   1793770.27043  23904090.7344   23904088.4614      -3795.7624
        42.0004         21.5004
  -1332558.26247  -1020097.42644  23487770.7274   23487769.4774       2093.4634
        43.2504         29.0004
   2424316.14547   1869912.01644  23678744.9694   23678744.9454      -3924.8704
        42.2504         25.5004
    734885.89548    567030.33246  20342426.4694   20342422.2074      -1323.2524
        50.0004         40.0004
   2408703.16045   1827552.98842  25191367.3674   25191372.5664      -3874.6464
        35.7504         16.7504
   -585842.64846   -434662.09443  24923666.8754   24923671.1994       3030.1814
        36.7504         18.5004
 10  5 26 22 17  0.0000000  0 11G03G06G07G08G10G13G16G19G20G23G28
   -589386.32447   -454788.84045  22243927.9844   22243926.9224        737.6534
        44.0004         30.2504
    -41729.55947    -31630.52344  23109143.1484   23109140.9884        -97.9524
        44.5004         27.0004
   -556246.82048   -429240.02046  21354758.3984   21354755.6454        793.1254
        49.5004         38.2504
  -1212344.59847   -928092.41044  23811016.9614   23811016.2194       1831.1764
        43.0004         25.2504
  -1263477.35247   -968132.64544  23658679.6414   23658677.9574       1800.6434
        42.0004         24.5004
   -206462.73448   -158850.18046  20137437.2584   20137434.4264        190.8224
        51.5004         41.0004
   2435638.17247   1882622.93044  23925790.1564   23925787.2624      -3800.9224
        42.0004         26.0004
  -1395166.57047  -1068883.05544  23475857.1254   23475855.1094       2086.9444
        42.7504         29.0004
   2542106.07847   1961696.21944  23701159.6094   23701159.6484      -3926.3314
        42.7504         24.5004
    775018.17648    598302.21146  20350063.0554   20350058.5944      -1337.7434
        52.0004         39.7504
   -676652.05146   -505422.53942  24906386.0944   24906389.5784       3026.9804
        38.0004         16.7504
 10  5 26 22 17 30.0000000  0 11G03G06G07G08G10G13G16G19G20G23G28
   -611001.90647   -471632.13745  22239814.3984   22239813.5354        720.5194
        43.5004         30.2504
    -38304.02747    -28961.29344  23109794.8674   23109793.3674       -114.1844
        42.5004         27.5004
   -579856.16848   -447636.90646  21350265.6484   21350262.7304        786.9784
        48.7504         38.2504
  -1267180.87947   -970821.94543  23800581.1564   23800581.4884       1827.8764
        42.0004         23.7504
  -1317050.45746  -1009877.87943  23648485.0634   23648483.6804       1785.7704
        40.7504         23.0004
   -211800.77748   -163009.69546  20136421.5234   20136418.4924        177.9354
        51.5004         41.2504
   2549820.98847   1971596.51243  23947518.2034   23947515.5434      -3806.0944
        42.7504         23.0004
  -1457572.82047  -1117511.22744  23463981.8134   23463979.6884       2080.2084
        43.7504         29.0004
   2659939.47746   2053514.29744  23723582.6644   23723583.1994      -3927.7804
        41.7504         26.0004
    815588.87548    629915.71546  20357783.5004   20357779.0164      -1352.3574
        50.2504         39.2504
   -767360.93446   -576104.67243  24889125.0474   24889128.6604       3023.6294
        37.0004         19.0004
 10  5 26 22 18  0.0000000  0 11G03G06G07G08G10G13G16G19G20G23G28
   -632108.80947   -488079.03544  22235798.5704   22235796.9694        703.5634
        43.2504         29.7504
    -34397.66847    -25917.37544  23110538.0784   23110537.1414       -130.2124
        42.7504         26.5004
   -603288.85948   -465896.14146  21345806.4534   21345803.6374        781.0904
        49.0004         38.5004
  -1321925.78547  -1013480.25044  23790164.2734   23790163.6134       1824.8304
        42.0004         24.2504
  -1370182.76646  -1051279.66843  23638373.3754   23638372.9144       1771.0774
        40.5004         23.2504
   -216757.94148   -166872.42246  20135478.1174   20135475.3594        165.2394
        51.5004         41.2504
   2664149.58647   2060683.66843  23969274.9774   23969271.7424      -3810.9534
        43.0004         22.5004
  -1519781.38747  -1165985.37944  23452144.0784   23452141.9774       2073.6194
        43.5004         29.2504
   2777806.30546   2145358.39844  23746012.3754   23746012.6454      -3928.8944
        41.0004         25.5004
    856590.86348    661865.29346  20365586.2344   20365581.6134      -1366.7334
        51.0004         39.2504
   -857974.01646   -646712.14543  24871881.3204   24871885.5044       3020.4364
        38.5004         18.2504
 10  5 26 22 18 30.0000000  0 11G03G06G07G08G10G13G16G19G20G23G28
   -652699.00447   -504123.34445  22231880.5084   22231879.2504        686.3404
        44.0004         30.0004
    -30004.36747    -22493.99644  23111374.3594   23111373.1644       -146.4434
        43.7504         26.0004
   -626539.72748   -484013.69546  21341381.9694   21341379.6134        775.0294
        48.5004         38.5004
  -1376574.13746  -1056063.32844  23779764.7894   23779764.4224       1821.6124
        41.2504         25.2504
  -1422867.01246  -1092332.28943  23628348.8914   23628346.9064       1756.1424
        39.5004         23.2504
   -221327.63748   -170433.23046  20134608.3834   20134605.3204        152.3234
        51.5004         40.7504
   2778625.90246   2149885.93843  23991058.2504   23991055.9734      -3815.8774
        41.2504         21.7504
  -1581783.92647  -1214298.96944  23440344.8984   23440342.6134       2066.7514
        44.2504         28.5004
   2895708.96946   2237230.43044  23768449.0864   23768449.2424      -3930.0894
        41.5004         26.0004
    898029.67648    694155.25046  20373471.8204   20373467.2664      -1381.2944
        50.2504         39.5004
   -948484.42246   -717239.52742  24854658.5784   24854661.8324       3017.0144
        38.5004         15.5004
 10  5 26 22 19  0.0000000  0 11G03G06G07G08G10G13G16G19G20G23G28
   -672771.74247   -519764.42245  22228060.3754   22228058.9024        669.0914
        43.7504         30.5004
    -25123.55947    -18690.77044  23112303.3594   23112301.7074       -162.6944
        42.7504         27.0004
   -649609.83248   -501990.39846  21336992.0084   21336989.5314        769.0044
        48.0004         38.5004
  -1431127.12546  -1098572.08644  23769383.9064   23769382.6954       1818.4334
        41.7504         25.2504
  -1475101.98846  -1133034.85943  23618408.3834   23618407.4694       1741.1664
        40.5004         22.2504
   -225508.64148   -173691.17246  20133812.9064   20133810.0044        139.3674
        51.5004         41.0004
   2893246.93047   2239200.96943  24012869.0554   24012867.7074      -3820.7014
        42.0004         23.7504
  -1643577.48047  -1262449.72344  23428586.1254   23428583.8914       2059.7854
        43.0004         29.0004
   3013644.10246   2329127.77044  23790892.0084   23790891.0314      -3931.1714
        41.5004         25.5004
    939905.50448    726785.73446  20381440.2894   20381435.7584      -1395.8614
        50.5004         39.7504
  -1038890.68046   -787685.80942  24837453.9924   24837458.0394       3013.5424
        38.2504         17.7504
 10  5 26 22 19 30.0000000  0 11G03G06G07G08G10G13G16G19G20G23G28
   -692322.89847   -534999.09044  22224339.7734   22224338.3984        651.7054
        43.2504         29.7504
    -19752.30946    -14505.37544  23113324.7034   23113323.3524       -179.0424
        41.5004         27.7504
   -672497.69948   -519825.09446  21332636.4384   21332633.9064        762.9294
        49.5004         38.5004
  -1485582.73847  -1141004.99644  23759020.8134   23759020.5274       1815.1874
        42.5004         25.2504
  -1526883.78146  -1173384.26244  23608554.9304   23608553.9064       1726.0604
        39.7504         25.7504
   -229297.57448   -176643.58646  20133092.0234   20133088.6414        126.2984
        51.0004         41.2504
   3008012.06346   2328628.29343  24034708.6884   24034706.5204      -3825.5044
        41.0004         22.5004
  -1705157.31247  -1310433.95344  23416867.6024   23416865.1884       2052.6614
        43.0004         29.0004
   3131611.16446   2421049.99644  23813339.5314   23813339.9184      -3932.2354
        41.0004         24.0004
    982220.16048    759758.17246  20389492.3594   20389488.0164      -1410.4894
        51.2504         40.5004
  -1129189.25046   -858048.17642  24820270.8674   24820274.5274       3009.9524
        37.5004         17.2504
 10  5 26 22 20  0.0000000  0 11G03G06G07G08G10G13G16G19G20G23G28
   -711358.37547   -549831.89845  22220717.1334   22220715.9694        634.5164
        44.0004         30.2504
    -13897.63747     -9943.27744  23114439.6644   23114438.4104       -195.1564
        42.5004         27.5004
   -695211.37548   -537524.06246  21328314.1804   21328311.7154        757.1234
        49.2504         38.5004
  -1539948.77047  -1183368.09444  23748675.4144   23748674.8164       1812.2014
        42.0004         26.0004
  -1578218.19546  -1213385.10944  23598785.8054   23598785.4654       1711.1474
        40.2504         25.2504
   -232700.79748   -179295.46146  20132444.0704   20132441.0554        113.4414
        51.2504         41.0004
   3122910.85246   2418159.78943  24056573.4534   24056571.1214      -3829.9604
        41.5004         22.7504
  -1766527.93047  -1358255.15644  23405189.0944   23405187.0634       2045.6874
        43.2504         28.5004
   3249599.64847   2512988.90643  23835791.7274   23835791.9454      -3932.9494
        42.2504         22.5004
   1024966.77748    793067.19546  20397627.1024   20397622.5514      -1424.8874
        51.0004         40.0004
  -1219385.80946   -928331.05543  24803106.9064   24803110.3554       3006.5524
        38.5004         18.2504
 10  5 26 22 20 30.0000000  0 11G03G06G07G08G10G13G16G19G20G23G28
   -729867.52047   -564254.59444  22217195.2734   22217193.9694        616.9714
        45.0004         29.5004
     -7550.10247     -4997.14544  23115646.8364   23115645.4414       -211.5854
        43.0004         26.5004
   -717742.35548   -555080.66046  21324026.7734   21324024.2584        751.0334
        49.5004         38.5004
  -1594217.52047  -1225655.37544  23738348.8754   23738348.1484       1808.9584
        43.0004         25.5004
  -1629094.98046  -1253029.32844  23589104.7974   23589103.1024       1695.8934
        40.0004         24.7504
   -235708.27748   -181638.95346  20131872.0084   20131868.9304        100.2494
        51.2504         40.7504
   3237949.24246   2507800.03943  24078465.1094   24078462.5824      -3834.6134
        41.0004         22.5004
  -1827677.85247  -1405904.37544  23393552.4454   23393550.4734       2038.3314
        42.7504         29.5004
   3367614.91047   2604948.66044  23858249.0554   23858249.7274      -3933.8424
        42.5004         24.5004
   1068153.84848    826719.43046  20405845.3674   20405840.8164      -1439.5694
        50.5004         39.5004
  -1309470.03946   -998526.35942  24785964.6254   24785967.0314       3002.8084
        39.5004         16.7504
 10  5 26 22 21  0.0000000  0 11G03G06G07G08G10G13G16G19G20G23G28
   -747858.09847   -578273.24245  22213771.6174   22213770.3444        599.6864
        43.2504         30.2504
      -718.17647       326.44544  23116947.2814   23116945.3954       -227.7314
        43.2504         27.5004
   -740100.94548   -572502.92646  21319771.8754   21319769.5044        745.2864
        49.5004         38.7504
  -1648398.88747  -1267874.55544  23728037.7424   23728037.7974       1806.0464
        42.7504         25.5004
  -1679521.73446  -1292322.87944  23579508.3754   23579507.5474       1680.8924
        40.5004         24.5004
   -238328.07848   -183680.36746  20131373.4304   20131370.0554         87.3274
        51.2504         41.2504
   3353115.03146   2597539.53143  24100380.2664   24100377.7304      -3838.8604
        40.2504         22.5004
  -1888613.25847  -1453386.45344  23381956.5234   23381954.6054       2031.1804
        44.0004         28.0004
   3485645.25046   2696920.17643  23880709.9534   23880710.9844      -3934.3454
        41.0004         23.5004
   1111772.50048    860707.96946  20414145.5704   20414141.2034      -1453.9554
        51.0004         40.0004
  -1399449.55146  -1068640.05543  24768841.6644   24768844.7074       2999.3174
        37.7504         18.5004
 10  5 26 22 21 30.0000000  0 11G03G06G07G08G10G13G16G19G20G23G28
   -765320.10547   -591879.96144  22210448.9924   22210447.4804        582.0674
        43.7504         29.7504
      6607.40247      6034.68444  23118340.8594   23118339.4454       -244.1864
        42.5004         26.0004
   -762279.26648   -589784.73046  21315551.5554   21315549.1414        739.2774
        49.5004         38.5004
  -1702484.51247  -1310019.15244  23717745.7894   23717745.1094       1802.8544
        42.5004         26.0004
  -1729488.44146  -1331257.95744  23569999.5234   23569999.4804       1665.5574
        40.0004         24.0004
   -240550.45348   -185412.10246  20130950.6644   20130947.5904         74.0794
        51.0004         41.0004
   3468413.93846   2687382.79743  24122320.1094   24122318.0274      -3843.2974
        41.0004         22.0004
  -1949322.73447  -1500692.47344  23370405.0784   23370402.2034       2023.6494
        43.2504         28.7504
   3603695.80147   2788907.43843  23903174.9384   23903175.3794      -3935.0184
        42.0004         22.0004
   1155831.16448    895039.36746  20422529.5234   20422524.9924      -1468.6224
        50.5004         38.7504
  -1489314.19546  -1138664.32042  24751740.7974   24751743.6994       2995.4884
        37.7504         17.7504
 10  5 26 22 22  0.0000000  0 11G03G06G07G08G10G13G16G19G20G23G28
   -782256.12947   -605076.86345  22207226.0164   22207224.8404        564.5344
        44.5004         30.5004
     14422.41047     12124.30944  23119827.7114   23119827.0824       -260.5004
        43.7504         25.7504
   -784282.58648   -606930.16446  21311364.7274   21311362.0124        733.4444
        48.2504         38.7504
  -1756479.73047  -1352093.28944  23707470.5474   23707470.1214       1799.8414
        43.0004         26.0004
  -1778997.97746  -1369836.78943  23560578.8054   23560577.9224       1650.3184
        40.5004         23.7504
   -242378.87148   -186836.84846  20130602.6884   20130599.8714         60.9474
        50.2504         41.2504
   3583838.50846   2777323.94943  24144285.1954   24144282.8674      -3847.4864
        40.7504         22.5004
  -2009808.12547  -1547823.88744  23358894.7194   23358892.1724       2016.1804
        43.7504         28.7504
   3721759.03147   2880904.58243  23925641.3364   23925642.1054      -3935.4414
        42.5004         22.5004
   1200325.10948    929709.94546  20430996.6644   20430992.4344      -1483.1324
        50.0004         39.5004
  -1579067.21946  -1208601.53543  24734661.1724   24734664.3164       2991.7674
        38.2504         18.2504
 10  5 26 22 22 30.0000000  0 11G03G06G07G08G10G13G16G19G20G23G28
   -798659.34847   -617858.58245  22204104.8444   22204103.2154        546.7744
        44.5004         30.0004
     22732.61747     18599.82444  23121409.8134   23121408.0744       -277.0074
        42.2504         26.7504
   -806106.14148   -623935.52046  21307211.7344   21307209.1054        727.4524
        49.0004         39.2504
  -1810379.77047  -1394093.27344  23697213.7504   23697213.3794       1796.6684
        42.0004         25.5004
  -1828043.34446  -1408053.94544  23551245.9924   23551244.8794       1634.8464
        40.7504         26.0004
   -243806.67648   -187949.43046  20130331.0474   20130327.8404         47.5934
        51.2504         41.2504
   3699390.96146   2867364.79343  24166274.0944   24166271.7034      -3851.7484
        41.0004         21.5004
  -2070061.22347  -1594774.29344  23347428.5164   23347426.5084       2008.4374
        42.7504         27.5004
   3839836.88346   2972913.10943  23948111.1954   23948111.8554      -3935.9284
        41.7504         22.7504
   1245259.62548    964723.81646  20439547.4224   20439543.1134      -1497.8174
        50.7504         39.5004
  -1668701.41446  -1278446.19143  24717604.6334   24717607.0944       2987.8074
        39.5004         18.5004
 10  5 26 22 23  0.0000000  0 11G03G06G07G08G10G13G16G19G20G23G28
   -814533.61347   -630228.10545  22201084.0634   22201082.2194        529.1424
        44.0004         30.0004
     31533.78947     25457.87944  23123084.5704   23123082.9574       -293.3724
        42.5004         25.5004
   -827755.70348   -640805.30146  21303092.2344   21303089.3914        721.6524
        49.5004         39.2504
  -1864190.91047  -1436023.98044  23686974.2114   23686973.4924       1793.7054
        42.5004         26.0004
  -1876627.97746  -1445912.09044  23542000.1724   23541998.9614       1619.4884
        41.5004         25.0004
   -244837.89548   -188752.99646  20130134.5944   20130131.7194         34.3744
        51.7504         41.0004
   3815063.60546   2957499.26243  24188286.1804   24188284.1644      -3855.7554
        39.2504         21.2504
  -2130084.39547  -1641545.54744  23336005.7424   23336003.9614       2000.7724
        44.5004         28.7504
   3957921.62546   3064926.99243  23970582.9694   23970582.5354      -3936.1584
        41.7504         22.7504
   1290629.63348   1000077.03946  20448180.9844   20448176.1884      -1512.3344
        50.5004         40.5004
  -1758220.29746  -1348200.98443  24700569.0704   24700572.2664       2983.9634
        37.7504         18.5004
 10  5 26 22 23 30.0000000  0 11G03G06G07G08G10G13G16G19G20G23G28
   -829872.25447   -642180.29345  22198164.7344   22198163.5164        511.2884
        45.0004         31.0004
     40831.27746     32702.68044  23124853.2734   23124852.6334       -309.9164
        41.2504         27.2504
   -849226.58248   -657535.84846  21299006.2974   21299003.3244        715.6964
        48.7504         39.0004
  -1917907.74646  -1477881.22344  23676751.8284   23676751.4344       1790.5614
        41.5004         26.7504
  -1924745.55146  -1483406.28944  23532844.0784   23532843.1644       1603.9194
        40.5004         24.5004
   -245466.00848   -189242.44146  20130014.9924   20130011.9304         20.9374
        51.0004         41.5004
   3930858.52346   3047729.02743  24210320.6564   24210318.9844      -3859.8314
        40.2504         21.2504
  -2189869.73447  -1688131.45344  23324629.9454   23324627.2034       1992.8454
        44.2504         28.5004
   4076015.18846   3156947.77743  23993055.5234   23993055.2344      -3936.4524
        41.0004         22.5004
   1336440.18048   1035773.53946  20456898.3674   20456894.1684      -1527.0184
        51.2504         39.7504
  -1847616.93046  -1417860.52042  24683558.0784   24683560.3874       2979.8884
        38.7504         17.7504
 10  5 26 22 24  0.0000000  0 11G03G06G07G08G10G13G16G19G20G23G28
   -844672.20347   -653712.70745  22195348.3914   22195347.2114        493.3324
        45.7504         30.2504
     50627.06646     40335.77744  23126717.6804   23126716.5554       -326.5264
        41.2504         28.2504
   -870518.16448   -674126.67646  21294954.3524   21294951.5744        709.7194
        49.2504         38.7504
  -1971529.79746  -1519664.60244  23666548.4534   23666547.4264       1787.4024
        41.7504         26.2504
  -1972393.02346  -1520534.17244  23523776.9384   23523775.7074       1588.2494
        40.7504         25.7504
   -245688.95748   -189416.17646  20129972.6254   20129969.5234          7.4324
        51.0004         41.0004
   4046774.53946   3138053.17243  24232379.3054   24232376.6884      -3863.8674
        40.7504         21.2504
  -2249412.64847  -1734528.47344  23313299.3054   23313296.1764       1984.7644
        45.0004         28.0004
   4194116.18046   3248974.34843  24015528.6644   24015529.2384      -3936.7004
        40.2504         22.5004
   1382692.49248   1071814.27046  20465699.8364   20465695.5864      -1541.7444
        51.0004         39.7504
  -1936888.93046  -1487422.87143  24666569.3444   24666572.2934       2975.7334
        39.2504         18.5004
 10  5 26 22 24 30.0000000  0 11G03G06G07G08G10G13G16G19G20G23G28
   -858928.30947   -664821.34845  22192636.0234   22192634.5594        475.2044
        45.5004         31.7504
     60925.85247     48360.80544  23128677.8054   23128676.7734       -343.2934
        43.7504         27.0004
   -891626.85948   -690574.99646  21290937.3914   21290934.7114        703.6234
        48.7504         39.2504
  -2025053.07447  -1561371.01644  23656362.8054   23656362.4184       1784.1094
        43.0004         26.5004
  -2019564.47746  -1557291.14143  23514800.7974   23514799.3914       1572.3824
        41.0004         23.5004
   -245500.88348   -189269.63346  20130008.5004   20130005.7194         -6.2694
        51.5004         40.7504
   4162812.76246   3228472.49643  24254460.1644   24254458.4574      -3867.9414
        41.0004         21.5004
  -2308706.59447  -1780731.49244  23302015.8984   23302013.3554       1976.4654
        44.2504         28.5004
   4312225.68846   3341007.52343  24038004.7424   24038004.3794      -3936.9844
        40.5004         22.7504
   1429391.13748   1108202.79746  20474586.6564   20474582.3634      -1556.6214
        51.7504         39.7504
  -2026030.15246  -1556883.39843  24649606.4144   24649609.2424       2971.3744
        39.5004         19.2504
 10  5 26 22 25  0.0000000  0 11G03G06G07G08G10G13G16G19G20G23G28
   -872643.57847   -675508.54745  22190026.0234   22190024.7114        457.1764
        45.5004         30.7504
     71722.81646     56774.05144  23130732.1884   23130730.9924       -359.8994
        41.5004         26.2504
   -912558.67648   -706885.49646  21286954.5004   21286951.6524        697.7274
        48.7504         38.7504
  -2078483.94147  -1603005.42244  23646195.1254   23646194.6724       1781.0294
        42.5004         25.2504
  -2066264.07446  -1593680.42244  23505914.3444   23505912.6214       1556.6534
        41.7504         25.2504
   -244906.29348   -188806.32046  20130121.1174   20130118.4924        -19.8204
        51.5004         41.7504
   4278965.17246   3318980.80943  24276563.0004   24276561.5124      -3871.7474
        38.7504         20.7504
  -2367753.85547  -1826742.28944  23290779.3524   23290776.7974       1968.2424
        44.5004         27.0004
   4430335.47746   3433040.96143  24060479.8914   24060480.4694      -3936.9934
        38.5004         22.5004
   1476530.37148   1144934.63746  20483556.7734   20483552.6214      -1571.3084
        51.0004         39.2504
  -2115044.42646  -1626244.95343  24632667.7814   24632670.0704       2967.1424
        40.0004         18.5004
 10  5 26 22 25 30.0000000  0 11G03G06G07G08G10G13G16G19G20G23G28
   -885811.77047   -685769.45345  22187520.0704   22187518.9534        438.9404
        45.5004         31.0004
     83023.28946     65579.59844  23132882.5944   23132880.9224       -376.6824
        41.2504         27.0004
   -933309.21948   -723054.74246  21283005.6414   21283003.0554        691.6854
        49.7504         38.2504
  -2131817.89847  -1644564.32444  23636046.4064   23636045.4384       1777.7994
        42.7504         27.5004
  -2112485.31646  -1629696.97744  23497117.8444   23497117.0704       1540.7084
        41.2504         26.0004
   -243898.95748   -188021.39146  20130313.2584   20130310.3834        -33.5784
        51.5004         41.5004
   4395233.96146   3409579.81343  24298689.1414   24298686.8634      -3875.6264
        39.0004         20.2504
  -2426546.52047  -1872554.69944  23279591.5864   23279589.3164       1959.7554
        44.2504         28.0004
   4548447.47346   3525076.07843  24082955.6724   24082956.8014      -3937.0674
        41.2504         22.5004
   1524115.07848   1182013.59846  20492611.7894   20492607.5004      -1586.1574
        51.7504         39.7504
  -2203925.06646  -1695502.39143  24615754.0784   24615755.8714       2962.6884
        40.7504         19.5004
 10  5 26 22 26  0.0000000  0 11G03G06G07G08G10G13G16G19G20G23G28
   -898437.16847   -695607.43045  22185117.0944   22185116.1994        420.8474
        45.0004         31.7504
     94821.99647     74773.41044  23135127.7584   23135126.6724       -393.2904
        42.7504         27.5004
   -953884.86748   -739087.70746  21279090.4614   21279087.4344        685.8554
        48.5004         39.0004
  -2185061.26647  -1686052.62144  23625913.8524   23625913.7734       1774.7794
        43.2504         26.5004
  -2158232.43446  -1665344.07044  23488413.6414   23488411.9494       1524.9044
        41.7504         26.0004
   -242483.48048   -186918.41846  20130582.3524   20130579.5904        -47.1834
        51.2504         41.0004
   4511610.31646   3500262.63743  24320834.5474   24320832.4694      -3879.2124
        41.2504         21.7504
  -2485087.68047  -1918171.12144  23268451.1254   23268449.1644       1951.3724
        44.0004         28.5004
   4666552.73446   3617105.93843  24105430.9614   24105431.1604      -3936.8424
        41.7504         22.2504
   1572139.54748   1219435.23446  20501750.8364   20501746.4414      -1600.8164
        51.5004         39.2504
  -2292676.62546  -1764659.21143  24598864.9144   24598867.0944       2958.3854
        40.5004         20.0004
 10  5 26 22 26 30.0000000  0 11G03G06G07G08G10G13G16G19G20G23G28
   -910513.82047   -705017.78945  22182819.4384   22182817.8984        402.5554
        46.5004         30.5004
    107124.21147     84359.56344  23137468.4924   23137467.4694       -410.0744
        43.0004         26.7504
   -974281.25448   -754980.99646  21275209.1254   21275206.2854        679.8804
        48.7504         39.0004
  -2238209.71947  -1727466.96144  23615800.0314   23615799.5784       1771.6154
        42.5004         26.7504
  -2203498.93747  -1700616.65644  23479799.0634   23479797.6764       1508.8834
        42.2504         25.0004
   -240653.89148   -185492.77346  20130930.8364   20130927.9574        -60.9864
        51.0004         41.5004
   4628096.62146   3591031.12543  24343000.7664   24342998.9384      -3882.8774
        39.7504         19.2504
  -2543369.49247  -1963585.46144  23257360.2344   23257357.8094       1942.7274
        45.0004         28.2504
   4784653.53546   3709132.36743  24127904.8834   24127905.3874      -3936.6934
        40.5004         22.0004
   1620608.67248   1257203.35246  20510973.9384   20510969.5394      -1615.6374
        52.0004         39.5004
  -2381292.58646  -1833710.40643  24582001.2814   24582003.9224       2953.8654
        40.2504         20.0004
 10  5 26 22 27  0.0000000  0 11G03G06G07G08G10G13G16G19G20G23G28
   -922045.00847   -714003.13345  22180624.5784   22180623.7504        384.3734
        46.2504         31.5004
    119925.73846     94334.79744  23139904.7114   23139903.3874       -426.7184
        41.7504         25.5004
   -994503.40248   -770738.50846  21271360.7894   21271357.9264        674.0724
        49.7504         39.0004
  -2291268.37147  -1768811.32844  23605703.5634   23605703.1414       1768.6224
        42.0004         27.5004
  -2248288.24247  -1735517.41044  23471275.8914   23471274.3714       1492.9774
        42.2504         25.2504
   -238413.68048   -183747.17246  20131357.0944   20131354.2504        -74.6744
        51.5004         41.5004
   4744685.34846   3681879.43843  24365187.9924   24365184.5984      -3886.2914
        41.0004         20.7504
  -2601393.61347  -2008798.98444  23246319.1954   23246316.6684       1934.1374
        45.0004         28.0004
   4902742.52346   3801149.54343  24150377.1334   24150377.6254      -3936.3004
        41.2504         21.7504
   1669517.50448   1295314.09846  20520281.1804   20520276.6604      -1630.2944
        52.0004         39.0004
  -2469775.38746  -1902657.82043  24565163.6644   24565165.4844       2949.4274
        39.7504         19.7504
 10  5 26 22 27 30.0000000  0 11G03G06G07G08G10G13G16G19G20G23G28
   -933022.20347   -722556.75845  22178536.5394   22178534.7154        365.9074
        46.7504         31.2504
    133233.74646    104704.68844  23142437.0944   23142435.8594       -443.6004
        41.2504         27.0004
  -1014545.44548   -786355.68046  21267546.9774   21267543.9454        668.0684
        49.7504         39.0004
  -2344231.30947  -1810081.11744  23595624.3914   23595624.2624       1765.4314
        43.2504         26.7504
  -2292592.09847  -1770039.88344  23462844.8284   23462843.7504       1476.7954
        42.5004         26.2504
   -235754.87948   -181675.39146  20131863.1644   20131859.9574        -88.6274
        51.0004         41.7504
   4861380.52346   3772810.69943  24387393.0944   24387391.5204      -3889.8394
        40.5004         21.0004
  -2659150.69147  -2053804.45744  23235327.4304   23235325.7734       1925.2364
        43.5004         28.0004
   5020823.03946   3893160.14543  24172846.4454   24172847.4774      -3936.0174
        41.0004         21.7504
   1718872.68048   1333772.64546  20529673.3524   20529668.7774      -1645.1734
        51.5004         39.5004
  -2558117.12546  -1971495.30543  24548352.9844   24548354.7894       2944.7254
        40.2504         19.0004
 10  5 26 22 28  0.0000000  0 11G03G06G07G08G10G13G16G19G20G23G28
   -943451.57047   -730683.53145  22176550.5554   22176549.8834        347.6464
        45.0004         31.5004
    147041.33646    115463.85244  23145064.2194   23145063.4104       -460.2534
        41.0004         27.2504
  -1034414.95748   -801838.41046  21263765.9614   21263762.7344        662.3174
        49.5004         38.7504
  -2397105.76647  -1851281.96144  23585563.5394   23585562.6764       1762.4824
        42.7504         26.5004
  -2336416.37947  -1804188.66844  23454505.6564   23454504.0204       1460.8094
        42.2504         26.0004
   -232683.46548   -179282.09446  20132447.6094   20132444.4774       -102.3804
        50.7504         41.5004
   4978171.94946   3863816.94943  24409618.0554   24409617.3014      -3893.0484
        40.7504         20.7504
  -2716645.04347  -2098605.17644  23224387.5084   23224385.0164       1916.4784
        43.7504         27.7504
   5138885.04347   3985156.28143  24195314.1414   24195314.3634      -3935.4004
        42.2504         22.5004
   1768666.90648   1372573.30146  20539148.6644   20539144.1844      -1659.8084
        51.5004         39.5004
  -2646323.54746  -2040227.37943  24531567.3834   24531569.6294       2940.2144
        39.7504         21.0004
 10  5 26 22 28 30.0000000  0 11G03G06G07G08G10G13G16G19G20G23G28
   -953327.48447   -738379.02045  22174672.3754   22174670.6804        329.1974
        46.0004         30.5004
    161353.11347    126615.90244  23147787.6024   23147786.6764       -477.0594
        43.5004         27.2504
  -1054108.38348   -817183.92646  21260018.2974   21260015.7934        656.4484
        49.5004         39.0004
  -2449888.52046  -1892411.37544  23575519.1804   23575518.2504       1759.4254
        41.7504         26.5004
  -2379755.53147  -1837959.42644  23446258.2734   23446257.0784       1444.6384
        43.0004         25.5004
   -229194.42248   -176563.37546  20133111.6024   20133108.5434       -116.3014
        50.7504         41.2504
   5095061.49646   3954899.65643  24431861.4384   24431859.8554      -3896.3184
        40.2504         20.0004
  -2773869.66447  -2143195.73444  23213497.7274   23213494.8954       1907.4874
        45.0004         28.5004
   5256929.75846   4077139.00843  24217776.6254   24217777.5704      -3934.8244
        41.5004         21.5004
   1818904.13748   1411719.16446  20548708.4064   20548704.3914      -1674.5744
        52.2504         40.2504
  -2734389.00446  -2108849.60943  24514808.8984   24514809.9024       2935.5154
        39.0004         20.0004
 10  5 26 22 29  0.0000000  0 11G03G06G07G08G10G13G16G19G20G23G28
   -962650.56247   -745643.75845  22172898.3054   22172896.8364        310.7694
        46.7504         31.0004
    176167.05547    138159.25044  23150607.0944   23150605.9064       -493.7984
        43.7504         26.5004
  -1073628.52748   -832394.43046  21256303.8364   21256301.0234        650.6714
        49.5004         39.2504
  -2502582.09847  -1933471.28544  23565491.9064   23565491.0634       1756.4534
        43.0004         27.7504
  -2422609.91046  -1871352.44144  23438103.4454   23438101.9534       1428.4794
        41.7504         27.0004
   -225288.47748   -173519.78546  20133854.8594   20133851.7504       -130.1984
        51.0004         41.5004
   5212044.33646   4046055.05943  24454123.5474   24454121.0594      -3899.4284
        41.0004         21.5004
  -2830823.69147  -2187575.44944  23202659.8674   23202657.1374       1898.4684
        44.2504         27.5004
   5374952.68046   4169104.67243  24240235.1564   24240237.0234      -3934.0974
        40.2504         21.2504
   1869582.29748   1451208.60946  20558352.6254   20558347.9384      -1689.2724
        52.5004         40.0004
  -2822313.71146  -2177362.14143  24498077.3594   24498079.1764       2930.8244
        39.2504         20.7504
 10  5 26 22 29 30.0000000  0 11G03G06G07G08G10G13G16G19G20G23G28
   -971415.52048   -752473.58245  22171230.1564   22171228.6764        292.1654
        48.0004         32.0004
    191488.02747    150097.67644  23153523.0474   23153521.3954       -510.6994
        43.7504         27.0004
  -1092971.54748   -847466.90246  21252623.2424   21252620.3834        644.7674
        50.0004         39.5004
  -2555182.78147  -1974458.81644  23555482.2894   23555481.2234       1753.3564
        42.0004         26.0004
  -2464973.87547  -1904363.31644  23430041.7584   23430040.5664       1412.1324
        43.5004         27.2504
   -220960.47748   -170147.32046  20134678.4454   20134675.6294       -144.2674
        50.5004         40.7504
   5329121.64846   4137284.09843  24476402.0944   24476399.8674      -3902.5774
        40.7504         20.2504
  -2887500.09847  -2231738.84044  23191875.1564   23191872.2034       1889.2144
        45.0004         29.2504
   5492954.50847   4261053.96943  24262690.9384   24262692.0554      -3933.3944
        42.0004         21.7504
   1920705.28548   1491044.67246  20568080.8134   20568076.4224      -1704.1004
        51.5004         39.5004
  -2910091.76246  -2245760.41443  24481373.2114   24481375.2424       2925.9354
        40.2504         20.2504
 10  5 26 22 30  0.0000000  0 11G03G06G07G08G10G13G16G19G20G23G28
   -979626.16047   -758871.46945  22169667.9774   22169666.2274        273.6884
        47.5004         31.2504
    207310.66047    162427.00844  23156533.3204   23156531.6294       -527.4214
        43.0004         27.5004
  -1112143.59448   -862406.15246  21248974.5394   21248971.8284        639.0684
        50.0004         39.5004
  -2607696.32447  -2015378.42244  23545489.6884   23545488.4024       1750.4514
        42.2504         25.7504
  -2506851.57447  -1936995.28144  23422073.2274   23422072.0004       1395.9234
        43.0004         26.0004
   -216214.53548   -166449.18746  20135581.6724   20135578.7584       -158.1984
        51.0004         41.5004
   5446285.65246   4228580.68043  24498697.0864   24498695.5664      -3905.4674
        40.7504         20.5004
  -2943901.45347  -2275687.88344  23181141.5784   23181138.5984       1880.0454
        43.5004         28.0004
   5610927.29746   4352980.56343  24285139.9144   24285141.8794      -3932.4264
        41.5004         21.5004
   1972267.60548   1531223.07046  20577892.6334   20577888.1334      -1718.7444
        52.2504         39.7504
  -2997727.02346  -2314047.41843  24464696.4534   24464698.5984       2921.1754
        39.7504         20.7504
 10  5 26 22 30 30.0000000  0 11G03G06G07G08G10G13G16G19G20G23G28
   -987275.64547   -764832.08645  22168211.8054   22168210.6954        254.9834
        45.5004         31.5004
    223641.21547    175152.12144  23159641.5004   23159639.6914       -544.3524
        45.0004         26.2504
  -1131139.00048   -877207.75846  21245359.9454   21245357.3134        633.1804
        50.5004         39.5004
  -2660117.71947  -2056226.21944  23535513.6884   23535512.8524       1747.3804
        42.5004         27.2504
  -2548235.91447  -1969242.80944  23414197.8444   23414195.9344       1379.4784
        42.5004         26.7504
   -211043.95348   -162420.16846  20136565.5314   20136562.6564       -172.3534
        49.5004         41.5004
   5563539.38346   4319947.16843  24521010.6174   24521008.0944      -3908.4584
        40.5004         20.2504
  -3000019.23447  -2319415.96544  23170462.9694   23170459.9224       1870.5934
        42.0004         29.5004
   5728873.80547   4444886.72743  24307584.9064   24307586.7274      -3931.5504
        42.0004         21.7504
   2024274.49648   1571747.88346  20587789.3444   20587785.2854      -1733.5634
        51.7504         39.5004
  -3085212.51246  -2382217.69543  24448048.6884   24448050.6524       2916.1834
        40.2504         21.5004
 10  5 26 22 31  0.0000000  0 11G03G06G07G08G10G13G16G19G20G23G28
   -994372.35547   -770361.96945  22166861.5084   22166860.5784        236.5574
        47.0004         31.0004
    240470.14547    188265.58244  23162843.2424   23162842.3914       -560.9644
        44.5004         27.5004
  -1149968.24648   -891879.89146  21241776.9614   21241774.1414        627.6424
        51.0004         40.2504
  -2712457.04747  -2097010.06244  23525554.0164   23525553.1054       1744.6444
        42.2504         26.7504
  -2589135.23047  -2001112.39144  23406414.5164   23406413.5514       1363.3114
        42.2504         27.5004
   -205457.37948   -158067.00846  20137628.8754   20137625.6844       -186.2194
        49.5004         41.5004
   5680870.35546   4411373.85543  24543337.9614   24543335.5704      -3911.0324
        40.5004         19.7504
  -3055860.24647  -2362928.41444  23159836.2034   23159833.4734       1861.3674
        42.5004         28.5004
   5846781.49246   4536762.64143  24330022.5474   24330024.0314      -3930.2564
        40.5004         21.5004
   2076716.70748   1612611.91046  20597768.4614   20597763.9774      -1748.0744
        52.2504         39.2504
  -3172556.15646  -2450277.48043  24431427.6484   24431429.6524       2911.4554
        39.0004         21.5004
 10  5 26 22 31 30.0000000  0 11G03G06G07G08G10G13G16G19G20G23G28
  -1000907.19947   -775454.04345  22165618.3054   22165616.3204        217.8284
        47.7504         31.7504
    257805.84447    201773.93844  23166142.1644   23166141.4384       -577.8574
        43.0004         27.5004
  -1168624.03548   -906416.85946  21238226.6564   21238223.9104        621.8604
        50.5004         39.7504
  -2764706.64847  -2137724.00844  23515610.9774   23515610.1054       1741.6534
        42.2504         27.2504
  -2629539.87947  -2032596.52744  23398725.8444   23398724.6604       1346.8224
        42.0004         25.7504
   -199445.18748   -153382.19546  20138772.7504   20138769.7304       -200.4064
        50.0004         41.2504
   5798284.32446   4502865.22743  24565680.5554   24565678.8524      -3913.7994
        40.0004         20.0004
  -3111413.26647  -2406216.41444  23149265.1094   23149262.1764       1851.7674
        44.2504         28.2504
   5964655.88746   4628612.58243  24352454.1174   24352454.8094      -3929.1464
        41.5004         21.5004
   2129602.26648   1653821.41046  20607832.5164   20607828.5984      -1762.8524
        51.7504         40.2504
  -3259747.83246  -2518218.81243  24414835.8204   24414837.2234       2906.3894
        41.5004         20.5004
 10  5 26 22 32  0.0000000  0 11G03G06G07G08G10G13G16G19G20G23G28
  -1006880.79347   -780108.78145  22164481.3594   22164480.0944        199.1204
        46.2504         31.5004
    275646.32847    215675.62544  23169537.4534   23169536.3954       -594.6834
        44.7504         27.7504
  -1187107.95748   -920819.90646  21234709.3914   21234706.5234        616.1314
        50.0004         39.5004
  -2816869.09846  -2178370.02344  23505685.2814   23505684.3444       1738.7484
        41.7504         27.5004
  -2669450.87147  -2063695.98844  23391131.7424   23391129.5594       1330.3664
        43.2504         27.0004
   -193008.40648   -148366.53146  20139997.5314   20139994.2504       -214.5594
        50.5004         41.5004
   5915776.25446   4594417.32843  24588038.5314   24588037.0554      -3916.3984
        39.5004         19.7504
  -3166677.63747  -2449279.49644  23138748.4064   23138745.8094       1842.1464
        42.0004         28.7504
   6082492.03546   4720432.72343  24374878.2504   24374878.4964      -3927.8724
        41.7504         22.2504
   2182928.18848   1695374.03546  20617980.2584   20617975.7814      -1777.5314
        51.5004         40.0004
  -3346788.48446  -2586042.48043  24398271.6804   24398273.5904       2901.3554
        40.2504         21.2504
 10  5 26 22 32 30.0000000  0 11G03G06G07G08G10G13G16G19G20G23G28
  -1012284.62147   -784319.54745  22163452.7424   22163451.4494        180.1284
        46.0004         32.0004
    293999.28947    229976.63344  23173029.7344   23173028.1804       -611.7654
        43.7504         27.7504
  -1205414.28148   -935084.57446  21231225.7814   21231222.7974        610.2114
        50.0004         39.0004
  -2868937.71147  -2218942.94944  23495776.8754   23495775.8984       1735.6204
        43.0004         28.2504
  -2708859.61347  -2094404.09844  23383631.9224   23383630.1804       1313.6254
        42.5004         25.7504
   -186139.09848   -143013.82846  20141304.7974   20141301.9614       -228.9774
        50.7504         41.0004
   6033350.75046   4686033.76243  24610413.1724   24610411.0234      -3919.1504
        39.5004         19.2504
  -3221643.47747  -2492109.98045  23128289.1174   23128285.8914       1832.1954
        43.5004         30.0004
   6200294.32046   4812226.52043  24397294.1724   24397295.8244      -3926.7434
        39.0004         21.5004
   2236701.43848   1737275.24246  20628213.0554   20628208.7074      -1792.4424
        51.5004         39.7504
  -3433669.28547  -2653741.58243  24381739.9924   24381740.2234       2896.0274
        42.0004         21.7504
 10  5 26 22 33  0.0000000  0 11G03G06G07G08G10G13G16G19G20G23G28
  -1017121.29747   -788088.37145  22162532.2424   22162531.1994        161.2234
        46.0004         32.0004
    312861.21547    244674.25444  23176618.6954   23176618.0784       -628.7314
        43.5004         27.2504
  -1223546.60948   -949213.64846  21227775.1414   21227772.2154        604.4114
        50.0004         39.5004
  -2920916.71547  -2259446.03144  23485885.4384   23485884.8054       1732.6334
        43.0004         27.5004
  -2747768.35247  -2124722.57444  23376227.4924   23376226.5354       1296.9584
        42.2504         27.0004
   -178839.60948   -137325.92646  20142693.6334   20142690.7544       -243.3164
        49.2504         41.5004
   6151001.82046   4777709.90243  24632801.1174   24632798.9414      -3921.7024
        39.0004         19.0004
  -3276311.46547  -2534708.36744  23117885.1804   23117883.3204       1822.2664
        42.0004         29.7504
   6318056.28146   4903988.87143  24419703.5394   24419705.8404      -3925.3994
        38.0004         22.0004
   2290918.86748   1779522.55146  20638530.1484   20638526.2664      -1807.2484
        51.7504         39.5004
  -3520392.11346  -2721317.57843  24365236.6174   24365237.5044       2890.7614
        40.7504         22.0004
 10  5 26 22 33 30.0000000  0 11G03G06G07G08G10G13G16G19G20G23G28
  -1021387.98047   -791413.04345  22161720.4144   22161718.8484        142.2234
        46.2504         31.7504
    332233.89547    259769.84844  23180305.4534   23180304.4804       -645.7564
        45.0004         27.5004
  -1241503.63748   -963206.12946  21224358.0084   21224355.0084        598.5684
        49.7504         39.5004
  -2972804.57047  -2299878.08644  23476011.5234   23476010.5204       1729.5954
        43.7504         28.7504
  -2786174.08247  -2154649.10544  23368920.1024   23368918.1414       1280.1914
        43.0004         25.7504
   -171107.23048   -131300.70346  20144164.9534   20144162.0664       -257.7464
        49.0004         41.5004
   6268728.45746   4869444.87143  24655203.1414   24655201.7894      -3924.2214
        37.5004         19.2504
  -3330676.99247  -2577071.05545  23107540.6804   23107537.7154       1812.1844
        43.7504         30.2504
   6435776.75446   4995718.84043  24442104.8914   24442106.5354      -3924.0164
        38.5004         21.0004
   2345581.60248   1822116.86746  20648932.4454   20648927.9774      -1822.0914
        52.0004         39.5004
  -3606953.79346  -2788768.01243  24348763.7814   24348765.1884       2885.3894
        40.7504         21.2504
 10  5 26 22 34  0.0000000  0 11G03G06G07G08G10G13G16G19G20G23G28
  -1025087.00847   -794295.39145  22161016.7194   22161014.8404        123.3014
        46.2504         32.0004
    352113.80947    275260.70344  23184088.3984   23184087.5314       -662.6644
        44.2504         27.7504
  -1259290.04348   -977065.65646  21220973.3834   21220970.6254        592.8804
        49.5004         39.0004
  -3024605.81647  -2340242.64844  23466154.0784   23466153.0124       1726.7084
        42.7504         28.2504
  -2824079.32447  -2184185.65644  23361706.3674   23361705.0704       1263.5084
        42.7504         25.7504
   -162944.55148   -124940.18746  20145718.6884   20145715.3554       -272.0894
        49.7504         41.5004
   6386524.53146   4961233.94943  24677620.6174   24677617.3754      -3926.5364
        39.0004         18.2504
  -3384741.01247  -2619198.81245  23097251.9384   23097249.8834       1802.1344
        43.0004         30.0004
   6553449.18446   5087411.40643  24464499.6024   24464499.5664      -3922.4144
        41.0004         21.0004
   2400685.34848   1865054.82446  20659418.0234   20659413.6414      -1836.7924
        51.7504         39.5004
  -3693356.49646  -2856094.57843  24332321.5474   24332322.7544       2880.0904
        41.0004         22.0004
 10  5 26 22 34 30.0000000  0 11G03G06G07G08G10G13G16G19G20G23G28
  -1028213.05947   -796731.27745  22160422.0084   22160419.8834        104.2024
        45.7504         31.0004
    372505.70747    291150.50044  23187968.6174   23187967.3954       -679.7304
        44.5004         28.0004
  -1276901.22748   -990788.64846  21217622.0164   21217619.4964        587.0394
        48.7504         39.5004
  -3076316.22347  -2380536.43044  23456313.6804   23456312.8794       1723.6804
        43.5004         28.2504
  -2861477.81647  -2213327.32044  23354590.1644   23354588.2814       1246.6164
        42.7504         26.7504
   -154345.73048   -118239.81646  20147354.7734   20147351.7304       -286.6274
        48.0004         40.7504
   6504392.18646   5053078.87043  24700048.6484   24700046.9804      -3928.9224
        38.7504         20.2504
  -3438495.99247  -2661085.75445  23087023.0084   23087020.8094       1791.8334
        43.0004         30.0004
   6671075.57846   5179068.12543  24486883.0634   24486883.1174      -3920.8804
        40.7504         20.7504
   2456234.86748   1908340.13746  20669988.9534   20669984.4804      -1851.6514
        51.0004         39.0004
  -3779593.74646  -2923292.20743  24315909.9534   24315912.2854       2874.5754
        40.7504         22.2504
 10  5 26 22 35  0.0000000  0 11G03G06G07G08G10G13G16G19G20G23G28
  -1030770.66447   -798724.19145  22159935.0634   22159933.7934         85.2544
        47.5004         31.0004
    393404.00847    307434.88344  23191946.0474   23191945.1134       -696.6104
        43.0004         27.0004
  -1294343.48048  -1004380.00446  21214303.1804   21214300.4414        581.4084
        48.7504         39.7504
  -3127942.18447  -2420764.39544  23446489.6094   23446488.7234       1720.8654
        44.5004         28.2504
  -2898374.52746  -2242078.00044  23347568.4614   23347567.2234       1229.8904
        41.2504         26.2504
   -145315.96948   -111203.64546  20149073.1414   20149070.2624       -300.9924
        50.2504         41.0004
   6622322.32846   5144972.43443  24722491.2344   24722488.3444      -3931.0054
        39.5004         20.0004
  -3491944.75047  -2702734.09044  23076852.2194   23076849.5704       1781.6254
        42.5004         29.7504
   6788647.25446   5270682.19143  24509255.1094   24509256.5164      -3919.0564
        40.0004         21.2504
   2512223.94548   1951967.96546  20680643.3834   20680639.1994      -1866.3034
        51.5004         39.0004
  -3865669.93446  -2990364.32443  24299530.6644   24299532.3914       2869.2064
        40.5004         21.2504
 10  5 26 22 35 30.0000000  0 11G03G06G07G08G10G13G16G19G20G23G28
  -1032753.01647   -800268.87145  22159558.0234   22159556.3054         66.0784
        44.5004         31.2504
    414814.21947    324118.18444  23196020.7664   23196019.0784       -713.6744
        44.2504         27.2504
  -1311611.62148  -1017835.68746  21211016.8984   21211014.1764        575.6054
        49.5004         39.7504
  -3179478.43747  -2460922.47744  23436682.6334   23436681.5394       1717.8754
        43.5004         28.2504
  -2934762.70347  -2270432.41444  23340643.9694   23340642.3404       1212.9394
        42.5004         26.7504
   -135848.20748   -103826.18046  20150874.6484   20150871.5864       -315.5924
        50.0004         41.5004
   6740318.51646   5236917.48443  24744943.7814   24744942.5984      -3933.2064
        38.7504         19.0004
  -3545079.03147  -2744137.36744  23066740.7114   23066738.2894       1771.1434
        42.7504         29.7504
   6906167.19546   5362255.94543  24531617.3204   24531619.9694      -3917.3314
        38.5004         20.5004
   2568658.01648   1995942.53546  20691382.4304   20691378.0474      -1881.1364
        51.0004         39.0004
  -3951577.97346  -3057305.40243  24283182.6954   24283183.8014       2863.6014
        41.5004         22.0004
 10  5 26 22 36  0.0000000  0 11G03G06G07G08G10G13G16G19G20G23G28
  -1034162.36347   -801367.04745  22159289.8674   22159288.0234         46.9784
        46.5004         32.2504
    436733.12547    341197.84844  23200190.6024   23200189.7424       -730.6304
        44.5004         27.2504
  -1328709.61348  -1031158.77746  21207763.2814   21207760.4384        569.9334
        48.2504         39.7504
  -3230928.52047  -2501013.39844  23426892.2424   23426891.2194       1715.0034
        43.5004         28.2504
  -2970644.22747  -2298392.02744  23333815.8594   23333814.6724       1196.0514
        43.0004         27.2504
   -125944.86348    -96109.29346  20152759.3284   20152756.3014       -330.1114
        49.0004         41.2504
   6858375.15646   5328909.60243  24767410.7814   24767408.0314      -3935.2214
        39.2504         19.2504
  -3597899.38747  -2785296.03544  23056689.2734   23056686.6374       1760.6794
        43.7504         29.5004
   7023629.34446   5453784.63743  24553970.8674   24553971.7664      -3915.4054
        39.7504         19.5004
   2625533.29348   2040260.91446  20702205.3834   20702201.0634      -1895.8434
        52.2504         39.2504
  -4037319.39146  -3124116.66443  24266867.0944   24266867.5124       2858.0474
        41.2504         22.0004
 10  5 26 22 36 30.0000000  0 11G03G06G07G08G10G13G16G19G20G23G28
  -1034994.34047   -802015.32845  22159131.2194   22159129.9104         27.7334
        46.2504         31.7504
    459164.01647    358676.48444  23204459.3674   23204458.2344       -747.6964
        44.2504         27.7504
  -1345634.63748  -1044347.09446  21204542.5784   21204539.7584        564.1674
        48.0004         39.5004
  -3282290.48447  -2541035.66844  23417118.0784   23417116.7344       1712.0654
        43.7504         28.7504
  -3006015.10547  -2325953.75044  23327085.4614   23327083.6994       1179.0294
        42.5004         27.2504
   -115602.00448    -88049.93746  20154727.5234   20154724.6254       -344.7624
        49.2504         41.0004
   6976492.44946   5420948.99243  24789887.0944   24789885.3674      -3937.2434
        39.0004         19.0004
  -3650399.79747  -2826205.40645  23046698.7974   23046696.4304       1750.0144
        44.5004         30.5004
   7141033.80946   5545268.38743  24576312.7504   24576313.9264      -3913.4824
        40.0004         21.0004
   2682852.31648   2084925.05946  20713112.8284   20713108.4614      -1910.6344
        52.0004         39.0004
  -4122890.05946  -3190794.86343  24250583.3834   24250584.6844       2852.3564
        40.7504         21.7504
 10  5 26 22 37  0.0000000  0 11G03G06G07G08G10G13G16G19G20G23G28
  -1035252.92247   -802216.81245  22159082.3444   22159080.5274          8.6194
        45.5004         31.0004
    482102.41447    376550.53544  23208824.6094   23208823.0354       -764.6134
        44.0004         27.5004
  -1362392.02748  -1057404.78946  21201353.6334   21201351.0234        558.5804
        48.0004         39.5004
  -3333568.87147  -2580992.80544  23407359.8444   23407358.9654       1709.2804
        43.5004         29.5004
  -3040878.69547  -2353120.17244  23320450.5634   23320449.4614       1162.1204
        42.2504         26.5004
   -104822.98448    -79650.71546  20156778.9064   20156775.6914       -359.3014
        48.7504         41.2504
   7094663.71146   5513030.46543  24812373.8674   24812372.0274      -3939.0424
        39.5004         20.0004
  -3702582.13747  -2866866.92245  23036769.0004   23036766.3014       1739.4114
        43.2504         30.7504
   7258373.60546   5636701.71143  24598641.7274   24598643.2304      -3911.3274
        39.0004         19.7504
   2740610.19548   2129931.16846  20724103.8444   20724099.4804      -1925.2634
        50.7504         39.0004
  -4208292.54746  -3257342.06643  24234331.3284   24234332.1914       2846.7504
        41.0004         21.5004
 10  5 26 22 37 30.0000000  0 11G03G06G07G08G10G13G16G19G20G23G28
  -1034932.35247   -801966.99245  22159143.2584   22159141.8754        -10.6864
        46.5004         31.0004
    505553.24647    394823.92644  23213286.5634   23213285.3524       -781.6944
        43.5004         28.5004
  -1378976.68048  -1070327.88346  21198198.0784   21198194.8284        552.8224
        49.2504         39.7504
  -3384758.96547  -2620881.13744  23397618.5164   23397617.9774       1706.3364
        43.0004         29.0004
  -3075228.39147  -2379886.16844  23313914.4224   23313912.8444       1144.9904
        42.0004         27.7504
    -93601.84448    -70906.98446  20158913.9614   20158911.0904       -374.0384
        50.0004         41.7504
   7212890.83646   5605155.46543  24834872.2424   24834870.4534      -3940.9044
        39.0004         20.5004
  -3754438.39847  -2907274.35545  23026901.5004   23026898.4884       1728.5424
        45.0004         31.2504
   7375650.67646   5728086.20743  24620959.6724   24620960.8874      -3909.2364
        39.2504         19.7504
   2798811.95348   2175283.15646  20735179.4384   20735174.7664      -1940.0594
        50.5004         38.5004
  -4293520.33646  -3323753.12143  24218112.2424   24218113.9224       2840.9264
        40.5004         22.2504
 10  5 26 22 38  0.0000000  0 11G03G06G07G08G10G13G16G19G20G23G28
  -1034035.17247   -801267.88345  22159314.3754   22159312.2664        -29.9064
        45.2504         31.5004
    529512.68847    413493.62144  23217846.1254   23217845.2774       -798.6484
        44.2504         27.0004
  -1395392.70347  -1083119.57446  21195074.3594   21195071.2074        547.2014
        47.7504         39.5004
  -3435865.16447  -2660704.10544  23387893.8134   23387892.4024       1703.5404
        43.7504         28.5004
  -3109066.89847  -2406253.83644  23307474.9304   23307473.8874       1127.9504
        43.0004         26.5004
    -81941.16048    -61820.74646  20161133.1804   20161130.0784       -388.6894
        49.0004         41.0004
   7331167.79346   5697319.26643  24857379.6564   24857377.6214      -3942.5654
        38.2504         19.0004
  -3805969.55547  -2947428.46945  23017094.7504   23017092.1414       1717.7054
        43.7504         31.2504
   7492858.87146   5819417.02043  24643264.2734   24643264.9024      -3906.9404
        39.2504         19.2504
   2857453.48448   2220977.83246  20746338.7504   20746334.3094      -1954.7184
        51.5004         39.0004
  -4378575.68746  -3390029.79743  24201926.2424   24201928.1684       2835.1784
        40.5004         22.0004
 10  5 26 22 38 30.0000000  0 11G03G06G07G08G10G13G16G19G20G23G28
  -1032555.11347   -800114.57045  22159595.2584   22159593.5784        -49.3354
        46.2504         31.7504
    553986.15647    432563.85544  23222503.3284   23222502.2114       -815.7824
        44.2504         27.5004
  -1411635.63747  -1095776.39146  21191983.1644   21191980.3244        541.4314
        47.7504         39.5004
  -3486882.62547  -2700457.92644  23378185.7424   23378184.7384       1700.5824
        44.5004         28.5004
  -3142388.22347  -2432218.50444  23301133.9614   23301132.7384       1110.7114
        42.7504         28.0004
    -69834.55548    -52387.04346  20163436.7734   20163433.8634       -403.5544
        49.2504         41.2504
   7449497.65646   5789524.30143  24879897.3444   24879895.0944      -3944.3294
        38.5004         19.5004
  -3857167.71547  -2987323.07845  23007352.3134   23007349.5944       1706.6054
        42.7504         30.2504
   7610000.70746   5910696.11743  24665555.0084   24665556.2974      -3904.7284
        39.5004         19.5004
   2916539.59048   2267018.92646  20757582.1804   20757577.8134      -1969.5374
        51.5004         38.2504
  -4463451.65246  -3456166.71143  24185775.6564   24185776.8954       2829.1994
        39.5004         21.7504
 10  5 26 22 39  0.0000000  0 11G03G06G07G08G10G13G16G19G20G23G28
  -1030497.53147   -798511.25045  22159987.2584   22159985.7504        -68.5864
        45.7504         31.5004
    578967.32447    452029.70344  23227257.3754   23227256.1914       -832.7064
        44.7504         27.5004
  -1427711.78148  -1108303.23846  21188923.9844   21188921.0664        535.8714
        48.0004         39.7504
  -3537818.04747  -2740147.81644  23368492.4924   23368491.3404       1697.8474
        44.5004         28.7504
  -3175197.18447  -2457783.92644  23294891.0474   23294889.4224       1093.6324
        43.7504         27.7504
    -57287.73848    -42610.30946  20165824.4064   20165821.4104       -418.2274
        50.0004         40.7504
   7567871.99246   5881764.03142  24902423.3364   24902421.3244      -3945.8114
        38.5004         17.2504
  -3908036.29347  -3026960.90245  22997671.7424   22997669.7934       1695.6194
        44.0004         31.2504
   7727067.19146   6001916.45343  24687832.6804   24687833.9104      -3902.2164
        37.7504         18.2504
   2976063.74648   2313401.34846  20768909.2814   20768904.8134      -1984.1394
        51.2504         38.7504
  -4548152.87546  -3522167.44943  24169656.9534   24169658.1644       2823.3744
        40.5004         22.0004
 10  5 26 22 39 30.0000000  0 11G03G06G07G08G10G13G16G19G20G23G28
  -1027856.80947   -796453.53545  22160489.4924   22160487.5744        -88.0244
        45.5004         31.5004
    604460.87947    471894.81644  23232108.7664   23232107.1414       -849.7854
        44.2504         28.0004
  -1443616.94147  -1120696.85546  21185897.1254   21185894.7464        530.1724
        47.5004         39.0004
  -3588666.91447  -2779770.27044  23358816.4694   23358815.1684       1694.9624
        45.5004         29.0004
  -3207487.74647  -2482945.41844  23288746.0234   23288744.6294       1076.3524
        43.5004         27.2504
    -44294.75848    -32485.91846  20168296.8284   20168293.8134       -433.0994
        49.5004         41.0004
   7686292.84846   5974039.96143  24924958.0944   24924955.9694      -3947.3624
        37.5004         18.5004
  -3958567.50847  -3066335.82045  22988056.0474   22988053.6564       1684.3744
        43.5004         30.0004
   7844060.36346   6093079.68043  24710095.2974   24710097.4224      -3899.7724
        36.7504         19.0004
   3036030.20748   2360128.43046  20780320.5164   20780316.0354      -1998.8824
        52.0004         39.0004
  -4632673.11746  -3588027.19143  24153573.2814   24153574.7544       2817.3414
        40.0004         22.2504
 10  5 26 22 40  0.0000000  0 11G03G06G07G08G10G13G16G19G20G23G28
  -1024635.69147   -793943.54345  22161102.3524   22161100.7114       -107.3714
        45.7504         31.7504
    630463.42247    492156.53544  23237056.8444   23237055.5594       -866.7514
        44.0004         28.0004
  -1459355.19148  -1132960.41846  21182901.9694   21182899.1684        524.6084
        49.0004         39.7504
  -3639433.46147  -2819328.56245  23349155.8134   23349154.5824       1692.2184
        44.0004         30.0004
  -3239262.60247  -2507705.03944  23282699.5554   23282698.5234       1059.1624
        42.5004         27.5004
    -30858.04348    -22015.76246  20170854.2114   20170851.3054       -447.8904
        51.0004         41.7504
   7804753.71946   6066347.08243  24947500.1024   24947497.7854      -3948.6964
        37.5004         19.0004
  -4008762.18047  -3105448.50045  22978504.7424   22978501.8524       1673.1564
        42.5004         30.2504
   7960974.17246   6184181.10943  24732343.1254   24732345.8634      -3897.1274
        38.2504         20.2504
   3096434.87548   2407196.96946  20791815.0234   20791810.5594      -2013.4894
        51.2504         38.2504
  -4717014.36746  -3653747.43043  24137523.3054   24137524.7854       2811.3754
        40.5004         22.0004
 10  5 26 22 40 30.0000000  0 11G03G06G07G08G10G13G16G19G20G23G28
  -1020828.39847   -790976.82845  22161827.2344   22161825.3794       -126.9104
        46.2504         31.5004
    656979.53947    512818.44144  23242102.4774   23242101.3204       -883.8714
        44.5004         27.0004
  -1474921.74648  -1145090.18046  21179939.6884   21179937.0394        518.8854
        48.0004         39.5004
  -3690113.03947  -2858819.09444  23339511.6804   23339510.2934       1689.3194
        43.5004         28.5004
  -3270515.65647  -2532058.06244  23276752.7114   23276750.7504       1041.7684
        43.5004         28.0004
    -16971.90248    -11195.40646  20173496.3054   20173493.1604       -462.8714
        51.0004         41.2504
   7923257.52046   6158687.65642  24970051.1884   24970048.6254      -3950.1274
        37.2504         17.7504
  -4058612.74247  -3144293.02745  22969018.6024   22969015.6054       1661.6854
        43.5004         30.5004
   8077810.75446   6275222.31343  24754575.8594   24754579.0784      -3894.5534
        39.0004         19.0004
   3157281.88348   2454610.19546  20803394.0234   20803389.4734      -2028.2344
        52.0004         38.5004
  -4801170.34046  -3719323.34443  24121508.6024   24121509.7774       2805.1994
        40.5004         22.5004
 10  5 26 22 41  0.0000000  0 11G03G06G07G08G10G13G16G19G20G23G28
  -1016435.25847   -787553.58245  22162663.0084   22162661.2074       -146.4384
        47.0004         32.0004
    684007.89547    533879.51244  23247246.0004   23247244.5274       -900.9454
        43.7504         27.2504
  -1490318.25048  -1157087.44146  21177010.0314   21177007.3554        513.2174
        49.7504         39.5004
  -3740707.44547  -2898243.25844  23329883.8524   23329882.8094       1686.4804
        44.7504         28.7504
  -3301247.31647  -2556004.82444  23270904.1484   23270902.9224       1024.3894
        42.5004         28.0004
     -2636.65648       -25.09046  20176224.2034   20176221.3794       -477.8424
        49.0004         41.2504
   8041801.05546   6251059.19543  24992608.7734   24992607.2814      -3951.4514
        38.0004         18.2504
  -4108117.35947  -3182868.03545  22959597.3204   22959594.6414       1650.1544
        44.2504         31.5004
   8194566.32046   6366200.35243  24776795.6414   24776797.3014      -3891.8524
        39.5004         19.5004
   3218570.31348   2502367.37546  20815056.8524   20815052.4104      -2042.9484
        51.2504         39.0004
  -4885140.73046  -3784754.62543  24105529.9614   24105531.1604       2799.0134
        40.5004         22.0004
 10  5 26 22 41 30.0000000  0 11G03G06G07G08G10G13G16G19G20G23G28
  -1011453.29347   -783671.51245  22163611.0164   22163609.0354       -166.0654
        45.5004         32.0004
    711550.74647    555341.46544  23252487.0634   23252485.7774       -918.0954
        44.0004         26.5004
  -1505542.87948  -1168950.77746  21174113.0474   21174110.0234        507.4884
        50.2504         39.2504
  -3791215.20347  -2937599.91445  23320271.7814   23320270.9924       1683.5924
        44.5004         30.2504
  -3331454.41047  -2579542.80544  23265155.9614   23265155.0864       1006.9034
        43.0004         26.7504
     12150.94548     11497.71146  20179038.2974   20179035.2974       -492.9204
        51.2504         41.5004
   8160383.48446   6343461.05543  25015174.2974   25015172.1914      -3952.7484
        37.2504         19.0004
  -4157271.21547  -3221169.68045  22950244.0084   22950241.0394       1638.4624
        43.5004         31.5004
   8311240.48446   6457115.00043  24798997.9534   24798999.7974      -3889.1394
        39.0004         19.0004
   3280301.80148   2550469.80946  20826803.9924   20826799.8204      -2057.7164
        51.7504         38.7504
  -4968921.77346  -3850038.37943  24089586.3984   24089587.7074       2792.7014
        40.0004         22.0004
 10  5 26 22 42  0.0000000  0 11G03G06G07G08G10G13G16G19G20G23G28
  -1005888.19547   -779335.06645  22164669.9774   22164668.2734       -185.5034
        46.0004         32.0004
    739601.10947    577198.89144  23257825.0474   23257823.8284       -935.0124
        44.0004         27.2504
  -1520602.92248  -1180685.85946  21171247.0394   21171244.3014        502.0014
        49.7504         39.2504
  -3841642.84047  -2976894.12944  23310676.5474   23310675.0234       1680.9214
        43.7504         29.2504
  -3361142.06647  -2602676.05144  23259506.6804   23259505.4574        989.5894
        42.5004         27.7504
     27385.01648     23368.41046  20181937.2584   20181933.8714       -507.8024
        50.7504         41.7504
   8278995.78946   6435886.19143  25037745.1414   25037743.3714      -3953.7434
        38.0004         18.5004
  -4206078.25047  -3259201.09045  22940956.1334   22940953.7194       1626.9014
        43.7504         31.2504
   8427823.80546   6547958.83643  24821182.3444   24821185.1294      -3886.1114
        39.7504         20.0004
   3342469.34048   2598912.02046  20838634.1094   20838629.4414      -2072.2514
        51.0004         38.7504
  -5052518.36746  -3915178.41043  24073678.6334   24073679.6484       2786.5534
        40.7504         23.5004
 10  5 26 22 42 30.0000000  0 11G03G06G07G08G10G13G16G19G20G23G28
   -999734.19947   -774539.73445  22165840.8754   22165838.9804       -205.1334
        46.5004         31.5004
    768164.33647    599455.95344  23263260.5944   23263259.0594       -952.1084
        43.0004         27.7504
  -1535492.79748  -1192288.34046  21168413.7894   21168410.9184        496.3294
        49.5004         39.7504
  -3891985.23847  -3016121.93745  23301096.6254   23301095.3524       1678.0804
        43.5004         30.0004
  -3390303.71947  -2625399.41844  23253957.5554   23253955.8954        972.0554
        43.2504         26.2504
     43072.16048     35592.15246  20184922.5084   20184919.5204       -522.9054
        48.0004         41.0004
   8397641.48846   6528337.29742  25060322.7664   25060321.4804      -3954.8574
        38.0004         17.2504
  -4254529.94547  -3296955.61344  22931736.0394   22931733.7934       1615.0574
        44.2504         29.5004
   8544319.22346   6638734.16443  24843351.8054   24843353.9064      -3883.1814
        40.2504         19.5004
   3405077.39848   2647697.48846  20850548.2504   20850543.7974      -2086.9354
        51.5004         38.0004
  -5135923.56246  -3980169.30143  24057807.6884   24057807.7704       2780.1734
        41.0004         22.2504
 10  5 26 22 43  0.0000000  0 11G03G06G07G08G10G13G16G19G20G23G28
   -992992.06247   -769286.10545  22167123.6414   22167122.6844       -224.7384
        45.2504         31.5004
    797238.46547    622111.13744  23268792.7894   23268791.6174       -969.1384
        44.5004         26.7504
  -1550214.49248  -1203759.78546  21165611.9844   21165609.0904        490.7234
        49.2504         39.5004
  -3942244.71947  -3055285.12544  23291531.9384   23291530.7424       1675.3164
        42.5004         29.0004
  -3418940.60247  -2647713.86344  23248507.9384   23248506.3874        954.5634
        42.5004         26.2504
     59211.50848     48168.25846  20187993.4924   20187990.7154       -537.9784
        51.2504         41.5004
   8516316.28946   6620811.19142  25082905.7274   25082904.2464      -3955.8274
        37.2504         17.7504
  -4302625.57847  -3334432.66845  22922584.0554   22922581.5514       1603.1884
        43.7504         31.2504
   8660722.39846   6729437.63743  24865501.5164   24865504.6454      -3880.1064
        38.7504         20.0004
   3468123.92648   2696824.62146  20862545.5634   20862541.0164      -2101.5514
        51.0004         38.2504
  -5219137.59046  -4045011.23843  24041971.8984   24041972.9304       2773.8014
        39.7504         22.7504
 10  5 26 22 43 30.0000000  0 11G03G06G07G08G10G13G16G19G20G23G28
   -985658.38347   -763571.53545  22168519.4534   22168518.0204       -244.4564
        45.2504         32.0004
    826825.74647    645166.15644  23274423.6024   23274422.1564       -986.2434
        42.7504         27.5004
  -1564765.97748  -1215098.59046  21162842.8204   21162839.9614        485.0494
        49.2504         39.2504
  -3992418.89547  -3094381.83644  23281984.3524   23281983.3054       1672.4734
        44.5004         28.5004
  -3447049.28147  -2669616.72344  23243158.7894   23243157.5004        936.9564
        42.2504         27.0004
     75806.52048     61099.42646  20191151.4534   20191148.1214       -553.1674
        49.7504         41.5004
   8635020.60546   6713307.97342  25105494.9384   25105493.2194      -3956.8114
        37.7504         16.7504
  -4350359.87547  -3371628.15645  22913500.5394   22913497.3094       1591.1434
        43.7504         30.7504
   8777033.52746   6820069.35943  24887635.6334   24887639.2624      -3877.0384
        39.0004         20.0004
   3531611.29748   2746295.27046  20874626.7504   20874622.3674      -2116.2464
        51.0004         38.0004
  -5302156.31246  -4109700.96943  24026174.1804   24026174.7384       2767.2914
        40.0004         22.0004
 10  5 26 22 44  0.0000000  0 11G03G06G07G08G10G13G16G19G20G23G28
   -977734.28547   -757396.91045  22170027.5394   22170025.9224       -264.1374
        47.2504         32.0004
    856924.61747    668619.82844  23280150.8984   23280149.5634      -1003.2964
        43.5004         26.5004
  -1579149.34048  -1226306.39546  21160105.9304   21160103.0664        479.4454
        50.0004         39.2504
  -4042510.30947  -3133414.06644  23272452.0474   23272450.9614       1669.7144
        43.2504         29.0004
  -3474630.22747  -2691108.35944  23237910.6334   23237909.2504        919.3654
        43.0004         28.0004
     92856.32048     74384.97746  20194395.9144   20194393.0204       -568.3274
        49.2504         41.7504
   8753750.44146   6805824.67642  25128088.3054   25128086.4654      -3957.6614
        38.7504         16.2504
  -4397731.66047  -3408541.19945  22904485.7894   22904483.1484       1579.0604
        44.2504         31.2504
   8893248.15646   6910625.85243  24909751.4924   24909754.1564      -3873.8214
        40.5004         19.7504
   3595536.95748   2796107.43846  20886791.3984   20886786.9614      -2130.8554
        50.7504         38.5004
  -5384980.02346  -4174238.74643  24010413.3834   24010413.7234       2760.7904
        40.2504         22.0004
 10  5 26 22 44 30.0000000  0 11G03G06G07G08G10G13G16G19G20G23G28
   -969216.59447   -750759.75045  22171648.1644   22171646.9304       -283.9234
        46.5004         32.0004
    887537.00047    692473.62144  23285975.8834   23285974.8834      -1020.4134
        42.5004         26.5004
  -1593362.05148  -1237381.21946  21157401.1724   21157398.4734        473.7574
        49.0004         39.5004
  -4092516.34447  -3172379.76644  23262936.6724   23262935.6724       1666.8684
        43.5004         29.0004
  -3501679.77747  -2712185.94144  23232763.3754   23232761.5314        901.6524
        43.7504         26.5004
    110364.28148     88027.53946  20197727.4774   20197724.6334       -583.5994
        50.0004         41.5004
   8872505.52746   6898361.05542  25150686.1954   25150684.8714      -3958.5034
        38.0004         17.2504
  -4444735.67647  -3445167.64845  22895540.9534   22895538.3134       1566.8014
        43.2504         31.2504
   9009366.18846   7001107.08243  24931848.5474   24931850.5394      -3870.6014
        40.0004         20.2504
   3659903.08248   2846262.83246  20899039.9774   20899035.1484      -2145.5374
        51.2504         38.2504
  -5467604.68046  -4238621.46143  23994690.0554   23994690.0354       2754.1554
        40.0004         21.7504
 10  5 26 22 45  0.0000000  0 11G03G06G07G08G10G13G16G19G20G23G28
   -960111.02047   -743664.47345  22173380.6094   22173379.2814       -303.5194
        46.5004         31.0004
    918656.82446    716722.83644  23291897.7114   23291896.3874      -1037.3274
        41.5004         27.0004
  -1607410.77048  -1248328.27046  21154727.8284   21154724.8634        468.2914
        48.5004         39.5004
  -4142443.88347  -3211284.32444  23253435.5634   23253434.6454       1664.2514
        42.2504         29.0004
  -3528203.51647  -2732853.78144  23227715.8984   23227714.4454        884.1254
        43.2504         28.0004
    128325.40648    102023.21147  20201145.5634   20201143.0744       -598.7044
        48.7504         42.2504
   8991277.52046   6990910.57042  25173288.3834   25173287.2344      -3959.0664
        38.2504         17.2504
  -4491375.14847  -3481510.03945  22886665.9614   22886662.9064       1554.6494
        42.5004         30.7504
   9125379.01246   7091506.32843  24953925.0234   24953927.9344      -3867.0944
        40.2504         19.0004
   3724703.26648   2896756.44546  20911371.1954   20911366.5944      -2160.0064
        50.5004         38.0004
  -5550034.89846  -4302852.64543  23979004.4774   23979004.6994       2747.6744
        40.2504         22.7504
 10  5 26 22 45 30.0000000  0 11G03G06G07G08G10G13G16G19G20G23G28
   -950411.47747   -736106.37545  22175226.3914   22175225.1994       -323.3184
        45.5004         32.0004
    950288.94547    741371.24244  23297917.5314   23297916.1604      -1054.4044
        42.0004         27.0004
  -1621290.66848  -1259143.76246  21152086.8834   21152083.8014        462.6634
        48.5004         39.7504
  -4192288.23047  -3250124.03544  23243950.6724   23243949.0274       1661.4784
        44.2504         29.0004
  -3554195.36747  -2753107.18444  23222769.7504   23222767.9964        866.3954
        43.7504         28.2504
    146745.32848    116376.38746  20204650.7114   20204647.7464       -613.9974
        50.2504         41.2504
   9110069.67646   7083475.86342  25195893.2034   25195892.6884      -3959.7394
        38.2504         16.7504
  -4537642.45747  -3517562.43445  22877861.4454   22877858.4924       1542.2444
        42.5004         31.0004
   9241289.14546   7181825.58643  24975981.2894   24975984.7154      -3863.6714
        38.5004         20.2504
   3789941.68448   2947591.54746  20923785.2894   20923781.1294      -2174.6144
        51.2504         38.2504
  -5632263.98446  -4366927.11743  23963356.5944   23963356.6914       2740.9704
        40.2504         22.5004
 10  5 26 22 46  0.0000000  0 11G03G06G07G08G10G13G16G19G20G23G28
   -940119.72347   -728086.82445  22177185.3754   22177183.5784       -343.0584
        43.7504         31.5004
    982430.72347    766416.78944  23304034.0554   23304032.5514      -1071.3934
        43.0004         27.0004
  -1635004.16448  -1269829.59446  21149477.2344   21149474.4774        457.1174
        48.7504         39.5004
  -4242051.57047  -3288900.61744  23234480.9224   23234479.8954       1658.7784
        43.5004         29.7504
  -3579656.61747  -2772947.11344  23217924.3134   23217922.9144        848.7084
        43.0004         27.0004
    165622.82848    131086.12546  20208243.0704   20208240.0434       -629.2504
        50.5004         41.5004
   9228877.52346   7176053.37542  25218502.9224   25218500.3284      -3960.2624
        39.0004         17.2504
  -4583537.07847  -3553324.42645  22869128.0164   22869124.5744       1529.8214
        42.2504         30.7504
   9357091.86346   7272061.11343  24998019.4224   24998022.3444      -3860.0914
        39.7504         19.0004
   3855615.74648   2998766.10246  20936282.5164   20936278.0704      -2189.1354
        50.5004         38.5004
  -5714292.52746  -4430845.32043  23947746.9304   23947746.9454       2734.2854
        40.7504         22.7504
 10  5 26 22 46 30.0000000  0 11G03G06G07G08G10G13G16G19G20G23G28
   -929231.21147   -719602.25845  22179257.0864   22179255.6604       -362.9504
        45.7504         31.5004
   1015086.02747    791862.48044  23310247.6804   23310246.6724      -1088.5104
        43.5004         27.2504
  -1648547.55948  -1280382.87546  21146899.9774   21146897.2234        451.4464
        49.5004         39.7504
  -4291730.35547  -3327611.33244  23225026.5864   23225025.9104       1655.9604
        43.5004         29.0004
  -3604582.01647  -2792369.51244  23213181.6334   23213180.1374        830.8474
        44.0004         27.0004
    184963.05948    146156.42646  20211923.3204   20211920.3524       -644.6744
        50.5004         41.2504
   9347702.60546   7268644.30542  25241113.6484   25241111.9734      -3960.8364
        39.0004         17.2504
  -4629051.84847  -3588790.44145  22860467.0164   22860464.0394       1517.1594
        43.0004         31.5004
   9472788.67246   7362214.09043  25020035.9844   25020038.4804      -3856.5604
        39.0004         19.5004
   3921728.89848   3050282.81346  20948864.0164   20948859.4494      -2203.7724
        51.2504         38.2504
  -5796115.26646  -4494603.16443  23932176.2194   23932176.3014       2727.4254
        40.7504         23.7504
 10  5 26 22 47  0.0000000  0 11G03G06G07G08G10G13G16G19G20G23G28
   -917752.68047   -710657.93445  22181441.2274   22181440.2624       -382.6184
        45.0004         31.0004
   1048247.04347    817702.22744  23316557.8984   23316556.6604      -1105.3674
        42.5004         26.2504
  -1661928.26648  -1290809.39846  21144353.7504   21144350.8014        446.0244
        50.5004         39.7504
  -4341331.81247  -3366261.77744  23215588.1724   23215587.4844       1653.3824
        43.5004         29.2504
  -3628978.29347  -2811379.59044  23208538.8754   23208537.9104        813.2094
        43.7504         28.2504
    204759.46148    161582.18046  20215690.3834   20215687.7584       -659.8804
        51.0004         41.5004
   9466535.46546   7361241.28142  25263726.9614   25263725.2344      -3961.0954
        38.2504         17.2504
  -4674191.68447  -3623964.28145  22851877.2504   22851873.7544       1504.6614
        44.2504         30.5004
   9588370.28146   7452277.30943  25042029.8984   25042033.2154      -3852.7204
        40.5004         20.5004
   3988273.46948   3102135.68446  20961526.7034   20961522.3284      -2218.1524
        50.7504         38.0004
  -5877737.39546  -4558204.69943  23916644.4224   23916644.4344       2720.7384
        41.0004         23.2504
 10  5 26 22 47 30.0000000  0 11G03G06G07G08G10G13G16G19G20G23G28
   -905678.99647   -701249.85945  22183739.3444   22183737.7114       -402.4564
        43.7504         31.7504
   1081917.97747    843939.32444  23322966.2344   23322964.1094      -1122.3644
        42.2504         27.0004
  -1675142.20348  -1301105.96546  21141839.2424   21141836.3364        440.4654
        50.2504         40.2504
  -4390852.50847  -3404849.28944  23206165.3594   23206163.7344       1650.6904
        42.7504         29.7504
  -3652840.46947  -2829973.49644  23203998.2734   23203996.9104        795.4064
        43.5004         27.7504
    225017.10548    177367.34846  20219545.3834   20219542.5514       -675.2554
        50.5004         41.5004
   9585378.31646   7453846.10542  25286341.9844   25286340.3244      -3961.4284
        37.5004         16.7504
  -4718949.66047  -3658840.59045  22843359.8754   22843356.5664       1491.9334
        43.7504         31.5004
   9703838.14846   7542251.87543  25064003.4774   25064007.0274      -3848.9294
        40.0004         19.0004
   4055252.85548   3154327.38746  20974272.6414   20974268.4884      -2232.6464
        49.5004         37.5004
  -5959153.55546  -4621645.71144  23901150.9534   23901150.8954       2713.8724
        41.2504         26.0004
 10  5 26 22 48  0.0000000  0 12G03G06G07G08G10G13G16G19G20G23G05G28
   -893014.47747   -691381.39545  22186149.2344   22186147.2384       -422.1514
        44.7504         31.5004
   1116093.75447    870569.81344  23329469.4774   23329468.2304      -1139.1934
        42.2504         25.7504
  -1688194.21148  -1311276.34846  21139355.4614   21139352.7814        435.0674
        49.7504         40.0004
  -4440297.03947  -3443377.44944  23196755.8914   23196754.6994       1648.1514
        42.7504         28.0004
  -3676171.82447  -2848153.77044  23199558.7664   23199557.3244        777.7124
        43.0004         27.5004
    245732.10548    193508.89846  20223487.2344   20223484.3284       -690.5004
        51.0004         41.5004
   9704224.69946   7546453.68042  25308958.0474   25308956.5784      -3961.5464
        37.7504         16.7504
  -4763327.30147  -3693420.51645  22834915.1724   22834911.8524       1479.2554
        43.7504         31.2504
   9819185.09446   7632132.27343  25085953.4144   25085957.1054      -3844.8984
        38.5004         19.2504
   4122662.09448   3206854.03546  20987100.1564   20987096.0044      -2246.9754
        50.5004         38.5004
    -90651.13756    -55266.13753  25305611.3364   25305609.1484
        39.5004         19.7504
  -6040366.88346  -4684928.71544  23885696.5944   23885696.6884       2707.1114
        41.5004         25.7504
 10  5 26 22 48 30.0000000  0 12G03G06G07G08G10G13G16G19G20G23G05G28
   -879752.50047   -681047.36745  22188672.8594   22188670.7234       -442.0664
        46.0004         31.0004
   1150780.58647    897598.50044  23336069.2584   23336068.1054      -1156.2284
        42.7504         27.5004
  -1701078.25848  -1321315.85546  21136903.9384   21136901.0004        429.4684
        49.2504         40.0004
  -4489659.46147  -3481841.64145  23187362.4774   23187361.4344       1645.4144
        43.7504         30.0004
  -3698965.61347  -2865915.17244  23195220.7034   23195219.4574        759.7934
        43.0004         28.2504
    266911.71548    210012.47746  20227517.6724   20227514.7074       -705.9874
        51.2504         41.2504
   9823078.28146   7639066.79342  25331574.8364   25331573.7704      -3961.7864
        38.0004         16.2504
  -4807315.83247  -3727697.24645  22826544.3524   22826541.3554       1466.2844
        44.0004         31.0004
   9934415.03946   7721921.46543  25107880.0554   25107885.1914      -3840.9984
        36.7504         18.2504
   4190506.92248   3259720.09446  21000010.3594   21000006.1914      -2261.4944
        49.5004         38.0004
   -154286.42646   -104852.02343  25293501.3984   25293500.1724       2121.1764
        40.2504         18.5004
  -6121369.35246  -4748047.38344  23870282.0084   23870281.8554       2700.0824
        41.7504         24.7504
 10  5 26 22 49  0.0000000  0 12G03G06G07G08G10G13G16G19G20G23G05G28
   -865898.21547   -670251.82445  22191308.6094   22191307.2704       -461.8104
        45.2504         31.5004
   1185971.93447    925020.31644  23342766.6564   23342764.9654      -1173.0454
        42.5004         26.2504
  -1713800.14848  -1331229.00846  21134482.8914   21134479.9534        424.0634
        49.0004         39.7504
  -4538946.19947  -3520246.84044  23177983.0554   23177982.3444       1642.8914
        43.0004         29.0004
  -3721226.87947  -2883261.60944  23190984.5474   23190983.2274        742.0424
        42.5004         27.7504
    288550.82848    226874.11346  20231635.3754   20231632.5314       -721.3044
        50.7504         41.5004
   9941931.18846   7731679.40242  25354191.5784   25354190.7664      -3961.7644
        38.5004         17.2504
  -4850918.35947  -3761673.18745  22818247.1884   22818243.9064       1453.4184
        44.2504         31.0004
  10049519.76646   7811613.05943  25129784.5234   25129788.7974      -3836.8244
        37.2504         19.0004
   4258780.72748   3312920.43046  21013002.3054   21012998.3634      -2275.7934
        48.7504         38.0004
   -217562.34446   -154157.97743  25281460.7814   25281458.7734       2109.1974
        40.0004         18.2504
  -6202165.16446  -4811005.02744  23854907.1484   23854907.3324       2693.1944
        41.5004         24.5004
 10  5 26 22 49 30.0000000  0 12G03G06G07G08G10G13G16G19G20G23G05G28
   -851445.96547   -658990.32045  22194058.8984   22194057.4734       -481.7424
        44.5004         30.2504
   1221672.77347    952839.15644  23349560.0164   23349558.3634      -1190.0284
        42.0004         24.7504
  -1726354.89848  -1341011.91846  21132093.6564   21132091.1254        418.4924
        49.0004         40.0004
  -4588151.99247  -3558588.98045  23168619.7504   23168619.0944       1640.1934
        43.0004         30.0004
  -3742949.52047  -2900188.33644  23186850.7734   23186849.2894        724.0884
        42.0004         28.5004
    310655.64548    244098.63746  20235841.8364   20235838.8674       -736.8274
        51.5004         41.2504
  10060786.89846   7824294.22342  25376810.0784   25376808.1054      -3961.8574
        38.7504         17.2504
  -4894126.93047  -3795342.15245  22810024.8984   22810021.2384       1440.2864
        44.5004         32.0004
  10164502.12946   7901209.32043  25151666.2504   25151669.2274      -3832.7454
        37.7504         19.5004
   4327488.22748   3366458.70346  21026076.9844   21026072.7154      -2290.2504
        50.0004         38.2504
   -280470.90646   -203177.62143  25269489.3834   25269487.9104       2096.9524
        39.0004         19.0004
  -6282747.99647  -4873796.71944  23839572.9304   23839572.9024       2686.0944
        42.5004         24.5004
 10  5 26 22 50  0.0000000  0 12G03G06G07G08G10G13G16G19G20G23G05G28
   -836398.12947   -647264.70745  22196922.8364   22196921.4344       -501.5954
        45.0004         31.5004
   1257879.59047    981052.26644  23356449.8914   23356448.6454      -1206.8944
        42.5004         26.0004
  -1738745.87548  -1350667.20746  21129735.6024   21129732.8524        413.0334
        50.5004         40.2504
  -4637280.39147  -3596870.80545  23159270.9534   23159269.5784       1637.6134
        43.5004         30.0004
  -3764135.66047  -2916697.00044  23182819.7974   23182818.3484        706.2054
        43.2504         28.5004
    333223.99648    261684.34846  20240136.4384   20240133.6254       -752.2784
        51.5004         41.2504
  10179639.53146   7916906.68042  25399426.1644   25399425.2704      -3961.7544
        39.2504         15.5004
  -4936941.80147  -3828704.37145  22801877.1724   22801874.2504       1427.1624
        45.0004         31.5004
  10279356.67646   7990705.97342  25173522.1254   25173526.3014      -3828.4854
        36.5004         17.7504
   4396625.98048   3420332.25446  21039233.7894   21039229.6414      -2304.5924
        50.0004         38.0004
   -343013.34046   -251911.97743  25257588.7664   25257586.7424       2084.7484
        41.0004         19.2504
  -6363118.94547  -4936423.31644  23824279.1024   23824278.3284       2679.0324
        42.5004         25.0004
 10  5 26 22 50 30.0000000  0 12G03G06G07G08G10G13G16G19G20G23G05G28
   -820749.53147   -635071.00445  22199900.4144   22199898.6374       -521.6204
        44.5004         31.5004
   1294597.01646   1009663.22744  23363437.5394   23363436.2154      -1223.9144
        41.2504         26.0004
  -1750968.29348  -1360191.16446  21127409.8134   21127406.9734        407.4144
        50.0004         39.5004
  -4686326.68447  -3635088.66444  23149937.3834   23149936.6454       1634.8764
        43.7504         29.5004
  -3784779.71947  -2932783.27744  23178890.8674   23178889.4534        688.1354
        43.2504         28.5004
    356261.23448    279635.43846  20244520.2344   20244517.3244       -767.9084
        52.0004         41.0004
  10298491.98446   8009518.89542  25422043.5164   25422042.1024      -3961.7484
        39.0004         16.7504
  -4979355.55947  -3861754.00845  22793806.5004   22793803.0944       1413.7924
        46.7504         31.0004
  10394085.98446   8080105.09043  25195354.3134   25195358.3714      -3824.3104
        36.2504         18.5004
   4466198.12948   3474544.28946  21052472.5634   21052468.9304      -2319.0724
        50.0004         38.5004
   -405182.87146   -300355.75843  25245757.0234   25245756.2304       2072.3184
        39.2504         20.0004
  -6443271.89847  -4998880.03544  23809026.0554   23809025.6414       2671.7654
        42.5004         25.0004
 10  5 26 22 51  0.0000000  0 12G03G06G07G08G10G13G16G19G20G23G05G28
   -804506.28947   -622413.91045  22202991.4304   22202989.8754       -541.4414
        46.0004         31.5004
   1331818.59046   1038667.04344  23370520.4454   23370519.3164      -1240.7194
        40.7504         26.0004
  -1763028.28148  -1369588.55146  21125115.0314   21125112.0864        402.0004
        51.0004         40.5004
  -4735297.24247  -3673247.49245  23140618.9144   23140617.9184       1632.3524
        44.5004         30.0004
  -3804887.18747  -2948451.43044  23175064.9694   23175063.3284        670.2494
        44.2504         27.5004
    379762.46548    297948.06646  20248992.6644   20248989.5594       -783.3744
        51.7504         41.7504
  10417336.47346   8102124.99242  25444658.1954   25444657.4534      -3961.4834
        39.0004         17.2504
  -5021371.19147  -3894493.41045  22785810.1804   22785807.0984       1400.5214
        44.5004         31.5004
  10508681.56646   8169399.97342  25217162.1174   25217165.6724      -3819.8534
        38.2504         17.2504
   4536197.99248   3529089.59446  21065793.2814   21065789.3324      -2333.3294
        50.5004         37.2504
   -466983.21946   -348511.82443  25233996.6564   25233996.1054       2060.0124
        38.7504         19.0004
  -6523211.05547  -5061170.18744  23793813.4304   23793813.3794       2664.6394
        42.0004         24.5004
 10  5 26 22 51 30.0000000  0 12G03G06G07G08G10G13G16G19G20G23G05G28
   -787662.19947   -609288.64145  22206196.1484   22206195.2664       -561.4704
        45.2504         30.5004
   1369549.34446   1068067.63344  23377700.0474   23377698.5744      -1257.6924
        41.0004         25.2504
  -1774920.37948  -1378855.10546  21122851.7114   21122849.4224        396.4034
        51.0004         40.2504
  -4784186.58247  -3711343.05144  23131315.1644   23131314.6804       1629.6454
        44.5004         29.5004
  -3824451.66847  -2963696.45744  23171341.5164   23171340.0474        652.1494
        42.5004         29.0004
    403733.85548    316627.07046  20253554.1644   20253551.1804       -799.0464
        51.5004         41.2504
  10536176.58646   8194727.67642  25467272.4614   25467272.4494      -3961.3374
        38.7504         16.2504
  -5062980.96947  -3926916.57045  22777892.4924   22777889.6214       1386.9934
        45.5004         31.5004
  10623146.75846   8258593.24142  25238944.3054   25238948.3594      -3815.5064
        38.0004         17.2504
   4606630.43448   3583971.98046  21079196.2974   21079192.5084      -2347.7484
        51.0004         37.5004
   -528406.57046   -396374.16043  25222308.1254   25222307.0274       2047.4454
        41.0004         20.2504
  -6602929.60547  -5123288.38344  23778643.9144   23778643.4024       2657.2854
        42.7504         24.2504
 10  5 26 22 52  0.0000000  0 11G03G06G07G08G10G13G19G20G23G05G28
   -770221.76247   -595698.68045  22209515.4924   22209513.8914       -581.3484
        46.7504         31.2504
   1407783.73046   1097860.64544  23384975.9774   23384974.5474      -1274.4804
        41.0004         26.0004
  -1786649.85248  -1387994.94546  21120620.2194   21120616.8324        390.9824
        50.0004         40.2504
  -4833000.73447  -3749380.00445  23122026.6094   23122025.9144       1627.1384
        45.2504         30.0004
  -3843477.43447  -2978521.73044  23167721.0084   23167719.7894        634.1924
        43.2504         27.2504
    428170.97748    335668.96946  20258204.2114   20258201.4144       -814.5714
        51.5004         41.5004
  -5104187.01647  -3959025.12145  22770051.4224   22770047.9804       1373.5354
        44.5004         32.0004
  10737473.53946   8347678.70342  25260699.8754   25260704.2194      -3810.8934
        38.5004         16.2504
   4677489.42648   3639186.74246  21092680.4064   21092676.1764      -2361.9664
        50.0004         37.5004
   -589456.05546   -443945.14143  25210691.4064   25210689.7424       2034.9834
        41.2504         20.2504
  -6682431.13346  -5185237.52744  23763514.0944   23763514.7664       2650.0514
        41.5004         24.2504
 10  5 26 22 52 30.0000000  0 11G03G06G07G08G10G13G19G20G23G05G28
   -752177.65247   -581638.32845  22212949.0084   22212947.6334       -601.4704
        47.0004         31.5004
   1446528.18846   1128051.13344  23392348.6254   23392347.0864      -1291.4824
        40.7504         26.7504
  -1798209.88348  -1397002.75046  21118420.2424   21118417.2114        385.3344
        50.2504         40.0004
  -4881731.85947  -3787352.27345  23112753.6254   23112752.1644       1624.3714
        45.5004         30.5004
  -3861956.91847  -2992921.30544  23164204.6564   23164203.4414        615.9834
        45.0004         27.7504
    453081.80548    355079.99646  20262944.7424   20262941.7974       -830.3614
        51.5004         41.7504
  -5144979.68047  -3990811.57845  22762288.4224   22762285.4224       1359.7554
        44.2504         31.7504
  10851667.43446   8436660.53942  25282430.2734   25282435.3834      -3806.4634
        37.0004         17.2504
   4748781.68048   3694739.11346  21106246.8984   21106242.3014      -2376.4084
        50.7504         37.5004
   -650122.05546   -491217.33643  25199146.5864   25199146.2194       2022.2004
        39.5004         20.0004
  -6761707.12147  -5247010.87544  23748429.5004   23748428.9344       2642.5334
        42.0004         24.5004
 10  5 26 22 53  0.0000000  0 11G03G06G07G08G10G13G19G20G23G05G28
   -733532.46547   -567109.60545  22216497.3204   22216495.4184       -621.5064
        46.2504         31.5004
   1485779.89846   1158636.86744  23399817.6724   23399816.6054      -1308.3904
        40.5004         26.2504
  -1809603.16848  -1405880.62146  21116251.8134   21116249.0984        379.7764
        50.0004         40.0004
  -4930383.31647  -3825262.46944  23103494.8754   23103494.0784       1621.7154
        45.2504         29.5004
  -3879892.25447  -3006896.87944  23160791.4144   23160789.6844        597.8454
        43.0004         28.7504
    478464.10248    374858.39546  20267774.9614   20267771.9844       -846.0774
        51.7504         41.5004
  -5185358.98447  -4022275.91445  22754605.1174   22754601.3914       1345.9774
        45.2504         32.2504
  10965723.18446   8525534.80942  25304135.5634   25304139.2734      -3801.8584
        38.2504         17.2504
   4820503.66448   3750626.34846  21119894.8364   21119890.9264      -2390.7334
        49.5004         37.5004
   -710405.92646   -538191.74643  25187674.8984   25187674.5744       2009.4624
        40.7504         20.5004
  -6840758.80146  -5308609.47343  23733386.0784   23733385.9734       2635.0564
        41.7504         23.0004
 10  5 26 22 53 30.0000000  0 11G03G06G07G08G10G13G19G20G23G05G28
   -714277.24247   -552105.52345  22220161.2424   22220159.6054       -641.8414
        45.5004         31.0004
   1525546.56346   1189623.88744  23407384.8754   23407384.1094      -1325.5554
        40.7504         26.7504
  -1820821.27748  -1414621.99246  21114117.3754   21114114.7544        373.9374
        50.2504         40.0004
  -4978946.64547  -3863103.98844  23094254.0004   23094252.6604       1618.7784
        44.5004         29.2504
  -3897274.22747  -3020441.25044  23157483.6564   23157482.7814        579.3994
        44.0004         28.7504
    504327.50048    395011.68846  20272696.2344   20272693.0634       -862.1134
        51.7504         40.7504
  -5225313.79347  -4053409.51645  22747001.5634   22746998.3094       1331.8274
        45.0004         31.7504
  11079646.77746   8614306.04743  25325813.9384   25325819.4884      -3797.4534
        38.0004         18.2504
   4892663.32048   3806854.62146  21133626.5784   21133622.3364      -2405.3224
        50.2504         37.5004
   -770296.66846   -584859.82043  25176278.1564   25176277.6054       1996.3584
        40.0004         20.7504
  -6919576.11347  -5370025.43044  23718387.2584   23718387.1374       2627.2444
        42.0004         24.2504
 10  5 26 22 54  0.0000000  0 11G03G06G07G08G10G13G19G20G23G05G28
   -694417.65647   -536630.50845  22223940.3594   22223939.0434       -661.9864
        45.0004         31.2504
   1565821.59846   1221007.01644  23415049.4384   23415048.1844      -1342.5014
        40.2504         26.5004
  -1831870.24248  -1423231.57046  21112014.4844   21112011.7974        368.2994
        50.0004         40.2504
  -5027428.16047  -3900881.75845  23085028.1024   23085026.7774       1616.0514
        44.5004         30.0004
  -3914107.79347  -3033558.30944  23154280.4774   23154278.8324        561.1194
        42.7504         28.5004
    530666.64148    415535.68446  20277708.5084   20277705.3674       -877.9714
        51.7504         40.7504
  -5264847.53547  -4084214.98445  22739478.5784   22739475.3094       1317.7914
        44.5004         31.7504
  11193430.08246   8702967.99242  25347467.2734   25347471.5004      -3792.7774
        37.5004         17.2504
   4965254.19948   3863418.90246  21147440.3674   21147436.1094      -2419.6964
        50.0004         38.0004
   -829797.97346   -631224.48043  25164955.9224   25164954.5354       1983.3774
        41.2504         21.0004
  -6998163.15246  -5431261.97744  23703432.1094   23703432.3134       2619.5684
        41.7504         24.5004
 10  5 26 22 54 30.0000000  0 11G03G06G07G08G10G13G19G20G23G05G28
   -673949.45747   -520681.26245  22227835.4774   22227834.0744       -682.2734
        46.5004         30.7504
   1606608.61346   1252789.11344  23422810.6884   23422809.7304      -1359.5674
        40.2504         25.5004
  -1842746.26248  -1431706.37946  21109945.1644   21109942.0824        362.5344
        50.0004         40.2504
  -5075824.53947  -3938593.18445  23075818.5704   23075816.9534       1613.2134
        45.2504         30.2504
  -3930388.91447  -3046244.88344  23151182.2504   23151181.2384        542.7044
        42.2504         28.0004
    557486.07048    436433.92646  20282812.3594   20282809.4064       -893.9814
        51.7504         41.5004
  -5303953.52347  -4114687.15645  22732037.3204   22732033.5904       1303.5334
        46.0004         32.7504
  11307074.94546   8791522.05143  25369093.1954   25369098.3834      -3788.1624
        37.5004         18.2504
   5038279.21548   3920321.48046  21161336.5944   21161332.3244      -2434.1674
        50.0004         37.7504
   -888904.19946   -677281.25443  25153707.9774   25153706.7074       1970.2084
        40.2504         19.2504
  -7076514.84046  -5492315.11344  23688523.0084   23688522.0944       2611.7234
        41.2504         24.0004
 10  5 26 22 55  0.0000000  0 11G03G06G07G08G10G13G19G20G23G05G28
   -652878.62147   -504262.42245  22231845.1724   22231843.4494       -702.3614
        46.5004         31.0004
   1647900.96146   1284964.97344  23430668.3134   23430666.9304      -1376.4124
        40.7504         25.2504
  -1853455.54748  -1440051.26646  21107906.9924   21107904.2154        356.9764
        50.0004         40.2504
  -5124141.38747  -3976242.63345  23066624.0704   23066623.1214       1610.5624
        44.2504         30.0004
  -3946122.62147  -3058504.91444  23148188.3284   23148186.5084        524.4574
        44.0004         29.5004
    584780.33248    457702.17646  20288005.9144   20288003.1174       -909.8094
        51.0004         41.0004
  -5342635.27747  -4144828.71945  22724676.0004   22724672.7774       1289.3924
        45.0004         32.0004
  11420572.51646   8879961.37142  25390690.7664   25390695.8634      -3783.2524
        36.7504         17.7504
   5111731.54748   3977557.03946  21175314.0634   21175310.1054      -2448.4114
        50.0004         37.5004
   -947619.20246   -723033.18143  25142535.1334   25142533.9534       1957.1674
        40.0004         21.0004
  -7154635.87946  -5553188.53543  23673656.4064   23673656.3714       2604.0354
        40.7504         23.5004
 10  5 26 22 55 30.0000000  0 11G03G06G07G08G10G13G19G20G23G05G28
   -631200.91447   -487370.69145  22235970.3364   22235969.1024       -722.5904
        45.5004         31.0004
   1689702.19146   1317537.33644  23438623.3054   23438621.7234      -1393.3744
        41.2504         25.5004
  -1863993.86748  -1448262.93046  21105901.7504   21105899.1214        351.2774
        49.2504         40.0004
  -5172375.05947  -4013827.27345  23057445.5164   23057444.5354       1607.7894
        44.7504         30.5004
  -3961304.43047  -3070334.87944  23145299.3984   23145297.8444        506.0604
        44.0004         28.0004
    612554.58648    479344.44546  20293291.5164   20293288.3484       -925.8084
        51.2504         41.2504
  -5380885.89547  -4174634.37145  22717397.0474   22717393.6374       1275.0214
        45.7504         32.5004
  11533925.03546   8968287.65242  25412261.2504   25412266.8054      -3778.4174
        37.5004         17.2504
   5185614.66848   4035128.27046  21189373.4224   21189369.2194      -2462.7714
        50.5004         37.5004
  -1005936.47346   -768475.18043  25131437.4454   25131436.2194       1943.9094
        38.7504         21.0004
  -7232520.50847  -5613877.72344  23658835.6334   23658835.6414       2596.1544
        42.0004         26.0004
 10  5 26 22 56  0.0000000  0 10G03G06G07G08G10G13G19G23G05G28
   -608924.27347   -470012.25445  22240209.2734   22240207.1954       -742.5554
        45.5004         30.5004
   1732003.40246   1350499.31644  23446672.6484   23446671.5704      -1410.0404
        41.0004         25.5004
  -1874369.50448  -1456347.83646  21103927.3834   21103924.5704        345.8554
        50.5004         40.0004
  -5220533.95347  -4051353.65244  23048281.3674   23048279.9304       1605.2964
        44.5004         29.7504
  -3975942.04347  -3081740.79744  23142514.0314   23142512.5124        487.9204
        43.5004         29.2504
    640801.08248    501354.69546  20298666.5474   20298663.3984       -941.5504
        51.0004         41.5004
  -5418711.06247  -4204108.48045  22710199.1884   22710195.9344       1260.8394
        46.7504         32.2504
   5259919.71948   4093028.28546  21203513.3674   21203509.3794      -2476.8354
        49.7504         37.5004
  -1063862.43446   -813612.26643  25120414.4694   25120412.9804       1930.8654
        40.0004         20.2504
  -7310175.41846  -5674387.91044  23644058.2974   23644057.8674       2588.4974
        41.2504         24.0004
 10  5 26 22 56 30.0000000  0 10G03G06G07G08G10G13G19G23G05G28
   -586042.20347   -452182.07045  22244564.0474   22244562.0394       -762.7364
        45.7504         30.5004
   1774810.90246   1383855.79344  23454818.3674   23454817.3404      -1426.9174
        40.7504         27.0004
  -1884575.89848  -1464300.85946  21101985.0864   21101982.4494        340.2134
        48.0004         40.0004
  -5268611.59847  -4088816.69945  23039132.6094   23039130.8204       1602.5884
        45.5004         30.2504
  -3990028.06247  -3092716.92244  23139833.5314   23139831.9574        469.5344
        42.2504         29.5004
    669527.09848    523738.59446  20304132.8444   20304129.8014       -957.5344
        51.0004         41.2504
  -5456101.57447  -4233243.90645  22703083.3364   22703080.5044       1246.3504
        46.2504         33.0004
   5334652.63348   4151261.69546  21217734.5234   21217730.4804      -2491.0974
        49.7504         37.5004
  -1121388.47746   -858437.71543  25109467.4224   25109466.4264       1917.5354
        41.2504         21.5004
  -7387592.62147  -5734712.87944  23629326.7814   23629325.8484       2580.5734
        42.0004         25.0004
 10  5 26 22 57  0.0000000  0 10G03G06G07G08G10G13G19G23G05G28
   -562556.48047   -433881.50045  22249032.8524   22249031.1334       -782.8574
        47.5004         30.7504
   1818121.75046   1417604.48444  23463060.5554   23463059.6954      -1443.6954
        40.5004         25.5004
  -1894614.91848  -1472123.46146  21100074.8364   21100071.7854        334.6344
        49.5004         39.5004
  -5316610.08647  -4126218.07045  23029998.7344   23029996.9924       1599.9504
        46.0004         31.5004
  -4003563.77747  -3103264.23044  23137258.0314   23137256.4774        451.1904
        44.2504         29.2504
    698731.58248    546495.32846  20309690.5474   20309687.6294       -973.4834
        52.5004         41.7504
  -5493056.73847  -4262040.07845  22696051.9694   22696048.2114       1231.8394
        44.0004         32.2504
   5409810.40248   4209826.15246  21232036.8284   21232032.8554      -2505.2594
        50.5004         37.7504
  -1178514.32846   -902951.35943  25098597.0004   25098596.1844       1904.1954
        39.7504         21.0004
  -7464772.41047  -5794852.85944  23614640.0554   23614639.1134       2572.6604
        42.2504         24.7504
 10  5 26 22 57 30.0000000  0 10G03G06G07G08G10G13G19G23G05G28
   -538461.51647   -415106.18745  22253617.9304   22253616.6254       -803.1654
        47.0004         30.2504
   1861940.51646   1451748.99644  23471398.6644   23471397.8874      -1460.6264
        40.5004         25.2504
  -1904481.77048  -1479811.90246  21098197.3364   21098194.2114        328.8954
        50.5004         40.0004
  -5364524.68047  -4163554.07045  23020881.2194   23020878.8164       1597.1534
        45.5004         31.2504
  -4016544.14547  -3113378.79744  23134787.5164   23134786.3244        432.6794
        43.7504         29.0004
    728419.84848    569629.03146  20315339.9304   20315337.2274       -989.6094
        51.7504         41.5004
  -5529569.07447  -4290491.22345  22689103.5944   22689100.2304       1217.0784
        47.0004         32.0004
   5485397.11748   4268724.86346  21246420.5084   21246416.4494      -2519.5574
        50.0004         37.7504
  -1235233.01246   -947147.71543  25087803.8134   25087802.4494       1890.6234
        40.0004         21.2504
  -7541708.33246  -5854802.81244  23599998.8834   23599998.3874       2564.5314
        41.5004         26.0004
 10  5 26 22 58  0.0000000  0 10G03G06G07G08G10G13G19G23G05G28
   -513761.98047   -395859.79745  22258318.3754   22258316.3244       -823.3184
        46.7504         31.5004
   1906262.06346   1486285.23444  23479832.9694   23479832.3284      -1477.3854
        39.0004         25.5004
  -1914180.60948  -1487369.42646  21096351.4224   21096348.8714        323.2954
        49.7504         39.5004
  -5412359.57447  -4200827.96945  23011777.4384   23011776.1454       1594.4964
        45.2504         31.7504
  -4028972.90247  -3123063.53145  23132422.5474   23132421.2274        414.2924
        43.2504         30.0004
    758588.25848    593136.87546  20321080.5944   20321078.0234      -1005.6144
        51.0004         41.2504
  -5565640.39547  -4318598.70345  22682238.8674   22682236.2074       1202.3774
        47.0004         32.0004
   5561408.08648   4327954.15246  21260885.0474   21260880.8874      -2533.6994
        49.7504         37.5004
  -1291546.94546   -991028.66843  25077088.0314   25077086.2114       1877.1314
        40.0004         21.2504
  -7618403.51246  -5914565.16844  23585404.0234   23585403.8054       2556.5064
        41.0004         25.7504
 10  5 26 22 58 30.0000000  0 10G03G06G07G08G10G13G19G23G05G28
   -488453.84047   -376139.15645  22263133.8364   22263132.7304       -843.6054
        47.2504         30.5004
   1951089.85246   1521215.98044  23488363.2114   23488362.6604      -1494.2604
        40.2504         26.0004
  -1923707.60548  -1494793.05146  21094538.7504   21094535.4264        317.5674
        50.0004         39.5004
  -5460111.16047  -4238036.94945  23002690.8914   23002689.8914       1591.7204
        46.2504         31.2504
  -4040845.59447  -3132314.98444  23130163.2584   23130162.0204        395.7564
        43.7504         28.5004
    789241.52748    617022.52746  20326913.8524   20326910.9804      -1021.7764
        51.0004         41.5004
  -5601264.30147  -4346357.55145  22675460.0234   22675457.3444       1187.4644
        46.5004         32.5004
   5637846.45348   4387516.47746  21275430.9454   21275426.5634      -2547.9464
        50.0004         37.7504
  -1347450.01246  -1034589.48043  25066448.5634   25066448.5354       1863.4364
        39.0004         21.5004
  -7694852.46547  -5974135.65644  23570856.7664   23570855.7234       2548.2984
        42.2504         26.0004
 10  5 26 22 59  0.0000000  0 10G03G06G07G08G10G13G19G23G05G28
   -462541.53147   -355947.74645  22268065.2814   22268063.4734       -863.7444
        46.5004         31.0004
   1996418.52046   1556537.01644  23496989.3594   23496988.1374      -1510.9564
        40.5004         26.2504
  -1933067.45348  -1502086.43046  21092757.6564   21092754.6024        311.9954
        50.5004         39.5004
  -5507784.50047  -4275184.95345  22993619.1484   22993617.5514       1589.1114
        46.5004         31.0004
  -4052166.44147  -3141136.43044  23128009.3054   23128007.4964        377.3624
        44.2504         29.0004
    820375.63748    641282.86346  20332838.7894   20332835.6914      -1037.8044
        51.0004         41.2504
  -5636442.73447  -4373769.27345  22668766.1804   22668762.6994       1172.6144
        47.2504         33.2504
   5714706.81348   4447407.64846  21290056.4534   21290052.4884      -2562.0124
        50.0004         38.0004
  -1402945.13746  -1077832.41843  25055888.6954   25055887.9144       1849.8384
        40.0004         20.7504
  -7771058.27347  -6033516.68744  23556355.5784   23556353.8054       2540.1944
        42.5004         26.0004
 10  5 26 22 59 30.0000000  0 10G03G06G07G08G10G13G19G23G05G28
   -436022.97747   -335283.94145  22273111.5234   22273109.8794       -883.9524
        47.0004         31.2504
   2042249.74646   1592249.64144  23505710.5704   23505709.9844      -1527.7084
        40.0004         25.2504
  -1942257.63348  -1509247.59846  21091008.5634   21091005.8594        306.3394
        50.0004         40.0004
  -5555376.70747  -4312269.74645  22984562.4534   22984560.8204       1586.4074
        46.0004         30.5004
  -4062932.57047  -3149525.61744  23125960.2034   23125959.1334        358.8714
        44.2504         29.0004
    851993.52748    665920.17246  20338855.1334   20338851.9184      -1053.9304
        51.0004         40.7504
  -5671170.75047  -4400830.03145  22662157.4534   22662154.0594       1157.6014
        46.0004         32.5004
   5791990.64548   4507628.77746  21304763.4694   21304759.2934      -2576.1284
        50.0004         37.5004
  -1458027.48046  -1120753.67643  25045406.7274   25045406.2424       1836.0784
        40.5004         21.2504
  -7847017.17247  -6092705.33244  23541900.3914   23541899.5084       2531.9634
        42.5004         27.0004
 10  5 26 23  0  0.0000000  0 10G03G06G07G08G10G13G19G23G05G28
   -408899.28147   -314148.59045  22278272.7194   22278271.1764       -904.1234
        47.2504         31.5004
   2088581.13346   1628352.01244  23514526.7194   23514526.1254      -1544.3804
        40.7504         27.5004
  -1951279.17248  -1516277.35946  21089291.9924   21089288.8754        300.7184
        49.5004         40.2504
  -5602889.53147  -4349292.67245  22975521.0004   22975519.3484       1583.7614
        46.5004         31.2504
  -4073144.69947  -3157483.11744  23124017.7034   23124015.4804        340.4044
        45.0004         28.5004
    884094.32848    690933.76246  20344963.7894   20344961.2304      -1070.0274
        50.7504         41.0004
  -5705447.34847  -4427539.02345  22655635.3134   22655631.4414       1142.5534
        46.7504         32.5004
   5869695.33248   4568177.84846  21319550.1174   21319546.1844      -2590.1564
        49.2504         37.7504
  -1512696.60546  -1163352.93743  25035003.3834   25035002.3524       1822.3044
        39.2504         22.0004
  -7922729.09447  -6151701.51644  23527493.1094   23527491.9454       2523.7314
        43.0004         27.2504
 10  5 26 23  0 30.0000000  0 10G03G06G07G08G10G13G19G23G05G28
   -381168.19547   -292539.94945  22283549.8444   22283548.0394       -924.3704
        46.5004         31.2504
   2135414.70346   1664845.69944  23523439.0474   23523438.3284      -1561.1194
        41.0004         26.7504
  -1960130.20348  -1523174.25846  21087607.7114   21087604.6644        295.0344
        50.0004         39.5004
  -5650321.32447  -4386252.45745  22966495.3054   22966493.8094       1581.0604
        45.7504         31.7504
  -4082800.62947  -3165007.21144  23122179.7274   23122178.2234        321.8644
        44.5004         28.7504
    916680.77748    716325.78546  20351165.1414   20351161.9614      -1086.2154
        51.0004         41.0004
  -5739267.65647  -4453892.47745  22649199.0084   22649195.4884       1127.3444
        47.2504         32.5004
   5947822.52348   4629056.14146  21334416.8134   21334413.3554      -2604.2404
        49.5004         37.5004
  -1566947.97746  -1205626.73443  25024680.1484   25024678.9534       1808.3794
        39.7504         22.5004
  -7998190.19147  -6210502.24644  23513133.3834   23513131.9964       2515.3704
        42.7504         26.2504
 10  5 26 23  1  0.0000000  0 10G03G06G07G08G10G13G19G23G05G28
   -352838.78547   -270465.08245  22288940.8444   22288938.9964       -944.3144
        47.2504         30.0004
   2182740.62546   1701723.02744  23532445.4614   23532444.3874      -1577.5314
        40.5004         26.2504
  -1968819.18748  -1529944.88746  21085953.7734   21085951.2424        289.6334
        49.0004         40.2504
  -5697680.41847  -4423155.60245  22957482.6414   22957480.8714       1578.6364
        46.7504         31.5004
  -4091908.59047  -3172104.32444  23120446.6334   23120444.6094        303.5994
        44.2504         29.0004
    949745.09848    742090.18446  20357456.4534   20357453.4804      -1102.1444
        51.0004         41.2504
  -5772637.75047  -4479895.10945  22642848.3594   22642845.5004       1112.3364
        46.5004         32.7504
   6026363.03948   4690256.50446  21349362.9924   21349359.1024      -2618.0174
        48.2504         37.5004
  -1620788.58646  -1247580.44143  25014434.8674   25014433.4654       1794.6874
        40.0004         22.0004
  -8073407.99647  -6269113.41444  23498819.0944   23498818.7814       2507.2604
        43.5004         27.2504
 10  5 26 23  1 30.0000000  0 10G03G06G07G08G10G13G19G23G05G28
   -323906.51247   -247920.44945  22294446.6484   22294444.9844       -964.4094
        46.7504         30.5004
   2230562.54346   1738986.84844  23541545.7424   23541544.5204      -1594.0644
        41.5004         26.5004
  -1977341.68748  -1536585.78146  21084332.1884   21084329.2234        284.0834
        49.5004         39.5004
  -5744962.39547  -4459998.65245  22948485.3754   22948483.3094       1576.0664
        46.0004         31.7504
  -4100463.65647  -3178770.59444  23118818.2734   23118816.4924        285.1694
        44.5004         28.2504
    983291.85948    768230.50846  20363840.4224   20363837.6374      -1118.2254
        51.0004         41.5004
  -5805551.16447  -4505541.85945  22636586.3284   22636582.3634       1097.1144
        47.5004         33.2504
   6105320.05548   4751781.42246  21364388.0314   21364384.0044      -2631.9014
        50.0004         37.0004
  -1674212.06246  -1289209.08243  25004268.8134   25004267.6024       1780.7834
        40.7504         22.7504
  -8148376.68447  -6327530.46544  23484553.0234   23484552.1954       2498.9564
        43.0004         27.7504
 10  5 26 23  2  0.0000000  0 10G03G06G07G08G10G13G19G23G05G28
   -294373.27347   -224907.52345  22300066.4224   22300065.0394       -984.4414
        46.0004         31.0004
   2278878.38346   1776635.57044  23550739.9844   23550738.5084      -1610.5284
        40.7504         26.2504
  -1985699.34848  -1543098.23846  21082741.6564   21082738.7464        278.5894
        49.7504         40.0004
  -5792169.17647  -4496783.11745  22939502.7424   22939500.7234       1573.5594
        46.0004         32.0004
  -4108467.18447  -3185007.09044  23117295.3674   23117293.4184        266.7844
        45.0004         28.2504
   1017320.11348    794746.02746  20370315.6334   20370313.1134      -1134.2754
        51.7504         41.2504
  -5838006.69147  -4530831.86745  22630409.2814   22630406.3634       1081.8514
        46.0004         33.5004
   6184691.11748   4813628.96546  21379492.0554   21379487.5234      -2645.7024
        48.7504         36.7504
  -1727217.95746  -1330512.33643  24994181.6884   24994180.7774       1766.8634
        37.7504         22.5004
  -8223096.12947  -6385753.28544  23470334.1884   23470333.5124       2490.6484
        43.5004         26.5004
 10  5 26 23  2 30.0000000  0 10G03G06G07G08G10G13G19G23G05G28
  -1839654.17647  -1429022.52345  22006009.3134   22006007.5784      -1004.6374
        45.5004         31.0004
    752272.73046    587072.69944  23260236.4694   23260235.2074      -1627.1454
        41.2504         26.5004
  -3569308.35248  -2777079.27046  20781391.1414   20781388.3754        272.9674
        49.0004         40.0004
  -7414718.70347  -5761107.37945  22630741.0164   22630739.9734       1570.9844
        46.2504         30.7504
  -5691335.07047  -4418410.64144  22816085.9774   22816083.8594        248.2634
        44.5004         28.0004
   -523584.42648   -405958.82446  20077091.2504   20077088.8364      -1150.5154
        50.7504         41.2504
  -7445419.27047  -5783361.09445  22324529.5004   22324525.4144       1066.4194
        46.5004         33.2504
   4689062.02748   3648203.66446  21094882.7664   21094879.1024      -2659.6974
        49.0004         36.7504
  -3355222.51246  -2599087.28143  24684382.9064   24684381.7854       1752.8184
        38.5004         22.2504
  -9872983.66047  -7671379.82444  23156370.8914   23156370.4144       2482.2514
        44.0004         27.5004
 10  5 26 23  3  0.0000000  0 10G03G06G07G08G10G13G19G23G05G28
  -1808915.59447  -1405070.37945  22011858.2424   22011856.7464      -1024.6194
        46.7504         31.7504
    801577.11746    625491.69544  23269618.8984   23269617.5434      -1643.4804
        41.2504         26.0004
  -3577332.39848  -2783331.77046  20779864.2974   20779861.0784        267.4684
        49.5004         40.0004
  -7461772.21547  -5797772.41445  22621787.0394   22621785.6254       1568.4504
        45.5004         31.0004
  -5698230.93447  -4423784.02044  22814772.9844   22814772.1564        229.8624
        45.2504         29.7504
   -488588.10248   -378688.97346  20083751.0004   20083748.2704      -1166.5444
        51.0004         40.7504
  -7476948.41047  -5807929.21945  22318528.8054   22318525.8284       1050.9714
        47.2504         33.0004
   4769262.25448   3710697.32046  21110144.3444   21110140.6294      -2673.3414
        49.7504         37.5004
  -3407384.30146  -2639732.79343  24674456.9064   24674455.3164       1738.7264
        40.7504         22.7504
  -9947197.20347  -7729208.43044  23142248.5164   23142247.3954       2473.7854
        44.5004         27.7504
 10  5 26 23  3 30.0000000  0 10G03G06G07G08G10G13G19G23G05G28
  -1777574.26647  -1380648.56645  22017822.9144   22017820.7344      -1044.7114
        46.5004         31.2504
    851375.21946    664295.40644  23279094.5314   23279094.1174      -1659.9374
        40.5004         26.2504
  -3585188.84448  -2789453.66846  20778369.2974   20778366.0634        261.8824
        49.5004         39.7504
  -7508748.07047  -5834376.94145  22612848.0314   22612846.4414       1565.8624
        46.0004         32.0004
  -5704572.18447  -4428725.24244  22813566.4774   22813565.0944        211.3754
        44.7504         28.0004
   -453106.37148   -351040.87946  20090503.2734   20090499.6054      -1182.7244
        52.0004         40.7504
  -7508010.11747  -5832133.09045  22312618.2734   22312614.3324       1035.3904
        46.5004         33.5004
   4849876.24648   3773513.38346  21125485.3834   21125481.1804      -2687.1334
        50.0004         37.2504
  -3459120.30946  -2680046.53143  24664611.7894   24664610.3714       1724.5344
        39.5004         21.7504
 -10021154.96147  -7786837.75844  23128174.9304   23128173.9184       2465.2594
        44.5004         27.5004
 10  5 26 23  4  0.0000000  0 10G03G06G07G08G10G13G19G23G05G28
  -1745635.73447  -1355761.39845  22023900.4614   22023898.7774      -1064.6184
        45.0004         31.0004
    901660.44547    703478.68044  23288664.6254   23288662.9384      -1676.1744
        42.5004         26.2504
  -3592882.88348  -2795449.01646  20776904.7894   20776902.1054        256.4684
        50.5004         40.5004
  -7555652.12947  -5870925.50845  22603922.9454   22603921.0044       1563.4694
        46.2504         32.7504
  -5710363.56247  -4433237.99645  22812465.3754   22812462.9104        193.0464
        45.7504         30.0004
   -417144.12548   -323018.36346  20097346.2504   20097343.4844      -1198.7424
        51.0004         41.0004
  -7538607.43047  -5855975.11345  22306795.8444   22306792.7034       1019.9104
        47.0004         33.0004
   4930897.46148   3836646.76246  21140903.0864   21140899.1094      -2700.7074
        50.2504         37.2504
  -3510433.93446  -2720031.15643  24654846.8674   24654845.2344       1710.4544
        39.0004         22.0004
 -10094861.41047  -7844271.23444  23114149.2424   23114148.0394       2456.8824
        44.0004         27.7504
 10  5 26 23  4 30.0000000  0 10G03G06G07G08G10G13G19G23G05G28
  -1713092.04747  -1330402.68445  22030093.7274   22030091.4454      -1084.7904
        46.5004         31.2504
    952439.79746    743046.99644  23298326.5944   23298325.8594      -1692.6454
        41.5004         25.7504
  -3600406.72348  -2801311.74646  20775473.2504   20775469.8874        250.7954
        50.5004         40.0004
  -7602476.27347  -5907411.81245  22595012.1024   22595010.4534       1560.8054
        46.0004         32.0004
  -5715597.45347  -4437316.34044  22811468.3364   22811466.8554        174.4634
        45.5004         28.7504
   -380693.19548   -294615.05946  20104283.1094   20104280.0274      -1215.0314
        51.0004         40.7504
  -7568729.97747  -5879447.18445  22301063.6954   22301059.9534       1004.0854
        46.7504         33.0004
   5012332.90248   3900102.91846  21156399.4304   21156395.6484      -2714.5154
        50.5004         36.5004
  -3561315.59046  -2759679.17643  24645164.6024   24645163.2194       1696.0554
        39.0004         22.7504
 -10168307.02047  -7901501.46944  23100172.5944   23100171.4614       2448.1874
        45.0004         27.0004
 10  5 26 23  5  0.0000000  0 10G03G06G07G08G10G13G19G23G05G28
  -1679951.24247  -1304578.68445  22036399.8284   22036398.5164      -1104.6934
        46.0004         31.0004
   1003705.30947    782994.13744  23308082.4224   23308081.1644      -1708.8504
        42.0004         25.7504
  -3607767.79348  -2807047.63746  20774072.3204   20774069.4654        245.3694
        49.5004         40.0004
  -7649228.57047  -5943842.13745  22586115.2114   22586113.7234       1558.4104
        46.5004         32.5004
  -5720281.20747  -4440966.02045  22810577.3834   22810575.5944        156.1254
        42.7504         30.0004
   -343760.53148   -265836.36746  20111311.1484   20111307.9264      -1231.0894
        50.5004         41.2504
  -7598383.21147  -5902553.57045  22295420.9534   22295417.3054        988.4414
        47.5004         33.0004
   5094174.35548   3963875.44146  21171973.5234   21171969.5664      -2728.0484
        50.7504         37.0004
  -3611770.91046  -2798994.99243  24635562.9144   24635561.9614       1681.8444
        39.2504         22.5004
 -10241497.69947  -7958533.06244  23086244.6804   23086243.9884       2439.6894
        44.7504         27.7504
 10  5 26 23  5 30.0000000  0 10G03G06G07G08G10G13G19G23G05G28
  -1646206.52347  -1278284.08645  22042820.9064   22042819.3874      -1124.8244
        44.0004         31.0004
   1055462.63346    823324.49644  23317931.4304   23317930.1994      -1725.2444
        41.7504         26.0004
  -3614958.80948  -2812651.01246  20772703.9924   20772701.2624        239.7014
        51.0004         40.0004
  -7695901.75847  -5980210.81245  22577233.7114   22577232.2814       1555.7734
        46.5004         32.5004
  -5724407.46547  -4444181.27744  22809791.8674   22809790.2774        137.5424
        46.2504         29.7504
   -306338.71148   -236676.51646  20118431.7504   20118429.0084      -1247.3944
        49.0004         41.5004
  -7627557.58247  -5925286.78145  22289868.9694   22289865.3674        972.4794
        46.0004         33.0004
   5176427.54748   4027968.80946  21187626.0164   21187622.3054      -2741.7734
        50.7504         36.5004
  -3661791.08646  -2837971.72743  24626045.0704   24626043.0864       1667.3394
        40.5004         21.5004
 -10314425.47347  -8015359.78944  23072367.1094   23072366.1604       2430.9264
        45.2504         28.2504
 10  5 26 23  6  0.0000000  0 10G03G06G07G08G10G13G19G23G05G28
  -1611864.02747  -1251523.70345  22049356.5004   22049354.7894      -1144.7504
        45.2504         31.0004
   1107705.40647    864033.15644  23327873.2814   23327871.5634      -1741.4264
        42.5004         26.2504
  -3621985.79748  -2818126.57846  20771366.6024   20771363.7544        234.2334
        50.7504         39.7504
  -7742501.85947  -6016522.53145  22568366.0634   22568364.2114       1553.3374
        45.7504         32.0004
  -5727981.84047  -4446966.49644  22809111.6644   22809110.1684        119.1464
        44.5004         27.7504
   -268433.42248   -207139.93746  20125644.9614   20125642.1764      -1263.5104
        50.0004         40.7504
  -7656256.51647  -5947649.54745  22284407.4534   22284404.2934        956.6314
        46.7504         33.0004
   5259085.85948   4092377.84446  21203355.2424   21203351.3444      -2755.2774
        50.5004         37.2504
  -3711380.10246  -2876612.51243  24616607.4694   24616607.0434       1652.9674
        39.0004         22.7504
 -10387094.64847  -8071985.01644  23058538.3364   23058537.5124       2422.3064
        44.7504         28.5004
 10  5 26 23  6 30.0000000  0 10G03G06G07G08G10G13G19G23G05G28
  -1576918.76647  -1224293.62945  22056005.8204   22056004.8324      -1164.8424
        44.0004         30.5004
   1160437.85947    905123.35944  23337908.0164   23337906.7774      -1757.7484
        43.0004         25.7504
  -3628843.03148  -2823469.86746  20770062.3834   20770059.0004        228.5744
        50.7504         39.5004
  -7789023.39847  -6052773.04745  22559512.9144   22559511.5634       1550.7184
        47.0004         32.0004
  -5730999.19147  -4449317.67644  22808538.0394   22808536.3094        100.5784
        46.0004         28.7504
   -230038.70348   -177221.98846  20132951.5784   20132948.5124      -1279.8244
        48.7504         40.5004
  -7684472.72747  -5969636.16845  22279038.3754   22279034.4774        940.5404
        46.5004         33.0004
   5342153.30548   4157105.69146  21219162.4924   21219158.6414      -2768.9154
        50.7504         36.5004
  -3760530.25446  -2914911.32043  24607255.4224   24607254.1724       1638.3384
        38.5004         22.7504
 -10459498.50447  -8128403.49644  23044759.8674   23044759.0984       2413.4624
        44.7504         26.7504
 10  5 26 23  7  0.0000000  0 10G03G06G07G08G10G13G19G23G05G28
  -1541378.09847  -1196599.60945  22062769.4534   22062768.2704      -1184.6894
        45.5004         30.7504
   1213652.14147    946589.03144  23348033.4304   23348032.8714      -1773.8094
        43.0004         27.0004
  -3635536.87948  -2828685.84846  20768788.1174   20768785.1954        223.1284
        51.2504         40.2504
  -7835472.84047  -6088967.38345  22550674.2344   22550672.7544       1548.3154
        45.5004         32.0004
  -5733465.34047  -4451239.34444  22808068.0554   22808066.3324         82.2054
        45.5004         29.0004
   -191160.76248   -146927.50446  20140349.6254   20140346.8954      -1295.9314
        49.7504         41.0004
  -7712209.94147  -5991249.53545  22273760.1174   22273756.5664        924.5744
        47.5004         33.5004
   5425622.70748   4222146.74646  21235046.3444   21235042.1914      -2782.3134
        51.2504         36.5004
  -3809247.15646  -2952872.53143  24597985.1954   24597983.1294       1623.8974
        39.0004         22.5004
 -10531642.35247  -8184619.37944  23031032.2274   23031030.5434       2404.7954
        45.0004         27.0004
 10  5 26 23  7 30.0000000  0 10G03G06G07G08G10G13G19G23G05G28
  -1505233.81647  -1168435.23445  22069647.7974   22069645.9064      -1204.8094
        46.2504         31.0004
   1267356.01647    988436.16844  23358252.9694   23358252.1644      -1790.1294
        43.2504         26.0004
  -3642058.96548  -2833767.97346  20767547.1884   20767543.9414        217.4034
        51.5004         40.0004
  -7881842.36747  -6125099.43445  22541850.1644   22541848.8164       1545.6514
        46.2504         31.7504
  -5735372.28147  -4452725.27044  22807705.8364   22807703.7194         63.5654
        45.7504         29.5004
   -151790.96548   -116249.75446  20147841.4614   20147838.5864      -1312.3274
        50.0004         41.0004
  -7739457.72747  -6012481.53545  22268575.2424   22268571.3914        908.2604
        47.0004         33.5004
   5509501.41848   4287506.74246  21251007.8594   21251003.8554      -2795.9574
        50.5004         36.2504
  -3857520.43046  -2990488.02743  24588799.6644   24588796.8554       1609.1094
        40.5004         22.5004
 -10603516.51647  -8240625.12944  23017354.5634   23017353.1644       2395.8054
        45.0004         27.5004
 10  5 26 23  8  0.0000000  0 10G03G06G07G08G10G13G19G23G05G28
  -1468492.73847  -1139805.82445  22076638.5784   22076637.1954      -1224.7034
        46.0004         30.2504
   1321541.78947   1030658.84044  23368564.2424   23368563.5434      -1806.1924
        42.5004         24.7504
  -3648415.55948  -2838721.14846  20766337.4924   20766334.2854        211.8864
        51.0004         40.0004
  -7928138.53947  -6161174.33645  22533040.3284   22533038.3984       1543.2064
        46.0004         31.5004
  -5736726.43047  -4453780.45344  22807448.2344   22807446.4064         45.1384
        46.5004         28.5004
   -111935.42648    -85193.50446  20155425.5944   20155422.7974      -1328.5184
        50.0004         41.2504
  -7766220.38347  -6033335.52345  22263481.7504   22263478.3444        892.0894
        47.0004         33.5004
   5593781.55548   4353179.54746  21267045.9144   21267041.7774      -2809.3384
        51.0004         36.0004
  -3905354.19146  -3027761.05943  24579696.8524   24579694.6254       1594.4594
        40.5004         23.0004
 -10675126.16047  -8296424.74244  23003727.2974   23003726.4024       2386.9884
        45.2504         26.5004
 10  5 26 23  8 30.0000000  0 10G03G06G07G08G10G13G19G23G05G28
  -1431150.89847  -1110708.29345  22083744.5704   22083743.3594      -1244.7284
        46.2504         30.5004
   1376213.34047   1073260.04744  23378968.1024   23378966.7154      -1822.3854
        43.0004         24.2504
  -3654601.91848  -2843541.67646  20765160.0314   20765157.0044        206.2124
        50.7504         40.5004
  -7974356.25047  -6197188.09445  22524245.2814   22524243.5904       1540.5904
        45.7504         32.0004
  -5737523.07047  -4454401.20744  22807296.2114   22807294.7234         26.5554
        46.5004         28.5004
    -71588.88348    -53754.64846  20163103.3984   20163100.4654      -1344.8854
        50.0004         41.0004
  -7792491.07047  -6053806.14845  22258483.0164   22258479.4654        875.6904
        47.5004         33.5004
   5678466.75048   4419167.97746  21283161.2114   21283157.2384      -2822.8404
        50.2504         36.2504
  -3952742.27046  -3064686.80943  24570679.0234   24570676.7234       1579.6034
        37.7504         22.5004
 -10746465.33247  -8352013.60944  22990152.3834   22990151.2584       2377.9724
        45.7504         27.5004
 10  5 26 23  9  0.0000000  0 10G03G06G07G08G10G13G19G23G05G28
  -1393215.90647  -1081148.56645  22090963.7814   22090962.0594      -1264.5004
        43.5004         30.7504
   1431361.94546   1116232.97344  23389463.0554   23389461.5824      -1838.2874
        41.7504         24.0004
  -3660625.05548  -2848235.01646  20764013.8594   20764010.9534        200.7714
        50.5004         40.0004
  -8020503.07447  -6233146.61745  22515463.6484   22515462.1844       1538.2274
        45.0004         32.5004
  -5737769.68747  -4454593.36744  22807249.0314   22807247.8834          8.2214
        46.5004         28.7504
    -30758.93748    -21939.11346  20170872.9224   20170870.3834      -1360.9984
        48.7504         40.7504
  -7818274.77747  -6073897.31645  22253576.6094   22253572.9804        859.4574
        46.5004         33.7504
   5763548.82848   4485465.66446  21299351.1644   21299347.4184      -2836.0694
        50.2504         36.2504
  -3999690.01246  -3101269.44943  24561745.1174   24561743.1604       1564.9254
        38.7504         23.2504
 -10817540.01247  -8407396.37944  22976626.6334   22976625.0904       2369.1564
        46.0004         27.0004
 10  5 26 23  9 30.0000000  0 10G03G06G07G08G10G13G19G23G05G28
  -1354681.09447  -1051121.43745  22098297.1414   22098294.8714      -1284.4944
        45.2504         31.0004
   1486993.75847   1159582.41444  23400049.1024   23400047.9654      -1854.3944
        42.5004         24.5004
  -3666477.89848  -2852795.65646  20762899.7274   20762897.2584        195.0954
        50.5004         40.0004
  -8066572.05147  -6269044.48045  22506697.4454   22506695.8754       1535.6334
        45.5004         31.7504
  -5737459.15647  -4454351.39144  22807308.4534   22807306.5274        -10.3514
        45.5004         29.2504
     10562.14548     10259.11746  20178736.3914   20178733.5434      -1377.3694
        49.5004         40.5004
  -7843562.52347  -6093602.01645  22248764.3674   22248760.6604        842.9254
        47.5004         34.0004
   5849033.71948   4552077.23846  21315618.5554   21315614.9924      -2849.4964
        50.5004         36.5004
  -4046188.92746  -3137502.30843  24552895.9614   24552894.3164       1549.9644
        39.0004         22.5004
 -10888341.93047  -8462566.60544  22963153.9304   22963152.4614       2360.0644
        45.2504         26.7504
 10  5 26 23 10  0.0000000  0 10G03G06G07G08G10G13G19G23G05G28
  -1315552.79747  -1020631.86745  22105742.3444   22105740.9344      -1304.2774
        45.0004         32.5004
   1543102.19546   1203303.27344  23410726.5784   23410724.9414      -1870.2814
        41.2504         25.5004
  -3672165.94948  -2857227.89846  20761817.6564   20761814.7664        189.6024
        50.2504         40.0004
  -8112568.82047  -6304886.07445  22497944.4064   22497942.6024       1533.2264
        45.5004         32.5004
  -5736597.44547  -4453679.91844  22807472.6334   22807470.6174        -28.7244
        46.0004         29.2504
     52368.73448     42835.66846  20186691.5554   20186688.6214      -1393.5534
        49.0004         41.2504
  -7868357.72347  -6112922.91045  22244045.8834   22244042.4104        826.5074
        47.0004         33.5004
   5934914.40248   4618997.20745  21331961.0704   21331957.6604      -2862.6894
        49.5004         35.5004
  -4092243.01246  -3173388.59043  24544132.2274   24544131.0514       1535.1364
        38.5004         22.7504
 -10958875.52347  -8517527.74644  22949731.5784   22949730.2894       2351.1204
        45.7504         28.0004
 10  5 26 23 10 30.0000000  0 10G03G06G07G08G10G13G19G23G05G28
  -1275826.91047   -989676.63345  22113302.4064   22113300.5044      -1324.1964
        43.5004         31.5004
   1599690.05947   1247397.69944  23421494.8984   23421493.1524      -1886.2624
        42.7504         26.0004
  -3677684.36748  -2861527.95746  20760767.5234   20760765.0474        183.9474
        49.5004         40.5004
  -8158488.61747  -6340667.68745  22489205.9694   22489203.8754       1530.6604
        45.5004         32.5004
  -5735179.60547  -4452575.10244  22807742.2664   22807740.5784        -47.2614
        45.7504         29.2504
     94665.62148     75794.27346  20194740.3914   20194737.7774      -1409.8964
        48.0004         41.0004
  -7892653.50447  -6131854.65645  22239422.4064   22239419.0004        809.8594
        46.5004         34.0004
   6021194.27748   4686228.24245  21348379.8834   21348376.1724      -2875.9964
        49.7504         35.5004
  -4137845.65646  -3208923.06643  24535454.8364   24535453.1024       1520.0884
        39.7504         22.5004
 -11029135.14147  -8572275.40644  22936361.6564   22936360.5824       2341.9874
        45.0004         28.5004
 10  5 26 23 11  0.0000000  0 10G03G06G07G08G10G13G19G23G05G28
  -1235506.93747   -958258.48845  22120974.6174   22120973.0594      -1343.9994
        45.2504         30.5004
   1656753.96947   1291863.07044  23432353.3204   23432352.2704      -1902.1304
        42.5004         25.5004
  -3683036.03148  -2865698.07846  20759748.9614   20759746.2384        178.3894
        50.0004         40.0004
  -8204334.40647  -6376391.63745  22480481.9924   22480480.2194       1528.1934
        45.7504         32.2504
  -5733208.73447  -4451039.35944  22808117.2504   22808115.5514        -65.6964
        44.7504         29.2504
    137450.29348    109132.96546  20202882.4224   20202879.5704      -1426.1564
        48.7504         40.7504
  -7916450.61347  -6150397.82445  22234894.1484   22234890.9414        793.2374
        47.0004         34.0004
   6107869.69148   4753767.48845  21364874.1724   21364870.0234      -2889.1804
        50.5004         35.5004
  -4182998.36346  -3244106.96543  24526862.5314   24526861.0314       1505.0904
        39.0004         23.0004
 -11099122.16447  -8626810.66044  22923043.6724   22923042.1254       2332.9014
        45.0004         29.0004
 10  5 26 23 11 30.0000000  0 10G03G06G07G08G10G13G19G23G05G28
  -1194589.46947   -926374.75045  22128760.8834   22128759.3244      -1363.9164
        45.7504         30.7504
   1714296.99247   1336701.77044  23443303.9774   23443302.6764      -1918.1014
        42.2504         26.2504
  -3688216.12548  -2869734.50446  20758763.4534   20758760.4694        172.6704
        50.2504         41.0004
  -8250101.98447  -6412054.63745  22471772.4454   22471770.9654       1525.5864
        46.2504         31.5004
  -5730680.73447  -4449069.47344  22808598.3834   22808596.4304        -84.2674
        45.7504         28.5004
    180727.35948    142855.34046  20211117.4924   20211115.0594      -1442.5694
        50.0004         41.0004
  -7939742.75848  -6168547.50045  22230461.7974   22230458.3404        776.4054
        48.0004         34.7504
   6194943.88748   4821617.48045  21381443.7894   21381439.2854      -2902.4734
        50.7504         35.7504
  -4227695.07846  -3278935.53544  24518357.4064   24518355.4694       1489.8904
        39.0004         24.5004
 -11168830.95747  -8681129.10244  22909778.0004   22909777.0434       2323.6264
        44.7504         27.2504
 10  5 26 23 12  0.0000000  0 10G03G06G07G08G10G13G19G23G05G28
  -1153081.61747   -894030.97345  22136659.3134   22136658.2854      -1383.5954
        45.2504         31.0004
   1772311.50847   1381907.86744  23454343.8364   23454342.2814      -1933.8174
        42.0004         25.5004
  -3693231.30148  -2873642.41846  20757809.3364   20757806.1684        167.1734
        50.7504         40.5004
  -8295797.94947  -6447661.84845  22463076.9774   22463074.9184       1523.1994
        45.2504         32.2504
  -5727602.53147  -4446670.87544  22809184.2894   22809182.3134       -102.6074
        45.7504         29.2504
    224490.18848    176956.23046  20219445.2814   20219442.3714      -1458.7614
        49.7504         40.5004
  -7962534.32047  -6186307.12945  22226124.6954   22226121.0084        759.7194
        46.2504         34.7504
   6282408.70748   4889771.85945  21398087.1644   21398083.3164      -2915.4944
        50.0004         35.5004
  -4271940.60946  -3313412.55543  24509936.8284   24509935.2114       1474.8514
        39.2504         22.7504
 -11238267.02347  -8735235.03144  22896564.9774   22896563.7234       2314.5364
        45.5004         27.7504
 10  5 26 23 12 30.0000000  0 10G03G06G07G08G10G13G19G23G05G28
  -1110978.37947   -861223.25845  22144672.1094   22144669.8834      -1403.4414
        44.5004         30.2504
   1830801.53147   1427484.49244  23465473.7894   23465472.4534      -1949.6674
        42.0004         25.7504
  -3698076.07448  -2877417.55546  20756887.5704   20756884.2154        161.4924
        49.7504         40.2504
  -8341416.49247  -6483208.71145  22454396.0394   22454394.2274       1520.6184
        45.7504         32.5004
  -5723968.87547  -4443839.44944  22809875.2814   22809873.6294       -121.1224
        45.2504         28.5004
    268744.52748    211440.12146  20227866.7974   20227864.0124      -1475.1454
        50.2504         40.5004
  -7984817.76247  -6203670.81645  22221884.1564   22221880.3444        742.7814
        47.0004         34.7504
   6370268.60548   4958234.07846  21414806.7424   21414802.5354      -2928.6634
        49.7504         36.2504
  -4315727.78946  -3347532.39843  24501604.4844   24501603.1484       1459.5734
        40.0004         23.5004
 -11307423.60247  -8789123.17244  22883404.9144   22883403.2424       2305.2194
        45.0004         28.5004
 10  5 26 23 13  0.0000000  0 10G03G06G07G08G10G13G19G23G05G28
  -1068286.25047   -827956.66445  22152796.0084   22152793.8164      -1423.0714
        44.0004         30.0004
   1889760.18047   1473426.28144  23476693.5164   23476692.2974      -1965.2884
        43.2504         26.0004
  -3702755.59048  -2881063.93046  20755996.8674   20755993.9224        155.9844
        50.5004         40.2504
  -8386963.85947  -6518700.13745  22445728.8054   22445726.6644       1518.2464
        45.5004         32.0004
  -5719785.41047  -4440579.61344  22810671.7504   22810669.8444       -139.4494
        44.7504         28.7504
    313484.57448    246302.48046  20236380.5634   20236377.4384      -1491.3354
        51.0004         41.0004
  -8006596.69147  -6220641.36345  22217739.9534   22217736.3984        725.9644
        47.5004         34.0004
   6458516.61348   5026998.72745  21431599.8524   21431596.3594      -2941.6004
        50.0004         35.5004
  -4359060.78946  -3381298.32443  24493358.4304   24493356.6174       1444.4334
        38.0004         22.2504
 -11376305.32447  -8842797.15244  22870296.4064   22870295.5634       2296.0574
        45.5004         28.7504
 10  5 26 23 13 30.0000000  0 10G03G06G07G08G10G13G19G23G05G28
  -1025000.90247   -794227.83245  22161032.4384   22161031.1684      -1442.8454
        45.5004         30.7504
   1949191.48047   1519736.39144  23488002.1484   23488001.3674      -1981.0434
        42.2504         27.2504
  -3707264.59848  -2884577.42246  20755138.3594   20755135.4924        150.3004
        50.5004         40.0004
  -8432434.73047  -6554131.94545  22437075.4774   22437074.0434       1515.6964
        45.0004         33.0004
  -5715047.42247  -4436887.67244  22811572.8054   22811571.3364       -157.9334
        46.0004         29.0004
    358716.04748    281547.77746  20244987.8364   20244985.1254      -1507.7164
        50.2504         40.2504
  -8027864.06247  -6237213.32445  22213692.2974   22213689.1764        708.9124
        46.2504         34.2504
   6547156.64148   5096068.83646  21448467.5004   21448463.3014      -2954.6684
        50.5004         36.0004
  -4401932.70346  -3414705.01243  24485200.2584   24485198.9494       1429.0644
        38.0004         22.7504
 -11444905.95747  -8896252.08644  22857242.2814   22857240.9574       2286.6884
        46.0004         28.5004
 10  5 26 23 14  0.0000000  0 10G03G06G07G08G10G13G19G23G05G28
   -981129.05547   -760041.96945  22169381.3914   22169379.6644      -1462.3954
        44.5004         30.0004
   2009088.42647   1566409.29344  23499400.6564   23499399.3364      -1996.5654
        42.7504         26.0004
  -3711608.52748  -2887962.29746  20754311.9844   20754308.8164        144.7984
        50.5004         40.5004
  -8477834.85247  -6589508.62145  22428436.2034   22428434.4144       1513.3374
        46.0004         32.0004
  -5709760.30547  -4432767.84044  22812578.9304   22812577.4064       -176.2374
        44.5004         29.5004
    404433.07848    317171.41846  20253687.5634   20253684.3874      -1523.9014
        50.7504         40.5004
  -8048623.54747  -6253389.48845  22209742.0234   22209738.8444        691.9834
        45.7504         34.2504
   6636181.84048   5165439.09045  21465408.3134   21465404.3984      -2967.5074
        50.5004         35.7504
  -4444347.69946  -3447755.61343  24477129.4454   24477127.3054       1413.8334
        39.5004         22.7504
 -11513229.85247  -8949491.39144  22844240.6414   22844239.1524       2277.4634
        46.7504         29.2504
 10  5 26 23 14 30.0000000  0 10G03G06G07G08G10G13G19G23G05G28
   -936663.52747   -725393.51245  22177842.8284   22177841.2894      -1482.1844
        46.0004         30.7504
   2069457.23047   1613449.90644  23510888.8524   23510887.0514      -2012.2934
        43.2504         24.2504
  -3715779.43748  -2891212.34446  20753518.8834   20753515.2704        139.0304
        50.2504         40.7504
  -8523156.14847  -6624823.88345  22419811.8204   22419810.3714       1510.7104
        45.5004         32.7504
  -5703917.34047  -4428214.87544  22813690.8524   22813689.4104       -194.7654
        47.0004         29.5004
    450643.39848    353179.44546  20262480.9454   20262478.1174      -1540.3444
        50.5004         40.5004
  -8068865.60547  -6269162.48045  22205890.6414   22205886.7234        674.7354
        47.0004         34.5004
   6725598.60548   5235114.45745  21482424.1174   21482419.7734      -2980.5594
        50.2504         35.7504
  -4486296.68446  -3480443.10243  24469146.4224   24469144.7624       1398.2994
        40.2504         22.7504
 -11581268.11747  -9002508.12144  22831293.2584   22831292.2034       2267.9424
        46.7504         28.5004
 10  5 26 23 15  0.0000000  0 10G03G06G07G08G10G13G19G23G05G28
   -891611.30547   -690287.87944  22186415.5864   22186413.8554      -1501.7414
        42.7504         29.7504
   2130290.60947   1660852.52343  23522464.5704   23522463.3484      -2027.7794
        43.0004         23.2504
  -3719783.70348  -2894332.54346  20752756.6094   20752753.4104        133.4764
        50.7504         41.0004
  -8568405.35547  -6660082.96945  22411201.2664   22411199.8094       1508.3074
        46.5004         33.0004
  -5697524.93447  -4423233.78144  22814907.4304   22814905.7304       -213.0804
        44.7504         28.2504
    497340.69148    389566.93046  20271367.3284   20271364.3984      -1556.5764
        49.2504         40.7504
  -8088594.45747  -6284535.56245  22202136.3914   22202132.6994        657.6284
        46.7504         34.5004
   6815399.32048   5305089.00045  21499512.3524   21499508.4304      -2993.3574
        49.7504         34.7504
  -4527784.37546  -3512771.14143  24461251.9224   24461250.0594       1382.9234
        40.2504         22.5004
 -11649026.14847  -9055306.50044  22818399.7974   22818398.0004       2258.6014
        45.5004         29.5004
 10  5 26 23 15 30.0000000  0 10G03G06G07G08G10G13G19G23G05G28
   -845968.82847   -654722.31645  22195101.4774   22195099.4654      -1521.4164
        46.0004         30.0004
   2191591.79347   1708619.65644  23534130.0554   23534128.3554      -2043.3734
        42.2504         25.0004
  -3723616.43448  -2897319.07446  20752027.0164   20752024.0664        127.7584
        50.7504         40.5004
  -8613577.64547  -6695282.11345  22402605.5394   22402603.2074       1505.7434
        45.7504         32.2504
  -5690578.76647  -4417821.18044  22816229.3444   22816227.8204       -231.5394
        45.0004         29.0004
    544529.65248    426337.52746  20280346.9774   20280344.2854      -1572.9654
        51.2504         40.7504
  -8107803.68747  -6299503.77345  22198479.9534   22198476.9774        640.3084
        46.5004         34.7504
   6905587.28948   5375365.29345  21516674.6954   21516670.5784      -3006.2664
        50.0004         35.5004
  -4568804.70746  -3544734.98843  24453445.7584   24453444.3554       1367.3444
        38.0004         22.5004
 -11716498.45347  -9107882.22745  22805559.6024   22805558.2854       2249.0774
        46.0004         30.0004
 10  5 26 23 16  0.0000000  0 10G03G06G07G08G10G13G19G23G05G28
   -799740.53147   -618700.27744  22203897.6174   22203896.3364      -1540.9434
        44.5004         29.5004
   2253355.80146   1756747.45744  23545882.3834   23545882.0084      -2058.8004
        41.7504         24.7504
  -3727281.01248  -2900174.58246  20751329.5084   20751326.4064        122.1534
        50.5004         40.0004
  -8658676.62947  -6730424.13745  22394023.2194   22394021.2424       1503.2994
        46.0004         32.5004
  -5683082.91047  -4411980.27044  22817656.0314   22817654.1174       -249.8624
        43.2504         29.2504
    592206.80948    463488.53946  20289419.5234   20289416.9494      -1589.2394
        51.0004         40.5004
  -8126494.71547  -6314068.17645  22194923.7734   22194920.2304        623.0344
        47.0004         35.0004
   6996157.87148   5445939.74246  21533909.6954   21533906.1524      -3019.0194
        49.7504         36.0004
  -4609359.53146  -3576336.14543  24445728.6094   24445726.7074       1351.8274
        39.5004         22.2504
 -11783686.98047  -9160236.82045  22792774.5164   22792772.7854       2239.6184
        46.0004         30.2504
 10  5 26 23 16 30.0000000  0 10G03G06G07G08G10G13G19G23G05G28
   -752922.60947   -582218.78545  22212807.5864   22212805.7774      -1560.5974
        44.7504         30.7504
   2315585.89547   1805238.41044  23557725.4384   23557723.9534      -2074.3364
        42.7504         25.0004
  -3730772.23048  -2902895.00046  20750665.4614   20750662.2034        116.3744
        50.5004         40.0004
  -8703697.47347  -6765505.28545  22385455.6564   22385454.0594       1500.6954
        46.0004         32.5004
  -5675033.14547  -4405707.72344  22819187.6564   22819186.2274       -268.3264
        44.2504         29.2504
    640376.71948    501023.51646  20298585.9924   20298583.3324      -1605.6644
        50.5004         40.7504
  -8144661.40247  -6328223.97745  22191466.8204   22191463.0864        605.5564
        46.2504         34.7504
   7087114.12148   5516814.69545  21551218.0394   21551214.1844      -3031.8754
        50.5004         35.0004
  -4649442.70346  -3607569.74244  24438100.1414   24438098.6134       1336.1064
        39.7504         24.7504
 -11850585.91847  -9212365.75844  22780044.2664   22780042.1804       2229.9654
        46.0004         29.7504
 10  5 26 23 17  0.0000000  0 10G03G06G07G08G10G13G19G23G05G28
   -705521.64547   -545282.97344  22221827.5004   22221825.7814      -1580.0324
        44.2504         29.7504
   2378275.32846   1854087.30944  23569654.5784   23569653.3244      -2089.6484
        41.5004         25.0004
  -3734095.87948  -2905484.84446  20750033.0944   20750030.0434        110.7884
        50.2504         40.7504
  -8748645.96147  -6800530.04745  22376901.9454   22376900.4734       1498.2834
        45.7504         33.0004
  -5666435.22347  -4399008.03544  22820823.7114   22820822.2034       -286.5974
        45.0004         28.7504
    689033.82448    538938.12946  20307845.3754   20307842.6054      -1621.9044
        50.7504         40.7504
  -8162307.24647  -6341973.96545  22188109.1024   22188105.3674        588.1954
        46.0004         34.0004
   7178449.19948   5587984.84845  21568598.5084   21568594.5664      -3044.5034
        50.5004         35.5004
  -4689058.34846  -3638439.04743  24430562.4774   24430560.4964       1320.5214
        39.2504         22.0004
 -11917199.93047  -9264272.69944  22767367.5314   22767365.6724       2220.4674
        46.0004         29.5004
 10  5 26 23 17 30.0000000  0 10G03G06G07G08G10G13G19G23G05G28
   -657534.83647   -507890.66044  22230958.7034   22230957.4774      -1599.5604
        45.7504         29.5004
   2441426.51647   1903296.00044  23581672.2894   23581670.7504      -2105.0404
        42.0004         25.0004
  -3737247.42248  -2907940.58246  20749433.0784   20749429.9774        105.0514
        51.0004         40.5004
  -8793517.84447  -6835495.10945  22368363.8204   22368361.8404       1495.7294
        46.2504         32.7504
  -5657285.60547  -4391878.46544  22822565.1094   22822563.4774       -304.9874
        45.7504         29.5004
    738182.03148    577235.41846  20317198.0314   20317194.8794      -1638.2744
        51.5004         40.0004
  -8179426.40647  -6355313.52345  22184851.2974   22184847.6724        570.6394
        47.0004         34.5004
   7270165.83648   5659452.31645  21586051.6484   21586047.5474      -3057.2214
        50.2504         35.0004
  -4728201.15246  -3668939.88744  24423113.5554   24423111.5744       1304.7604
        40.0004         24.0004
 -11983524.19547  -9315953.84844  22754746.7894   22754744.9614       2210.8094
        46.2504         29.2504
 10  5 26 23 18  0.0000000  0 10G03G06G07G08G10G13G19G23G05G28
   -608967.60547   -470046.06644  22240200.9694   22240199.5124      -1618.9084
        46.0004         29.0004
   2505033.27047   1952859.71144  23593775.5704   23593775.0004      -2120.2254
        42.7504         24.5004
  -3740231.75048  -2910266.02046  20748864.8524   20748862.2114         99.4784
        52.0004         40.5004
  -8838318.44547  -6870404.63745  22359838.1174   22359836.4454       1493.3534
        46.7504         32.5004
  -5647589.98847  -4384323.44144  22824410.2814   22824408.5634       -323.1874
        44.2504         28.0004
    787816.69948    615911.77046  20326643.3674   20326640.4144      -1654.4894
        51.7504         40.7504
  -8196021.67247  -6368244.86745  22181693.1564   22181689.5314        553.1764
        46.5004         34.2504
   7362257.68048   5731212.15245  21603576.3834   21603572.5514      -3069.7284
        50.2504         35.0004
  -4766874.67946  -3699075.08743  24415753.8204   24415752.3984       1289.1184
        38.7504         22.7504
 -12049562.07047  -9367411.82445  22742179.4064   22742177.7974       2201.2634
        45.7504         30.2504
 10  5 26 23 18 30.0000000  0 10G03G06G07G08G10G13G19G23G05G28
   -559815.14847   -431745.44944  22249554.7194   22249552.9884      -1638.4154
        45.7504         29.5004
   2569100.49247   2002782.18844  23605967.4534   23605965.8554      -2135.5744
        42.2504         24.5004
  -3743042.13348  -2912455.91846  20748330.0314   20748327.1294         93.6794
        51.0004         40.5004
  -8883041.07847  -6905253.40245  22351327.0704   22351325.4534       1490.7544
        47.2504         33.5004
  -5637342.30547  -4376338.22744  22826359.5704   22826358.4694       -341.5894
        45.7504         28.7504
    837943.54748    654971.63346  20336181.8674   20336179.0354      -1670.8954
        51.7504         40.7504
  -8212085.64547  -6380762.20345  22178636.0474   22178632.7464        535.4664
        46.5004         34.0004
   7454729.76648   5803268.30145  21621172.8674   21621169.3014      -3082.4034
        50.0004         35.0004
  -4805070.81246  -3728838.29343  24408485.1024   24408483.7154       1273.2044
        38.7504         23.2504
 -12115306.53147  -9418641.18045  22729668.8834   22729667.2854       2191.4824
        45.7504         30.5004
 10  5 26 23 19  0.0000000  0 10G03G06G07G08G10G13G19G23G05G28
   -510085.35947   -392994.95744  22259018.2894   22259016.3554      -1657.6604
        46.0004         29.5004
   2633619.56647   2053056.77043  23618245.2194   23618243.8984      -2150.6364
        42.7504         22.7504
  -3745685.37948  -2914515.58646  20747827.3834   20747824.6684         88.1084
        51.5004         40.5004
  -8927692.78147  -6940046.90245  22342830.9384   22342829.0434       1488.3904
        46.7504         33.0004
  -5626550.34447  -4367928.91444  22828413.0234   22828411.7814       -359.7324
        44.7504         28.7504
    888555.42648    694409.44946  20345812.8914   20345809.8164      -1687.0634
        51.5004         40.5004
  -8227623.12948  -6392869.30945  22175679.8754   22175675.7934        517.9164
        48.0004         34.2504
   7547573.48048   5875614.00445  21638840.4534   21638836.8954      -3094.7904
        49.7504         34.7504
  -4842795.49246  -3758234.13743  24401307.3594   24401305.0044       1257.4894
        39.5004         22.7504
 -12180763.85247  -9469646.79745  22717212.7504   22717210.6954       2181.9114
        46.2504         30.0004
 10  5 26 23 19 30.0000000  0 10G03G06G07G08G10G13G19G23G05G28
   -459771.89847   -353789.68444  22268591.7274   22268590.2664      -1677.1154
        46.5004         29.5004
   2698596.27746   2103687.94143  23630609.8754   23630608.4344      -2165.8904
        41.5004         22.5004
  -3748154.35548  -2916439.45346  20747357.4774   20747354.4574         82.2994
        51.0004         40.7504
  -8972266.19548  -6974779.39545  22334348.8204   22334347.0084       1485.7804
        48.0004         33.0004
  -5615207.34047  -4359090.20344  22830572.0394   22830570.1524       -378.1004
        44.7504         28.5004
    939659.43448    734230.73446  20355537.8054   20355535.1254      -1703.4674
        51.5004         40.5004
  -8242625.46147  -6404559.41045  22172824.2194   22172821.0664        500.0784
        46.5004         34.5004
   7640794.68848   5948253.86345  21656579.7664   21656576.4414      -3107.3744
        51.5004         35.0004
  -4880040.07046  -3787255.84443  24394219.1564   24394217.6914       1241.4864
        39.7504         22.0004
 -12245925.43747  -9520421.97345  22704813.2424   22704811.1024       2172.0534
        45.2504         30.7504
 10  5 26 23 20  0.0000000  0 10G03G06G07G08G10G13G19G23G05G28
   -408881.93447   -314135.16844  22278276.5944   22278274.5274      -1696.3324
        45.2504         29.5004
   2764023.19946   2154669.96544  23643059.7114   23643058.9224      -2180.8974
        41.0004         26.2504
  -3750454.25448  -2918231.57846  20746919.8914   20746917.2424         76.6634
        50.7504         40.7504
  -9016767.31647  -7009455.56645  22325880.2664   22325878.4804       1483.3714
        47.0004         33.0004
  -5603319.82847  -4349827.21144  22832834.1254   22832832.4024       -396.2504
        44.5004         29.0004
    991250.01248    774431.17646  20365355.3204   20365352.5164      -1719.6864
        51.2504         40.5004
  -8257096.87548  -6415835.79745  22170070.8134   22170067.0044        482.3804
        48.5004         34.2504
   7734386.12948   6021182.19945  21674390.2974   21674386.2504      -3119.7154
        49.2504         34.5004
  -4916809.12146  -3815907.05143  24387221.2504   24387220.2274       1225.6354
        39.0004         22.7504
 -12310796.16047  -9570970.49645  22692468.1644   22692466.6374       2162.3574
        44.7504         30.2504
 10  5 26 23 20 30.0000000  0 10G03G06G07G08G10G13G19G23G05G28
   -357412.37947   -274029.01644  22288070.4614   22288069.4304      -1715.6524
        44.0004         29.7504
   2829903.28546   2206005.05543  23655597.0164   23655595.6484      -2196.0034
        40.7504         22.5004
  -3752580.97348  -2919888.75446  20746515.2034   20746512.0274         70.8914
        51.0004         40.7504
  -9061192.03948  -7044072.19545  22317426.7424   22317424.8014       1480.8244
        48.0004         33.2504
  -5590884.25047  -4340137.15244  22835200.9844   22835198.8594       -414.5194
        43.7504         28.5004
   1043330.69148    815013.50446  20375265.7814   20375263.0514      -1736.0234
        50.7504         40.2504
  -8271031.22747  -6426693.69145  22167419.6564   22167415.8094        464.4784
        47.2504         34.5004
   7828350.65648   6094401.27345  21692270.9614   21692267.4024      -3132.1514
        49.5004         35.5004
  -4953097.13746  -3844183.37943  24380317.5634   24380315.2194       1209.6014
        40.0004         23.0004
 -12375370.98447  -9621288.43745  22680179.5944   22680177.9734       2152.4944
        44.7504         30.2504
 10  5 26 23 21  0.0000000  0 10G03G06G07G08G10G13G19G23G05G28
   -305366.77047   -233474.00045  22297974.6024   22297972.7074      -1734.8544
        44.0004         30.2504
   2896232.07047   2257689.82444  23668219.0234   23668217.7154      -2210.9604
        42.0004         24.2504
  -3754536.87948  -2921412.82446  20746143.0784   20746139.6484         65.1974
        50.7504         40.5004
  -9105542.89147  -7078631.27045  22308986.9774   22308984.9384       1478.3624
        47.0004         33.0004
  -5577903.82847  -4330022.53944  22837670.5704   22837668.8754       -432.6814
        45.0004         28.0004
   1095898.70748    855975.57846  20385269.1334   20385265.9924      -1752.2674
        51.5004         40.0004
  -8284429.57847  -6437133.94545  22164869.3914   22164865.6334        446.6124
        47.0004         34.2504
   7922684.00848   6167907.74645  21710221.5164   21710218.3364      -3144.4454
        49.7504         34.5004
  -4988905.37946  -3872085.90244  24373502.3674   24373500.9884       1193.6084
        37.7504         24.5004
 -12439651.42647  -9671377.00845  22667947.9454   22667945.7934       2142.6814
        44.7504         30.5004
 10  5 26 23 21 30.0000000  0 10G03G06G07G08G10G13G19G23G05G28
   -252745.26647   -192470.23044  22307987.9384   22307986.1724      -1754.0504
        44.7504         28.7504
   2963009.50046   2309724.14144  23680926.0704   23680924.9344      -2225.9144
        41.0004         24.5004
  -3756320.41048  -2922802.57446  20745803.4694   20745800.3364         59.4514
        51.0004         40.5004
  -9149818.46947  -7113131.68445  22300561.7114   22300559.9414       1475.8534
        47.7504         33.5004
  -5564377.69947  -4319482.70344  22840244.4844   22840243.2274       -450.8714
        42.7504         28.7504
   1148955.12948    897318.22346  20395365.7894   20395362.7234      -1768.5474
        51.5004         40.7504
  -8297289.08247  -6447154.28945  22162422.9304   22162418.6804        428.6504
        47.7504         34.0004
   8017385.86348   6241701.34045  21728243.0634   21728239.0744      -3156.7294
        50.0004         34.5004
  -5024231.34846  -3899612.61743  24366781.2034   24366779.1134       1177.5324
        39.2504         23.7504
 -12503635.32847  -9721234.50445  22655772.2664   22655770.2584       2132.7974
        44.5004         30.7504
 10  5 26 23 22  0.0000000  0 10G03G06G07G08G10G13G19G23G05G28
   -199549.76647   -151019.20744  22318110.7194   22318109.4614      -1773.1834
        45.2504         28.7504
   3030233.56346   2362106.51244  23693718.3054   23693717.5944      -2240.8024
        41.5004         24.5004
  -3757931.52048  -2924057.98046  20745497.0554   20745494.0984         53.7044
        51.0004         40.5004
  -9194019.25447  -7147573.81645  22292150.5784   22292148.6994       1473.3604
        46.2504         33.0004
  -5550307.18447  -4308518.68444  22842922.0164   22842920.8364       -469.0174
        42.5004         28.0004
   1202499.46948    939041.07046  20405554.6484   20405551.8134      -1784.8114
        51.7504         40.7504
  -8309608.54747  -6456753.85545  22160077.7424   22160074.4144        410.6494
        46.7504         33.2504
   8112454.38748   6315780.67245  21746334.2664   21746330.2624      -3168.9514
        50.0004         35.0004
  -5059074.14146  -3926762.83244  24360150.8054   24360148.2974       1161.4264
        39.7504         24.0004
 -12567322.37547  -9770860.68745  22643652.1334   22643650.7624       2122.9024
        44.7504         30.0004
 10  5 26 23 22 30.0000000  0 10G03G06G07G08G10G13G19G23G05G28
   -145778.40647   -109119.44145  22328342.9304   22328341.3874      -1792.3794
        46.2504         30.0004
   3097905.32446   2414837.73443  23706595.8594   23706594.6844      -2255.7254
        39.5004         22.7504
  -3759367.28548  -2925176.75446  20745223.8364   20745220.7734         47.8594
        50.5004         40.5004
  -9238142.26247  -7181955.35945  22283754.1884   22283752.3014       1470.7674
        47.0004         33.5004
  -5535690.59847  -4297129.13744  22845703.1254   22845701.9184       -487.2204
        42.5004         29.2504
   1256534.07448    981145.93846  20415837.1484   20415834.0984      -1801.1544
        52.0004         40.5004
  -8321383.64147  -6465929.21145  22157837.1644   22157833.9534        392.5034
        46.5004         34.0004
   8207891.15248   6390146.93845  21764494.9144   21764491.2664      -3181.2264
        48.7504         34.5004
  -5093429.61346  -3953533.29744  24353611.9534   24353610.4144       1145.1824
        39.2504         24.0004
 -12630708.84447  -9820252.64845  22631590.4924   22631588.6054       2112.8824
        45.0004         30.7504
 10  5 26 23 23  0.0000000  0 10G03G06G07G08G10G13G19G23G05G28
    -91433.61347    -66772.85244  22338684.6644   22338682.9264      -1811.4934
        45.2504         29.7504
   3166021.94946   2467915.58243  23719558.7424   23719556.6724      -2270.5544
        39.5004         23.5004
  -3760629.03548  -2926159.92646  20744983.3524   20744980.9064         42.0584
        49.5004         40.5004
  -9282189.07047  -7216277.51245  22275372.5864   22275370.2584       1468.2274
        46.7504         33.5004
  -5520529.78947  -4285315.51644  22848588.4224   22848587.0704       -505.3604
        44.7504         28.2504
   1311057.27748   1023631.52746  20426212.4064   20426209.5434      -1817.4404
        51.5004         40.5004
  -8332614.41047  -6474680.43045  22155700.0234   22155696.3554        374.3594
        46.7504         34.5004
   8303692.81648   6464797.52045  21782725.7274   21782721.8324      -3193.3894
        49.2504         34.5004
  -5127298.73846  -3979924.80944  24347167.0634   24347166.1914       1128.9714
        39.2504         24.0004
 -12693794.85947  -9869410.49244  22619585.5234   22619583.3674       2102.8674
        44.0004         29.2504
 10  5 26 23 23 30.0000000  0 10G03G06G07G08G10G13G19G23G05G28
    -36516.71147    -23980.46545  22349135.3134   22349133.2424      -1830.5634
        45.2504         30.0004
   3234582.19546   2521339.16043  23732603.5234   23732603.5664      -2285.3424
        40.2504         22.7504
  -3761716.13748  -2927007.01646  20744776.7814   20744774.0704         36.2374
        50.2504         40.2504
  -9326158.95347  -7250539.71945  22267004.9694   22267003.3524       1465.6634
        47.0004         33.2504
  -5504825.12147  -4273078.12944  22851576.9454   22851575.4184       -523.4894
        44.2504         28.5004
   1366069.13748   1066497.90246  20436680.9614   20436678.0744      -1833.7294
        51.2504         40.5004
  -8343298.49647  -6483005.66445  22153666.7894   22153663.4184        356.1364
        47.0004         34.0004
   8399858.39148   6539731.67645  21801025.6644   21801021.6414      -3205.5194
        49.0004         34.2504
  -5160679.15246  -4005935.50444  24340815.9694   24340813.5004       1112.6804
        39.0004         24.5004
 -12756579.21947  -9918333.29345  22607637.7424   22607636.3324       2092.8124
        44.7504         30.2504
 10  5 26 23 24  0.0000000  0 10G03G06G07G08G10G13G19G23G05G28
     18966.75447     19253.40645  22359692.5394   22359691.5434      -1849.4494
        44.5004         30.0004
   3303580.23846   2575103.84043  23745734.3134   23745733.2544      -2299.9354
        39.5004         22.7504
  -3762632.27748  -2927720.88746  20744602.4144   20744599.5314         30.5384
        50.0004         40.5004
  -9370056.17248  -7284745.31645  22258651.5554   22258649.9614       1463.2414
        48.0004         33.5004
  -5488581.53147  -4260420.78944  22854667.3444   22854666.5904       -541.4534
        44.0004         29.0004
   1421565.32848   1109741.66446  20447241.5864   20447238.4144      -1849.8734
        50.7504         40.0004
  -8353438.91447  -6490907.23045  22151737.3284   22151733.4534        338.0144
        46.7504         34.2504
   8496382.39848   6614945.14545  21819393.1884   21819389.5314      -3217.4674
        49.2504         33.5004
  -5193574.00446  -4031567.83643  24334555.6094   24334554.0004       1096.4954
        38.5004         23.5004
 -12819065.26247  -9967023.62145  22595746.9614   22595745.3204       2082.8684
        43.7504         30.0004
 10  5 26 23 24 30.0000000  0 10G03G06G07G08G10G13G19G23G05G28
     75018.47347     62930.05944  22370359.3984   22370357.7544      -1868.3914
        44.0004         29.5004
   3373017.27046   2629210.58643  23758947.9924   23758946.5434      -2314.5684
        40.5004         22.5004
  -3763374.21148  -2928299.00046  20744461.1724   20744458.1804         24.7314
        48.5004         40.7504
  -9413877.89148  -7318892.07045  22250312.7504   22250310.6174       1460.7244
        48.2504         34.0004
  -5471797.10547  -4247342.02744  22857861.8364   22857860.7344       -559.4814
        45.5004         28.7504
   1477548.18848   1153364.66046  20457894.6954   20457891.9964      -1866.0954
        50.2504         40.5004
  -8363031.23847  -6498381.74245  22149911.9454   22149908.0944        319.7444
        47.2504         34.5004
   8593265.82048   6690438.66045  21837830.1564   21837826.1414      -3229.4474
        49.0004         34.5004
  -5225979.12546  -4056818.58243  24328388.5474   24328387.0434       1080.1714
        39.5004         22.7504
 -12881249.36347 -10015478.67645  22583914.0474   22583911.7234       2072.8034
        45.5004         30.0004
 10  5 26 23 25  0.0000000  0 10G03G06G07G08G10G13G19G23G05G28
    131632.63747    107044.99244  22381132.5394   22381131.2424      -1887.1394
        45.0004         29.5004
   3442886.83646   2683654.37543  23772243.9774   23772242.1884      -2328.9864
        40.5004         22.5004
  -3763946.76248  -2928745.13346  20744352.3674   20744349.1644         19.0854
        48.5004         40.7504
  -9457628.96148  -7352983.77745  22241987.0864   22241985.0204       1458.3694
        48.5004         34.0004
  -5454477.36347  -4233846.13344  22861157.9454   22861156.3204       -577.3254
        45.7504         29.2504
   1534012.38748   1197362.71546  20468639.3754   20468636.5474      -1882.1404
        49.7504         40.2504
  -8372078.88748  -6505431.84445  22148189.9924   22148186.6294        301.5884
        48.2504         34.7504
   8690502.01248   6766207.06345  21856333.3834   21856329.5704      -3241.2064
        49.0004         34.7504
  -5257898.44946  -4081690.74244  24322314.2034   24322312.6764       1063.9774
        39.2504         24.5004
 -12943135.54347 -10063701.58245  22572137.2664   22572135.6724       2062.8734
        44.5004         30.5004
 10  5 26 23 25 30.0000000  0 10G03G06G07G08G10G13G19G23G05G28
    188814.25047    151602.08644  22392013.8834   22392012.3204      -1906.0544
        44.5004         29.0004
   3513194.25847   2738439.35543  23785622.9384   23785621.5984      -2343.5814
        42.0004         22.5004
  -3764342.41848  -2929053.42646  20744277.0784   20744274.1054         13.1894
        49.0004         40.7504
  -9501301.82848  -7387014.55545  22233675.9844   22233674.5704       1455.7624
        48.5004         34.5004
  -5436616.20347  -4219928.34844  22864556.8984   22864555.3484       -595.3724
        44.7504         28.2504
   1590964.73048   1241741.14846  20479477.1334   20479474.2854      -1898.4114
        50.7504         40.2504
  -8380573.34848  -6512050.85245  22146574.2274   22146569.9574        283.1494
        48.5004         35.0004
   8788097.13748   6842255.18045  21874905.1174   21874901.3284      -3253.1714
        48.7504         34.5004
  -5289323.73446  -4106177.95743  24316334.3594   24316332.8794       1047.5104
        38.5004         23.7504
 -13004715.51647 -10111685.89544  22560418.8754   22560417.0354       2052.6664
        45.0004         29.7504
 10  5 26 23 26  0.0000000  0 10G03G06G07G08G10G13G19G23G05G28
    246554.83247    196594.73444  22403001.7274   22403000.0204      -1924.6864
        43.5004         28.2504
   3583930.65246   2793558.59043  23799082.8674   23799082.1804      -2357.8804
        40.5004         22.5004
  -3764568.18048  -2929229.33246  20744233.7504   20744231.2704          7.5254
        49.0004         40.5004
  -9544903.89147  -7420990.14845  22225379.2974   22225377.1484       1453.4024
        47.5004         34.0004
  -5418221.85947  -4205595.09844  22868056.9924   22868056.0234       -613.1454
        45.0004         28.5004
   1648397.48848   1286493.93446  20490406.2274   20490403.5084      -1914.4254
        49.7504         40.2504
  -8388520.75447  -6518243.60245  22145061.6174   22145057.4734        264.9144
        47.7504         34.2504
   8886041.89548   6918575.73045  21893542.7194   21893539.4104      -3264.8254
        48.2504         33.5004
  -5320261.27046  -4130285.13344  24310446.9924   24310445.8834       1031.2514
        39.7504         24.0004
 -13065996.07847 -10159436.91845  22548757.4454   22548755.5234       2042.6854
        46.2504         30.2504
 10  5 26 23 26 30.0000000  0 10G03G06G07G08G10G13G19G23G05G28
    304859.27347    242026.75844  22414096.6094   22414095.3754      -1943.4814
        43.0004         28.5004
   3655100.27046   2849015.41043  23812627.0704   23812625.7624      -2372.3214
        41.0004         22.7504
  -3764617.87148  -2929268.03946  20744224.8984   20744221.6764          1.6564
        49.2504         40.5004
  -9588428.80547  -7454905.62545  22217096.7814   22217094.7544       1450.8304
        47.5004         34.0004
  -5399289.33247  -4190842.50844  22871659.7274   22871658.3984       -631.0844
        44.5004         29.0004
   1706316.48048   1331625.58646  20501428.0234   20501425.2854      -1930.6334
        50.0004         40.0004
  -8395913.21947  -6524003.94945  22143654.2584   22143650.5514        246.4154
        47.2504         34.0004
   8984340.75448   6995172.18845  21912248.6644   21912245.2934      -3276.6294
        48.5004         33.5004
  -5350703.75446  -4154006.50843  24304654.7894   24304653.3874       1014.7494
        40.5004         23.2504
 -13126970.40647 -10206949.29745  22537154.5944   22537152.3134       2032.4784
        46.0004         30.7504
 10  5 26 23 27  0.0000000  0 10G03G06G07G08G10G13G19G23G05G28
    363725.30947    287896.38744  22425297.8914   22425297.2734      -1962.2014
        42.5004         29.2504
   3726701.12946   2904808.28943  23826251.9064   23826250.7934      -2386.6954
        40.2504         22.5004
  -3764491.68448  -2929169.70746  20744248.4924   20744245.6174         -4.2064
        48.0004         40.7504
  -9631877.28148  -7488761.55145  22208828.5164   22208826.5634       1448.2834
        48.7504         34.5004
  -5379819.91047  -4175671.52744  22875364.9144   22875363.2384       -648.9814
        45.2504         28.5004
   1764720.62148   1377135.28146  20512541.8524   20512539.3164      -1946.8054
        49.0004         39.7504
  -8402750.09048  -6529331.35245  22142353.4144   22142349.6484        227.8964
        48.5004         34.0004
   9082991.35248   7072042.72345  21931021.5394   21931017.7464      -3288.3534
        48.7504         33.2504
  -5380650.82046  -4177341.86744  24298956.8754   24298954.5704        998.2364
        40.5004         24.5004
 -13187638.09847 -10254222.75045  22525609.6094   22525608.0594       2022.2564
        45.0004         31.0004
 10  5 26 23 27 30.0000000  0 10G03G06G07G08G10G13G19G23G05G28
    423152.69947    334203.43844  22436607.4064   22436605.3244      -1980.9134
        43.5004         29.2504
   3798731.96946   2960936.21143  23839958.7344   23839957.4454      -2401.0284
        40.2504         22.7504
  -3764188.41048  -2928933.38346  20744306.1484   20744303.4534        -10.1094
        49.0004         40.7504
  -9675248.12948  -7522556.98445  22200575.1804   22200573.7034       1445.6954
        48.0004         34.0004
  -5359813.62947  -4160082.23844  22879171.4694   22879170.4654       -666.8764
        44.5004         29.0004
   1823610.35948   1423023.37946  20523748.1484   20523745.7774      -1962.9914
        50.0004         40.5004
  -8409029.43048  -6534224.29345  22141159.1414   22141154.8594        209.3114
        48.5004         34.2504
   9181993.20348   7149186.97345  21949861.5944   21949857.3914      -3300.0624
        48.2504         34.0004
  -5410100.47346  -4200289.62543  24293351.3284   24293350.5394        981.6554
        39.2504         22.5004
 -13247997.24647 -10301255.77345  22514123.7504   22514121.7154       2011.9724
        47.0004         31.0004
 10  5 26 23 28  0.0000000  0 10G03G06G07G08G10G13G19G23G05G28
    483132.74247    380941.12944  22448021.1254   22448019.0824      -1999.3354
        44.7504         27.5004
   3871184.20346   3017392.45743  23853746.5234   23853744.8984      -2415.0744
        39.7504         22.5004
  -3763714.54348  -2928564.12546  20744396.3984   20744393.3164        -15.7964
        49.7504         40.5004
  -9718548.79748  -7556297.73445  22192335.7584   22192333.5314       1443.3564
        48.2504         34.7504
  -5339278.29747  -4144080.69944  22883079.5784   22883078.2464       -684.5114
        44.7504         28.7504
   1882978.47748   1469284.22746  20535045.6564   20535043.1564      -1978.9374
        50.5004         40.0004
  -8414756.67648  -6538687.07045  22140068.5314   22140065.1254        190.9084
        48.7504         34.7504
   9281338.05947   7226598.48845  21968765.8284   21968762.1684      -3311.4954
        47.0004         33.5004
  -5439058.73446  -4222854.46943  24287840.9774   24287839.9384        965.2754
        39.7504         23.2504
 -13308054.24247 -10348053.36745  22502695.2814   22502692.9064       2001.9004
        47.5004         31.5004
 10  5 26 23 28 30.0000000  0 10G03G06G07G08G10G13G19G23G05G28
    543671.59447    428114.23444  22459542.0864   22459539.6884      -2017.9624
        45.0004         28.0004
   3944063.90246   3074181.80543  23867614.1334   23867613.5204      -2429.3234
        40.0004         22.5004
  -3763062.23048  -2928055.82846  20744520.4064   20744517.5474        -21.7444
        51.0004         40.7504
  -9761770.57448  -7589977.00445  22184110.4144   22184108.4104       1440.7264
        49.2504         34.5004
  -5318207.57847  -4127661.98044  22887089.1644   22887087.7934       -702.3574
        45.5004         28.2504
   1942831.75448   1515923.12946  20546435.5394   20546432.6764      -1995.1094
        51.7504         40.0004
  -8419923.05948  -6542712.78145  22139085.7814   22139082.2034        172.2134
        48.5004         34.5004
   9381031.45748   7304281.60245  21987737.1174   21987733.4144      -3323.1134
        48.0004         34.0004
  -5467516.80146  -4245029.53544  24282426.2114   24282424.2894        948.6024
        40.0004         25.5004
 -13367800.77047 -10394609.03145  22491325.7034   22491323.9884       1991.5514
        47.0004         31.2504
 10  5 26 23 29  0.0000000  0 10G03G06G07G08G10G13G19G23G05G28
    604763.91447    475718.62944  22471166.6564   22471164.9964      -2036.4114
        44.0004         28.7504
   4017365.66846   3131300.02743  23881564.2504   23881561.9924      -2443.3924
        40.2504         22.7504
  -3762234.69148  -2927410.98846  20744678.0944   20744675.3324        -27.5854
        50.5004         40.2504
  -9804917.82848  -7623598.21545  22175899.9224   22175897.7304       1438.2424
        48.7504         34.5004
  -5296605.98047  -4110829.57444  22891199.8594   22891198.2934       -720.0534
        46.0004         28.7504
   2003166.02048   1562936.82046  20557916.5394   20557913.6954      -2011.1424
        51.7504         40.5004
  -8424530.89147  -6546303.25845  22138209.0634   22138204.8674        153.5944
        47.7504         33.5004
   9481067.80148   7382231.94945  22006773.2974   22006769.4534      -3334.5454
        48.0004         33.7504
  -5495477.43746  -4266817.03944  24277105.1334   24277103.1174        932.0214
        40.0004         24.2504
 -13427239.47347 -10440924.83245  22480014.9304   22480012.7424       1981.2904
        47.2504         32.7504
 10  5 26 23 29 30.0000000  0 10G03G06G07G08G10G13G19G23G05G28
    666412.32447    523756.33244  22482897.5784   22482896.3874      -2054.9474
        44.0004         27.7504
   4091091.65646   3188748.82043  23895593.0784   23895591.8914      -2457.5334
        39.5004         22.0004
  -3761227.69548  -2926626.30946  20744870.1024   20744867.0124        -33.5674
        50.5004         40.5004
  -9847985.80148  -7657157.64545  22167704.2504   22167702.4694       1435.5994
        48.7504         34.7504
  -5274470.75047  -4093581.37544  22895412.3674   22895410.8444       -737.8414
        44.5004         28.0004
   2063984.66448   1610327.94946  20569489.9144   20569487.5594      -2027.2884
        51.2504         40.2504
  -8428574.83247  -6549454.36345  22137438.9774   22137435.7344        134.7984
        47.5004         34.2504
   9581449.58648   7460451.46545  22025875.0784   22025871.9804      -3346.0604
        48.2504         34.0004
  -5522935.71946  -4288213.07444  24271879.3444   24271877.5784        915.2764
        39.2504         25.5004
 -13486365.67647 -10486997.14145  22468763.5864   22468761.4964       1970.8734
        47.2504         32.2504
 10  5 26 23 30  0.0000000  0 10G03G06G07G08G10G13G19G23G05G28
    728613.06347    572224.44544  22494734.2664   22494732.6414      -2073.3584
        44.2504         29.0004
   4165237.85946   3246525.05143  23909702.5944   23909701.6374      -2471.5404
        39.5004         22.5004
  -3760043.12148  -2925703.25846  20745094.9924   20745092.4144        -39.4864
        50.2504         41.0004
  -9890976.77048  -7690657.06245  22159523.3204   22159521.4694       1433.0324
        48.7504         34.0004
  -5251805.12547  -4075919.85544  22899725.5234   22899723.8094       -755.5214
        45.0004         28.5004
   2125285.36348   1658094.70746  20581155.5234   20581152.3554      -2043.3574
        51.2504         40.0004
  -8432055.86348  -6552166.81245  22136776.8524   22136772.7304        116.0344
        48.2504         34.5004
   9682173.50048   7538937.55945  22045042.7814   22045038.9454      -3357.4644
        48.5004         33.5004
  -5549892.83646  -4309218.61343  24266749.5944   24266748.3094        898.5714
        39.5004         22.7504
 -13545180.67648 -10532826.93745  22457571.3134   22457568.9844       1960.5004
        48.0004         33.2504
 10  5 26 23 30 30.0000000  0 10G03G06G07G08G10G13G19G23G05G28
    791367.12947    621123.69144  22506676.4144   22506674.5354      -2091.8024
        43.2504         28.0004
   4239805.01646   3304629.29743  23923892.5704   23923891.5634      -2485.5724
        38.7504         21.7504
  -3758677.75448  -2924639.32846  20745355.0704   20745351.7894        -45.5124
        50.0004         40.7504
  -9933888.23848  -7724094.54345  22151357.8204   22151355.4304       1430.3824
        49.0004         34.7504
  -5228607.38347  -4057843.71144  22904139.7584   22904138.0904       -773.2584
        45.5004         28.5004
   2187069.92648   1706238.50846  20592912.1484   20592909.8054      -2059.4854
        51.0004         40.0004
  -8434970.36748  -6554437.84445  22136221.8444   22136218.4264         97.1504
        48.2504         35.0004
   9783239.89547   7617690.54745  22064275.0634   22064271.5164      -3368.8804
        47.0004         34.0004
  -5576345.07846  -4329830.71143  24261716.2274   24261714.2464        881.7414
        38.5004         23.7504
 -13603681.11347 -10578411.63345  22446438.9454   22446436.8444       1950.0154
        47.7504         33.0004
 10  5 26 23 31  0.0000000  0 10G03G06G07G08G10G13G19G23G05G28
    854665.02747    670446.71944  22518721.1484   22518719.5204      -2109.9304
        43.2504         28.5004
   4314783.77046   3363054.27043  23938159.8984   23938159.4454      -2499.2924
        39.5004         22.5004
  -3757139.21948  -2923440.46546  20745647.4844   20745644.5354        -51.2854
        49.7504         41.0004
  -9976727.53948  -7757475.78545  22143205.6094   22143203.3634       1427.9774
        48.2504         34.7504
  -5204886.43447  -4039359.87944  22908653.7584   22908651.7734       -790.6984
        45.7504         28.5004
   2249330.19948   1754752.98846  20604760.2034   20604757.6884      -2075.3424
        50.7504         40.5004
  -8437324.87948  -6556272.49245  22135774.0944   22135770.5554         78.4844
        48.5004         34.7504
   9884639.46948   7696703.14545  22083570.6564   22083566.5004      -3379.9864
        48.7504         33.2504
  -5602299.74246  -4350055.10244  24256776.9224   24256775.3134        865.1554
        39.5004         25.2504
 -13661874.26648 -10623756.88345  22435365.0084   22435363.0984       1939.7724
        48.0004         33.0004
 10  5 26 23 31 30.0000000  0 10G03G06G07G08G10G13G19G23G05G28
    918512.80947    720198.22344  22530871.0004   22530869.7934      -2128.2594
        42.5004         28.2504
   4390179.41446   3421804.08243  23952507.1724   23952505.7384      -2513.1884
        39.5004         21.5004
  -3755420.17248  -2922100.94146  20745974.6334   20745971.9884        -57.3024
        49.5004         40.5004
 -10019487.41048  -7790795.13345  22135068.5314   22135066.4964       1425.3294
        49.2504         34.5004
  -5180636.15647  -4020463.57444  22913268.2734   22913266.5984       -808.3434
        45.0004         28.5004
   2312072.71148   1803643.23446  20616699.7974   20616697.0704      -2091.4174
        50.5004         39.7504
  -8439111.03147  -6557664.27045  22135433.7344   22135430.6454         59.5384
        47.0004         34.5004
   9986377.91047   7775979.80145  22102930.5084   22102927.8054      -3391.2814
        46.5004         33.2504
  -5627748.44946  -4369885.24644  24251934.9454   24251932.8014        848.2904
        40.2504         25.7504
 -13719752.03947 -10668856.37945  22424351.6024   22424349.0784       1929.2594
        47.0004         33.7504
 10  5 26 23 32  0.0000000  0 10G03G06G07G08G10G13G19G23G05G28
    982904.23847    770373.34044  22543124.2664   22543122.6254      -2146.3814
        43.0004         28.7504
   4465985.80146   3480873.96143  23966933.4384   23966931.7974      -2526.8804
        39.7504         21.7504
  -3753524.03948  -2920623.43446  20746335.4534   20746332.3754        -63.2044
        48.7504         41.0004
 -10062171.98048  -7824055.81645  22126945.6254   22126943.9184       1422.8194
        48.7504         35.0004
  -5155862.16047  -4001159.18444  22917982.3364   22917981.2114       -825.8004
        45.5004         29.0004
   2375292.41048   1852905.31346  20628729.9924   20628727.6684      -2107.3234
        50.5004         39.5004
  -8440331.68747  -6558615.39545  22135201.7814   22135198.1844         40.6894
        47.0004         34.5004
  10088449.09047   7855515.69945  22122354.7194   22122350.7074      -3402.3734
        47.5004         33.0004
  -5652694.76646  -4389323.91844  24247187.1414   24247185.9414        831.5444
        40.7504         25.5004
 -13777317.78147 -10713712.73445  22413397.0234   22413394.7194       1918.8584
        47.0004         33.5004
 10  5 26 23 32 30.0000000  0 10G03G06G07G08G10G13G19G23G05G28
   1047841.76647    820974.00044  22555481.2894   22555480.1024      -2164.5844
        44.5004         29.0004
   4542205.44546   3540265.86343  23981437.3364   23981436.2774      -2540.6554
        39.7504         21.2504
  -3751446.09847  -2919004.25046  20746730.7894   20746727.7854        -69.2654
        47.7504         41.0004
 -10104776.46148  -7857254.08645  22118838.6954   22118836.7304       1420.1494
        49.0004         35.0004
  -5130561.26647  -3981444.21544  22922797.2584   22922795.7584       -843.3634
        45.7504         27.5004
   2438993.13348   1902542.21546  20640851.9224   20640849.2544      -2123.3574
        49.7504         39.5004
  -8440981.87547  -6559122.00445  22135077.9614   22135074.2194         21.6734
        44.7504         35.0004
  10190855.64847   7935312.96945  22141841.6414   22141838.0044      -3413.5524
        47.5004         32.5004
  -5677133.35546  -4408366.97744  24242536.8284   24242535.0824        814.6204
        39.7504         25.0004
 -13834566.78547 -10758322.28145  22402502.6954   22402500.5274       1908.3004
        46.2504         34.0004
 10  5 26 23 33  0.0000000  0 10G03G06G07G08G10G13G19G23G05G28
   1113319.32047    871995.44544  22567941.7034   22567940.2894      -2182.5854
        42.2504         29.2504
   4618832.02746   3599974.84843  23996019.6174   23996018.0554      -2554.2194
        40.2504         22.0004
  -3749190.91448  -2917246.96546  20747160.3134   20747157.2894        -75.1734
        49.0004         40.5004
 -10147305.52348  -7890393.58245  22110745.2424   22110743.6174       1417.6354
        49.2504         34.7504
  -5104739.34047  -3961323.25844  22927711.2894   22927709.8364       -860.7314
        46.0004         28.5004
   2503169.55148   1952549.78946  20653064.0784   20653061.9654      -2139.2144
        50.0004         40.2504
  -8441065.03547  -6559186.78145  22135061.7194   22135058.7424          2.7724
        47.2504         35.2504
  10293591.00448   8015366.42645  22161391.4924   22161388.2974      -3424.5124
        48.0004         33.2504
  -5701068.03546  -4427017.35244  24237982.6724   24237980.8404        797.8234
        40.2504         25.5004
 -13891502.88347 -10802688.01245  22391668.4224   22391665.9694       1897.8704
        46.0004         34.0004
 10  5 26 23 33 30.0000000  0 10G03G06G07G08G10G13G19G23G05G28
   1179340.86746    923440.78944  22580504.6094   22580503.5554      -2200.7184
        41.7504         28.2504
   4695869.16046   3660003.73843  24010678.8754   24010677.9694      -2567.9044
        40.2504         21.7504
  -3746752.24247  -2915346.70346  20747624.3524   20747620.8874        -81.2894
        47.7504         41.0004
 -10189753.11748  -7923469.61345  22102667.9924   22102666.1524       1414.9204
        49.5004         34.7504
  -5078391.86347  -3940792.77344  22932724.3754   22932723.1134       -878.2494
        46.2504         29.2504
   2567826.91048   2002932.12146  20665368.0554   20665365.5634      -2155.2454
        49.2504         40.0004
  -8440574.38747  -6558804.43045  22135155.6724   22135151.7734        -16.3554
        44.7504         35.5004
  10396659.22747   8095679.29345  22181004.7034   22181001.5984      -3435.6074
        47.7504         34.0004
  -5724492.31646  -4445270.03944  24233524.3834   24233523.0204        780.8094
        40.5004         26.2504
 -13948119.77047 -10846805.00045  22380894.6954   22380892.0944       1887.2304
        45.5004         33.5004
 10  5 26 23 34  0.0000000  0 10G03G06G07G08G10G13G19G23G05G28
   1245897.94947    975303.42644  22593170.4064   22593168.7774      -2218.5694
        44.0004         29.5004
   4773308.65646   3720346.18843  24025414.5474   24025414.3094      -2581.3174
        41.0004         21.5004
  -3744136.05147  -2913308.10546  20748122.0704   20748119.2234        -87.2064
        47.7504         41.0004
 -10232125.44148  -7956486.97745  22094605.1644   22094602.6454       1412.4114
        49.0004         34.5004
  -5051526.50047  -3919858.74644  22937837.0314   22937835.9924       -895.5124
        46.0004         28.7504
   2632957.98448   2053683.59446  20677761.9774   20677759.4844      -2171.0364
        48.7504         39.5004
  -8439515.29747  -6557979.14145  22135357.1954   22135353.5004        -35.3034
        45.2504         35.2504
  10500052.23447   8176245.18845  22200680.2814   22200676.7384      -3446.4344
        47.7504         32.5004
  -5747411.59046  -4463129.21544  24229164.0554   24229161.8554        763.9764
        41.2504         24.7504
 -14004423.02047 -10890677.58245  22370180.3984   22370178.0204       1876.7754
        45.5004         33.5004
 10  5 26 23 34 30.0000000  0 10G03G06G07G08G10G13G19G23G05G28
   1312997.69947   1027588.93044  22605938.7584   22605937.6414      -2236.6584
        43.7504         28.7504
   4851156.97746   3781007.17243  24040228.2664   24040227.7544      -2594.9444
        39.7504         21.5004
  -3741333.50048  -2911124.29746  20748655.6954   20748652.3554        -93.4184
        48.7504         41.0004
 -10274413.83648  -7989438.94145  22086557.2974   22086555.8714       1409.6134
        49.2504         35.2504
  -5024135.93447  -3898515.47344  22943049.4454   22943047.7424       -913.0194
        46.0004         28.5004
   2698570.59048   2104810.26646  20690247.7344   20690245.2304      -2187.0874
        49.0004         39.7504
  -8437878.32447  -6556703.55545  22135668.6174   22135664.8714        -54.5664
        46.5004         34.7504
  10603776.77347   8257069.44945  22220418.1024   22220415.0394      -3457.4854
        47.0004         32.7504
  -5769816.91046  -4480587.87944  24224899.9774   24224898.5204        746.8444
        39.5004         25.0004
 -14060403.66847 -10934298.78945  22359527.3594   22359524.9104       1866.0224
        45.7504         33.7504
 10  5 26 23 35  0.0000000  0 10G03G06G07G08G10G13G19G23G05G28
   1380630.73047   1080289.97344  22618809.4774   22618807.9534      -2254.4344
        43.7504         27.7504
   4929405.06646   3841979.67643  24055118.7274   24055117.7424      -2608.2704
        40.5004         21.0004
  -3738351.44148  -2908800.60246  20749222.8284   20749219.9534        -99.4024
        49.5004         41.0004
 -10316625.42648  -8022331.06645  22078525.1564   22078523.2384       1407.0534
        49.0004         34.7504
  -4996228.91047  -3876769.76244  22948360.0634   22948358.3014       -930.2344
        45.7504         28.5004
   2764656.69548   2156305.91446  20702823.4304   20702821.1374      -2202.8704
        48.7504         39.5004
  -8435669.79747  -6554982.60245  22136089.0784   22136085.0634        -73.6184
        46.0004         34.2504
  10707823.64547   8338144.87145  22240217.4534   22240214.0434      -3468.2294
        47.0004         33.0004
  -5791714.82446  -4497651.20744  24220732.6644   24220730.9414        729.9304
        40.2504         24.7504
 -14116068.17247 -10977673.67245  22348934.9774   22348932.4344       1855.4834
        45.7504         33.5004
 10  5 26 23 35 30.0000000  0 10G03G06G07G08G10G13G19G23G05G28
   1448799.34047   1133408.35544  22631781.3594   22631779.9654      -2272.2874
        43.7504         27.7504
   5008054.48846   3903264.90643  24070085.4224   24070084.6604      -2621.6474
        39.7504         21.5004
  -3735186.16048  -2906334.14846  20749825.1484   20749822.2304       -105.5094
        48.5004         40.7504
 -10358756.37148  -8055160.35945  22070507.5314   22070505.5904       1404.3654
        48.0004         35.5004
  -4967802.92247  -3854619.66444  22953769.4924   22953767.9104       -947.5334
        45.7504         29.0004
   2831218.94948   2208172.58246  20715489.8444   20715487.0474      -2218.7424
        49.2504         39.5004
  -8432885.37147  -6552812.89545  22136618.6414   22136614.6374        -92.8144
        45.5004         34.5004
  10812194.57047   8419472.80145  22260078.6334   22260075.4064      -3479.0314
        46.7504         33.0004
  -5813101.18746  -4514315.89144  24216663.1564   24216660.8874        712.8794
        40.2504         24.7504
 -14171412.62947 -11020799.16045  22338403.2424   22338400.5904       1844.8154
        45.0004         33.2504
 10  5 26 23 36  0.0000000  0 10G03G06G07G08G10G13G19G23G05G28
   1517496.99247   1186938.97744  22644854.3594   22644852.9344      -2289.9224
        43.7504         28.0004
   5087098.88346   3964857.90643  24085128.0164   24085126.1994      -2634.8134
        40.7504         20.7504
  -3731841.27748  -2903727.74246  20750461.7584   20750458.8164       -111.4964
        48.5004         41.0004
 -10400810.94148  -8087930.12545  22062504.9844   22062502.8714       1401.8194
        48.2504         35.2504
  -4938864.23447  -3832070.05544  22959276.1644   22959274.6644       -964.6234
        45.5004         29.2504
   2898252.38748   2260406.41046  20728245.8834   20728243.6844      -2234.4484
        49.5004         39.2504
  -8429528.34047  -6550197.00045  22137257.4774   22137253.3244       -111.9014
        45.0004         34.5004
  10916883.23447   8501048.32045  22280000.5944   22279997.1024      -3489.6224
        47.7504         34.0004
  -5833979.41046  -4530584.63344  24212690.3674   24212688.4224        695.9414
        39.7504         25.2504
 -14226440.44547 -11063677.92245  22327931.2664   22327929.2974       1834.2614
        45.2504         33.0004
 10  5 26 23 36 30.0000000  0 10G03G06G07G08G10G13G19G23G05G28
   1586726.93447   1240884.35544  22658028.5554   22658026.5084      -2307.6654
        44.5004         28.2504
   5166541.61346   4026761.29343  24100244.9454   24100243.7814      -2648.0914
        39.0004         20.2504
  -3728311.17248  -2900977.02046  20751133.4454   20751130.3634       -117.6704
        49.0004         41.0004
 -10442783.40648  -8120635.91845  22054517.7664   22054516.2234       1399.0824
        48.0004         35.2504
  -4909408.50047  -3809117.54744  22964881.3054   22964879.9304       -981.8584
        45.0004         27.7504
   2965761.49648   2313010.88746  20741092.5784   20741090.1804      -2250.3044
        50.0004         39.2504
  -8425592.66447  -6547130.21145  22138006.4224   22138002.6524       -131.1894
        46.5004         35.5004
  11021893.40647   8582874.36745  22299982.9454   22299980.1334      -3500.3394
        47.0004         32.7504
  -5854343.62946  -4546452.84443  24208815.0474   24208812.9224        678.8074
        39.7504         23.5004
 -14281145.81647 -11106305.42245  22317521.3594   22317518.8674       1823.5124
        46.0004         33.0004
 10  5 26 23 37  0.0000000  0 10G03G06G07G08G10G13G19G23G05G28
   1656483.18847   1295239.87544  22671302.4384   22671300.7464      -2325.2084
        43.5004         27.2504
   5246376.41446   4088970.22743  24115437.2114   24115435.9804      -2661.1604
        39.5004         20.0004
  -3724599.83248  -2898085.05546  20751839.8134   20751836.9384       -123.7114
        50.2504         41.0004
 -10484678.62148  -8153281.52045  22046545.5164   22046543.2274       1396.5074
        48.0004         35.5004
  -4879441.18447  -3785766.42244  22970583.6564   22970582.5204       -998.9114
        46.0004         29.0004
   3033740.99248   2365981.89846  20754028.6254   20754026.2814      -2265.9834
        50.7504         39.0004
  -8421081.84847  -6543615.27345  22138864.8674   22138860.9964       -150.3614
        47.0004         35.0004
  11127218.83247   8664946.06645  22320025.8984   22320022.8594      -3510.8484
        46.7504         32.7504
  -5874197.50846  -4561923.40644  24205036.1884   24205034.9264        661.7964
        40.0004         26.0004
 -14335532.66847 -11148684.72345  22307171.7274   22307169.2194       1812.8954
        45.2504         33.0004
 10  5 26 23 37 30.0000000  0 10G03G06G07G08G10G13G19G23G05G28
   1726768.04347   1350007.26644  22684677.6254   22684675.6914      -2342.8294
        44.2504         28.5004
   5326605.72346   4151486.52743  24130704.0164   24130703.4884      -2674.3104
        39.2504         20.7504
  -3720702.38348  -2895048.08246  20752581.3834   20752578.5474       -129.9154
        48.5004         41.0004
 -10526491.48848  -8185862.94545  22038588.8524   22038586.5164       1393.7624
        48.2504         35.0004
  -4848959.68747  -3762014.63344  22976384.7424   22976382.9574      -1016.0504
        45.5004         28.7504
   3102194.73048   2419322.45746  20767054.8284   20767052.6994      -2281.7914
        49.7504         38.7504
  -8415990.55947  -6539648.00045  22139833.6094   22139829.7854       -169.7104
        45.0004         34.5004
  11232861.57447   8747264.99245  22340129.6954   22340125.8634      -3521.4254
        47.5004         32.7504
  -5893536.10546  -4576992.43043  24201356.5314   24201355.3634        644.6204
        41.2504         23.5004
 -14389596.20347 -11190812.08645  22296883.2274   22296881.3204       1802.1184
        46.5004         33.0004
 10  5 26 23 38  0.0000000  0 10G03G06G07G08G10G13G19G23G05G28
   1797574.53947   1405181.14144  22698150.9614   22698149.6094      -2360.2174
        43.7504         26.5004
   5407222.17246   4214304.50843  24146045.6094   24146043.7854      -2687.2154
        40.7504         20.7504
  -3716623.82848  -2891869.98446  20753357.4304   20753354.3834       -135.9524
        48.2504         40.7504
 -10568227.00448  -8218384.10545  22030646.6484   22030644.6994       1391.1844
        48.0004         35.7504
  -4817970.83647  -3737867.50044  22982281.2504   22982279.9964      -1032.9624
        45.5004         28.2504
   3171116.14148   2473027.43046  20780170.6804   20780167.6374      -2297.3804
        50.2504         39.2504
  -8410323.30547  -6535231.93745  22140912.2034   22140908.4104       -188.9084
        44.5004         34.7504
  11338815.02747   8829826.06645  22360291.5864   22360288.6374      -3531.7824
        47.5004         32.0004
  -5912364.44546  -4591663.85244  24197773.6954   24197771.9104        627.6114
        40.5004         26.0004
 -14443340.74247 -11232690.88745  22286656.2034   22286653.9414       1791.4854
        45.5004         33.0004
 10  5 26 23 38 30.0000000  0 10G03G06G07G08G10G13G19G23G05G28
   1868904.42646   1460762.85544  22711724.7664   22711723.8594      -2377.6634
        41.7504         28.0004
   5488227.41846   4277425.45743  24161459.7504   24161458.7464      -2700.1754
        39.2504         20.5004
  -3712360.15248  -2888547.63746  20754168.7504   20754165.6564       -142.1234
        49.5004         40.7504
 -10609880.78948  -8250841.58245  22022720.3054   22022718.2584       1388.4604
        48.5004         34.5004
  -4786472.30547  -3713323.20344  22988275.6174   22988274.1454      -1049.9514
        43.2504         29.2504
   3240508.35948   2527099.27046  20793375.5394   20793372.8094      -2313.0744
        48.5004         39.2504
  -8404076.06247  -6530363.94145  22142100.9384   22142097.0234       -208.2414
        47.2504         35.0004
  11445080.94147   8912630.60245  22380512.8364   22380509.8754      -3542.1974
        46.2504         32.2504
  -5930678.00846  -4605934.15644  24194287.7814   24194287.3284        610.4524
        39.5004         25.2504
 -14496762.28947 -11274318.00445  22276490.5314   22276487.9804       1780.7184
        46.5004         33.5004
 10  5 26 23 39  0.0000000  0 10G03G06G07G08G10G13G19G23G05G28
   1940742.10946   1516740.23844  22725395.6334   22725393.5044      -2394.5894
        41.5004         28.2504
   5569606.03546   4340837.34443  24176945.7664   24176944.9264      -2712.6214
        40.0004         19.7504
  -3707924.14847  -2885091.01646  20755012.9774   20755009.6334       -147.8674
        47.7504         40.2504
 -10651466.80547  -8283246.24245  22014806.6334   22014804.8134       1386.2014
        47.5004         35.7504
  -4754479.05547  -3688393.41844  22994363.7734   22994361.8444      -1066.4424
        44.7504         28.5004
   3310356.89848   2581526.68046  20806667.2194   20806664.4144      -2328.2854
        49.2504         39.2504
  -8397261.16447  -6525053.60245  22143397.4774   22143393.5204       -227.1634
        44.2504         34.7504
  11551643.86347   8995666.56345  22400791.6024   22400788.3404      -3552.0974
        46.5004         33.0004
  -5948489.59846  -4619813.30144  24190899.3054   24190897.6024        593.7204
        40.0004         24.0004
 -14549873.82447 -11315703.56245  22266383.3364   22266381.7664       1770.3854
        45.0004         33.0004
 10  5 26 23 39 30.0000000  0 10G03G06G07G08G10G13G19G23G05G28
   2013089.39847   1573114.73844  22739162.3134   22739160.7504      -2411.5764
        42.2504         27.7504
   5651359.59446   4404541.36743  24192502.6024   24192501.9144      -2725.1194
        40.0004         20.0004
  -3703311.57048  -2881496.79746  20755890.6804   20755887.6484       -153.7534
        48.5004         40.7504
 -10692980.52748  -8315594.57445  22006906.4614   22006905.0354       1383.7914
        48.5004         35.5004
  -4721988.73447  -3663076.31644  23000545.9694   23000544.9184      -1083.0114
        43.5004         28.2504
   3380664.50848   2636311.81646  20820046.5944   20820043.9184      -2343.5874
        49.5004         39.5004
  -8389874.13347  -6519297.45345  22144803.3984   22144799.3954       -246.2344
        45.2504         34.5004
  11658505.61748   9078935.39845  22421127.4534   22421123.4304      -3562.0584
        48.2504         31.7504
  -5965794.82446  -4633297.89844  24187606.5234   24187604.7814        576.8414
        39.5004         25.0004
 -14602670.90647 -11356844.09045  22256337.3204   22256334.7034       1759.9034
        46.7504         32.7504
 10  5 26 23 40  0.0000000  0 10G03G06G07G08G10G13G19G23G05G28
   2085948.78147   1629888.25444  22753027.2274   22753025.1954      -2428.6464
        44.0004         29.2504
   5733490.56346   4468539.50043  24208132.0474   24208130.8244      -2737.6994
        40.5004         19.7504
  -3698517.86348  -2877761.43446  20756802.8364   20756799.9264       -159.7904
        50.5004         40.5004
 -10734417.09448  -8347882.78145  21999021.4304   21999019.5664       1381.2194
        48.2504         35.5004
  -4688998.94147  -3637369.98844  23006824.0784   23006822.4574      -1099.6604
        44.5004         29.0004
   3451434.89148   2691457.54346  20833513.6414   20833510.8634      -2359.0134
        50.2504         39.5004
  -8381910.32847  -6513091.86745  22146318.7734   22146314.7664       -265.4604
        45.0004         34.5004
  11765668.69948   9162439.04745  22441519.5704   22441516.2464      -3572.1034
        48.2504         31.2504
  -5982589.24646  -4646384.46144  24184410.5164   24184408.5984        559.8144
        41.2504         26.0004
 -14655148.92247 -11397735.99645  22246350.0394   22246347.8484       1749.2674
        45.5004         33.5004
 10  5 26 23 40 30.0000000  0 10G03G06G07G08G10G13G19G23G05G28
   2159329.33246   1687067.89144  22766990.7344   22766989.4024      -2446.0184
        41.5004         27.0004
   5816008.10946   4532838.85543  24223834.3524   24223833.0664      -2750.5854
        39.2504         20.2504
  -3693531.34848  -2873875.84046  20757751.7274   20757749.2034       -166.2174
        50.5004         40.5004
 -10775765.84448  -8380102.55945  21991153.2034   21991151.1414       1378.2924
        49.0004         35.0004
  -4655499.52047  -3611266.56244  23013198.8134   23013197.4184      -1116.6474
        45.0004         27.7504
   3522677.98848   2746971.62146  20847070.5164   20847067.8364      -2374.7704
        50.2504         40.2504
  -8373357.76247  -6506427.50045  22147946.2424   22147942.3714       -285.0864
        45.2504         34.2504
  11873142.43847   9246184.75045  22461971.0234   22461967.8324      -3582.4584
        47.0004         32.0004
  -5998861.07846  -4659063.80944  24181313.8754   24181312.2584        542.3944
        41.2504         24.7504
 -14707296.30147 -11438370.26245  22236427.3754   22236424.8754       1738.2464
        46.5004         34.5004
 10  5 26 23 41  0.0000000  0 10G03G06G07G08G10G13G19G23G05G28
   2233226.73847   1744650.25044  22781053.4694   22781052.1524      -2463.2474
        43.0004         27.2504
   5898907.86746   4597436.02743  24239609.6334   24239608.9224      -2763.3254
        40.7504         20.0004
  -3688354.19548  -2869841.69546  20758736.9924   20758734.1684       -172.5724
        49.0004         40.5004
 -10817028.33648  -8412255.13345  21983301.5784   21983299.2114       1375.4164
        49.0004         35.7504
  -4621494.57047  -3584769.23444  23019669.5164   23019668.3674      -1133.4984
        44.5004         29.0004
   3594390.67248   2802851.60946  20860717.1884   20860714.4964      -2390.4234
        50.0004         39.0004
  -8364218.04347  -6499305.62545  22149685.7814   22149681.3954       -304.6574
        45.0004         34.5004
  11980922.43047   9330169.07845  22482481.0004   22482477.6724      -3592.6664
        47.7504         31.2504
  -6014612.39546  -4671337.57044  24178316.5164   24178314.8594        525.0444
        40.0004         24.5004
 -14759114.99247 -11478748.41045  22226566.3204   22226563.8204       1727.2904
        46.5004         33.7504
 10  5 26 23 41 30.0000000  0 10G03G06G07G08G10G13G19G23G05G28
   2307640.59447   1802635.06644  22795213.4454   22795212.0944      -2480.4624
        43.5004         26.7504
   5982189.48846   4662330.78143  24255457.5234   24255456.8284      -2776.0544
        40.7504         21.5004
  -3682983.53948  -2865656.75846  20759759.2664   20759755.8324       -179.0224
        50.2504         40.2504
 -10858202.95348  -8444339.22745  21975465.6334   21975464.0744       1372.4874
        49.0004         35.0004
  -4586983.92647  -3557877.84444  23026237.1954   23026235.5944      -1150.3554
        45.0004         28.5004
   3666573.69948   2859098.09846  20874452.9454   20874450.5784      -2406.1014
        50.0004         38.7504
  -8354488.62147  -6491724.23045  22151536.5554   22151532.7504       -324.3144
        47.0004         34.0004
  12089008.43447   9414391.88345  22503048.4694   22503045.5784      -3602.8674
        47.5004         32.0004
  -6029840.73046  -4683203.80544  24175419.0234   24175416.7034        507.6114
        40.0004         25.5004
 -14810602.15247 -11518868.22745  22216768.9064   22216766.1134       1716.2394
        46.5004         33.7504
 10  5 26 23 42  0.0000000  0 10G03G06G07G08G10G13G19G23G05G28
   2382562.77047   1861015.95344  22809472.1024   22809469.5784      -2497.4064
        42.5004         28.0004
   6065844.53946   4727516.48843  24271376.9844   24271375.9614      -2788.5024
        41.2504         21.0004
  -3677425.50448  -2861325.82446  20760816.7734   20760813.4384       -185.2684
        50.5004         40.2504
 -10899295.28148  -8476359.19945  21967646.2974   21967644.0164       1369.7444
        49.0004         35.0004
  -4551975.34847  -3530598.44544  23032898.9454   23032897.6764      -1166.9534
        45.2504         29.5004
   3739219.74648   2915705.38746  20888277.2584   20888274.6134      -2421.5354
        49.7504         39.0004
  -8344175.57447  -6483688.07845  22153499.4384   22153495.1024       -343.7684
        45.5004         34.2504
  12197392.68048   9498847.06345  22523673.9144   22523670.7034      -3612.8084
        48.2504         31.5004
  -6044551.77046  -4694666.95744  24172619.8284   24172618.0234        490.3684
        40.0004         26.5004
 -14861763.74247 -11558734.35245  22207032.8524   22207030.3634       1705.3864
        46.2504         33.7504
 10  5 26 23 42 30.0000000  0 10G03G06G07G08G10G13G19G23G05G28
   2457997.02346   1919795.88344  22823825.6954   22823824.1844      -2514.4754
        41.2504         27.5004
   6149876.92246   4792996.22743  24287367.1644   24287366.8284      -2801.0794
        40.0004         21.5004
  -3671673.89148  -2856844.03946  20761910.8674   20761907.6994       -191.7204
        50.7504         41.2504
 -10940298.88748  -8508310.03145  21959843.6094   21959841.6024       1366.7874
        49.0004         35.5004
  -4516464.82447  -3502927.93744  23039656.2194   23039654.9614      -1183.6844
        45.0004         29.5004
   3812333.75448   2972677.31646  20902190.1884   20902187.5474      -2437.1344
        49.7504         39.5004
  -8333272.43047  -6475192.09445  22155574.3134   22155570.1524       -363.4384
        46.2504         34.7504
  12306078.35247   9583537.14145  22544356.3914   22544352.7854      -3622.8564
        47.5004         31.0004
  -6058739.22746  -4705722.10544  24169919.6884   24169917.5704        472.9154
        40.2504         25.0004
 -14912593.90647 -11598342.21145  22197360.0864   22197357.5704       1694.3394
        46.5004         34.0004
 10  5 26 23 43  0.0000000  0 10G03G06G07G08G10G13G19G23G05G28
   2533935.90647   1978969.00844  22838275.8054   22838274.9224      -2531.2964
        42.2504         25.5004
   6234278.87146   4858763.94143  24303429.1024   24303427.5784      -2813.3984
        41.0004         22.0004
  -3665733.36748  -2852215.05546  20763041.2894   20763038.6254       -198.0174
        50.7504         40.5004
 -10981219.61348  -8540196.28545  21952056.4064   21952054.7664       1364.0244
        49.2504         35.2504
  -4480459.56247  -3474871.90244  23046507.7274   23046506.5004      -1200.1754
        45.0004         28.5004
   3885909.35248   3030008.93046  20916191.4144   20916188.9384      -2452.5204
        49.5004         39.0004
  -8321783.93447  -6466240.00845  22157760.1484   22157756.3094       -382.9504
        45.7504         34.5004
  12415058.48848   9668456.65245  22565094.0864   22565091.3554      -3632.6714
        48.0004         30.5004
  -6072408.83646  -4716373.74244  24167318.8594   24167316.8714        455.6544
        40.5004         24.7504
 -14963097.21147 -11637695.39545  22187749.4454   22187746.9694       1683.4434
        47.0004         34.2504
 10  5 26 23 43 30.0000000  0 10G03G06G07G08G10G13G19G23G05G28
   2610379.62147   2038535.52344  22852822.1334   22852821.1994      -2548.1244
        42.5004         27.0004
   6319050.93847   4924820.05543  24319560.9064   24319559.9304      -2825.7364
        42.0004         22.0004
  -3659601.13348  -2847436.68746  20764208.5004   20764205.3984       -204.4084
        51.2504         40.2504
 -11022054.27348  -8572015.48046  21944286.1564   21944284.0124       1361.1554
        48.7504         36.0004
  -4443958.72347  -3446429.72344  23053453.9224   23053452.3484      -1216.6954
        44.7504         29.7504
   3959947.78548   3087701.18046  20930280.2194   20930277.9144      -2467.9484
        50.0004         39.0004
  -8309707.30547  -6456829.61345  22160058.1724   22160054.3594       -402.5544
        46.5004         34.7504
  12524333.50847   9753605.93845  22585888.8524   22585885.9494      -3642.5014
        47.7504         30.7504
  -6085557.40646  -4726619.37944  24164816.1804   24164814.7034        438.2864
        40.5004         24.5004
 -15013270.98447 -11676791.79345  22178201.8204   22178199.3714       1672.4594
        47.0004         34.5004
 10  5 26 23 44  0.0000000  0 10G03G06G07G08G10G13G19G23G05G28
   2687321.17246   2098489.96544  22867464.6254   22867463.1804      -2564.7184
        41.2504         27.0004
   6404186.14847   4991159.17643  24335761.2424   24335760.9614      -2837.8404
        42.5004         22.5004
  -3653281.50848  -2842512.29346  20765410.5864   20765407.8484       -210.6544
        50.0004         40.5004
 -11062807.60948  -8603771.30146  21936530.8914   21936528.6564       1358.4454
        48.5004         36.0004
  -4406968.91847  -3417606.52344  23060492.3524   23060491.1374      -1232.9934
        44.5004         28.2504
   4034443.17648   3145749.51646  20944456.3834   20944454.1414      -2483.1804
        48.5004         38.7504
  -8297046.84847  -6446964.30145  22162467.4384   22162463.6804       -422.0154
        46.2504         34.2504
  12633896.88347   9838979.90645  22606739.0864   22606734.6644      -3652.1124
        47.7504         30.0004
  -6098189.52746  -4736462.59844  24162412.8444   24162410.7704        421.0714
        40.0004         25.5004
 -15063119.68747 -11715634.89145  22168716.1254   22168713.7114       1661.6234
        46.0004         33.5004
 10  5 26 23 44 30.0000000  0 10G03G06G07G08G10G13G19G23G05G28
   2764762.87146   2158834.10944  22882201.4384   22882199.7154      -2581.3904
        41.0004         26.2504
   6489686.72346   5057782.94543  24352031.1954   24352030.7774      -2850.0194
        41.5004         21.5004
  -3646769.84048  -2837438.25846  20766650.1334   20766647.2344       -217.0564
        50.5004         40.5004
 -11103474.52748  -8635459.79346  21928792.2734   21928790.0354       1355.5644
        48.5004         36.0004
  -4369486.67247  -3388399.60244  23067625.3284   23067623.6134      -1249.4084
        43.2504         28.5004
   4109398.91448   3204156.56646  20958719.7664   20958717.4024      -2498.5254
        50.0004         38.2504
  -8283797.46147  -6436640.08245  22164988.8444   22164984.8714       -441.6464
        45.0004         34.5004
  12743750.85547   9924580.34845  22627643.1414   22627639.4414      -3661.7994
        46.5004         30.5004
  -6110300.21946  -4745899.46544  24160107.9844   24160106.1914        403.6904
        40.7504         26.7504
 -15112638.44147 -11754220.88745  22159292.4924   22159290.4454       1650.6254
        46.5004         34.2504
 10  5 26 23 45  0.0000000  0 10G03G06G07G08G10G13G19G23G05G28
   2842701.41846   2219565.43044  22897032.3364   22897030.8244      -2597.9524
        41.5004         27.2504
   6575549.41846   5124688.91443  24368371.1954   24368369.9304      -2862.0904
        41.5004         22.0004
  -3640066.46548  -2832214.84046  20767925.8834   20767922.6684       -223.4464
        50.5004         40.5004
 -11144056.35948  -8667081.96946  21921069.7894   21921067.8874       1352.7284
        48.5004         36.0004
  -4331515.50447  -3358811.71544  23074851.1884   23074849.4844      -1265.7064
        44.0004         28.7504
   4184812.84848   3262920.64546  20973070.6414   20973068.2384      -2513.7984
        50.5004         38.5004
  -8269960.19547  -6425857.78145  22167622.1334   22167617.8794       -461.2424
        45.7504         34.5004
  12853892.11747  10010404.64144  22648601.3204   22648598.6454      -3671.3754
        46.2504         29.5004
  -6121890.59047  -4754930.93044  24157902.5234   24157901.0164        386.3464
        42.0004         26.0004
 -15161828.09447 -11792550.44145  22149932.3134   22149929.4844       1639.6554
        47.2504         34.2504
 10  5 26 23 45 30.0000000  0 10G03G06G07G08G10G13G19G23G05G28
   2921136.97746   2280684.02044  22911958.8674   22911956.8524      -2614.5194
        41.2504         27.0004
   6661774.35547   5191877.15243  24384779.2114   24384778.2814      -2874.1654
        42.0004         22.0004
  -3633168.82448  -2826840.04746  20769238.2274   20769235.3554       -229.9214
        51.2504         40.2504
 -11184549.95348  -8698635.39545  21913363.9384   21913362.1094       1349.7864
        48.0004         35.7504
  -4293054.96947  -3328842.48844  23082169.9614   23082168.5164      -1282.0184
        43.0004         28.5004
   4260686.02048   3322042.57046  20987508.9224   20987506.5234      -2529.1064
        49.0004         39.0004
  -8255532.52747  -6414615.43045  22170367.6094   22170363.5514       -480.9224
        45.0004         35.7504
  12964321.12147  10096453.13345  22669615.5314   22669612.7734      -3680.9674
        46.5004         30.5004
  -6132958.05946  -4763554.93744  24155796.3364   24155794.5664        368.9164
        41.2504         26.7504
 -15210685.86747 -11830621.39545  22140634.9224   22140632.4454       1628.5924
        47.7504         34.5004
 10  5 26 23 46  0.0000000  0 10G03G06G07G08G10G13G19G23G05G28
   3000063.92247   2342185.52744  22926977.6094   22926976.3714      -2630.8984
        43.5004         27.0004
   6748356.00846   5259343.37143  24401254.1174   24401253.2974      -2886.0554
        40.2504         22.0004
  -3626079.86348  -2821316.16446  20770587.2584   20770584.4304       -236.2994
        48.7504         40.2504
 -11224958.25448  -8730122.36346  21905674.5944   21905672.5274       1346.9434
        48.2504         36.0004
  -4254110.05947  -3298495.85244  23089580.6254   23089579.3324      -1298.1644
        42.5004         28.7504
   4337013.78148   3381518.72746  21002033.4844   21002031.0004      -2544.2594
        49.7504         38.5004
  -8240517.46547  -6402915.35245  22173224.4614   22173220.7304       -500.5024
        46.0004         35.5004
  13075032.26247  10182721.47345  22690683.5394   22690680.2034      -3690.3714
        46.5004         30.2504
  -6143506.09046  -4771774.17244  24153789.1724   24153787.2304        351.6014
        40.7504         26.5004
 -15259215.10948 -11868436.33645  22131400.1644   22131397.4304       1617.6414
        48.0004         34.2504
 10  5 26 23 46 30.0000000  0 10G03G06G07G08G10G13G19G23G05G28
   3079483.64546   2404071.00844  22942090.7034   22942089.2304      -2647.3244
        41.0004         27.5004
   6835295.61746   5327088.46543  24417799.1484   24417798.4614      -2897.9874
        41.5004         21.7504
  -3618795.30548  -2815639.89146  20771973.4924   20771970.7344       -242.8194
        49.5004         40.7504
 -11265277.66448  -8761540.06645  21898001.7504   21897999.8444       1343.9804
        48.0004         35.7504
  -4214678.99647  -3267770.37144  23097084.4224   23097082.8954      -1314.3694
        42.7504         28.7504
   4413798.53948   3441350.97346  21016645.2034   21016642.7424      -2559.4924
        48.5004         38.7504
  -8224911.14547  -6390754.56645  22176194.6564   22176190.5864       -520.2114
        47.0004         35.2504
  13186027.13747  10269210.89845  22711805.3674   22711801.9924      -3699.8294
        46.5004         30.2504
  -6153530.50447  -4779585.42244  24151881.3524   24151879.7154        334.1474
        42.7504         26.2504
 -15307411.68047 -11905992.06245  22122228.4384   22122226.0634       1606.5524
        46.7504         34.5004
 10  5 26 23 47  0.0000000  0 10G03G06G07G08G10G13G19G23G05G28
   3159387.97747   2466334.11344  22957295.6334   22957294.2304      -2663.4784
        43.0004         26.7504
   6922585.13346   5395106.25443  24434409.3984   24434408.8244      -2909.6514
        40.7504         21.5004
  -3611320.78948  -2809815.58646  20773395.8984   20773392.7384       -249.1514
        48.5004         40.5004
 -11305513.78947  -8792892.87146  21890345.4304   21890343.2894       1341.2044
        47.7504         36.5004
  -4174769.56647  -3236672.14544  23104679.2114   23104677.5204      -1330.3144
        43.2504         28.2504
   4491033.27748   3501533.86746  21031342.3984   21031340.3284      -2574.4914
        49.5004         38.7504
  -8208719.04747  -6378137.33245  22179275.8444   22179271.9184       -539.7374
        46.2504         35.2504
  13297297.68447  10355915.15245  22732978.7894   22732976.6604      -3709.0184
        45.5004         30.2504
  -6163037.19947  -4786993.21944  24150071.6564   24150070.3834        316.8904
        42.0004         26.5004
 -15355281.30948 -11943293.03145  22113119.1884   22113116.4734       1595.6544
        48.0004         34.5004
 10  5 26 23 47 30.0000000  0 10G03G06G07G08G10G13G19G23G05G28
   3239780.98446   2528978.00044  22972594.2274   22972592.9064      -2679.7674
        41.0004         26.7504
   7010228.93846   5463400.10943  24451087.6644   24451086.9414      -2921.4604
        40.7504         21.2504
  -3603649.16848  -2803837.69546  20774855.6334   20774852.4534       -255.7214
        49.7504         40.5004
 -11345659.94947  -8824175.57846  21882705.7114   21882703.8204       1338.2054
        47.0004         36.2504
  -4134377.47347  -3205197.80944  23112365.8134   23112364.0044      -1346.4034
        43.7504         28.5004
   4568723.21948   3562071.45346  21046126.4694   21046123.6804      -2589.6654
        49.2504         38.5004
  -8191934.47347  -6365058.42245  22182470.0704   22182465.7894       -559.4864
        46.5004         35.7504
  13408848.44947  10442837.74645  22754207.2194   22754203.9654      -3718.3594
        46.5004         30.2504
  -6172019.75846  -4793992.62944  24148362.8444   24148361.4774        299.4194
        41.0004         26.2504
 -15402817.43447 -11980334.12545  22104073.5474   22104070.8484       1584.5374
        47.5004         35.2504
 10  5 26 23 48  0.0000000  0 10G03G06G07G08G10G13G19G23G05G28
   3320655.21946   2591996.85244  22987983.6724   22987982.6804      -2695.8084
        41.5004         26.2504
   7098219.33646   5531964.02743  24467831.1334   24467831.0234      -2933.0134
        41.0004         21.5004
  -3595785.41048  -2797710.08646  20776352.4614   20776349.1724       -262.1254
        50.5004         40.2504
 -11385720.73448  -8855391.75846  21875082.5084   21875080.5314       1335.3604
        48.0004         36.5004
  -4093509.30147  -3173352.51244  23120142.4844   23120140.8554      -1362.2724
        43.0004         29.0004
   4646862.04348   3622958.82846  21060996.1644   21060993.4384      -2604.6274
        49.5004         38.7504
  -8174562.57847  -6351521.85945  22185775.1564   22185771.4344       -579.0634
        46.2504         34.7504
  13520672.19147  10529973.04344  22775486.1884   22775483.3204      -3727.4584
        45.0004         29.5004
  -6180483.44947  -4800587.71144  24146752.6724   24146750.6484        282.1234
        42.0004         25.5004
 -15450024.60247 -12017118.89145  22095090.0474   22095087.8164       1573.5724
        47.7504         35.0004
 10  5 26 23 48 30.0000000  0 10G03G06G07G08G10G13G19G23G05G28
   3402011.95347   2655391.68844  23003465.6094   23003464.4774      -2711.8914
        43.7504         27.2504
   7186557.73446   5600799.08243  24484641.7974   24484640.7774      -2944.6134
        40.2504         21.5004
  -3587725.26648  -2791429.44946  20777886.0634   20777882.8134       -268.6714
        51.0004         40.0004
 -11425692.34048  -8886538.44946  21867475.9454   21867474.0864       1332.3874
        48.2504         36.5004
  -4052163.94947  -3141135.38744  23128010.1884   23128008.2734      -1378.1784
        43.7504         28.5004
   4725451.85548   3684197.60546  21075951.1334   21075948.6524      -2619.6604
        50.0004         39.0004
  -8156599.66447  -6337524.76645  22189193.9064   22189189.4884       -598.7644
        47.0004         35.0004
  13632770.18447  10617322.03544  22796816.8914   22796814.6844      -3736.6004
        44.0004         29.7504
  -6188424.13346  -4806775.25444  24145241.7344   24145239.8364        264.6894
        41.0004         25.2504
 -15496899.37548 -12053644.64545  22086169.8914   22086167.4844       1562.4924
        48.0004         34.7504
 10  5 26 23 49  0.0000000  0 10G03G06G07G08G10G13G19G23G05G28
   3483846.07447   2719158.52044  23019038.1884   23019036.8244      -2727.8044
        42.5004         27.0004
   7275239.25046   5669901.55943  24501516.5314   24501516.9304      -2956.0514
        40.0004         20.7504
  -3579471.02348  -2784997.57446  20779456.6484   20779453.6214       -275.1414
        51.5004         40.7504
 -11465577.04748  -8917617.42646  21859886.0634   21859883.9344       1329.4904
        48.0004         36.5004
  -4010345.68047  -3108549.75844  23135967.4384   23135966.2584      -1393.9424
        43.0004         28.0004
   4804488.69148   3745784.72346  21090991.0864   21090988.9184      -2634.5614
        50.2504         38.5004
  -8138048.23447  -6323069.09845  22192724.0554   22192720.0904       -618.3814
        47.2504         34.7504
  13745137.76647  10704881.07445  22818200.9224   22818197.8874      -3745.5864
        44.2504         30.0004
  -6195844.85246  -4812557.62144  24143829.5164   24143827.9494        247.3574
        41.7504         26.5004
 -15543444.19548 -12089913.29745  22077312.9224   22077310.4804       1551.4944
        48.0004         35.0004
 10  5 26 23 49 30.0000000  0 10G03G06G07G08G10G13G19G23G05G28
   3566159.30946   2783298.68844  23034702.1334   23034700.3834      -2743.7744
        41.2504         26.5004
   7364265.66746   5739272.75943  24518458.7034   24518457.6914      -2967.5474
        40.5004         21.5004
  -3571018.12148  -2778410.89146  20781065.2584   20781062.5474       -281.7634
        51.2504         41.0004
 -11505370.75048  -8948625.48846  21852313.5864   21852311.6644       1326.4574
        48.5004         36.2504
  -3968052.53547  -3075594.09444  23144015.8834   23144014.4534      -1409.7714
        43.5004         27.7504
   4883975.33648   3807722.34046  21106117.2584   21106114.8364      -2649.5554
        49.7504         38.2504
  -8118903.94947  -6308151.45345  22196366.8524   22196362.8204       -638.1434
        46.2504         35.0004
  13857776.69147  10792651.57844  22839635.1414   22839632.4454      -3754.6314
        44.2504         29.7504
  -6202741.66446  -4817931.77744  24142516.7344   24142515.3284        229.8944
        41.7504         26.5004
 -15589654.65248 -12125921.39545  22068519.3204   22068516.5744       1540.3494
        48.0004         34.7504
 10  5 26 23 50  0.0000000  0 10G03G06G07G08G10G13G19G23G05G28
   3648942.90246   2847805.36344  23050454.9454   23050453.6604      -2759.4534
        40.5004         26.2504
   7453628.23446   5808905.87543  24535463.9614   24535462.9414      -2978.7524
        39.7504         21.0004
  -3562372.75448  -2771674.23846  20782710.3284   20782707.3164       -288.1794
        51.7504         41.0004
 -11545079.57448  -8979567.41046  21844757.3834   21844755.3444       1323.6274
        49.7504         36.5004
  -3925293.15247  -3042275.10544  23152152.6804   23152151.5314      -1425.3134
        44.2504         28.7504
   4963904.09448   3870004.46146  21121326.6334   21121324.5784      -2664.2924
        49.5004         38.0004
  -8099173.43048  -6292777.00845  22200121.8674   22200117.7114       -657.6844
        48.0004         35.0004
  13970678.36347  10880626.80545  22861119.4304   22861117.1414      -3763.3894
        44.5004         30.0004
  -6209120.71547  -4822902.45744  24141302.9144   24141301.0664        212.6354
        42.0004         24.5004
 -15635536.84047 -12161673.71145  22059787.7424   22059785.4884       1529.4064
        47.5004         34.7504
 10  5 26 23 50 30.0000000  0 10G03G06G07G08G10G13G19G23G05G28
   3732199.86347   2912680.89544  23066298.8364   23066297.3364      -2775.2324
        43.7504         26.5004
   7543330.10946   5878803.42243  24552532.9304   24552532.7274      -2990.0624
        39.7504         20.0004
  -3553528.88748  -2764782.91846  20784393.1334   20784390.1994       -294.7964
        51.5004         40.2504
 -11584697.33248  -9010438.37146  21837217.9924   21837216.1054       1320.5924
        49.2504         36.5004
  -3882063.88747  -3008589.99244  23160379.1484   23160377.9494      -1440.9764
        43.5004         27.5004
   5044278.97348   3932634.21146  21136622.0864   21136619.3754      -2679.1634
        51.0004         38.2504
  -8078851.00847  -6276941.33645  22203988.7584   22203984.6484       -677.4144
        47.2504         35.0004
  14083846.24647  10968809.48445  22882655.2504   22882652.1804      -3772.2634
        45.7504         30.5004
  -6214976.42246  -4827465.35244  24140189.4384   24140187.2774        195.1904
        41.2504         26.7504
 -15681085.21548 -12197165.91045  22051120.3524   22051118.1454       1518.2794
        48.0004         35.0004
 10  5 26 23 51  0.0000000  0 10G03G06G07G08G10G13G19G23G05G28
   3815924.29347   2977920.68844  23082230.9844   23082229.0274      -2790.8144
        42.7504         26.2504
   7633365.41446   5948960.75043  24569666.4064   24569665.6644      -3001.1774
        40.2504         20.2504
  -3544489.84048  -2757739.49646  20786113.2664   20786110.2304       -301.3024
        51.2504         40.0004
 -11624227.73448  -9041241.26646  21829696.1644   21829693.7424       1317.6804
        49.5004         37.0004
  -3838370.41847  -2974543.15244  23168693.8754   23168692.3014      -1456.4494
        44.0004         27.7504
   5125094.72748   3995607.48846  21152000.8284   21151998.3914      -2693.8584
        51.0004         38.5004
  -8057940.59047  -6260647.48445  22207967.6804   22207963.5944       -697.0144
        47.5004         34.5004
  14197274.48447  11057195.03545  22904240.2274   22904237.0784      -3780.9414
        44.5004         30.0004
  -6220313.18446  -4831623.87544  24139172.8134   24139171.2774        177.8924
        40.5004         25.7504
 -15726303.81648 -12232401.14545  22042515.4844   22042513.0514       1507.2874
        48.2504         34.5004
 10  5 26 23 51 30.0000000  0 10G03G06G07G08G10G13G19G23G05G28
   3900117.16447   3043525.51644  23098252.9694   23098251.1454      -2806.4294
        43.7504         25.5004
   7723735.22746   6019378.76643  24586864.5474   24586862.5634      -3012.3274
        40.2504         19.5004
  -3535251.25048  -2750540.59846  20787871.4144   20787868.3324       -307.9534
        52.0004         40.5004
 -11663666.41848  -9071972.68046  21822191.0944   21822189.2854       1314.6234
        48.2504         36.7504
  -3794211.02347  -2940133.24644  23177097.2974   23177095.7074      -1471.9804
        44.2504         29.0004
   5206353.94548   4058926.34446  21167463.7664   21167461.0904      -2708.6414
        50.7504         38.0004
  -8036438.34447  -6243892.48045  22212059.4384   22212055.0044       -716.7424
        45.5004         34.2504
  14310964.86747  11145784.84044  22925874.4924   22925871.4184      -3789.6794
        44.0004         29.5004
  -6225127.04746  -4835374.94144  24138256.4144   24138254.9924        160.4624
        41.5004         26.0004
 -15771188.28148 -12267376.02045  22033974.4694   22033971.8444       1496.1494
        48.2504         35.0004
 10  5 26 23 52  0.0000000  0 10G03G06G07G08G10G13G19G23G05G28
   3984773.06647   3109491.14144  23114361.5944   23114360.2974      -2821.8634
        43.5004         27.5004
   7814434.14846   6090053.25843  24604122.2734   24604121.9414      -3023.2974
        39.2504         20.2504
  -3525815.76648  -2743188.27046  20789667.0944   20789664.0274       -314.5164
        50.0004         40.5004
 -11703016.44148  -9102635.02046  21814703.0634   21814700.8914       1311.6674
        48.5004         36.5004
  -3749591.33647  -2905364.69144  23185587.6644   23185586.2584      -1487.3234
        44.5004         27.7504
   5288051.80948   4122586.98846  21183010.5004   21183008.1764      -2723.2624
        50.7504         38.5004
  -8014347.69147  -6226678.96545  22216263.1484   22216259.0864       -736.3554
        46.5004         35.5004
  14424911.47747  11234574.28944  22947557.7584   22947554.8674      -3798.2204
        43.7504         29.7504
  -6229421.44546  -4838721.23044  24137439.5084   24137438.2734        143.1474
        41.0004         25.5004
 -15815741.77748 -12302092.98445  22025496.0634   22025493.8714       1485.1174
        48.5004         35.5004
 10  5 26 23 52 30.0000000  0 10G03G06G07G08G10G13G19G23G05G28
   4069893.22746   3175818.52344  23130559.4144   23130558.1024      -2837.3394
        41.7504         26.0004
   7905464.10546   6160985.66443  24621445.4614   24621444.0234      -3034.3324
        40.2504         20.0004
  -3516178.93447  -2735679.04746  20791500.5864   20791497.3484       -321.2284
        47.5004         40.2504
 -11742273.37147  -9133224.81646  21807232.7114   21807230.0944       1308.5644
        47.7504         36.0004
  -3704509.05547  -2870235.66844  23194166.8444   23194165.4924      -1502.7434
        44.2504         28.7504
   5370191.14148   4186591.63746  21198641.1094   21198638.4654      -2737.9784
        49.0004         37.7504
  -7991664.33647  -6209003.61345  22220579.5944   22220575.8714       -756.1124
        47.0004         34.7504
  14539116.09447  11323564.79744  22969289.9694   22969287.4574      -3806.8214
        42.7504         29.7504
  -6233192.24647  -4841659.52044  24136723.0164   24136720.3244        125.6934
        42.0004         26.0004
 -15859960.22748 -12336548.88745  22017081.6954   22017078.9694       1473.9484
        49.0004         35.2504
 10  5 26 23 53  0.0000000  0 10G03G06G07G08G10G13G19G23G05G28
   4155472.43046   3242503.59044  23146844.5474   23146843.3594      -2852.6404
        41.0004         26.0004
   7996819.71546   6232171.79343  24638830.1254   24638829.1724      -3045.1874
        40.2504         21.2504
  -3506343.27047  -2728014.89146  20793372.2664   20793369.2424       -327.8554
        47.5004         40.0004
 -11781439.78948  -9163744.08246  21799779.6644   21799777.3834       1305.5474
        48.0004         36.5004
  -3658969.16847  -2834750.06244  23202833.2734   23202831.8204      -1517.9964
        44.5004         29.0004
   5452767.45348   4250936.79346  21214354.7814   21214352.5234      -2752.5444
        49.5004         38.2504
  -7968391.64847  -6190869.03145  22225008.3594   22225004.2664       -775.7564
        45.7504         34.2504
  14653573.89847  11412752.56644  22991071.7114   22991068.2734      -3815.2604
        43.7504         29.2504
  -6236442.73847  -4844192.37944  24136103.7424   24136102.1804        108.3504
        42.2504         25.7504
 -15903846.29748 -12370745.78945  22008730.3754   22008727.6374       1462.8694
        49.0004         35.0004
 10  5 26 23 53 30.0000000  0 10G03G06G07G08G10G13G19G23G05G28
   4241512.95347   3309548.15244  23163218.1954   23163216.5594      -2868.0174
        43.5004         24.2504
   8088503.14546   6303613.44543  24656276.5704   24656275.9184      -3056.1144
        39.2504         19.7504
  -3496303.54348  -2720191.72346  20795282.5784   20795279.5474       -334.6584
        51.2504         40.0004
 -11820510.30548  -9194188.62146  21792344.4614   21792342.4414       1302.3514
        48.0004         37.0004
  -3612969.46547  -2798906.18044  23211586.3054   23211584.5234      -1533.3234
        43.7504         27.7504
   5535783.97748   4315624.96946  21230152.3674   21230149.8674      -2767.2174
        50.0004         37.5004
  -7944524.75447  -6172271.43745  22229550.1024   22229546.0354       -795.5634
        46.7504         34.2504
  14768287.19147  11502139.45345  23012900.5164   23012897.4844      -3823.7764
        44.2504         30.0004
  -6239168.52047  -4846316.36344  24135584.7974   24135583.0084         90.8594
        42.5004         26.0004
 -15947395.50448 -12404680.20345  22000443.5394   22000440.7624       1451.6404
        49.7504         35.2504
 10  5 26 23 54  0.0000000  0 10G03G06G07G08G10G13G19G23G05G28
   4328008.28146   3376947.08244  23179676.8594   23179675.9304      -2883.1784
        40.5004         24.5004
   8180507.52746   6375305.11743  24673784.3914   24673783.3284      -3066.8134
        40.0004         20.0004
  -3486063.81248  -2712212.71546  20797231.5004   20797228.5744       -341.3244
        50.5004         40.7504
 -11859489.16447  -9224561.73446  21784927.1414   21784924.7584       1299.2954
        47.0004         36.7504
  -3566516.18447  -2762708.83644  23220425.9614   23220424.2034      -1548.4434
        44.5004         28.5004
   5619234.73848   4380651.50846  21246032.6804   21246030.0634      -2781.6924
        48.5004         37.5004
  -7920068.53547  -6153214.63345  22234204.0164   22234199.7074       -815.2074
        45.5004         34.5004
  14883249.70347  11591720.51244  23034776.8054   23034773.9844      -3832.0844
        43.5004         28.5004
  -6241374.25447  -4848035.12944  24135165.4454   24135163.6804         73.5244
        42.0004         26.0004
 -15990611.98448 -12438355.34445  21992219.3834   21992217.1334       1440.5494
        49.0004         35.5004
 10  5 26 23 54 30.0000000  0 10G03G06G07G08G10G13G19G23G05G28
   4414957.02047   3444699.32844  23196223.2194   23196221.6644      -2898.2914
        42.5004         25.5004
   8272832.67646   6447246.75443  24691352.9304   24691352.8794      -3077.5054
        40.0004         20.0004
  -3475621.60248  -2704075.92246  20799218.6254   20799215.2074       -348.0744
        50.5004         40.0004
 -11898374.26248  -9254861.79346  21777527.2194   21777525.2934       1296.1704
        48.7504         37.2504
  -3519609.62547  -2726158.29744  23229352.2194   23229350.6994      -1563.5524
        44.7504         28.7504
   5703120.34848   4446016.89146  21261995.3444   21261993.2234      -2796.1874
        49.7504         37.7504
  -7895021.34447  -6133697.32445  22238970.2734   22238966.0394       -834.9064
        46.2504         35.5004
  14998460.77347  11681495.29744  23056700.4694   23056698.4024      -3840.3694
        43.2504         29.5004
  -6243058.34847  -4849347.41444  24134844.3204   24134843.0394         56.1364
        42.7504         25.2504
 -16033493.93448 -12471769.81645  21984059.0084   21984056.5634       1429.3984
        49.5004         35.7504
 10  5 26 23 55  0.0000000  0 10G03G06G07G08G10G13G19G23G05G28
   4502351.21947   3512798.69544  23212853.9694   23212851.9024      -2913.1404
        42.7504         24.7504
   8365470.48046   6519432.04343  24708981.0944   24708980.8794      -3087.9274
        39.0004         19.5004
  -3464982.00048  -2695785.32046  20801243.3284   20801240.3134       -354.6534
        51.2504         40.5004
 -11937170.87948  -9285092.90646  21770144.6724   21770142.6994       1293.2214
        48.2504         37.0004
  -3472257.69147  -2689260.72744  23238362.5474   23238361.6334      -1578.3984
        44.7504         27.7504
   5787433.44948   4511715.38746  21278039.5004   21278037.3914      -2810.4374
        49.7504         38.2504
  -7869388.83647  -6113723.92645  22243848.3594   22243844.0864       -854.4174
        46.0004         35.0004
  15113912.52747  11771457.58644  23078670.8984   23078668.3914      -3848.3924
        44.0004         29.2504
  -6244226.57046  -4850257.71944  24134621.8984   24134621.2194         38.9414
        41.5004         26.5004
 -16076046.79748 -12504927.84845  21975961.4454   21975958.8954       1418.4294
        48.5004         35.5004
 10  5 26 23 55 30.0000000  0 10G03G06G07G08G10G13G19G23G05G28
   4590195.64547   3581248.87544  23229569.7584   23229568.5824      -2928.1484
        42.5004         25.2504
   8458425.60946   6591864.57043  24726670.6804   24726670.0354      -3098.5044
        38.7504         19.7504
  -3454137.58648  -2687335.11746  20803306.5554   20803303.7344       -361.4804
        50.0004         40.5004
 -11975870.93048  -9315248.75846  21762780.3674   21762777.9414       1290.0024
        49.7504         37.2504
  -3424455.83647  -2652012.56244  23247458.9844   23247457.9654      -1593.3954
        43.5004         28.7504
   5872179.69148   4577751.38346  21294166.5704   21294164.1334      -2824.8754
        50.5004         37.5004
  -7843164.23847  -6093289.17245  22248837.8444   22248834.3324       -874.1534
        46.0004         34.2504
  15229610.00047  11861611.34044  23100687.4924   23100684.7814      -3856.5824
        45.5004         28.5004
  -6244872.08247  -4850760.71944  24134499.6644   24134497.8674         21.5174
        42.2504         27.2504
 -16118263.68448 -12537824.08646  21967927.7974   21967925.0904       1407.2304
        49.7504         36.0004
 10  5 26 23 56  0.0000000  0 10G03G06G07G08G10G13G19G23G05G28
   4678481.54347   3650043.04343  23246370.2034   23246369.1994      -2942.8634
        42.2504         22.7504
   8551689.54346   6664537.76643  24744418.4614   24744417.3134      -3108.7984
        38.7504         20.2504
  -3443093.90648  -2678729.65646  20805408.2034   20805404.7854       -368.1234
        51.7504         40.0004
 -12014480.46148  -9345334.08646  21755433.1094   21755430.8014       1286.9844
        49.5004         36.5004
  -3376212.25447  -2614420.19944  23256639.6724   23256638.6914      -1608.1194
        44.5004         28.7504
   5957351.38348   4644118.91046  21310374.1484   21310371.7664      -2839.0564
        50.2504         37.2504
  -7816354.06647  -6072398.10545  22253939.8204   22253936.3984       -893.6724
        46.0004         34.7504
  15345544.63347  11951949.89144  23122748.2504   23122746.7384      -3864.4884
        45.0004         28.0004
  -6245001.32447  -4850861.44144  24134475.5474   24134473.5984          4.3084
        42.5004         25.0004
 -16160150.59848 -12570463.19945  21959956.7424   21959954.2704       1396.2304
        49.5004         35.5004
 10  5 26 23 56 30.0000000  0 10G03G06G07G08G10G13G19G23G05G28
   4767212.56647   3719184.10544  23263255.6724   23263253.7664      -2957.7014
        42.0004         24.5004
   8645266.03946   6737454.50043  24762224.0704   24762223.9384      -3119.2174
        38.5004         19.2504
  -3431844.08648  -2669963.55946  20807549.2584   20807545.8984       -374.9944
        51.7504         40.7504
 -12052992.84448  -9375343.71546  21748104.1414   21748102.1374       1283.7464
        50.0004         37.0004
  -3327522.90647  -2576480.46944  23265904.6954   23265903.1094      -1622.9784
        45.0004         28.2504
   6042953.16048   4710821.56646  21326663.3984   21326660.9844      -2853.3934
        51.5004         37.2504
  -7788952.19147  -6051045.97745  22259154.5634   22259150.6764       -913.3964
        45.7504         34.7504
  15461720.71947  12042476.58244  23144856.5634   23144854.5004      -3872.5364
        44.2504         27.7504
  -6244608.46546  -4850555.32444  24134549.4614   24134548.3364        -13.0954
        41.5004         26.0004
 -16201701.18048 -12602840.24246  21952049.9454   21952048.0594       1385.0194
        49.5004         36.0004
 10  5 26 23 57  0.0000000  0 10G03G06G07G08G10G13G19G23G05G28
   4856380.16046   3788665.34044  23280222.7664   23280221.9414      -2972.2534
        40.7504         25.7504
   8739147.03146   6810608.47743  24780089.9694   24780088.9024      -3129.3664
        39.5004         19.2504
  -3420393.65248  -2661041.13346  20809728.2584   20809724.8914       -381.6814
        49.5004         39.5004
 -12091413.36347  -9405281.75846  21740793.3984   21740791.0784       1280.6844
        47.0004         37.0004
  -3278395.93447  -2538199.75444  23275253.2974   23275252.3524      -1637.5664
        44.0004         27.7504
   6128977.46948   4777853.46146  21343033.5234   21343031.1524      -2867.4774
        50.5004         37.2504
  -7760965.08647  -6029237.82045  22264480.2974   22264476.1844       -932.9044
        45.0004         34.0004
  15578129.49247  12133184.62144  23167008.4694   23167006.1724      -3880.2924
        44.5004         28.0004
  -6243699.76247  -4849847.26244  24134723.2034   24134721.0164        -30.2904
        43.0004         25.0004
 -16242921.48847 -12634959.92246  21944205.8674   21944203.5984       1374.0104
        47.0004         36.0004
 10  5 26 23 57 30.0000000  0 11G03G06G07G08G10G13G11G19G23G05G28
   4945989.56646   3858490.82444  23297275.5234   23297274.1684      -2986.9804
        41.5004         25.5004
   8833337.45346   6884003.57843  24798013.5314   24798013.3164      -3139.6814
        39.0004         18.2504
  -3408734.44148  -2651956.03946  20811946.6334   20811943.5394       -388.6404
        50.7504         40.0004
 -12129734.50048  -9435142.36746  21733500.9144   21733499.0164       1277.3714
        50.2504         36.7504
  -3228825.88747  -2499573.78944  23284686.2034   23284685.4224      -1652.3354
        42.5004         27.2504
   6215430.12948   4845219.14546  21359485.1254   21359482.9344      -2881.7554
        50.7504         37.5004
  -1658259.68755  -1278154.39852  25234183.9534   25234186.6994
        35.5004         17.7504
  -7732385.40647  -6006967.93045  22269918.3444   22269914.7814       -952.6564
        46.2504         34.2504
  15694776.79347  12224078.48444  23189206.0554   23189203.8204      -3888.2434
        44.5004         28.2504
  -6242268.50846  -4848731.99644  24134995.1174   24134993.7034        -47.7084
        41.5004         26.5004
 -16283803.97748 -12666816.37945  21936426.5634   21936423.9304       1362.7504
        49.5004         35.5004
 10  5 26 23 58  0.0000000  0 11G03G06G07G08G10G13G11G19G23G05G28
   5036029.29747   3928651.63344  23314409.2114   23314407.2384      -3001.3244
        42.2504         24.7504
   8927826.31346   6957631.22343  24815995.1334   24815994.4694      -3149.6294
        39.2504         20.2504
  -3396874.77048  -2642714.72746  20814203.3674   20814200.2934       -395.3224
        51.0004         40.7504
 -12167964.40648  -9464931.88346  21726226.0474   21726223.7584       1274.3304
        50.0004         36.5004
  -3178824.16447  -2460611.44544  23294201.6094   23294200.3164      -1666.7244
        42.7504         27.7504
   6302300.88748   4912910.61746  21376016.0944   21376013.4184      -2895.6924
        51.0004         38.0004
  -1717006.01246  -1323930.54743  25223004.2504   25223007.3984       1958.2114
        36.5004         18.2504
  -7703222.48447  -5984243.55945  22275468.3444   22275464.3094       -972.0974
        46.0004         34.7504
  15811651.37147  12315149.46544  23211446.3054   23211444.2734      -3895.8194
        45.5004         28.5004
  -6240323.53546  -4847216.44144  24135365.3134   24135363.2154        -64.8324
        41.5004         25.0004
 -16324357.34848 -12698416.36746  21928709.3674   21928706.8524       1351.7794
        50.0004         36.0004
 10  5 26 23 58 30.0000000  0 11G03G06G07G08G10G13G11G19G23G05G28
   5126498.96547   3999147.45344  23331625.0084   23331623.6294      -3015.6564
        42.0004         24.7504
   9022613.27046   7031491.17243  24834032.1254   24834031.1214      -3159.5654
        39.2504         20.0004
  -3384812.13748  -2633315.27046  20816498.9924   20816495.8794       -402.0884
        50.2504         41.0004
 -12206100.15647  -9494648.02746  21718969.0234   21718966.8324       1271.1924
        47.5004         37.0004
  -3128390.78147  -2421312.73444  23303798.6724   23303797.4844      -1681.1134
        43.5004         27.7504
   6389590.33648   4980928.33646  21392626.7504   21392624.2934      -2909.6484
        51.0004         38.0004
  -1775855.27745  -1369786.89142  25211805.6334   25211808.9884       1961.6424
        35.5004         15.5004
  -7673474.21147  -5961063.07445  22281129.3204   22281124.9064       -991.6094
        46.0004         33.7504
  15928752.93447  12406397.31644  23233730.7974   23233727.9884      -3903.3854
        45.2504         28.0004
  -6237862.87547  -4845299.04344  24135833.7584   24135832.1884        -82.0224
        42.5004         26.2504
 -16364579.51247 -12729758.27746  21921055.2664   21921052.7584       1340.7394
        46.5004         36.2504
 10  5 26 23 59  0.0000000  0 11G03G06G07G08G10G13G11G19G23G05G28
   5217390.91847   4069972.32444  23348921.7194   23348920.0824      -3029.7324
        43.0004         25.5004
   9117691.00046   7105577.72343  24852123.9384   24852123.6914      -3169.2584
        38.7504         19.5004
  -3372550.48848  -2623760.73846  20818832.2034   20818829.5204       -408.7224
        51.2504         40.0004
 -12244146.44148  -9524294.46146  21711729.2974   21711726.6914       1268.2104
        48.5004         37.5004
  -3077532.98847  -2381683.33644  23313476.4454   23313475.9144      -1695.2604
        43.2504         28.5004
   6477292.23848   5049267.44946  21409315.5004   21409313.1524      -2923.3974
        50.0004         37.0004
  -1834809.53946  -1415725.04343  25200587.3984   25200590.3204       1965.1424
        36.0004         18.2504
  -7643146.13747  -5937430.79345  22286900.1254   22286896.4144      -1010.9364
        46.5004         34.5004
  16046074.61747  12497816.70344  23256055.7274   23256053.8714      -3910.7234
        44.5004         27.5004
  -6234892.12547  -4842984.19944  24136399.1334   24136397.1884        -99.0254
        42.5004         26.7504
 -16404475.18747 -12760845.78546  21913463.4144   21913460.7504       1329.8564
        47.5004         36.0004
 10  5 26 23 59 30.0000000  0 11G03G06G07G08G10G13G11G19G23G05G28
   5308708.50847   4141128.87144  23366299.2974   23366297.2234      -3043.9204
        43.0004         24.5004
   9213063.35546   7179893.79343  24870272.7424   24870272.7854      -3179.0794
        38.0004         18.2504
  -3360083.41448  -2614046.12946  20821204.5784   20821201.6294       -415.5694
        51.5004         41.0004
 -12282096.31248  -9553865.76246  21704507.5864   21704505.2814       1264.9964
        49.7504         36.7504
  -3026246.62547  -2341719.98044  23323235.9064   23323235.0704      -1709.5454
        44.2504         28.5004
   6565410.98048   5117931.37546  21426084.2034   21426081.7854      -2937.2914
        50.5004         37.0004
  -1893860.39545  -1461738.55542  25189349.6954   25189352.4384       1968.3624
        34.2504         16.2504
  -7612232.39847  -5913342.14845  22292783.1414   22292778.9414      -1030.4584
        46.2504         34.2504
  16163620.41847  12589410.71544  23278423.8524   23278422.1334      -3918.1934
        43.7504         27.5004
  -6231405.75447  -4840267.55144  24137062.3834   24137060.7504       -116.2124
        42.5004         25.2504
 -16444038.60948 -12791674.38746  21905934.4064   21905932.0434       1318.7814
        48.0004         36.0004
 10  5 27  0  0  0.0000000  0 11G03G06G07G08G10G13G11G19G23G05G28
   5400447.66047   4212613.89844  23383755.9534   23383754.3754      -3057.9724
        42.2504         25.0004
   9308726.26246   7254436.28543  24888478.2114   24888476.9694      -3188.7644
        38.0004         19.7504
  -3347411.98448  -2604172.28946  20823615.9144   20823612.9144       -422.3814
        48.7504         40.7504
 -12319950.76648  -9583362.71946  21697304.1484   21697302.1524       1261.8154
        50.5004         36.7504
  -2974535.65247  -2301425.75844  23333076.3054   23333075.5434      -1723.6994
        44.0004         28.5004
   6653943.16048   5186917.46146  21442931.2734   21442928.7624      -2951.0734
        51.2504         36.5004
  -1953007.06645  -1507826.62542  25178094.0394   25178097.0864       1971.5564
        34.5004         16.7504
  -7580735.17647  -5888798.84045  22298776.7504   22298772.7034      -1049.9074
        46.5004         34.5004
  16281386.13347  12681176.08644  23300834.8834   23300832.0744      -3925.5244
        45.2504         28.2504
  -6227405.67246  -4837150.61344  24137823.5164   24137821.7774       -133.3364
        41.5004         25.5004
 -16483271.29348 -12822245.28146  21898468.8984   21898466.3754       1307.7564
        50.5004         36.2504
 10  5 27  0  0 30.0000000  0 11G03G06G07G08G10G13G11G19G23G05G28
   5492608.62547   4284427.62944  23401293.8364   23401292.3164      -3072.0324
        43.0004         25.7504
   9404680.09446   7329205.53143  24906736.2114   24906736.0554      -3198.4614
        38.0004         18.5004
  -3334532.39547  -2594136.23846  20826066.9844   20826063.9104       -429.3204
        47.5004         40.2504
 -12357706.95348  -9612783.10946  21690119.5164   21690116.7384       1258.5404
        50.5004         37.2504
  -2922399.84047  -2260800.48844  23342997.4694   23342996.7464      -1737.8604
        43.0004         28.5004
   6742889.80948   5256226.49646  21459857.4064   21459855.0124      -2964.8884
        50.0004         36.5004
  -2012244.43745  -1553985.42642  25166822.2194   25166824.7034       1974.5794
        34.7504         17.2504
  -7548652.20347  -5863799.10945  22304881.9454   22304877.7624      -1069.4324
        47.0004         34.7504
  16399372.31647  12773113.23844  23323287.1954   23323284.3714      -3932.8734
        44.7504         25.7504
  -6222889.58647  -4833631.60244  24138682.9534   24138681.1954       -150.5364
        42.2504         25.5004
 -16522170.55548 -12852556.35946  21891066.8834   21891064.2894       1296.6424
        50.2504         36.0004
 10  5 27  0  1  0.0000000  0 11G03G06G07G08G10G13G11G19G23G05G28
   5585186.98446   4356566.56644  23418910.5314   23418909.5864      -3085.9454
        40.0004         25.7504
   9500920.61746   7404198.08243  24925050.2974   24925050.0594      -3208.0174
        38.0004         18.2504
  -3321446.49648  -2583939.43046  20828557.0164   20828553.7074       -436.1974
        48.5004         40.2504
 -12395366.03548  -9642127.82446  21682952.7894   21682950.3984       1255.3034
        50.7504         37.0004
  -2869843.68747  -2219847.68444  23352998.7814   23352997.3954      -1751.8724
        43.5004         28.7504
   6832247.66448   5325855.95346  21476861.4844   21476859.1174      -2978.5954
        49.2504         36.5004
  -2071571.69145  -1600214.25442  25155531.5314   25155534.1214       1977.5754
        34.0004         16.2504
  -7515985.93447  -5838344.85945  22311098.2664   22311093.9734      -1088.8764
        46.2504         34.0004
  16517574.90247  12865219.02344  23345780.5554   23345777.3794      -3940.0864
        45.0004         27.2504
  -6217859.89147  -4829712.37944  24139640.0314   24139638.4804       -167.6574
        43.5004         26.7504
 -16560738.43448 -12882609.22346  21883727.5394   21883724.7114       1285.5964
        50.2504         36.2504
 10  5 27  0  1 30.0000000  0 11G03G06G07G08G10G13G11G19G23G05G28
   5678186.69147   4429033.84444  23436608.6254   23436607.1214      -3099.9904
        43.0004         25.5004
   9597451.96946   7479417.31343  24943420.1724   24943419.7734      -3217.7124
        38.0004         18.2504
  -3308146.83648  -2573576.05546  20831087.9384   20831084.6524       -443.3224
        50.0004         40.2504
 -12432920.91848  -9671391.34846  21675806.4774   21675804.2974       1251.8294
        50.2504         37.2504
  -2816862.52347  -2178563.70344  23363081.1174   23363079.7344      -1766.0394
        43.0004         29.5004
   6922021.54748   5395809.59446  21493944.7734   21493942.6254      -2992.4634
        50.7504         36.7504
  -2130979.78146  -1646506.02742  25144227.3674   25144230.0554       1980.2704
        36.0004         17.7504
  -7482730.17647  -5812431.26245  22317426.0084   22317422.5084      -1108.5254
        47.5004         34.7504
  16635998.47747  12957497.00444  23368315.6174   23368312.8164      -3947.4524
        45.5004         27.0004
  -6212310.54347  -4825388.21144  24140696.1254   24140694.5354       -184.9784
        42.5004         26.5004
 -16598968.20748 -12912398.61346  21876452.5234   21876450.1094       1274.3264
        49.5004         36.2504
 10  5 27  0  2  0.0000000  0 11G03G06G07G08G10G13G11G19G23G05G28
   5771602.32447   4501825.21544  23454384.5864   23454382.9654      -3113.8544
        42.5004         25.2504
   9694269.00046   7554859.13342  24961843.4774   24961843.6334      -3227.2344
        36.5004         17.7504
  -3294635.59448  -2563047.80546  20833658.9844   20833655.9384       -450.3754
        50.2504         40.7504
 -12470373.45748  -9700575.12946  21668679.5234   21668677.0004       1248.4184
        50.5004         36.7504
  -2763461.38747  -2136952.46944  23373242.4774   23373241.5274      -1780.0384
        42.5004         28.0004
   7012207.21148   5466084.09845  21511107.1174   21511104.6564      -3006.1894
        50.2504         35.7504
  -2190468.94545  -1692861.02743  25132905.7814   25132909.1684       1982.9724
        35.0004         18.2504
  -7448888.10547  -5786060.80545  22323866.4614   22323862.2344      -1128.0694
        47.5004         34.7504
  16754637.71947  13049943.04744  23390891.8204   23390889.9454      -3954.6414
        45.0004         27.5004
  -6206244.77047  -4820661.65244  24141849.8444   24141848.6954       -202.1924
        43.0004         26.2504
 -16636862.38348 -12941926.50446  21869241.6884   21869238.5864       1263.1394
        49.7504         36.2504
 10  5 27  0  2 30.0000000  0 11G03G06G07G08G10G13G11G19G23G05G28
   5865433.66047   4574940.51244  23472240.1174   23472238.9224      -3127.7114
        43.2504         26.0004
   9791371.93846   7630523.72342  24980322.2034   24980321.2974      -3236.7654
        37.0004         17.2504
  -3280909.93048  -2552352.48446  20836270.9454   20836267.9574       -457.5224
        49.5004         40.5004
 -12507721.18048  -9729677.23446  21661572.4844   21661570.5124       1244.9244
        50.7504         37.5004
  -2709640.33247  -2095014.02744  23383484.3364   23383483.4844      -1794.0354
        42.2504         27.5004
   7102805.12148   5536679.84846  21528347.0084   21528344.7664      -3019.9304
        49.7504         36.5004
  -2250034.20346  -1739275.30542  25121571.4924   25121573.4064       1985.5094
        37.0004         17.7504
  -7414457.84047  -5759232.01245  22330418.3674   22330414.2704      -1147.6764
        46.7504         34.5004
  16873492.76247  13142557.26644  23413508.7734   23413506.6764      -3961.8354
        44.5004         26.5004
  -6199660.83647  -4815531.31244  24143103.7894   24143101.3714       -219.4644
        43.2504         26.5004
 -16674419.12148 -12971191.46946  21862094.6954   21862092.1374       1251.8914
        50.5004         36.5004
 10  5 27  0  3  0.0000000  0 11G03G06G07G08G10G13G11G19G23G05G28
   5959670.49647   4648371.80544  23490172.6024   23490170.9414      -3141.2284
        42.5004         25.5004
   9888750.89846   7706403.39843  24998852.5164   24998852.3324      -3245.9654
        38.0004         18.5004
  -3266976.23048  -2541495.05546  20838922.3914   20838918.9224       -464.4574
        48.5004         40.7504
 -12544970.57848  -9758702.71546  21654484.0634   21654481.8204       1241.6474
        50.5004         37.5004
  -2655409.26647  -2052756.10544  23393804.1644   23393803.0704      -1807.7024
        42.7504         28.7504
   7193806.29748   5607589.81646  21545663.7894   21545661.6604      -3033.3734
        50.7504         36.2504
  -2309680.64546  -1785752.88742  25110221.3444   25110223.1054       1988.2154
        37.5004         17.2504
  -7379447.27047  -5731951.03945  22337080.5314   22337076.2304      -1167.0194
        46.2504         34.7504
  16992554.18447  13235332.25444  23436166.0474   23436163.9304      -3968.7144
        46.2504         28.0004
  -6192566.47346  -4810003.25444  24144453.0394   24144451.4534       -236.4794
        41.0004         25.7504
 -16711645.93448 -13000199.34046  21855010.9224   21855008.0634       1240.8944
        49.5004         36.5004
 10  5 27  0  3 30.0000000  0 11G03G06G07G08G10G13G11G19G23G05G28
   6054316.87147   4722122.18444  23508183.1884   23508181.5904      -3154.8794
        42.0004         25.0004
   9986409.62945   7782501.11342  25017436.5004   25017436.2974      -3255.2914
        35.7504         17.7504
  -3252827.92648  -2530470.39546  20841615.0164   20841611.6644       -471.6104
        50.2504         41.0004
 -12582114.53148  -9787646.03146  21647415.9924   21647413.2664       1238.1324
        50.0004         37.2504
  -2600764.26647  -2010175.62944  23404202.8204   23404201.7304      -1821.5004
        42.5004         27.5004
   7285215.33248   5678817.60945  21563058.6024   21563056.3554      -3046.9684
        49.5004         35.5004
  -2369399.69946  -1832287.00443  25098857.1024   25098858.2704       1990.6354
        38.0004         18.2504
  -7343851.23847  -5704213.85545  22343854.2274   22343850.2814      -1186.5344
        46.0004         34.7504
  17111825.70747  13328270.91444  23458863.9144   23458860.5904      -3975.7174
        46.0004         28.0004
  -6184955.96947  -4804073.01644  24145901.5784   24145899.8014       -253.6834
        42.5004         26.0004
 -16748536.26248 -13028945.00846  21847990.5784   21847987.8204       1229.6784
        50.2504         36.7504
 10  5 27  0  4  0.0000000  0 11G03G06G07G08G10G13G11G19G23G05G28
   6149365.15247   4796185.74244  23526271.3594   23526269.1954      -3168.2764
        42.5004         25.0004
  10084341.28146   7858811.45742  25036072.7814   25036072.1484      -3264.3884
        36.2504         17.2504
  -3238468.49648  -2519281.23446  20844347.2274   20844344.1564       -478.6484
        49.0004         40.7504
 -12619157.05548  -9816510.32046  21640366.8834   21640364.3324       1234.7514
        51.0004         37.7504
  -2545712.19147  -1967277.95344  23414678.7734   23414678.3754      -1835.0694
        42.5004         28.0004
   7377025.93048   5750358.29346  21580529.6644   21580527.1484      -3060.3534
        50.0004         36.0004
  -2429192.71146  -1878878.79742  25087478.3284   25087480.5434       1993.1004
        37.0004         17.7504
  -7307674.48447  -5676024.16045  22350738.4774   22350734.5704      -1205.8924
        46.5004         34.0004
  17231300.91847  13421368.34444  23481599.0314   23481596.8524      -3982.5074
        46.0004         28.0004
  -6176834.96147  -4797744.97344  24147446.7424   24147445.3634       -270.7004
        43.2504         25.7504
 -16785095.01648 -13057432.30946  21841033.5394   21841030.6994       1218.6254
        50.2504         36.5004
 10  5 27  0  4 30.0000000  0 11G03G06G07G08G10G13G11G19G23G05G28
   6244818.85546   4870565.22744  23544434.0634   23544433.4184      -3181.7904
        40.5004         24.0004
  10182549.26646   7935337.18443  25054760.6024   25054760.3874      -3273.5994
        36.7504         18.2504
  -3223891.98448  -2507922.90246  20847120.9144   20847117.6914       -485.8844
        49.5004         40.0004
 -12656092.23448  -9845290.96946  21633337.7894   21633335.9264       1231.1734
        50.0004         37.5004
  -2490249.73847  -1924060.49244  23425232.9694   23425232.5744      -1848.7484
        43.0004         29.0004
   7469242.37948   5822215.23046  21598077.7424   21598075.6484      -3073.8824
        49.7504         36.2504
  -2489051.75046  -1925522.00443  25076086.9304   25076089.1804       1995.3014
        37.5004         19.0004
  -7270912.19147  -5647378.21145  22357733.8834   22357729.9884      -1225.4104
        46.5004         34.0004
  17350982.94547  13514626.93844  23504373.4304   23504370.3054      -3989.4014
        44.5004         26.5004
  -6168198.34046  -4791015.15644  24149090.4384   24149089.1294       -287.8874
        40.0004         26.5004
 -16821316.52048 -13085656.81646  21834140.9304   21834138.0434       1207.3834
        50.5004         37.0004
 10  5 27  0  5  0.0000000  0 11G03G06G07G08G10G13G11G19G23G05G28
   6340672.95347   4945256.70344  23562675.4844   23562673.7734      -3195.1374
        42.5004         25.0004
  10281028.69146   8012074.35242  25073501.1954   25073499.4734      -3282.6484
        37.2504         17.7504
  -3209099.98448  -2496396.67246  20849935.8444   20849932.8484       -493.0674
        51.5004         40.5004
 -12692921.62148  -9873989.17646  21626329.6954   21626327.1564       1227.6464
        50.0004         37.2504
  -2434381.51247  -1880526.87544  23435865.1094   23435864.0204      -1862.2744
        42.5004         29.0004
   7561860.05548   5894384.81645  21615701.8444   21615700.2664      -3087.2564
        49.7504         35.5004
  -2548976.72946  -1972216.56443  25064683.7664   25064685.7704       1997.4994
        39.0004         18.5004
  -7233567.30947  -5618278.28545  22364840.3364   22364836.2854      -1244.8294
        46.7504         35.0004
  17470867.28547  13608043.17244  23527186.7424   23527184.5314      -3996.1454
        45.2504         27.0004
  -6159048.83247  -4783885.68044  24150831.7584   24150830.0274       -304.9844
        43.0004         27.0004
 -16857203.02748 -13113620.29346  21827311.8364   21827309.4184       1196.2174
        50.5004         37.2504
 10  5 27  0  5 30.0000000  0 11G03G06G07G08G10G13G11G19G23G05G28
   6436926.19946   5020259.19944  23580990.5554   23580990.3834      -3208.4424
        39.7504         24.0004
  10379778.99646   8089022.62542  25092291.9774   25092291.2544      -3291.6774
        37.2504         17.7504
  -3194090.46148  -2484700.94146  20852792.0554   20852789.0514       -500.3174
        50.5004         40.0004
 -12729642.82048  -9902603.07846  21619341.7894   21619339.7814       1224.0404
        50.5004         37.2504
  -2378108.32847  -1836677.68044  23446573.0944   23446572.2734      -1875.7734
        43.0004         28.0004
   7654879.21548   5966867.23045  21633403.4614   21633401.0824      -3100.6394
        50.2504         35.5004
  -2608963.24246  -2018959.14143  25053268.4694   25053270.6094       1999.5504
        37.5004         18.5004
  -7195638.59847  -5588723.43445  22372057.8914   22372054.1764      -1264.2904
        46.2504         34.7504
  17590953.39147  13701616.63744  23550038.3914   23550036.2894      -4002.8704
        44.2504         27.0004
  -6149385.41846  -4776355.76244  24152669.8984   24152668.6724       -322.1144
        39.7504         27.0004
 -16892753.30148 -13141321.76646  21820546.8834   21820544.2734       1185.0094
        50.5004         36.7504
 10  5 27  0  6  0.0000000  0 11G03G06G07G08G10G13G11G19G23G05G28
   6533570.53546   5095566.44544  23599381.3914   23599380.8284      -3221.4784
        40.7504         24.0004
  10478792.28146   8166175.80542  25111134.1484   25111133.5044      -3300.4434
        36.2504         16.2504
  -3178867.68048  -2472839.02346  20855689.1254   20855685.6994       -507.4264
        49.0004         40.7504
 -12766260.25448  -9931136.12946  21612373.6484   21612371.7304       1220.5814
        49.2504         37.5004
  -2321438.02347  -1792519.03944  23457357.2194   23457356.4264      -1889.0104
        43.0004         27.2504
   7748292.81348   6039657.01245  21651179.3594   21651177.4064      -3113.7874
        49.7504         35.0004
  -2669013.79746  -2065751.59842  25041840.9304   25041843.1604       2001.6854
        37.7504         17.7504
  -7157132.32047  -5558718.53145  22379385.3674   22379381.5234      -1283.5434
        47.0004         35.0004
  17711233.63747  13795341.35944  23572926.7194   23572924.8524      -4009.3424
        44.2504         26.5004
  -6139214.34846  -4768430.27344  24154605.8834   24154604.4184       -339.0364
        41.5004         26.2504
 -16927972.61348 -13168765.34846  21813845.0394   21813842.2974       1173.9774
        49.0004         36.7504
