     2.11           OBSERVATION DATA    G (GPS)             RINEX VERSION / TYPE
teqc  2019Feb25     K Rivera            20250728 23:58:41UTCPGM / RUN BY / DATE
Linux 2.6.32-573.12.1.x86_64|x86_64|gcc -static|Linux 64|=+ COMMENT
teqc  2019Feb25                         20250728 23:54:59UTCCOMMENT
BIT 2 OF LLI FLAGS DATA COLLECTED UNDER A/S CONDITION       COMMENT
GS36                                                        MARKER NAME
                                                            MARKER NUMBER
K Baraggiotta       University of California, Riverside     OBSERVER / AGENCY
0220413532          TRIMBLE R7          2.32                REC # / TYPE / VERS
1441040465          TRM57971.00                             ANT # / TYPE
 -2376964.8697 -4662096.1664  3635504.2814                  APPROX POSITION XYZ
        1.2880        0.0000        0.0000                  ANTENNA: DELTA H/E/N
     1     1                                                WAVELENGTH FACT L1/2
     7    L1    L2    C1    P1    P2    S1    S2            # / TYPES OF OBSERV
    18                                                      LEAP SECONDS
 SNR is mapped to RINEX snr flag value [0-9]                COMMENT
  L1 & L2: min(max(int(snr_dBHz/6), 0), 9)                  COMMENT
  2025     7    16     0     0   30.0000000     GPS         TIME OF FIRST OBS
                                                            END OF HEADER
 25  7 16  0  0 30.0000000  0 10G10G03G25G04G26G32G02G28G31G01
-105522760.83656 -82167575.06255  24099819.2344                   24099819.5984
        37.5004         32.0004
 -67124543.51257 -53159950.77057  21537318.6564                   21537315.6954
        46.7504         44.0004
 -45247382.96556 -35183159.02754  24343815.6564                   24343814.0124
        38.0004         25.7504
 -42990016.39556 -33351133.91854  23155021.1484                   23155018.0164
        41.2504         27.0004
 -37186724.44956 -28894155.32055  23299340.4534                   23299340.1724
        40.5004         34.7504
-109548700.43457 -85293013.31656  23435745.5704                   23435743.3364
        43.5004         37.7504
-138029741.66857-107421533.35256  21846041.7034                   21846034.8714
        45.7504         36.0004
-135980845.57457-104634757.41856  21255135.1254                   21255129.7424
        46.2504         36.5004
-113778360.48058 -88581202.07458  19991253.5084                   19991247.8914
        48.7504         49.5004
-100979997.28157 -77820138.66456  20990861.7664                   20990857.1954
        45.0004         36.5004
 25  7 16  0  1  0.0000000  0 10G10G03G25G04G26G32G02G28G31G01
-104122655.71946 -81076584.18745  24366250.8134                   24366250.3134
        37.0004         30.0004
 -65888882.13347 -52197097.71147  21772457.2734                   21772454.5124
        46.5004         44.0004
 -43902952.41446 -34135550.80144  24599651.6804                   24599650.8404
        37.0004         26.7504
 -41744638.95346 -32380709.87144  23392007.8914                   23392005.6254
        40.7504         27.0004
 -35960817.77046 -27938903.26645  23532623.0634                   23532622.1524
        39.5004         34.2504
-108166791.60547 -84216201.28946  23698714.7034                   23698712.4344
        44.0004         38.0004
-136661129.93047-106355082.67245  22106479.8134                   22106472.9774
        46.2504         35.5004
-134611862.53947-103568017.39846  21515644.0234                   21515638.8554
        46.0004         36.7504
-112472255.28947 -87563457.76248  20239797.1724                   20239790.9264
        47.7504         49.5004
 -99667811.82447 -76797656.49646  21240562.4614                   21240557.5634
        46.7504         36.0004
 25  7 16  0  1 30.0000000  0 10G10G03G25G04G26G32G02G28G31G01
-104297747.79346 -81213019.68045  24332931.9844                   24332931.5394
        37.7504         30.5004
 -66228464.67247 -52461707.44547  21707836.5234                   21707834.0204
        46.5004         44.0004
 -44133401.44546 -34315121.47344  24555799.2344                   24555797.8204
        38.0004         26.5004
 -42074548.23846 -32637781.98044  23329228.6174                   23329225.3714
        40.7504         27.2504
 -36310187.58246 -28211139.38745  23466140.0864                   23466139.4344
        40.0004         34.7504
-108360277.81247 -84366969.80946  23661895.4064                   23661892.8984
        44.2504         37.0004
-136867538.44947-106515920.51246  22067201.6804                   22067194.8874
        46.0004         36.0004
-134817848.31247-103728525.80946  21476446.3284                   21476440.8094
        45.7504         37.2504
-112740944.96547 -87772826.33248  20188667.0234                   20188661.0514
        47.5004         49.7504
 -99930452.82047 -77002311.82846  21190583.7034                   21190578.9414
        45.2504         36.0004
 25  7 16  0  2  0.0000000  0 10G10G03G25G04G26G32G02G28G31G01
-104472615.18746 -81349280.10544  24299655.9144                   24299655.5314
        37.5004         29.5004
 -66567860.79347 -52726171.91047  21643251.3054                   21643248.8094
        46.7504         44.2504
 -44363306.00846 -34494267.91443  24512049.9224                   24512048.6684
        36.5004         23.5004
 -42404316.31246 -32894744.01644  23266475.2504                   23266472.5274
        41.0004         28.0004
 -36659402.02346 -28483254.44145  23399686.4454                   23399685.8634
        39.7504         34.2504
-108553735.86747 -84517716.39546  23625081.4924                   23625079.0904
        44.0004         37.0004
-137073546.13747-106676446.02046  22027999.6484                   22027993.0664
        46.0004         36.0004
-135023381.27047-103888681.36746  21437334.6334                   21437329.5084
        46.0004         37.2504
-113009003.97347 -87981703.47748  20137657.1564                   20137651.0944
        47.0004         49.5004
-100192494.50447 -77206500.16046  21140718.8204                   21140713.9734
        45.7504         36.0004
 25  7 16  0  2 30.0000000  0 10G10G03G25G04G26G32G02G28G31G01
-104647258.28946 -81485365.71944  24266421.9064                   24266421.5904
        37.5004         28.7504
 -66907068.00847 -52990489.18047  21578702.0394                   21578699.9804
        46.0004         44.0004
 -44592666.29746 -34672990.23844  24468403.7734                   24468402.5314
        37.5004         26.2504
 -42733943.00046 -33151595.91444  23203748.8204                   23203746.8954
        39.0004         27.5004
 -37008457.42646 -28755245.58645  23333263.5004                   23333262.6414
        39.0004         33.7504
-108747165.73047 -84668440.98446  23588273.0164                   23588270.6604
        44.0004         37.5004
-137279154.43447-106836660.32046  21988874.1564                   21988867.3164
        45.5004         36.0004
-135228463.35247-104048485.59846  21398308.7274                   21398303.6024
        45.5004         37.0004
-113276432.08647 -88190089.01248  20086767.4844                   20086761.4774
        46.7504         49.7504
-100453936.62547 -77410221.29746  21090968.0084                   21090963.1374
        46.2504         36.2504
 25  7 16  0  3  0.0000000  0 10G10G03G25G04G26G32G02G28G31G01
-104821678.72746 -81621277.83244  24233231.5164                   24233231.0274
        37.7504         29.0004
 -67246085.05547 -53254658.27047  21514189.5314                   21514186.9494
        46.2504         44.5004
 -44821483.94146 -34851289.78544  24424861.8594                   24424860.3164
        37.2504         25.5004
 -43063429.13346 -33408338.28544  23141050.0554                   23141047.7464
        40.7504         28.5004
 -37357351.39146 -29027110.92245  23266870.1174                   23266870.4534
        39.5004         34.0004
-108940568.37547 -84819144.37546  23551469.7194                   23551467.3244
        44.0004         37.0004
-137484366.10547-106996565.55946  21949823.2194                   21949816.7624
        44.7504         36.0004
-135433097.55947-104207940.83646  21359368.4844                   21359363.2304
        45.0004         36.0004
-113543230.52747 -88397983.89848  20035996.9844                   20035990.9024
        46.2504         49.7504
-100714780.00847 -77613475.89146  21041331.0164                   21041326.1724
        46.0004         36.0004
 25  7 16  0  3 30.0000000  0 10G10G03G25G04G26G32G02G28G31G01
-104995872.83646 -81757013.60944  24200083.8054                   24200083.1484
        39.2504         29.5004
 -67584905.31647 -53518674.02347  21449714.5084                   21449711.6294
        46.5004         44.5004
 -45049754.61746 -35029162.98844  24381422.3364                   24381421.9304
        36.2504         24.7504
 -43392770.28146 -33664967.68044  23078378.9454                   23078375.3244
        40.7504         27.0004
 -37706076.00046 -29298844.29345  23200509.8834                   23200510.3754
        39.0004         33.5004
-109133939.52747 -84969823.24646  23514672.4534                   23514670.5634
        44.2504         37.5004
-137689178.90247-107156159.98845  21910848.5784                   21910841.8524
        45.7504         35.7504
-135637281.57847-104367045.28146  21320513.1484                   21320508.3634
        44.5004         37.0004
-113809395.31247 -88605385.02048  19985347.7664                   19985342.2304
        46.2504         49.7504
-100975020.28147 -77816260.52746  20991808.8754                   20991804.1414
        46.5004         36.2504
 25  7 16  0  4  0.0000000  0 10G10G03G25G04G26G32G02G28G31G01
-103594414.16846 -80664967.99644  24466773.0474                   24466771.6724
        39.7504         29.5004
 -66348093.91447 -52554924.85247  21685071.4844                   21685068.5664
        46.5004         44.2504
 -43702050.39846 -33979003.88344  24637882.0554                   24637881.7344
        36.7504         24.5004
 -42146533.98847 -32693874.37544  23315530.0394                   23315526.4454
        43.0004         27.5004
 -36479194.99246 -28342833.02345  23433978.0394                   23433977.5004
        39.0004         33.2504
-107751851.50447 -83892871.58646  23777675.4694                   23777672.7074
        43.5004         36.7504
-136318166.69547-106087838.84446  22171743.7974                   22171737.2934
        46.5004         36.0004
-134265589.44147-103298194.27746  21581537.0394                   21581532.1454
        45.5004         36.5004
-112499496.07848 -87584684.31248  20234613.0394                   20234607.2344
        48.0004         49.7504
 -99659227.43447 -76790967.41046  21242196.2034                   21242191.2194
        45.0004         36.2504
 25  7 16  0  4 30.0000000  0 10G10G03G25G04G26G32G02G28G31G01
-103768148.98046 -80800345.87545  24433712.6644                   24433711.2034
        40.2504         31.0004
 -66686505.12947 -52818621.87547  21620673.9304                   21620671.4304
        46.5004         44.2504
 -43929220.75846 -34156019.74644  24594653.1484                   24594652.1524
        37.2504         26.2504
 -42475576.10947 -32950270.76644  23252914.8674                   23252911.8244
        42.0004         26.2504
 -36827562.05946 -28614287.80145  23367685.6884                   23367685.1174
        39.5004         32.5004
-107945151.14847 -84043494.73046  23740891.2114                   23740889.1174
        44.2504         36.7504
-136522178.73047-106246809.30146  22132921.7894                   22132915.0984
        45.5004         36.0004
-134468870.72747-103456595.28946  21542854.2504                   21542849.3754
        46.5004         37.0004
-112764384.74647 -87791091.06248  20184206.8594                   20184200.7854
        47.2504         49.7504
 -99918252.66047 -76992805.24645  21192905.4454                   21192900.7344
        45.7504         35.7504
 25  7 16  0  5  0.0000000  0 10G10G03G25G04G26G32G02G28G31G01
-103941649.97746 -80935541.53545  24400696.4304                   24400695.9104
        40.2504         31.0004
 -67024703.23047 -53082152.83247  21556317.2974                   21556314.3404
        47.0004         45.0004
 -44155836.61345 -34332603.53544  24551528.8754                   24551528.7424
        35.7504         27.0004
 -42804463.55946 -33206546.62144  23190329.6414                   23190326.5594
        41.2504         27.0004
 -37175740.03546 -28885595.20745  23301429.7504                   23301429.5084
        38.7504         32.2504
-108138409.98447 -84194086.05946  23704115.9454                   23704113.0984
        43.2504         37.0004
-136725788.35947-106405466.19946  22094176.2664                   22094169.4844
        46.2504         36.2504
-134671698.66847-103614643.05146  21504257.3444                   21504252.3634
        46.0004         37.0004
-113028630.78947 -87996997.06648  20133922.3754                   20133916.2544
        46.7504         50.0004
-100176665.27047 -77194165.72746  21143730.8444                   21143726.3914
        47.5004         36.0004
 25  7 16  0  5 30.0000000  0 10G10G03G25G04G26G32G02G28G31G01
-104114920.59846 -81070557.68445  24367723.3134                   24367722.6024
        40.0004         30.7504
 -67362688.62547 -53345518.04747  21492000.3444                   21491998.1844
        47.0004         44.7504
 -44381901.25046 -34508757.79344  24508511.0314                   24508510.6484
        36.7504         26.7504
 -43133198.76646 -33462703.84044  23127773.2814                   23127770.4534
        41.0004         27.5004
 -37523728.14146 -29156754.69145  23235209.1804                   23235209.4454
        37.5004         31.5004
-108331630.71547 -84344647.69546  23667346.7194                   23667344.3364
        43.0004         36.2504
-136928999.57847-106563812.64146  22055506.2584                   22055499.5664
        46.0004         36.2504
-134874078.01247-103772341.25846  21465746.0394                   21465740.8594
        45.7504         36.7504
-113292236.71547 -88202404.27748  20083760.1644                   20083753.5314
        46.7504         49.7504
-100434467.89147 -77395050.89846  21094672.9844                   21094668.0164
        47.5004         36.5004
 25  7 16  0  6  0.0000000  0 10G10G03G25G04G26G32G02G28G31G01
-104287966.90646 -81205399.07045  24334794.0314                   24334793.5354
        39.7504         31.2504
 -67700464.41447 -53608719.93447  21427724.2664                   21427720.9694
        47.0004         44.7504
 -44607420.65646 -34684487.20744  24465596.6954                   24465594.9184
        36.7504         26.7504
 -43461787.15246 -33718746.67244  23065244.1724                   23065242.2194
        41.0004         27.5004
 -37871528.25046 -29427767.66845  23169025.9694                   23169024.6454
        40.2504         32.0004
-108524818.76647 -84495183.88346  23630583.9774                   23630582.0004
        42.5004         36.0004
-137131820.53547-106721854.98845  22016910.7504                   22016903.9614
        45.2504         35.7504
-135076016.32847-103929695.79746  21427318.5234                   21427313.0314
        45.2504         37.0004
-113555208.61747 -88407317.44148  20033718.0084                   20033711.8594
        47.2504         50.0004
-100691666.04347 -77595465.04746  21045729.7664                   21045724.8674
        47.5004         36.0004
 25  7 16  0  6 30.0000000  0 10G10G03G25G04G26G32G02G28G31G01
-104460786.94146 -81340064.11745  24301907.6644                   24301907.0314
        37.5004         30.2504
 -68038025.53947 -53871754.54347  21363488.2344                   21363485.2774
        46.5004         44.7504
 -44832392.66445 -34859790.09044  24422785.3834                   24422784.6334
        35.2504         25.7504
 -43790225.84047 -33974672.84044  23002745.8284                   23002742.3404
        42.2504         26.5004
 -38219134.27346 -29698629.45345  23102878.6884                   23102877.7664
        39.2504         32.0004
-108717971.37147 -84645692.45346  23593828.6174                   23593826.7424
        42.7504         37.0004
-137334250.26247-106879592.48846  21978389.4454                   21978383.0394
        47.2504         36.2504
-135277512.94547-104086706.16446  21388974.6334                   21388969.7814
        46.0004         36.5004
-113817544.00447 -88611734.61348  19983797.3054                   19983791.3674
        47.5004         49.7504
-100948257.02347 -77795406.08246  20996902.1484                   20996897.3014
        46.7504         36.0004
 25  7 16  0  7  0.0000000  0 10G10G03G25G04G26G32G02G28G31G01
-103057958.53946 -80246951.19144  24568856.9384                   24568856.5044
        37.7504         29.0004
 -66799941.39847 -52907013.61747  21599087.8674                   21599084.8404
        47.2504         45.2504
 -43481393.52046 -33807063.50444  24679871.9454                   24679870.9654
        36.0004         25.0004
 -42543086.78946 -33002876.12144  23240067.3134                   23240065.3014
        41.5004         28.0004
 -36991114.03946 -28741730.48845  23336563.2344                   23336561.8444
        39.0004         32.7504
-107335665.08647 -83568570.72746  23856873.2584                   23856870.7194
        42.5004         37.0004
-135960866.93747-105809423.70745  22239735.9774                   22239729.3984
        47.2504         35.7504
-133903146.28147-103015771.11746  21650508.2894                   21650503.2034
        46.0004         36.5004
-112503817.58648 -87588051.68448  20233791.0474                   20233785.0234
        48.0004         49.7504
 -99628815.39147 -76767269.75046  21247983.2734                   21247978.8754
        47.0004         36.5004
 25  7 16  0  7 30.0000000  0 10G10G03G25G04G26G32G02G28G31G01
-103230330.57446 -80381267.19544  24536055.9144                   24536055.3554
        37.5004         28.7504
 -67137068.73447 -53169710.21547  21534934.4614                   21534931.6054
        47.0004         45.5004
 -43705275.34845 -33981516.88743  24637268.7974                   24637267.6174
        35.7504         23.7504
 -42871228.33246 -33258570.75044  23177623.8524                   23177621.3444
        41.5004         26.7504
 -37338323.78546 -29012283.48045  23270491.1484                   23270490.0824
        39.7504         33.0004
-107528749.39846 -83719026.07046  23820130.2424                   23820127.9064
        41.7504         36.5004
-136162522.47347-105966557.94146  22201362.6724                   22201355.5634
        45.5004         36.0004
-134103768.41047-103172100.07046  21612331.1334                   21612325.9574
        45.2504         36.2504
-112764883.53947 -87791479.69548  20184111.5554                   20184105.6294
        47.0004         49.7504
 -99884194.91047 -76966266.79346  21199386.4144                   21199381.7704
        47.5004         36.5004
 25  7 16  0  8  0.0000000  0 10G10G03G25G04G26G32G02G28G31G01
-103402478.85946 -80515408.83244  24503296.9144                   24503296.4884
        37.7504         29.2504
 -67473974.80947 -53432234.41047  21470823.4064                   21470820.9344
        47.7504         45.7504
 -43928612.27045 -34155545.71144  24594768.2114                   24594768.1374
        35.5004         24.2504
 -43199220.33247 -33514148.84444  23115209.5084                   23115206.7234
        42.2504         28.5004
 -37685329.40646 -29282677.38745  23204457.7734                   23204457.3874
        39.2504         33.2504
-107721798.67647 -83869454.12546  23783394.2194                   23783391.9304
        42.5004         36.0004
-136363793.34047-106123392.43046  22163061.5004                   22163054.7424
        45.5004         36.0004
-134303955.68447-103328090.17646  21574236.9224                   21574232.3444
        46.5004         36.5004
-113025314.30947 -87994412.76248  20134553.7194                   20134547.6294
        47.2504         49.7504
-100138968.03547 -77164791.31646  21150904.4694                   21150900.0124
        47.7504         36.2504
 25  7 16  0  8 30.0000000  0 10G10G03G25G04G26G32G02G28G31G01
-103574403.03146 -80649375.83644  24470580.8444                   24470580.6804
        37.0004         29.0004
 -67810656.21947 -53694583.53147  21406755.1804                   21406752.5164
        47.5004         45.7504
 -44151403.91046 -34329149.59443  24552373.7034                   24552372.3404
        37.5004         22.7504
 -43527061.65646 -33769609.55144  23052823.2664                   23052820.4024
        41.5004         27.5004
 -38032126.28946 -29552908.66445  23138465.0314                   23138463.9494
        39.5004         34.0004
-107914811.78547 -84019854.00446  23746665.2584                   23746662.9804
        43.0004         36.7504
-136564680.25447-106279927.73045  22124834.5084                   22124827.5044
        46.0004         35.5004
-134503709.15647-103483742.25046  21536225.1094                   21536219.9884
        46.0004         36.5004
-113285109.42647 -88196850.51648  20085116.2344                   20085109.9574
        46.5004         49.7504
-100393133.89547 -77362842.64846  21102538.5704                   21102533.8134
        47.2504         36.2504
 25  7 16  0  9  0.0000000  0 10G10G03G25G04G26G32G02G28G31G01
-103746102.94146 -80783168.08244  24437907.5634                   24437907.8524
        37.7504         29.7504
 -68147109.56247 -53956754.94147  21342729.9224                   21342727.2624
        47.2504         45.7504
 -44373649.89846 -34502328.26243  24510081.4774                   24510080.5864
        36.0004         22.7504
 -43854751.09046 -34024951.90644  22990466.1484                   22990462.6644
        41.2504         27.2504
 -38378709.92246 -29822973.74645  23072512.2034                   23072511.0864
        39.2504         34.2504
-108107787.74247 -84170224.93446  23709943.3914                   23709941.6564
        43.0004         36.7504
-136765184.30147-106436164.70345  22086679.7274                   22086672.9774
        45.5004         35.5004
-134703029.87947-103639057.11346  21498295.3834                   21498290.3404
        46.0004         36.2504
-113544268.18448 -88398792.40648  20035799.8524                   20035793.6804
        48.0004         49.7504
-100646691.65648 -77560420.14146  21054288.1644                   21054283.6334
        48.0004         36.5004
 25  7 16  0  9 30.0000000  0 10G10G03G25G04G26G32G02G28G31G01
-103917581.87146 -80916788.12944  24405276.5314                   24405276.2344
        37.7504         28.7504
 -68483335.20747 -54218748.92647  21278748.7034                   21278745.9224
        47.2504         46.0004
 -44595353.77045 -34675084.52043  24467891.9304                   24467891.3914
        35.5004         22.7504
 -44182291.31646 -34280178.00444  22928137.6724                   22928134.1604
        41.0004         27.7504
 -38725079.57446 -30092872.09445  23006600.1094                   23006599.3984
        41.0004         35.2504
-108300729.17647 -84320568.95346  23673227.2974                   23673225.3714
        43.2504         36.5004
-136965310.21147-106592107.00845  22048596.7114                   22048590.1954
        45.5004         35.0004
-134901922.76247-103794038.59445  21460447.1024                   21460442.5084
        46.0004         35.7504
-113802793.42648 -88600240.64548  19986603.9304                   19986597.8554
        48.5004         50.0004
-100899644.26247 -77757526.07846  21006152.9224                   21006148.0164
        47.7504         37.0004
 25  7 16  0 10  0.0000000  0 10G10G03G25G04G26G32G02G28G31G01
-102513413.16446 -79822630.79444  24672481.2114                   24672480.6564
        38.2504         29.2504
 -67243897.73848 -53252953.46947  21514606.0784                   21514603.1294
        48.0004         46.5004
 -43241087.05145 -33619811.75043  24725600.6024                   24725600.2194
        35.7504         22.7504
 -42934249.52747 -33307677.85544  23165631.5234                   23165628.5514
        43.0004         27.2504
 -37495798.40646 -29134990.59046  23240524.6724                   23240523.7304
        41.2504         36.0004
-106918207.83247 -83243279.64146  23936312.1414                   23936310.1564
        42.5004         36.2504
-135589631.59847-105520149.68445  22310379.8594                   22310373.2854
        45.0004         35.0004
-133524961.52347-102721081.80546  21722474.7274                   21722469.2194
        46.2504         36.2504
-112485255.72347 -87573587.88348  20237323.2504                   20237317.4804
        46.7504         49.7504
 -99576561.69147 -76726552.66446  21257927.0314                   21257922.3834
        47.0004         36.5004
 25  7 16  0 10 30.0000000  0 10G10G03G25G04G26G32G02G28G31G01
-102684447.31646 -79955904.26244  24639934.3444                   24639934.3874
        37.7504         29.7504
 -67579655.57447 -53514582.93047  21450712.9694                   21450710.2424
        47.7504         46.0004
 -43461703.78945 -33791720.92243  24683619.0864                   24683618.3984
        35.2504         22.5004
 -43261485.78547 -33562667.09444  23103360.4924                   23103357.0354
        43.5004         27.2504
 -37841724.36746 -29404543.22346  23174697.1644                   23174695.6524
        41.5004         36.2504
-107111074.85547 -83393565.68746  23899611.5554                   23899609.2974
        42.2504         36.5004
-135789002.38347-105675503.57845  22272440.7584                   22272434.2074
        45.0004         34.0004
-133722999.99647-102875397.51646  21684789.1024                   21684783.8954
        46.0004         36.2504
-112742511.19947 -87774046.69548  20188369.3134                   20188362.6804
        46.2504         49.7504
 -99828299.47347 -76922711.98846  21210022.9534                   21210018.1254
        47.7504         36.5004
 25  7 16  0 11  0.0000000  0 10G10G03G25G04G26G32G02G28G31G01
-102855261.80546 -80089006.54745  24607429.8834                   24607429.6844
        39.2504         30.5004
 -67915177.53948 -53776028.59847  21386865.2274                   21386862.3594
        48.0004         46.0004
 -43681779.66846 -33963208.63343  24641739.8984                   24641738.6334
        37.0004         22.7504
 -43588571.50447 -33817539.02344  23041118.2664                   23041115.0864
        42.2504         28.5004
 -38187424.77346 -29673920.10946  23108912.3444                   23108910.6524
        41.5004         37.0004
-107303906.18446 -83543823.91446  23862916.9774                   23862914.7854
        41.7504         37.2504
-135988000.26647-105830566.90645  22234572.8134                   22234565.9264
        45.5004         34.2504
-133920616.05547-103029384.06246  21647184.0634                   21647179.1294
        46.0004         36.2504
-112999133.92648 -87974012.45748  20139535.6804                   20139529.5164
        48.0004         49.7504
-100079431.81247 -77118399.54746  21162234.1724                   21162229.1484
        47.5004         37.2504
 25  7 16  0 11 30.0000000  0 10G10G03G25G04G26G32G02G28G31G01
-103025851.22346 -80221933.46945  24574967.6174                   24574968.1804
        37.5004         30.0004
 -68250455.00448 -54037283.74247  21323064.6484                   21323061.5824
        48.0004         46.0004
 -43901309.46145 -34134270.83243  24599964.7424                   24599963.7464
        35.5004         22.7504
 -43915500.32047 -34072288.69544  22978906.2504                   22978902.5164
        43.5004         27.0004
 -38532890.01247 -29943113.74246  23043172.6644                   23043171.6994
        42.0004         36.2504
-107496695.52347 -83694049.43046  23826230.6334                   23826228.2854
        42.0004         37.7504
-136186621.14547-105985336.45345  22196776.7034                   22196770.0314
        44.5004         34.7504
-134117805.70747-103183038.35546  21609660.0704                   21609655.2504
        45.7504         36.5004
-113255118.17247 -88173480.69548  20090823.0864                   20090817.0004
        47.7504         49.5004
-100329952.90648 -77313610.80946  21114561.5394                   21114557.0164
        48.0004         36.7504
 25  7 16  0 12  0.0000000  0 10G10G03G25G04G26G32G02G28G31G01
-103196208.00846 -80354679.12145  24542549.6024                   24542549.6604
        38.5004         32.7504
 -68585477.25847 -54298340.02047  21259311.3984                   21259308.6214
        47.5004         46.0004
 -44120285.60545 -34304901.60243  24558295.2814                   24558293.9384
        35.2504         22.5004
 -44242263.89146 -34326909.60544  22916723.8984                   22916721.0234
        41.7504         27.5004
 -38878108.16447 -30212114.83646  22977479.8204                   22977478.3794
        42.0004         36.2504
-107689434.48446 -83844235.69146  23789553.3054                   23789551.2544
        41.5004         37.5004
-136384858.43447-106139807.10945  22159053.3364                   22159046.5664
        45.0004         34.5004
-134314562.76647-103336355.55546  21572217.9534                   21572213.3674
        46.2504         36.2504
-113510456.43747 -88372445.57848  20042233.9224                   20042227.9734
        47.0004         49.7504
-100579854.69947 -77508339.50446  21067006.7664                   21067002.6054
        47.5004         36.7504
 25  7 16  0 12 30.0000000  0 10G10G03G25G04G26G32G02G28G31G01
-103366334.87946 -80487245.61745  24510175.2894                   24510175.7234
        37.7504         31.0004
 -68920243.82447 -54559197.06247  21195607.4534                   21195605.0204
        47.2504         46.0004
 -44338710.82445 -34475103.07443  24516730.6884                   24516728.5824
        34.7504         22.0004
 -44568863.97347 -34581403.11744  22854574.6484                   22854571.2114
        43.2504         27.7504
 -39223077.73046 -30480922.23046  22911834.1414                   22911833.5474
        41.2504         36.7504
-107882124.84046 -83994384.08646  23752885.4774                   23752883.5744
        41.0004         37.0004
-136582716.54747-106293982.32045  22121402.4384                   22121395.4534
        45.2504         34.5004
-134510891.35547-103489338.89546  21534858.2504                   21534853.1564
        45.7504         36.0004
-113765151.13747 -88570908.98048  19993767.0084                   19993761.2194
        47.7504         49.7504
-100829139.53148 -77702587.44146  21019569.2424                   21019565.0664
        48.0004         36.7504
 25  7 16  0 13  0.0000000  0 10G10G03G25G04G26G32G02G28G31G01
-101960811.57046 -79392032.79745  24777638.6954                   24777638.3444
        37.2504         31.7504
 -67679325.69547 -53592247.84447  21431746.5864                   21431743.8594
        47.5004         46.2504
 -42981163.44145 -33417273.94143  24775062.7974                   24775062.0664
        34.2504         21.5004
 -43319874.24647 -33608164.32844  23092249.6724                   23092246.4184
        42.7504         28.5004
 -37992368.27046 -29521927.78146  23146030.8914                   23146029.2584
        41.5004         36.5004
-106499344.68046 -82916893.12946  24016020.3444                   24016017.9534
        41.5004         36.5004
-135204775.63347-105220262.18445  22383615.8984                   22383609.3284
        45.0004         34.2504
-133131371.70747-102414388.54346  21797372.3284                   21797367.2034
        45.7504         36.0004
-112443778.85247 -87541268.23448  20245215.8444                   20245209.6884
        47.5004         49.7504
 -99502384.07447 -76668752.03946  21272042.6174                   21272037.6844
        47.5004         37.0004
 25  7 16  0 13 30.0000000  0 10G10G03G25G04G26G32G02G28G31G01
-102130492.37146 -79524251.70745  24745349.7114                   24745348.9844
        37.5004         31.5004
 -68013584.89147 -53852709.53547  21368138.6334                   21368136.3634
        47.5004         46.0004
 -43198501.00045 -33586627.90643  24733704.1174                   24733703.5434
        33.0004         20.7504
 -43646158.50047 -33862411.74644  23030159.0554                   23030156.7304
        43.0004         28.0004
 -38336841.46146 -29790348.38346  23080478.6094                   23080478.2074
        40.5004         37.5004
-106691948.98847 -83066974.46546  23979368.8364                   23979366.3404
        43.0004         36.5004
-135401893.18747-105373860.32845  22346105.4224                   22346098.8914
        46.0004         34.5004
-133326861.23847-102566718.06245  21760171.9064                   21760166.7894
        46.5004         35.7504
-112697199.60948 -87738738.94548  20196991.6724                   20196985.4024
        48.7504         49.5004
 -99750447.46147 -76862048.21146  21224837.5634                   21224833.3134
        47.7504         36.7504
 25  7 16  0 14  0.0000000  0 10G10G03G25G04G26G32G02G28G31G01
-102299954.26646 -79656300.09845  24713101.3754                   24713101.7704
        36.0004         30.5004
 -68347589.73847 -54112973.02747  21304580.1254                   21304577.0634
        46.5004         46.0004
 -43415299.13345 -33755561.51643  24692449.4144                   24692448.3634
        33.5004         19.5004
 -43972287.62947 -34116538.29744  22968099.1724                   22968096.1414
        43.0004         27.5004
 -38681064.20346 -30058573.82846  23014975.9614                   23014974.6884
        41.2504         37.5004
-106884512.98447 -83217024.38346  23942725.1254                   23942722.9454
        43.7504         36.7504
-135598646.44147-105527174.62145  22308664.5084                   22308658.5164
        45.5004         34.2504
-133521937.49247-102718725.55546  21723049.9534                   21723044.7274
        45.5004         36.0004
-112949987.22348 -87935716.30948  20148887.5704                   20148881.5004
        48.2504         49.7504
 -99997903.74247 -77054871.30546  21177748.4694                   21177743.9454
        47.2504         36.2504
 25  7 16  0 14 30.0000000  0 10G10G03G25G04G26G32G02G28G31G01
-102469199.66046 -79788179.75445  24680895.2504                   24680895.4414
        36.5004         30.2504
 -68681339.37147 -54373037.65647  21241069.3284                   21241066.4964
        47.0004         46.0004
 -43631560.14545 -33924076.59443  24651295.7734                   24651296.0164
        33.0004         19.5004
 -44298263.01247 -34370545.06644  22906068.0634                   22906064.7074
        43.0004         27.5004
 -39025034.44546 -30326602.51646  22949520.3524                   22949519.2704
        40.2504         37.5004
-107077038.22747 -83367044.10246  23906088.5394                   23906086.6134
        42.5004         36.7504
-135795039.24247-105680208.03145  22271292.4304                   22271286.2074
        44.5004         34.7504
-133716604.15247-102870413.88345  21686006.1954                   21686001.2814
        45.0004         35.5004
-113202144.03148 -88132202.13748  20100903.9844                   20100897.6024
        48.7504         49.5004
-100244754.86347 -77247222.84446  21130773.9534                   21130769.5594
        47.5004         37.0004
 25  7 16  0 15  0.0000000  0 11G16G10G03G25G04G26G32G02G28G31G01
   7393152.77716                  25101014.664
        37.250
-102638225.45345 -79919888.29744  24648729.5394                   24648731.0274
        34.5004         29.5004
 -69014827.45747 -54632898.47747  21177608.6884                   21177605.8634
        47.0004         46.2504
 -43847281.37945 -34092171.07443  24610245.5704                   24610245.2624
        33.0004         19.0004
 -44624080.77347 -34624428.98444  22844066.8984                   22844063.6994
        43.0004         27.7504
 -39368744.94946 -30594428.81246  22884114.1954                   22884112.9804
        41.0004         37.0004
-107269520.62547 -83517030.46146  23869460.6334                   23869458.5314
        42.2504         36.0004
-135991069.69947-105832959.09445  22233989.0704                   22233982.3754
        46.5004         35.0004
-133910859.64547-103021781.81245  21649040.6644                   21649035.4694
        45.7504         34.7504
-113453666.91848 -88328193.99248  20053040.9774                   20053034.6024
        48.0004         49.7504
-100490997.53947 -77439100.28146  21083915.7894                   21083911.0274
        47.5004         36.5004
 25  7 16  0 15 30.0000000  0 11G16G10G03G25G04G26G32G02G28G31G01
   7033534.344 6                  25032582.211
        36.500
-102807041.30546 -80051433.25045  24616606.4454                   24616606.6024
        38.0004         32.0004
 -69348060.27747 -54892560.39847  21114197.0634                   21114193.5354
        47.0004         46.2504
 -44062472.50445 -34259852.43043  24569295.7504                   24569296.2274
        31.5004         20.5004
 -44949749.55147 -34878196.82844  22782094.6254                   22782090.8674
        43.2504         27.7504
 -39712200.84046 -30862056.72346  22818756.4144                   22818755.5864
        40.0004         37.2504
-107461968.83246 -83666990.18745  23832839.2424                   23832837.1334
        41.7504         35.7504
-136186748.70747-105985436.30145  22196752.4774                   22196746.2464
        46.7504         35.0004
-134104714.88347-103172837.86745  21612151.3674                   21612146.3554
        46.0004         35.5004
-113704565.20748 -88523699.14848  20005296.1804                   20005290.5514
        48.7504         49.5004
-100736640.99647 -77630510.78946  21037171.3914                   21037166.8134
        47.0004         36.5004
 25  7 16  0 16  0.0000000  0 11G16G10G03G25G04G26G32G02G28G31G01
   8249183.51646   7166493.12952  25263912.9454                   25263910.6764
        38.0004         16.7504
-101400232.02746 -78955218.35245  24884313.0234                   24884313.3014
        38.7504         31.7504
 -68105613.94147 -53924420.38347  21350626.2734                   21350623.6254
        47.5004         46.5004
 -42701717.04745 -33199523.51243  24828240.0164                   24828238.3404
        32.0004         19.7504
 -43699847.98047 -33904247.50444  23019941.7584                   23019939.3014
        42.2504         27.0004
 -38479976.87146 -29901882.14546  23053240.9224                   23053240.3874
        40.5004         36.5004
-106078965.94146 -82589325.66046  24096016.2894                   24096014.0164
        41.7504         36.7504
-134806661.62947-104910043.82445  22459374.3444                   22459367.8164
        46.2504         34.5004
-132722755.28547-102095986.25045  21875128.8134                   21875124.0744
        46.2504         35.5004
-112379421.35248 -87491119.52348  20257462.9924                   20257456.7734
        48.0004         49.5004
 -99406267.23447 -76593855.92646  21290332.8134                   21290328.6254
        47.7504         36.2504
 25  7 16  0 16 30.0000000  0 11G16G10G03G25G04G26G32G02G28G31G01
   7889241.84046   6886019.40642  25195417.9064                   25195417.2304
        38.5004         15.5004
-101568646.93746 -79086450.87945  24852265.2814                   24852265.8634
        39.0004         32.2504
 -68438345.37947 -54183691.61747  21287309.8524                   21287307.0744
        47.5004         46.2504
 -42915867.48855 -33366394.01253  24787488.4454                   24787487.2774
        31.5004         19.5004
 -44025234.91047 -34157795.71944  22958023.0634                   22958020.2774
        42.7504         27.5004
 -38822929.64146 -30169118.02346  22987979.5084                   22987977.9884
        41.0004         36.5004
-106271361.82847 -82739244.59446  24059404.1884                   24059401.9774
        43.0004         36.0004
-135001660.94947-105061991.39845  22422267.6884                   22422261.0904
        46.0004         35.0004
-132915833.09047-102246436.51245  21838387.8754                   21838382.6454
        46.5004         35.5004
-112629089.69548 -87685666.28148  20209952.5784                   20209946.2814
        48.5004         49.5004
 -99650730.36747 -76784346.69946  21243813.3524                   21243808.8204
        46.5004         36.5004
 25  7 16  0 17  0.0000000  0 11G16G10G03G25G04G26G32G02G28G31G01
   7529146.84446   6605426.11342  25126893.0234                   25126893.0314
        36.7504         17.2504
-101736858.57846 -79217524.99645  24820256.0394                   24820256.1804
        40.5004         32.2504
 -68770818.36747 -54442761.46147  21224041.7584                   21224039.3554
        47.5004         46.0004
 -43129495.11355 -33532857.11353  24746836.3834                   24746835.7114
        32.5004         19.7504
 -44350476.72347 -34411230.85944  22896131.6094                   22896128.5234
        42.5004         27.2504
 -39165621.57446 -30436150.64846  22922766.8524                   22922766.0394
        39.5004         36.0004
-106463727.30546 -82889139.82045  24022798.3134                   24022796.0944
        40.5004         35.5004
-135196319.75847-105213673.63345  22385225.0864                   22385218.9304
        45.0004         33.7504
-133108521.45747-102396583.30946  21801720.5474                   21801715.8134
        46.5004         36.0004
-112878140.02048 -87879731.46948  20162559.7424                   20162553.4304
        48.2504         49.5004
 -99894600.12547 -76974375.10546  21197406.2664                   21197402.0274
        47.2504         36.2504
 25  7 16  0 17 30.0000000  0 10G16G10G03G04G26G32G02G28G31G01
   7168898.96146   6324713.71942  25058340.6954                   25058339.9494
        36.7504         17.7504
-101904870.11346 -79348443.19145  24788284.5704                   24788284.7974
        40.0004         32.5004
 -69103032.72747 -54701629.77347  21160823.6954                   21160821.1914
        47.0004         46.0004
 -44675575.62147 -34664554.64144  22834267.8914                   22834264.1724
        42.2504         27.2504
 -39508051.43046 -30702979.05146  22857604.8594                   22857603.5944
        41.0004         36.2504
-106656064.44947 -83039012.96545  23986197.3594                   23986195.4534
        42.2504         35.5004
-135390642.21147-105365093.78145  22348246.9774                   22348240.6604
        46.2504         34.7504
-133300824.93447-102546430.19945  21765126.4774                   21765121.3444
        46.5004         35.5004
-113126575.71948 -88073317.72748  20115283.7504                   20115278.1254
        48.7504         49.5004
-100137879.48847 -77163943.45346  21151112.0864                   21151107.5314
        47.7504         36.7504
 25  7 16  0 18  0.0000000  0 10G16G10G03G04G26G32G02G28G31G01
   6808505.25845   6043887.71942  24989758.3754                   24989758.6054
        35.2504         17.2504
-102072678.36746 -79479202.99245  24756351.0944                   24756352.1334
        41.2504         32.0004
 -69434981.95348 -54960291.48447  21097655.9844                   21097652.7544
        48.0004         46.2504
 -45000527.39847 -34917763.76644  22772431.2274                   22772427.9264
        42.0004         27.2504
 -39850211.63746 -30969597.34446  22792493.5004                   22792493.0434
        41.5004         37.5004
-106848369.07846 -83188860.78945  23949603.1024                   23949601.0664
        41.5004         35.0004
-135584626.64847-105516250.53945  22311332.6564                   22311326.4224
        46.0004         34.2504
-133492741.59447-102695975.66445  21728605.8754                   21728600.8054
        47.0004         35.5004
-113374393.47748 -88266422.47748  20068125.4924                   20068119.8914
        48.2504         49.5004
-100380564.93448 -77353049.02046  21104930.7664                   21104926.2074
        48.5004         36.7504
 25  7 16  0 18 30.0000000  0 10G16G10G03G04G26G32G02G28G31G01
   6447969.21546   5762950.75842  24921151.3914                   24921151.5204
        36.5004         16.2504
-102240283.43746 -79609804.45745  24724457.5474                   24724457.5124
        41.0004         31.2504
 -69766662.75448 -55218744.04347  21034538.9534                   21034536.0784
        48.0004         46.5004
 -45325331.19946 -35170857.59444  22710623.3984                   22710619.9534
        41.7504         28.0004
 -40192097.92246 -31236002.18446  22727434.9454                   22727434.2194
        41.5004         37.2504
-107040640.26246 -83338682.56245  23913014.7034                   23913013.2584
        40.0004         35.2504
-135778274.83247-105667145.28145  22274482.8204                   22274476.5394
        46.0004         35.0004
-133684272.96547-102845220.90245  21692158.0944                   21692153.8984
        46.5004         35.5004
-113621593.21948 -88459045.64848  20021085.2114                   20021079.1954
        49.0004         49.5004
-100622656.41047 -77541691.75046  21058862.2584                   21058857.6134
        47.7504         36.2504
 25  7 16  0 19  0.0000000  0 10G16G10G03G04G26G32G02G28G31G01
   7662726.64146   6709515.23042  25152312.0004                   25152311.9804
        36.2504         17.7504
-100832259.77746 -78512643.25445  24992395.8524                   24992395.8364
        41.7504         31.0004
 -68522640.72748 -54249376.21947  21271268.6094                   21271265.6764
        48.2504         46.5004
 -44074555.25847 -34196226.94144  22948637.7194                   22948634.8094
        43.0004         27.7504
 -38958274.52346 -30274581.30946  22962223.5554                   22962223.0594
        41.5004         37.2504
-105657450.50847 -82260872.43045  24176227.1884                   24176226.0704
        42.0004         35.5004
-134396161.32047-104590173.77345  22537490.4534                   22537483.8364
        45.7504         33.7504
-132299994.01247-101766562.00045  21955578.4614                   21955573.4574
        47.0004         34.5004
-112292746.89848 -87423580.98048  20273956.1724                   20273950.2154
        49.0004         49.5004
 -99288725.63748 -76502265.18746  21312700.8284                   21312696.1294
        48.5004         36.0004
 25  7 16  0 19 30.0000000  0 10G16G10G03G04G26G32G02G28G31G01
   7301913.10246   6428362.05142  25083651.2814                   25083651.8444
        38.0004         16.7504
-100999462.86746 -78642931.47344  24960577.5474                   24960577.9304
        39.5004         28.2504
 -68853779.00848 -54507406.02747  21208255.0234                   21208252.0164
        48.0004         46.5004
 -44399064.51247 -34449091.26644  22886885.6564                   22886882.7624
        42.5004         28.5004
 -39299604.28146 -30540552.49646  22897270.8594                   22897269.5124
        41.2504         37.2504
-105849655.96547 -82410642.98845  24139652.3984                   24139650.6804
        42.2504         35.5004
-134589144.58247-104740550.41045  22500767.1414                   22500760.7854
        45.7504         34.0004
-132490763.22747-101915213.35545  21919276.2424                   21919271.5664
        46.7504         34.7504
-112538715.44148 -87615244.78148  20227149.9454                   20227144.1804
        48.2504         49.2504
 -99529632.98847 -76689985.22746  21266857.6254                   21266852.9144
        47.5004         36.0004
 25  7 16  0 20  0.0000000  0 10G16G10G03G04G26G32G02G28G31G01
  10719919.74256   6222100.38753  25014965.1334                   25014963.7544
        37.0004         19.7504
-101166463.39856 -78769590.67655  24928798.2424                   24928799.4224
        39.7504         30.0004
 -69184640.32448 -54765220.03147  21145294.4454                   21145291.5314
        48.2504         47.0004
 -44723424.48047 -34701839.24244  22825161.1254                   22825158.6524
        42.2504         28.5004
 -39640648.52347 -30806301.21946  22832371.8364                   22832370.8324
        42.0004         36.7504
-106041826.39146 -82560386.22345  24103083.6564                   24103081.3054
        41.0004         34.5004
-134781796.83247-104890669.10245  22464106.4224                   22464100.1094
        45.2504         34.5004
-132681152.75847-102063568.85945  21883046.3284                   21883041.2194
        46.5004         34.7504
-112784067.89548 -87806428.51648  20180461.0634                   20180455.2504
        49.0004         49.2504
 -99769947.42247 -76877243.24646  21221126.7814                   21221122.5434
        47.5004         36.5004
 25  7 16  0 20 30.0000000  0 10G16G10G03G04G26G32G02G28G31G01
  10358849.35246   5940746.98042  24946255.5394                   24946254.9264
        37.0004         17.2504
-101333258.49246 -78899560.96944  24897057.8204                   24897058.6254
        38.2504         27.5004
 -69515216.53947 -55022811.87147  21082387.7274                   21082384.6374
        47.5004         47.0004
 -45047629.31647 -34954466.34444  22763467.4774                   22763465.2934
        42.5004         28.5004
 -39981398.25046 -31071820.43446  22767529.2734                   22767528.1454
        41.2504         37.0004
-106233955.87146 -82710097.56645  24066522.0864                   24066520.5004
        39.7504         33.5004
-134974114.52047-105040527.09445  22427509.7664                   22427503.6294
        45.5004         34.0004
-132871159.18447-102211625.83645  21846889.1024                   21846884.4454
        46.0004         34.7504
-113028799.41048 -87997128.39848  20133890.1954                   20133884.0944
        48.5004         49.2504
-100009664.04347 -77064035.44546  21175510.6414                   21175506.1914
        47.5004         36.5004
 25  7 16  0 21  0.0000000  0 10G16G10G03G04G26G32G02G28G31G01
   9997659.90646   5659300.81642  24877523.7194                   24877522.1804
        38.5004         16.2504
-101499846.19146 -79029369.67244  24865358.2504                   24865358.5784
        38.5004         27.2504
 -69845503.14547 -55280178.04747  21019536.0634                   21019533.5514
        47.2504         47.0004
 -45371676.92247 -35206970.93044  22701803.9144                   22701800.8874
        43.5004         28.7504
 -40321847.85946 -31337105.79346  22702744.0634                   22702742.8914
        41.5004         36.5004
-106426042.22746 -82859775.30545  24029968.7504                   24029967.9304
        40.0004         31.7504
-135166098.32847-105190124.93745  22390976.1334                   22390969.9774
        45.5004         33.2504
-133060782.73847-102359384.46945  21810805.2974                   21810799.9694
        46.5004         34.2504
-113272908.99648 -88187343.65648  20087437.8284                   20087431.8524
        48.0004         49.2504
-100248781.58247 -77250360.82446  21130008.1334                   21130003.8984
        46.7504         36.5004
 25  7 16  0 21 30.0000000  0 10G16G10G03G04G26G32G02G28G31G01
   9636356.74646   5377766.08643  24808769.6414                   24808768.9774
        37.7504         19.7504
-101666224.75046 -79159015.45744  24833697.2664                   24833698.3444
        38.5004         25.5004
 -70175495.02347 -55537314.55547  20956740.9064                   20956738.0084
        47.5004         47.2504
 -45695564.66847 -35459350.94544  22640170.1254                   22640166.8984
        43.0004         29.2504
 -40661991.31646 -31602152.60246  22638017.0784                   22638015.7114
        41.2504         36.5004
-106618082.68446 -83009417.27745  23993425.4534                   23993423.4024
        40.5004         32.5004
-135357747.74647-105339462.20345  22354506.7504                   22354500.1134
        45.5004         33.2504
-133250023.10247-102506844.51245  21774794.1954                   21774788.8794
        46.0004         34.7504
-113516395.08647 -88377073.07048  20041103.6024                   20041097.4774
        47.7504         49.2504
-100487298.30547 -77436218.03946  21084620.1484                   21084615.9184
        47.0004         36.0004
 25  7 16  0 22  0.0000000  0 10G16G10G03G04G26G32G02G28G31G01
  10850372.07046   6323752.25443  25039789.8914                   25039788.3054
        37.0004         18.5004
-100256972.70746 -78060897.09444  25101869.3984                   25101870.2974
        38.2504         25.2504
 -68929761.70747 -54566613.25447  21193796.0474                   21193793.2544
        46.0004         47.5004
 -44443864.60547 -34484000.19945  22878360.7664                   22878357.6524
        42.5004         30.2504
 -39426396.84047 -30639351.66046  22873142.6024                   22873141.6914
        42.5004         36.5004
-105234653.61346 -81931420.66845  24256683.6254                   24256681.6294
        39.5004         33.7504
-133973641.67647-104260938.05945  22617893.6334                   22617886.7344
        45.5004         32.5004
-131863459.21147-101426405.14145  22038648.2194                   22038643.3164
        45.7504         35.0004
-112183833.93447 -87338713.73048  20294681.7344                   20294675.8594
        47.7504         49.5004
 -99149790.16047 -76394003.92646  21339139.4774                   21339134.4574
        46.0004         36.5004
 25  7 16  0 22 30.0000000  0 10G16G10G03G04G26G32G02G28G31G01
  10488848.03546   6042045.39143  24970993.3594                   24970991.8794
        36.5004         18.2504
-100422938.70746 -78190221.32043  25070287.2664                   25070288.0234
        38.0004         22.7504
 -69259159.43447 -54823286.78947  21131113.9304                   21131110.5124
        46.5004         47.5004
 -44767435.02047 -34736132.95744  22816786.6334                   22816784.2974
        42.5004         29.5004
 -39765920.36347 -30903915.39846  22808533.6094                   22808532.4614
        42.2504         37.5004
-105426604.41047 -82080992.77345  24220156.7424                   24220154.7734
        42.2504         34.5004
-134164631.68747-104409761.51245  22581549.4774                   22581543.0864
        45.5004         32.7504
-132051942.68447-101573275.39845  22002781.0084                   22002776.3014
        45.2504         34.7504
-112426079.37148 -87527476.41048  20248583.7894                   20248577.8834
        48.0004         49.2504
 -99387110.59447 -76578928.96946  21293978.7424                   21293974.2074
        46.2504         36.2504
 25  7 16  0 23  0.0000000  0 10G16G10G03G04G26G32G02G28G31G01
  10127215.18045   5760253.75442  24902176.5234                   24902175.5164
        33.2504         17.2504
-100588702.04745 -78319387.66843  25038742.6334                   25038744.4304
        35.5004         21.2504
 -69588258.58247 -55079727.66447  21068488.6094                   21068485.2344
        47.0004         47.5004
 -45090848.83647 -34988143.68044  22755243.3444                   22755240.5514
        42.0004         29.0004
 -40105130.98047 -31168235.32846  22743984.1024                   22743982.6094
        42.0004         37.2504
-105618512.26646 -82230531.41445  24183638.1094                   24183636.0234
        40.0004         34.7504
-134355297.80147-104558332.55545  22545266.6954                   22545260.4264
        44.5004         32.2504
-132240053.37147-101719855.17245  21966984.7034                   21966979.7424
        45.5004         35.2504
-112667708.07847 -87715758.51648  20202603.9774                   20202597.6804
        47.5004         49.2504
 -99623836.40647 -76763390.66046  21248931.5004                   21248926.4964
        46.2504         36.5004
 25  7 16  0 23 30.0000000  0 10G16G10G03G04G26G32G02G28G31G01
   9765474.61345   5478378.17242  24833339.9924                   24833338.6414
        32.7504         17.2504
-100754266.10545 -78448398.66443  25007237.8054                   25007238.2034
        35.7504         19.7504
 -69917059.15647 -55335935.88347  21005919.3834                   21005917.0164
        47.2504         47.7504
 -45414108.56247 -35240034.31244  22693729.1804                   22693726.2664
        42.5004         29.0004
 -40444027.71147 -31432310.66846  22679494.0004                   22679492.4344
        42.0004         37.5004
-105810379.52046 -82380038.41445  24147127.2584                   24147125.2504
        41.7504         34.0004
-134545644.85947-104706655.00045  22509044.9454                   22509038.7734
        46.0004         32.7504
-132427796.03547-101866148.18045  21931258.4534                   21931253.4494
        46.0004         35.2504
-112908723.88748 -87903563.04748  20156740.0084                   20156733.6564
        48.0004         49.0004
 -99859971.09447 -76947391.74646  21203996.3364                   21203992.0124
        47.5004         36.2504
 25  7 16  0 24  0.0000000  0 10G16G10G03G04G26G32G02G28G31G01
   9403626.58245   5196418.92642  24764482.0004                   24764480.8594
        32.5004         16.7504
-100919634.44945 -78577257.18743  24975769.3134                   24975770.2074
        34.5004         21.2504
 -70245561.08647 -55591911.39147  20943407.7894                   20943404.5234
        46.5004         47.5004
 -45737216.50447 -35491806.69944  22632243.9924                   22632240.4184
        42.0004         28.5004
 -40782609.63347 -31696140.69546  22615063.8834                   22615062.7624
        43.0004         37.5004
-106002208.43446 -82529515.53945  24110622.5474                   24110621.2114
        40.7504         33.2504
-134735677.44147-104854732.40645  22472882.9614                   22472876.5164
        45.2504         32.5004
-132615175.38747-102012158.08245  21895601.5314                   21895596.2194
        46.0004         34.7504
-113149130.40248 -88090892.80148  20110992.0864                   20110986.0554
        48.0004         49.0004
-100095518.03547 -77130934.84446  21159173.3134                   21159168.8674
        46.5004         36.2504
 25  7 16  0 24 30.0000000  0 10G16G10G03G04G26G32G02G28G31G01
   9041678.10545   4914381.37543  24695605.8834                   24695604.8324
        34.5004         18.2504
-101084804.37545 -78705961.10943  24944338.6724                   24944338.8794
        32.7504         21.7504
 -70573758.26647 -55847649.43447  20880953.5164                   20880950.8284
        46.5004         47.5004
 -46060168.98047 -35743457.94144  22570787.6094                   22570784.8554
        42.0004         28.5004
 -41120869.60947 -31959719.84046  22550695.1414                   22550694.2304
        43.0004         38.0004
-106193995.15246 -82678959.80945  24074127.0004                   24074125.1454
        41.5004         33.2504
-134925394.40247-105002563.86745  22436781.3834                   22436774.7114
        45.2504         32.7504
-132802190.08247-102157883.85545  21860013.6884                   21860008.6484
        46.0004         35.0004
-113388925.08647 -88277745.80548  20065360.8204                   20065354.6524
        47.7504         49.0004
-100330474.53147 -77314017.86346  21114462.7114                   21114458.1644
        47.0004         36.2504
 25  7 16  0 25  0.0000000  0 10G16G10G03G04G26G32G02G28G31G01
  10255060.96545   5859874.73443  24926503.4924                   24926503.1804
        35.0004         19.2504
 -99674353.85944 -77606908.86743  25212735.9774                   25212738.8284
        26.2504         18.2504
 -69326219.65247 -54875541.39847  21118352.6644                   21118349.2704
        47.2504         47.5004
 -44807537.58247 -34767381.49244  22809155.5864                   22809152.6644
        42.5004         29.0004
 -39883375.39547 -30995438.59846  22786182.2274                   22786181.2194
        42.0004         37.7504
-104810315.52047 -81600767.93445  24337433.1414                   24337431.1954
        43.5004         34.7504
-133539374.34047-103922548.30145  22700531.8524                   22700525.7154
        46.0004         33.0004
-131413418.64547-101075724.30945  22124288.2734                   22124283.5904
        46.2504         35.5004
-112052683.66847 -87236518.72748  20319638.8444                   20319632.8834
        47.5004         49.0004
 -98989416.28947 -76269037.43746  21369657.7274                   21369652.8794
        46.5004         36.2504
 25  7 16  0 25 30.0000000  0 10G16G10G03G04G26G32G02G28G31G01
   9892914.52345   5577682.90643  24857589.7114                   24857588.5704
        34.2504         20.0004
 -99839134.96955 -77735309.94553  25181382.5004                   25181382.7734
        31.5004         18.5004
 -69653804.87547 -55130802.59047  21056015.2974                   21056012.0784
        47.5004         47.5004
 -45130183.96947 -35018794.21944  22747758.1334                   22747754.8324
        42.5004         28.5004
 -40220986.31647 -31258511.99246  22721936.9614                   22721936.0004
        42.5004         37.0004
-105002022.28947 -81750149.87145  24300952.0004                   24300949.9384
        42.0004         35.5004
-133728472.16847-104069897.32845  22664547.8054                   22664541.5084
        45.0004         33.2504
-131599716.00847-101220891.10245  22088836.8284                   22088832.4264
        46.0004         34.5004
-112291263.48047 -87422425.07848  20274238.3754                   20274232.5824
        47.7504         49.0004
 -99223200.12947 -76451206.68746  21325169.9774                   21325165.2544
        46.0004         36.2504
 25  7 16  0 26  0.0000000  0 10G16G10G03G04G26G32G02G28G31G01
   9530669.56645   5295414.30543  24788656.2894                   24788655.2584
        35.0004         19.0004
-100003727.55145 -77863563.98443  25150061.4384                   25150061.9654
        31.5004         21.5004
 -69981084.47747 -55385825.64147  20993735.9384                   20993733.0124
        47.5004         47.5004
 -45452681.25847 -35270090.77044  22686389.0084                   22686385.8054
        43.0004         29.0004
 -40558271.76646 -31521331.78146  22657753.5554                   22657752.5594
        41.7504         37.5004
-105193692.86347 -81899503.62145  24264478.6414                   24264476.8554
        42.7504         35.5004
-133917268.00847-104217011.02745  22628621.7894                   22628615.1024
        45.2504         33.5004
-131785662.25047-101365784.31245  22053452.6414                   22053447.7034
        46.2504         35.2504
-112529241.74248 -87607862.69148  20228952.8984                   20228947.1214
        48.2504         49.0004
 -99456403.30547 -76632923.47346  21280792.9614                   21280788.6954
        46.5004         36.2504
 25  7 16  0 26 30.0000000  0  9G16G03G04G26G32G02G28G31G01
   9168333.26645   5013074.55543  24719705.3754                   24719704.9534
        35.0004         18.2504
 -70308051.65248 -55640605.23847  20931516.4454                   20931513.4104
        48.5004         47.7504
 -45775025.16447 -35521267.78944  22625048.6644                   22625045.6484
        42.5004         29.0004
 -40895223.93747 -31783891.87946  22593633.5314                   22593632.7814
        42.2504         37.5004
-105385322.71947 -82048825.63746  24228012.1884                   24228011.1994
        43.5004         36.5004
-134105760.00047-104363887.98045  22592752.6804                   22592746.4344
        45.5004         33.0004
-131971255.35247-101510402.33645  22018135.4384                   22018130.5824
        46.5004         35.0004
-112766615.56247 -87792829.30548  20183782.0314                   20183775.9494
        47.7504         49.0004
 -99689022.60547 -76814185.29346  21236527.0474                   21236522.3134
        47.5004         36.5004
 25  7 16  0 27  0.0000000  0  9G16G03G04G26G32G02G28G31G01
   8805908.69945   4730666.01242  24650737.6564                   24650738.0944
        32.2504         15.5004
 -70634703.93047 -55895139.46147  20869356.3834                   20869353.0274
        46.5004         47.7504
 -46097215.57447 -35772325.22344  22563738.0864                   22563734.3284
        43.0004         29.0004
 -41231839.50447 -32046189.68746  22529578.3284                   22529576.6804
        42.2504         38.2504
-105576911.68047 -82198115.79746  24191554.4454                   24191553.3324
        43.0004         37.0004
-134293950.44547-104510529.94145  22556941.5234                   22556934.7894
        46.0004         33.5004
-132156497.66447-101654747.02345  21982885.1094                   21982880.4064
        46.5004         35.2504
-113003386.18748 -87977325.89548  20138725.7814                   20138720.1604
        48.5004         48.7504
 -99921059.16847 -76994993.03146  21192372.0634                   21192367.4614
        47.7504         36.0004
 25  7 16  0 27 30.0000000  0  9G16G03G04G26G32G02G28G31G01
   8443404.66845   4448195.49642  24581756.0474                   24581755.6804
        32.5004         16.7504
 -70961033.07847 -56149421.89547  20807257.5784                   20807254.8874
        47.5004         47.7504
 -46419246.71547 -36023258.54744  22502457.4304                   22502454.1094
        42.5004         29.5004
 -41568109.31246 -32308218.07046  22465587.9924                   22465586.7114
        41.2504         38.0004
-105768453.77047 -82347369.46945  24155105.1804                   24155104.0124
        42.2504         35.5004
-134481836.01247-104656934.35545  22521187.7734                   22521181.8554
        45.2504         32.7504
-132341385.71147-101798815.65645  21947701.9844                   21947697.1914
        46.5004         34.2504
-113239549.24647 -88161349.05948  20093786.1414                   20093779.8204
        47.2504         48.7504
-100152508.38747 -77175343.10246  21148328.2894                   21148324.0594
        47.0004         36.0004
 25  7 16  0 28  0.0000000  0  9G16G03G04G26G32G02G28G31G01
   9656261.66045   5393279.17242  24812555.3834                   24812554.9144
        32.7504         15.5004
 -69711600.18447 -55175837.79747  21045016.7114                   21045013.9344
        47.5004         47.7504
 -45165682.30147 -35046455.08244  22741002.3524                   22740999.3014
        42.5004         28.5004
 -40328593.27047 -31342361.35946  22701460.1644                   22701458.7814
        42.0004         38.5004
-104384516.84047 -81268977.12546  24418459.9064                   24418458.4304
        42.2504         36.2504
-133093987.23047-103575493.81645  22785286.4064                   22785280.8554
        44.5004         32.5004
-130950490.14547-100715000.94945  22212380.5704                   22212375.7894
        45.2504         34.5004
-111899672.77347 -87117289.47348  20348755.8134                   20348749.5824
        47.7504         48.7504
 -98807938.23847 -76127626.13346  21404191.8754                   21404187.3594
        47.7504         36.0004
 25  7 16  0 28 30.0000000  0  9G16G03G04G26G32G02G28G31G01
   9293615.98445   5110698.30942  24743546.8674                   24743545.2774
        34.5004         16.7504
 -70037267.11747 -55429604.22348  20983044.4534                   20983041.4884
        47.0004         48.0004
 -45487386.27747 -35297133.47344  22679784.5164                   22679781.6724
        43.0004         29.2504
 -40664153.03147 -31603836.44546  22637605.4144                   22637604.3134
        42.0004         38.2504
-104575956.06646 -81418150.62545  24382030.2114                   24382028.5314
        41.7504         35.7504
-133281261.84047-103721422.15645  22749648.9924                   22749643.8524
        45.7504         33.2504
-131134668.21147-100858516.34845  22177332.9304                   22177327.9384
        46.2504         34.7504
-112134616.52047 -87300362.52348  20304047.6724                   20304041.5704
        47.2504         48.5004
 -99038207.84447 -76307057.02746  21360373.2344                   21360368.8674
        47.0004         36.2504
 25  7 16  0 29  0.0000000  0  9G16G03G04G26G32G02G28G31G01
   8930902.03145   4828064.26643  24674523.7504                   24674522.7344
        34.0004         19.2504
 -70362601.37148 -55683111.41448  20921135.3754                   20921132.7234
        48.0004         48.0004
 -45808928.74647 -35547686.00844  22618597.0394                   22618593.7194
        42.0004         29.5004
 -40999354.90646 -31865032.65646  22573818.3134                   22573817.3984
        41.7504         38.5004
-104767345.67647 -81567285.45345  24345610.1954                   24345608.9344
        42.5004         35.5004
-133468236.80147-103867117.00045  22714069.2974                   22714063.8054
        43.5004         33.5004
-131318496.90647-101001759.50445  22142351.5084                   22142346.5784
        45.2504         34.7504
-112368954.60247 -87482963.62548  20259454.7344                   20259448.5434
        46.5004         48.7504
 -99267891.63747 -76486031.43746  21316665.8284                   21316660.9734
        46.2504         36.0004
 25  7 16  0 29 30.0000000  0  9G16G03G04G26G32G02G28G31G01
   8568118.29345   4545375.89542  24605487.8834                   24605487.0314
        34.7504         17.2504
 -70687605.16047 -55936361.10248  20859289.2114                   20859286.2234
        46.5004         48.0004
 -46130314.36347 -35798116.31644  22557439.1954                   22557435.8524
        42.5004         28.7504
 -41334200.15647 -32125950.98046  22510099.4534                   22510098.3404
        42.2504         38.2504
-104958690.18447 -81716385.13345  24309198.4384                   24309196.7974
        42.2504         35.7504
-133654918.79347-104012583.55945  22678544.8054                   22678539.0434
        43.0004         33.5004
-131501983.34047-101144735.96945  22107435.1884                   22107430.3984
        44.2504         34.0004
-112602693.09047 -87665097.51648  20214975.5784                   20214969.5354
        46.5004         48.7504
 -99496995.60247 -76664554.03945  21273068.6484                   21273063.7074
        47.5004         35.7504
 25  7 16  0 30  0.0000000  0  9G16G03G04G26G32G02G28G31G01
   8205265.56345   4262633.67642  24536439.3364                   24536438.1094
        33.7504         16.7504
 -71012278.04747 -56189352.93748  20797505.9614                   20797503.3404
        47.2504         48.2504
 -46451545.17246 -36048426.01644  22496311.1954                   22496308.3634
        41.5004         29.0004
 -41668687.61747 -32386590.52046  22446448.5864                   22446446.7544
        42.7504         39.0004
-105149991.45347 -81865451.11745  24272795.0004                   24272793.7234
        42.0004         35.5004
-133841312.95747-104157825.83645  22643075.8754                   22643069.6094
        43.5004         32.7504
-131685131.84447-101287449.10945  22072583.1484                   22072577.8094
        44.5004         34.0004
-112835835.84047 -87846767.19548  20170610.0234                   20170603.8874
        47.5004         48.5004
 -99725523.07447 -76842627.41845  21229581.5314                   21229576.8244
        46.7504         35.5004
 25  7 16  0 30 30.0000000  0  9G16G03G04G26G32G02G28G31G01
   7842350.19545   3979842.73842  24467379.4304                   24467376.9384
        34.0004         17.7504
 -71336614.16847 -56442082.36348  20735787.0554                   20735784.2584
        47.2504         48.2504
 -46772617.66847 -36298612.34444  22435212.7194                   22435209.7114
        42.5004         29.7504
 -42002810.49247 -32646945.94946  22382867.4774                   22382865.6484
        42.7504         38.7504
-105341245.75846 -82014480.53145  24236400.2974                   24236398.8014
        40.5004         34.0004
-134027418.08647-104302842.89145  22607660.7734                   22607655.4614
        44.5004         32.2504
-131867941.29347-101429898.05145  22037795.5084                   22037790.5554
        45.7504         34.7504
-113068380.82847 -88027971.09048  20126358.3444                   20126352.1174
        46.5004         48.5004
 -99953471.86347 -77020249.89145  21186204.0554                   21186199.7814
        46.2504         35.5004
 25  7 16  0 31  0.0000000  0  9G16G03G04G26G32G02G28G31G01
   9054801.11345   4924609.91842  24698100.1254                   24698098.7074
        34.5004         16.7504
 -70085186.42647 -55466943.84448  20973925.6724                   20973922.9184
        46.5004         48.2504
 -45518107.32047 -35321071.78545  22673938.5004                   22673935.2234
        43.5004         30.0004
 -40761140.57847 -31679410.91046  22619149.0164                   22619147.5784
        42.5004         39.0004
-103957032.72346 -80935873.07445  24499807.4534                   24499806.1174
        39.7504         33.5004
-132637816.84447-103220036.80145  22872093.4224                   22872087.5204
        44.7504         33.5004
-130474994.20347-100344484.76245  22302864.8444                   22302860.2814
        45.5004         33.5004
-111724907.81647 -86981109.00448  20382012.6414                   20382006.4494
        46.7504         48.5004
 -98605421.98047 -75969821.43745  21442729.5314                   21442725.3094
        46.5004         35.5004
 25  7 16  0 31 30.0000000  0  9G16G03G04G26G32G02G28G31G01
   8691755.39146   4641717.32842  24629015.3444                   24629013.2774
        36.0004         17.2504
 -70408856.10247 -55719153.96148  20912333.6334                   20912330.5784
        47.5004         48.5004
 -45838877.69947 -35571022.70745  22612897.5944                   22612894.9104
        43.5004         30.5004
 -41094538.96547 -31939201.82446  22555705.1564                   22555703.8674
        42.5004         38.7504
-104148207.05946 -81084840.18745  24463428.8594                   24463426.9694
        38.5004         32.7504
-132823366.07847-103364620.69545  22836784.5004                   22836778.6684
        45.0004         32.0004
-130657147.28947-100486422.25045  22268201.8524                   22268196.9804
        45.7504         34.2504
-111956276.17647 -87161396.03948  20337984.6254                   20337978.7384
        47.0004         48.5004
 -98832232.12547 -76146556.64545  21399568.7974                   21399564.5824
        47.0004         35.5004
 25  7 16  0 32  0.0000000  0  9G16G03G04G26G32G02G28G31G01
   8328646.26646   4358775.39143  24559917.3364                   24559915.7154
        36.7504         18.2504
 -70732191.44547 -55971103.56248  20850804.7974                   20850802.1294
        46.5004         48.5004
 -46159499.56247 -35820857.89844  22551885.6564                   22551881.9454
        43.5004         29.0004
 -41427572.76647 -32198708.64546  22492330.9304                   22492329.9494
        42.7504         38.5004
-104339343.64546 -81233777.89545  24427056.0704                   24427054.9264
        38.0004         31.7504
-133008643.62147-103508992.89145  22801527.2504                   22801521.9064
        44.7504         32.0004
-130838978.25447-100628108.74245  22233600.8134                   22233596.1994
        45.2504         33.5004
-112187061.04747 -87341228.41048  20294067.8594                   20294061.6724
        46.0004         48.5004
 -99058477.58647 -76322851.84045  21356516.0164                   21356511.6644
        46.7504         35.2504
 25  7 16  0 32 30.0000000  0  9G16G03G04G26G32G02G28G31G01
   7965478.58246   4075787.77342  24490808.3914                   24490807.0234
        36.7504         17.2504
 -71055188.37947 -56222789.47348  20789341.0314                   20789337.5004
        47.7504         48.5004
 -46479971.23447 -36070576.05144  22490901.6644                   22490898.2584
        43.2504         29.2504
 -41760237.05547 -32457927.52746  22429026.9774                   22429025.7504
        43.0004         39.0004
-104530440.71146 -81382684.80945  24390691.1484                   24390690.6454
        39.0004         32.2504
-133193650.28947-103653153.99245  22766321.7664                   22766316.0004
        45.2504         32.2504
-131020487.86347-100769544.82445  22199060.7584                   22199056.0204
        44.7504         34.0004
-112417262.27347 -87520605.99648  20250261.7584                   20250255.7424
        47.0004         48.5004
 -99284158.20347 -76498706.89845  21313570.4224                   21313565.9384
        46.5004         35.5004
 25  7 16  0 33  0.0000000  0  9G16G03G04G26G32G02G28G31G01
   7602254.30946   3792756.01243  24421689.0944                   24421687.4844
        37.5004         19.5004
 -71377845.38347 -56474210.49648  20727940.8834                   20727938.0634
        47.0004         48.7504
 -46800293.65647 -36320177.90244  22429946.0864                   22429943.0004
        43.2504         29.7504
 -42092529.54347 -32716856.70346  22365793.7584                   22365792.9414
        42.0004         39.5004
-104721498.93246 -81531561.45045  24354335.0314                   24354333.3594
        39.5004         32.2504
-133378389.38347-103797106.60545  22731167.1414                   22731161.2274
        44.5004         31.7504
-131201679.41847-100910733.07845  22164581.1804                   22164576.4964
        44.5004         33.2504
-112646882.73047 -87699531.03548  20206566.6644                   20206560.5824
        46.5004         48.5004
 -99509276.32847 -76674123.64845  21270731.7814                   21270727.3984
        47.7504         35.0004
 25  7 16  0 33 30.0000000  0  9G16G03G04G26G32G02G28G31G01
   7238978.52346   3509684.14543  24352559.4384                   24352557.7664
        37.7504         19.0004
 -71700158.35547 -56725363.44548  20666606.8054                   20666603.8954
        47.2504         48.7504
 -47120465.17247 -36569662.16445  22369019.5394                   22369016.4304
        44.0004         30.0004
 -42424445.25447 -32975492.28146  22302632.1484                   22302631.1374
        43.2504         39.5004
-104912516.52346 -81680406.40645  24317985.9844                   24317984.0944
        38.7504         32.0004
-133562862.04347-103940851.60945  22696063.2504                   22696057.3834
        44.2504         32.0004
-131382553.68447-101051674.09045  22130161.8444                   22130156.9344
        45.0004         32.5004
-112875922.37547 -87878003.48448  20162981.6334                   20162975.5554
        47.0004         48.5004
 -99733831.80147 -76849101.96545  21228000.2194                   21227995.4614
        46.2504         35.2504
 25  7 16  0 34  0.0000000  0  9G16G03G04G26G32G02G28G31G01
   8451086.96946   4454184.44143  24583216.7664                   24583215.2504
        39.0004         19.0004
 -70446693.37147 -55748637.47348  20905133.2114                   20905130.4414
        47.0004         48.7504
 -45865054.37547 -35591419.96945  22607916.6334                   22607912.8444
        42.2504         30.2504
 -41180549.21947 -32006222.59846  22539338.3134                   22539336.8404
        43.2504         38.7504
-103528066.03146 -80601613.89545  24581437.7584                   24581436.4064
        38.5004         31.0004
-132171643.85947-102856785.55945  22960803.3364                   22960797.4614
        45.0004         31.7504
-129987686.20347 -99964764.39545  22395596.3674                   22395591.5984
        45.7504         33.5004
-111528954.52047 -86828418.14848  20419301.2584                   20419295.2854
        47.5004         48.5004
 -98382397.91447 -75796036.62945  21485169.6884                   21485165.6724
        47.2504         35.5004
 25  7 16  0 34 30.0000000  0  9G16G03G04G26G32G02G28G31G01
   8087714.87946   4171037.48042  24514068.8984                   24514066.8984
        39.2504         17.7504
 -70768313.03147 -55999250.17648  20843930.7734                   20843927.8714
        47.7504         48.5004
 -46184926.10947 -35840670.62545  22547046.5164                   22547042.7854
        43.0004         30.5004
 -41511703.88347 -32264265.15646  22476321.1954                   22476319.7704
        42.7504         38.5004
-103719003.59846 -80750396.50845  24545103.5084                   24545102.3404
        39.0004         31.0004
-132355593.27347-103000122.83245  22925798.9064                   22925792.9774
        44.7504         31.7504
-130167934.96947-100105218.01245  22361296.0314                   22361291.4344
        45.2504         32.5004
-111756839.46148 -87005990.83248  20375935.9694                   20375930.2774
        48.0004         48.2504
 -98605834.64847 -75970143.20745  21442650.9774                   21442646.9694
        47.2504         35.5004
 25  7 16  0 35  0.0000000  0  9G16G03G04G26G32G02G28G31G01
   7724298.58646   3887856.12143  24444912.3204                   24444910.7194
        38.5004         19.0004
 -71089583.21147 -56249590.55948  20782795.5084                   20782792.3484
        47.0004         48.7504
 -46504648.82047 -36089805.17245  22486206.0164                   22486202.4614
        43.5004         31.5004
 -41842474.02347 -32522008.07846  22413377.4694                   22413376.1214
        42.7504         39.2504
-103909901.65646 -80899148.30944  24508776.5394                   24508775.2584
        39.0004         29.2504
-132539285.57047-103143259.76645  22890843.6644                   22890837.8634
        45.0004         32.0004
-130347875.39147-100245431.34845  22327054.7974                   22327050.0554
        45.5004         33.0004
-111984150.19548 -87183116.07448  20332680.5004                   20332674.6374
        48.0004         48.2504
 -98828715.22347 -76143816.41045  21400238.1174                   21400234.1024
        47.2504         35.5004
 25  7 16  0 35 30.0000000  0  9G16G03G04G26G32G02G28G31G01
   7360842.76246   3604643.92643  24375749.6094                   24375747.0704
        38.5004         18.5004
 -71410499.63747 -56499655.30148  20721727.1024                   20721723.6334
        47.7504         48.7504
 -46824220.65647 -36338822.14145  22425393.3754                   22425389.8554
        43.7504         31.0004
 -42172854.62547 -32779447.47346  22350508.6024                   22350507.0594
        43.2504         39.0004
-104100758.30946 -81047867.81645  24472458.1954                   24472456.6604
        39.2504         30.0004
-132722721.66447-103286197.05145  22855936.9454                   22855931.1054
        45.0004         31.5004
-130527508.06647-100385404.89145  22292871.7194                   22292866.7814
        46.2504         33.5004
-112210886.83647 -87359793.98448  20289533.4534                   20289527.7424
        47.2504         48.5004
 -99051039.37947 -76317056.03945  21357931.4064                   21357927.0984
        46.5004         35.5004
 25  7 16  0 36  0.0000000  0  9G16G03G04G26G32G02G28G31G01
   6997349.58646   3321402.60942  24306579.2894                   24306576.8134
        38.5004         15.5004
 -71731061.05548 -56749443.40648  20660725.9614                   20660722.9734
        48.0004         48.7504
 -47143642.79347 -36587722.46545  22364609.1094                   22364605.3984
        43.2504         30.7504
 -42502843.62547 -33036581.70746  22287713.7814                   22287711.8984
        42.7504         39.0004
-104291574.36746 -81196555.71145  24436146.4454                   24436145.7584
        39.7504         30.2504
-132905904.86747-103428937.28945  22821078.2664                   22821072.3284
        45.5004         31.5004
-130706836.52747-100525141.37945  22258746.8914                   22258742.0474
        46.7504         33.2504
-112437052.21947 -87536026.75448  20246496.0704                   20246490.3754
        47.0004         48.2504
 -99272809.87147 -76489864.24645  21315730.2894                   21315725.8794
        47.5004         35.0004
 25  7 16  0 36 30.0000000  0  9G16G03G04G26G32G02G28G31G01
   6633821.31646   3038134.01242  24237401.6254                   24237400.0164
        38.5004         17.7504
 -72051265.78148 -56998953.56648  20599793.0704                   20599790.6334
        48.0004         48.7504
 -47462915.95747 -36836506.71144  22303853.4304                   22303849.9574
        43.5004         29.7504
 -42832438.64847 -33293408.95746  22224993.4304                   22224992.1454
        44.0004         39.2504
-104482350.40146 -81345212.41545  24399843.6724                   24399842.1914
        40.5004         31.0004
-133088838.82447-103571483.30545  22786267.0634                   22786261.3204
        45.7504         31.0004
-130885863.88347-100664643.24245  22224679.2814                   22224674.2664
        45.7504         33.2504
-112662648.82048 -87711816.32048  20203566.3284                   20203560.4304
        48.5004         48.2504
 -99494029.05547 -76662242.86745  21273633.2894                   21273629.1684
        47.0004         35.2504
 25  7 16  0 37  0.0000000  0  9G16G03G04G26G32G02G28G31G01
   7845693.25046   3982449.92642  24468013.2664                   24468011.1134
        38.0004         17.2504
 -70795680.73447 -56020575.59848  20838722.9844                   20838720.1214
        47.5004         49.0004
 -46206609.51247 -35857566.57845  22542920.4614                   22542917.1134
        42.7504         30.5004
 -41586205.55147 -32322318.19146  22462144.0784                   22462142.7974
        43.5004         39.5004
-103097659.91047 -80266232.84445  24663341.4774                   24663340.3204
        42.2504         32.2504
-131696100.05947-102486232.39845  23051296.5474                   23051290.7774
        45.0004         30.5004
-129489166.55547 -99576307.69145  22490461.4304                   22490456.8134
        45.2504         32.2504
-111312250.96948 -86659558.25448  20460538.3834                   20460532.4534
        48.0004         48.2504
 -98139271.25047 -75606587.46545  21531435.4454                   21531431.1684
        45.7504         35.0004
 25  7 16  0 37 30.0000000  0  9G16G03G04G26G32G02G28G31G01
   7482103.51646   3699133.39842  24398823.9614                   24398821.5394
        37.7504         16.7504
 -71115165.48847 -56269524.74248  20777927.1884                   20777924.4344
        47.5004         49.0004
 -46525585.41047 -36106119.17644  22482221.2734                   22482217.9574
        43.5004         29.7504
 -41915003.77747 -32578524.55546  22399575.4924                   22399574.0704
        43.5004         39.7504
-103288355.99646 -80414827.24245  24627053.5394                   24627051.9574
        41.7504         32.2504
-131878543.93047-102628396.52045  23016578.7344                   23016573.3094
        45.0004         30.5004
-129667599.57447 -99715346.44145  22456506.8914                   22456502.1684
        46.2504         33.0004
-111536715.98847 -86834466.07048  20417824.0394                   20417818.5904
        47.2504         48.2504
 -98359393.50047 -75778111.33245  21489547.2034                   21489543.1994
        46.5004         35.2504
 25  7 16  0 38  0.0000000  0  9G16G03G04G26G32G02G28G31G01
   7118487.04346   3415796.00442  24329630.7344                   24329627.6764
        37.5004         16.2504
 -71434287.52347 -56518191.25448  20717200.2664                   20717197.6764
        47.0004         49.2504
 -46844413.58247 -36354556.67245  22421550.6414                   22421547.1214
        43.7504         30.2504
 -42243399.78547 -32834417.50446  22337084.0004                   22337082.6294
        44.0004         40.0004
-103479012.58246 -80563390.82845  24590772.6024                   24590771.0394
        41.7504         32.5004
-132060747.53147-102770373.43045  22981906.7424                   22981900.8054
        44.5004         30.2504
-129845739.81647 -99854157.04745  22422608.4144                   22422603.4384
        46.0004         32.5004
-111760618.96548 -87008935.93048  20375216.8674                   20375210.9064
        48.2504         48.2504
 -98578970.73047 -75949210.50045  21447763.9064                   21447759.3484
        47.2504         35.2504
 25  7 16  0 38 30.0000000  0  9G16G03G04G26G32G02G28G31G01
   6754844.49646   3132438.32042  24260431.0004                   24260428.8054
        37.0004         16.2504
 -71753046.70347 -56766575.02348  20656542.3364                   20656539.0594
        47.7504         49.0004
 -47163096.36347 -36602880.84045  22360906.9844                   22360903.8284
        42.7504         30.2504
 -42571392.72747 -33089996.39146  22274668.7504                   22274667.7814
        43.5004         40.0004
-103669631.84847 -80711925.37945  24554499.3054                   24554497.9064
        42.0004         33.5004
-132242715.78547-102912166.95345  22947279.6644                   22947273.6414
        44.5004         30.7504
-130023592.06247 -99992743.25045  22388764.0234                   22388759.0394
        45.0004         33.0004
-111983963.78548 -87182970.85948  20332715.9694                   20332709.8134
        48.2504         48.2504
 -98798006.96947 -76119888.12945  21406082.1414                   21406078.1054
        46.5004         35.5004
 25  7 16  0 39  0.0000000  0  9G16G03G04G26G32G02G28G31G01
   6391177.94146   2849061.95342  24191227.6954                   24191225.4264
        36.5004         17.2504
 -72071441.63348 -57014674.95348  20595953.7504                   20595950.7664
        48.0004         49.0004
 -47481634.72347 -36851092.52045  22300290.8914                   22300287.5944
        42.5004         31.2504
 -42898980.47347 -33345259.52746  22212331.1884                   22212329.2894
        44.5004         39.7504
-103860214.54347 -80860431.41045  24518232.2974                   24518230.9414
        42.2504         31.5004
-132424452.13347-103053779.76645  22912696.3914                   22912690.2704
        45.2504         30.0004
-130201159.69547-100131107.67645  22354974.2504                   22354969.2114
        46.0004         32.7504
-112206753.43048 -87356573.19148  20290320.5314                   20290314.4184
        48.2504         48.0004
 -99016504.93047 -76290146.32045  21364503.1644                   21364498.9844
        46.5004         35.2504
 25  7 16  0 39 30.0000000  0  9G16G03G04G26G32G02G28G31G01
   6027492.25046   2565670.64842  24122020.1484                   24122018.3204
        36.5004         17.2504
 -72389468.04747 -57262487.72748  20535435.3444                   20535432.2304
        47.0004         49.2504
 -47800026.81247 -37099190.20744  22239702.6724                   22239699.4264
        42.7504         29.5004
 -43226158.10947 -33600203.10946  22150070.8984                   22150069.5084
        44.0004         39.5004
-104050758.57847 -81008907.32445  24481973.2814                   24481971.6484
        42.7504         31.5004
-132605957.33247-103195212.49245  22878157.1484                   22878151.6334
        44.0004         30.2504
-130378443.21147-100269250.71145  22321238.3444                   22321233.5744
        46.0004         33.2504
-112428987.69148 -87529742.75448  20248031.0234                   20248025.0084
        48.0004         48.0004
 -99234464.54747 -76459985.01245  21323027.4924                   21323022.8794
        47.0004         35.5004
 25  7 16  0 40  0.0000000  0  9G16G03G04G26G32G02G28G31G01
   7239228.59046   3509880.90643  24352605.5864                   24352603.4884
        37.2504         19.2504
 -71131687.41848 -56282398.90648  20774782.9774                   20774780.2624
        48.5004         49.2504
 -46542836.49247 -36119561.34044  22478938.1254                   22478934.5824
        43.0004         29.5004
 -41977486.06247 -32627211.87146  22387685.6024                   22387683.9844
        44.0004         39.5004
-102665831.84047 -79929743.66045  24745516.1484                   24745513.9574
        42.5004         31.0004
-131211802.43447-102108858.11345  23143455.8204                   23143450.4144
        44.0004         31.0004
-128980013.53147 -99179565.28545  22587350.2814                   22587345.7074
        45.7504         33.0004
-111075235.84848 -86474871.18748  20505640.8284                   20505635.1214
        48.2504         48.0004
 -97876454.73847 -75401795.59045  21581448.1954                   21581443.6024
        47.5004         35.5004
 25  7 16  0 40 30.0000000  0  9G16G03G04G26G32G02G28G31G01
   6875520.49246   3226472.16043  24283394.3364                   24283392.3674
        36.7504         20.0004
 -71448963.93048 -56529627.34448  20714407.3284                   20714404.1994
        48.0004         49.2504
 -46860930.41847 -36367426.68744  22418407.5394                   22418403.3484
        43.5004         29.7504
 -42303828.48447 -32881504.63346  22325585.0084                   22325583.2624
        44.5004         40.0004
-102856292.20347 -80078154.37945  24709272.6644                   24709270.8134
        42.2504         31.2504
-131392847.92647-102249932.62145  23109004.3134                   23108998.4844
        43.0004         30.0004
-129156730.31647 -99317266.71145  22553722.4384                   22553717.8324
        45.5004         32.5004
-111296360.28948 -86647175.95748  20463562.3754                   20463556.8054
        48.7504         48.0004
 -98093337.39148 -75570795.09445  21540176.5004                   21540171.9884
        48.0004         35.5004
 25  7 16  0 41  0.0000000  0  9G16G03G04G26G32G02G28G31G01
   6511801.69146   2943055.04743  24214181.5234                   24214178.4774
        36.5004         19.7504
 -71765866.09048 -56776564.07448  20654102.8674                   20654099.9304
        48.0004         49.5004
 -47178879.43447 -36615179.10944  22357903.3284                   22357899.4804
        43.0004         29.5004
 -42629752.89547 -33135471.66846  22263563.2894                   22263561.4534
        44.2504         39.5004
-103046714.66447 -80226535.56245  24673036.0944                   24673034.9574
        42.5004         31.5004
-131573671.14147-102390833.92245  23074594.7664                   23074588.9614
        43.5004         30.7504
-129333171.47747 -99454753.35245  22520146.7194                   22520142.3134
        45.7504         32.7504
-111516936.60948 -86819053.62148  20421588.4534                   20421582.0594
        49.0004         48.0004
 -98309688.53947 -75739380.44545  21499006.1254                   21499001.7774
        47.2504         35.7504
 25  7 16  0 41 30.0000000  0  9G16G03G04G26G32G02G28G31G01
   6148079.85946   2659635.60243  24144966.6254                   24144964.0394
        37.0004         19.7504
 -72082386.80548 -57023203.57848  20593870.8524                   20593867.9414
        48.7504         49.5004
 -47496678.89847 -36862815.00045  22297427.8914                   22297424.7464
        43.5004         30.2504
 -42955251.53147 -33389106.93046  22201623.0394                   22201621.3954
        43.2504         39.5004
-103237094.18046 -80374883.28145  24636807.9774                   24636806.8444
        41.5004         32.5004
-131754270.66047-102531560.91045  23040227.6094                   23040222.6054
        44.2504         30.7504
-129509334.73847 -99592023.46545  22486624.2194                   22486619.1254
        45.2504         33.0004
-111736962.07447 -86990502.03148  20379718.7734                   20379712.9264
        47.7504         48.0004
 -98525505.28147 -75907549.37145  21457937.6954                   21457933.2814
        46.5004         35.5004
 25  7 16  0 42  0.0000000  0  9G16G03G04G26G32G02G28G31G01
   5784353.90645   2376212.96543  24075752.5314                   24075749.8634
        35.7504         19.0004
 -72398528.10948 -57269547.44148  20533711.4454                   20533708.6254
        48.0004         49.7504
 -47814333.20346 -37110337.77044  22236980.3914                   22236977.0164
        41.5004         29.5004
 -43280325.75847 -33642411.48046  22139763.3984                   22139761.5744
        44.5004         40.0004
-103427434.99247 -80523200.87145  24600587.5164                   24600586.7384
        42.0004         33.5004
-131934653.25047-102672118.86345  23005902.0474                   23005896.7274
        44.0004         30.7504
-129685226.85247 -99729082.29745  22453153.1884                   22453148.5354
        45.2504         33.2504
-111956442.86748 -87161526.03548  20337953.0634                   20337946.8094
        48.2504         48.0004
 -98740793.92247 -76075306.78945  21416969.7504                   21416965.2384
        47.0004         35.0004
 25  7 16  0 42 30.0000000  0  9G16G03G04G26G32G02G28G31G01
   5420625.42246   2092788.29743  24006537.3444                   24006534.5394
        36.5004         19.2504
 -72714289.17648 -57515595.01248  20473623.8134                   20473620.7704
        48.5004         49.7504
 -48131843.94547 -37357748.69145  22176559.8134                   22176556.2344
        42.7504         31.0004
 -43604974.15247 -33895384.21146  22077984.2814                   22077983.1684
        43.7504         40.0004
-103617738.39147 -80671489.30545  24564374.4534                   24564372.6994
        42.5004         32.5004
-132114823.19947-102812511.11345  22971617.1024                   22971611.5514
        43.0004         30.2504
-129860851.85247 -99865932.98445  22419732.7664                   22419727.7424
        44.5004         32.2504
-112175382.76248 -87332128.55548  20296290.2974                   20296284.0704
        48.7504         48.0004
 -98955557.95347 -76242655.42645  21376101.6884                   21376097.0984
        47.0004         35.0004
 25  7 16  0 43  0.0000000  0  9G16G03G04G26G32G02G28G31G01
   6632331.87546   3036975.30543  24237117.0784                   24237114.0704
        37.5004         19.2504
 -71454235.07047 -56533734.65248  20713404.3594                   20713401.3094
        47.5004         50.0004
 -46873778.47746 -36377437.89144  22415961.2424                   22415958.3244
        41.0004         29.7504
 -42353760.80147 -32920412.73446  22316082.9614                   22316081.1024
        43.7504         40.0004
-102232575.85546 -79592141.90245  24827961.8674                   24827960.9414
        41.2504         33.5004
-130719355.10947-101725133.48845  23237166.2814                   23237160.6134
        43.7504         30.7504
-128460784.13347 -98774971.15245  22686156.7664                   22686152.3404
        44.7504         32.5004
-110818354.09848 -86274703.62547  20554524.0554                   20554518.1024
        48.2504         47.7504
 -97594370.07447 -75181989.58645  21635126.9304                   21635122.4614
        47.2504         35.5004
 25  7 16  0 43 30.0000000  0  9G16G03G04G26G32G02G28G31G01
   6268609.39546   2753555.30543  24167902.5474                   24167900.1484
        37.5004         19.2504
 -71769227.42248 -56779183.22748  20653463.0784                   20653460.3204
        48.7504         50.0004
 -47191000.98447 -36624624.21944  22355596.7504                   22355592.7424
        43.0004         29.5004
 -42677547.30947 -33172713.87146  22254468.3674                   22254466.5554
        43.5004         40.0004
-102422802.69547 -79740370.69545  24791762.7114                   24791762.0474
        42.0004         33.7504
-130899106.50047-101865199.59845  23202961.0004                   23202955.5984
        43.5004         30.7504
-128635880.76247 -98911410.12545  22652836.5944                   22652832.5314
        44.2504         33.2504
-111036217.00848 -86444466.93447  20513066.0864                   20513060.0274
        48.5004         47.7504
 -97808089.53947 -75348524.26645  21594457.3754                   21594453.3954
        47.5004         35.0004
 25  7 16  0 44  0.0000000  0  9G16G03G04G26G32G02G28G31G01
   5904895.28546   2470141.89143  24098690.6724                   24098687.3594
        38.0004         20.5004
 -72083831.16047 -57024328.98448  20593596.0554                   20593592.9884
        47.5004         50.2504
 -47508078.63746 -36871697.67645  22295258.4304                   22295254.6684
        41.5004         30.5004
 -43000897.69547 -33424675.18046  22192936.6254                   22192934.9104
        44.0004         39.5004
-102612990.21946 -79888568.80945  24755571.7504                   24755570.9144
        40.5004         33.5004
-131078651.68747-102005105.02745  23168794.6484                   23168788.6724
        44.2504         31.2504
-128810716.05947 -99047645.44945  22619566.9384                   22619562.5204
        44.5004         32.2504
-111253543.63348 -86613812.35547  20471710.5784                   20471704.2774
        48.7504         47.7504
 -98021288.91847 -75514653.68745  21553886.9694                   21553882.9104
        47.0004         35.7504
 25  7 16  0 44 30.0000000  0  9G16G03G04G26G32G02G28G31G01
   5541196.30146   2186740.18043  24029480.8834                   24029477.3594
        37.5004         22.0004
 -72398040.37148 -57269167.32448  20533803.9064                   20533801.3524
        48.7504         50.0004
 -47825007.95347 -37118655.53545  22234948.7034                   22234945.2384
        43.7504         30.2504
 -43323805.44947 -33676291.57446  22131489.0634                   22131487.6844
        43.5004         40.2504
-102803134.61346 -80036733.34845  24719388.0944                   24719387.4964
        39.2504         33.2504
-131257989.91047-102144849.17645  23134667.7194                   23134662.4494
        44.5004         31.0004
-128985288.91847 -99183676.28945  22586346.6954                   22586342.4494
        44.0004         33.0004
-111470332.46548 -86782738.72747  20430456.7814                   20430450.6054
        48.5004         47.7504
 -98233966.71547 -75680376.68445  21513415.9774                   21513411.5984
        47.5004         34.5004
 25  7 16  0 45  0.0000000  0  9G16G03G04G26G32G02G28G31G01
   5177513.12146   1903350.83243  23960273.0234                   23960270.5554
        37.5004         20.5004
 -72711855.42248 -57513698.52048  20474087.3754                   20474083.9924
        49.2504         50.5004
 -48141791.62147 -37365499.91445  22174667.1484                   22174663.4844
        42.5004         30.0004
 -43646270.27747 -33927562.82446  22070125.6024                   22070124.6724
        43.2504         40.2504
-102993238.39846 -80184866.22745  24683213.1414                   24683211.7854
        38.7504         32.2504
-131437126.57447-102284436.28145  23100578.5784                   23100573.6644
        44.0004         31.0004
-129159604.36747 -99319506.53145  22553175.4924                   22553171.1254
        44.0004         32.7504
-111686588.64848 -86951250.05147  20389304.5864                   20389298.5784
        48.7504         47.7504
 -98446127.59047 -75845696.88745  21473043.0234                   21473038.9574
        47.0004         34.7504
 25  7 16  0 45 30.0000000  0  9G16G03G04G26G32G02G28G31G01
   4813850.40246   1619977.42243  23891070.9694                   23891067.8984
        39.0004         22.0004
 -73025272.64848 -57757919.72748  20414445.6564                   20414442.5474
        48.7504         50.2504
 -48458428.35547 -37612229.79745  22114412.7274                   22114409.1884
        44.5004         30.2504
 -43968287.97347 -34178485.66046  22008848.3524                   22008846.6804
        43.5004         40.0004
-103183299.96146 -80332966.23845  24647046.0084                   24647044.4304
        36.7504         31.2504
-131616063.17647-102423867.47345  23066528.7584                   23066523.1294
        43.5004         31.0004
-129333663.53547 -99455137.08245  22520053.3674                   22520049.0864
        43.5004         32.5004
-111902312.57848 -87119346.62547  20348254.0314                   20348247.7934
        48.7504         47.7504
 -98657772.31647 -76010614.88745  21432768.3364                   21432763.9024
        47.0004         34.7504
 25  7 16  0 46  0.0000000  0  9G16G03G04G26G32G02G28G31G01
   6025639.11346   2564228.49243  24121666.7274                   24121663.6094
        39.0004         22.5004
 -71762863.29348 -56774224.11748  20654674.0004                   20654671.1764
        49.2504         50.5004
 -47199491.60547 -36631240.07445  22353980.4384                   22353977.3594
        43.7504         30.5004
 -42714428.93047 -33201452.59846  22247449.9534                   22247448.2464
        44.0004         40.5004
-101797896.84846 -79253431.42245  24910678.6804                   24910678.5234
        36.7504         31.5004
-130219380.32047-101335543.26245  23332308.4144                   23332303.2114
        44.2504         31.0004
-127932046.99647 -98362968.38345  22786772.0704                   22786767.4384
        43.7504         32.2504
-110542083.27748 -86059427.69547  20607096.7344                   20607090.8594
        48.5004         47.7504
 -97293479.89547 -74947529.93045  21692384.7194                   21692380.2544
        47.2504         34.5004
 25  7 16  0 46 30.0000000  0  9G16G03G04G26G32G02G28G31G01
   5662024.22746   2280892.35243  24052473.7974                   24052470.0164
        39.5004         22.7504
 -72075479.89548 -57017821.46548  20595185.2274                   20595182.4304
        49.2504         50.5004
 -47515836.48447 -36877742.53145  22293782.4304                   22293778.6884
        44.2504         31.2504
 -43035545.64147 -33451673.37546  22186343.0084                   22186341.5084
        44.5004         40.7504
-101987875.34045 -79401466.73844  24874527.1414                   24874526.5904
        34.7504         28.7504
-130397926.46547-101474670.22745  23298332.2814                   23298326.5984
        43.7504         30.2504
-128105602.68047 -98498206.59445  22753745.7114                   22753740.9304
        44.0004         32.5004
-110756751.16848 -86226701.38747  20566247.1254                   20566241.0944
        48.7504         47.7504
 -97504100.52747 -75111649.93045  21652304.6024                   21652300.6914
        45.5004         35.0004
 25  7 16  0 47  0.0000000  0  9G16G03G04G26G32G02G28G31G01
   5298439.34446   1997579.58244  23983285.3754                   23983282.2974
        40.2504         24.0004
 -72387691.73048 -57261103.40648  20535773.1484                   20535770.0784
        49.5004         50.5004
 -47832034.54747 -37124130.58645  22233611.5394                   22233608.0904
        44.7504         30.5004
 -43356206.56647 -33701538.99246  22125323.1024                   22125321.3284
        44.0004         40.7504
-102177811.12945 -79549468.69945  24838383.6804                   24838382.8714
        35.7504         30.7504
-130576280.55547-101613647.52345  23264392.6954                   23264387.1134
        44.2504         30.7504
-128278909.27747 -98633250.72745  22720766.4384                   22720762.0474
        44.2504         33.0004
-110970893.37148 -86393565.44547  20525497.0164                   20525491.1644
        49.5004         47.7504
 -97714211.33647 -75275372.67645  21612322.1644                   21612317.8324
        47.7504         34.5004
 25  7 16  0 47 30.0000000  0  9G16G03G04G26G32G02G28G31G01
   4934887.80046   1714292.76443  23914102.5784                   23914100.6374
        40.0004         22.5004
 -72699496.62548 -57504068.25048  20476439.0634                   20476436.0434
        48.7504         50.2504
 -48148085.90647 -37370404.32445  22173468.7974                   22173465.2274
        45.0004         31.5004
 -43676408.93047 -33951047.28546  22064390.5704                   22064389.3014
        43.7504         40.7504
-102367703.92245 -79697437.25044  24802249.0784                   24802247.5594
        34.5004         29.2504
-130754445.31247-101752477.28945  23230488.7894                   23230483.8914
        43.7504         30.5004
-128451969.23447 -98768102.66445  22687834.6804                   22687830.1214
        43.7504         32.7504
-111184512.15648 -86560021.65247  20484846.6484                   20484840.6214
        48.7504         47.5004
 -97923814.43747 -75438699.80545  21572435.7114                   21572431.5634
        47.0004         34.7504
 25  7 16  0 48  0.0000000  0  9G16G03G04G26G32G02G28G31G01
   4571369.00446   1431031.45743  23844927.6334                   23844924.7814
        39.7504         22.2504
 -73010895.67248 -57746716.85248  20417181.5784                   20417179.0434
        49.0004         50.2504
 -48463994.02747 -37616566.45745  22113353.2274                   22113350.2154
        44.7504         31.0004
 -43996153.32847 -34200198.71946  22003545.2424                   22003543.8404
        44.2504         40.5004
-102557557.02745 -79845374.80544  24766120.4844                   24766120.0784
        35.7504         29.7504
-130932426.94147-101891164.35944  23196620.8444                   23196615.1644
        44.0004         29.2504
-128624788.35547 -98902766.94145  22654947.8134                   22654943.3874
        44.0004         31.7504
-111397613.19548 -86726074.42647  20444295.1884                   20444288.9534
        48.7504         47.5004
 -98132915.51647 -75601635.74645  21532645.7664                   21532641.2114
        46.0004         34.0004
 25  7 16  0 48 30.0000000  0  9G16G03G04G26G32G02G28G31G01
   4207887.04746   1147798.88343  23775759.7584                   23775755.7894
        39.5004         21.7504
 -73321885.88348 -57989046.87548  20358002.2034                   20357999.2584
        49.0004         50.5004
 -48779758.22747 -37862616.43045  22053265.6954                   22053262.3244
        45.0004         31.0004
 -44315436.23047 -34448990.55546  21942788.0164                   21942786.4454
        44.0004         41.0004
-102747369.50845 -79993280.71144  24730000.6174                   24729999.6884
        35.7504         29.5004
-131110227.45347-102029710.30144  23162786.3754                   23162780.8284
        43.0004         29.2504
-128797368.37147 -99037244.89545  22622107.1484                   22622102.6454
        43.7504         31.5004
-111610197.72347 -86891724.71947  20403841.8054                   20403835.5664
        47.7504         47.5004
 -98341516.00447 -75764181.62145  21492950.6094                   21492945.9304
        45.7504         34.7504
 25  7 16  0 49  0.0000000  0  9G16G03G04G26G32G02G28G31G01
   5419877.16446   2092206.86343  24006393.5634                   24006390.1214
        40.5004         21.5004
 -72057034.85948 -57003448.66448  20598695.3754                   20598691.9804
        49.2504         50.2504
 -47519948.20747 -36880946.23845  22292999.3054                   22292995.8134
        43.5004         31.2504
 -43058824.42647 -33469812.47746  22181913.3204                   22181911.6764
        42.5004         41.0004
-101361715.02046 -78913550.05145  24993682.7114                   24993681.4534
        37.2504         31.5004
-129712423.73047-100940512.70744  23428779.6644                   23428773.9494
        43.0004         29.0004
-127394286.10247 -97943934.05545  22889104.7974                   22889100.4534
        44.2504         31.0004
-110246841.30148 -85829369.07447  20663279.4454                   20663273.6094
        48.5004         47.5004
 -96974191.42647 -74698733.94145  21753143.4534                   21753139.3794
        46.2504         35.2504
 25  7 16  0 49 30.0000000  0  9G16G03G04G26G32G02G28G31G01
   5056478.23846   1809038.95343  23937240.6484                   23937238.3874
        39.7504         21.5004
 -72367201.01248 -57245136.57048  20539672.4844                   20539669.6024
        49.2504         50.5004
 -47835425.08247 -37126772.33245  22232966.1884                   22232962.5394
        45.5004         31.7504
 -43377176.34047 -33717878.86346  22121332.4694                   22121331.1844
        44.5004         41.2504
-101551446.03545 -79061392.48044  24957577.3984                   24957576.2464
        35.7504         29.2504
-129889870.50847-101078783.01644  23395012.9144                   23395007.9024
        43.5004         29.0004
-127566395.37547 -98078045.21145  22856353.6174                   22856349.0784
        43.5004         31.0004
-110458400.34848 -85994220.29347  20623020.9694                   20623015.3524
        48.2504         47.5004
 -97181797.79347 -74860505.17245  21713636.9614                   21713632.8874
        47.0004         35.0004
 25  7 16  0 50  0.0000000  0  9G16G03G04G26G32G02G28G31G01
   4693128.84446   1525909.62943  23868097.7274                   23868094.1954
        40.7504         21.0004
 -72676948.81248 -57486498.48848  20480729.5784                   20480726.5704
        49.2504         50.5004
 -48150755.37547 -37372484.20745  22172960.6414                   22172957.3954
        44.5004         31.5004
 -43695055.68047 -33965577.01246  22060841.7114                   22060840.5044
        43.0004         41.0004
-101741132.97746 -79209200.58245  24921481.0474                   24921480.4614
        38.2504         32.2504
-130067141.48847-101216916.34444  23361278.7504                   23361273.6094
        43.2504         28.5004
-127738269.98847 -98211973.49245  22823646.8444                   22823642.0164
        44.5004         31.5004
-110669446.75848 -86158672.05147  20582860.4614                   20582854.5004
        48.7504         47.5004
 -97388907.51247 -75021889.41045  21674225.4144                   21674221.4804
        47.0004         35.5004
 25  7 16  0 50 30.0000000  0  9G16G03G04G26G32G02G28G31G01
   4329832.22746   1242821.42243  23798964.9924                   23798960.9184
        39.7504         19.7504
 -72986275.40648 -57727532.18748  20421866.8284                   20421863.8444
        49.2504         50.2504
 -48465938.58647 -37618081.47745  22112983.5394                   22112979.9804
        45.2504         31.2504
 -44012459.11347 -34212904.33646  22000442.5394                   22000440.8404
        44.2504         40.7504
-101930775.23446 -79356973.82845  24885393.6094                   24885393.0514
        39.0004         32.0004
-130244238.85547-101354914.38744  23327578.2424                   23327573.4734
        42.0004         29.2504
-127909911.71947 -98345720.32845  22790984.6724                   22790979.7464
        43.7504         30.5004
-110879982.43447 -86322725.83647  20542796.5704                   20542790.9654
        47.7504         47.2504
 -97595522.27047 -75182887.96945  21634908.4224                   21634904.0514
        46.2504         35.2504
 25  7 16  0 51  0.0000000  0  9G16G03G04G26G32G02G28G31G01
   3966593.25846    959778.17243  23729842.1334                   23729838.6024
        39.0004         19.2504
 -73295177.44948 -57968235.07048  20363084.7584                   20363081.4534
        49.2504         50.5004
 -48780973.64847 -37863563.30545  22053034.4694                   22053030.7234
        45.7504         32.0004
 -44329382.75047 -34459857.79346  21940133.8984                   21940131.9534
        44.7504         40.7504
-102120371.30546 -79504711.10945  24849314.7734                   24849313.8874
        38.7504         32.5004
-130421164.24246-101492778.42644  23293910.5394                   23293905.9774
        41.5004         27.7504
-128081321.80947 -98479286.63745  22758365.9694                   22758361.2854
        44.5004         30.2504
-111090008.37948 -86486382.42247  20502830.3524                   20502824.0554
        48.5004         47.2504
 -97801643.25447 -75343501.76245  21595684.6724                   21595680.6884
        46.2504         35.0004
 25  7 16  0 51 30.0000000  0  9G16G03G04G26G32G02G28G31G01
   3603412.62546    676780.38343  23660731.2974                   23660728.0744
        38.5004         19.0004
 -73603655.62548 -58208607.66048  20304382.7424                   20304380.0704
        49.5004         50.5004
 -49095863.47347 -38108931.95745  21993112.7664                   21993109.2194
        45.5004         31.7504
 -44645826.84847 -34706437.59046  21879916.3444                   21879914.8484
        45.2504         41.0004
-102309924.08246 -79652414.62545  24813244.8524                   24813243.8204
        41.0004         33.0004
-130597923.18747-101630512.78544  23260275.3914                   23260270.0164
        42.5004         28.7504
-128252505.55947 -98612676.61345  22725791.2194                   22725786.7734
        44.5004         31.0004
-111299530.04348 -86649646.06247  20462959.4144                   20462953.3364
        48.5004         47.2504
 -98007275.65247 -75503734.84045  21556553.9924                   21556550.0904
        47.0004         34.5004
 25  7 16  0 52  0.0000000  0  9G16G03G04G26G32G02G28G31G01
   4815724.57046   1621439.12943  23891426.9694                   23891422.8834
        37.7504         19.5004
 -72336277.91848 -57221040.60248  20545556.8204                   20545553.8204
        48.7504         50.5004
 -47835178.10547 -37126579.69145  22233013.2814                   22233009.3594
        44.0004         32.0004
 -43386358.63347 -33725033.75446  22119585.0634                   22119583.6094
        44.5004         41.0004
-100924007.39146 -78572479.61745  25076975.0634                   25076974.7854
        38.2504         31.0004
-129199093.35947-100540515.60944  23526463.1884                   23526458.1604
        42.0004         28.0004
-126848040.16847 -97518288.01245  22993052.0864                   22993047.1564
        44.5004         30.5004
-109933123.23047 -85584913.49247  20722977.9774                   20722971.9734
        47.7504         47.5004
 -96636995.45347 -74435984.07845  21817309.5784                   21817305.4454
        45.5004         34.0004
 25  7 16  0 52 30.0000000  0  9G16G03G04G26G32G02G28G31G01
   4452665.78146   1338536.27043  23822338.5634                   23822335.1254
        37.7504         19.2504
 -72643905.18748 -57460750.14848  20487017.4384                   20487014.1374
        48.7504         50.5004
 -48149781.10547 -37371724.83645  22173145.7274                   22173142.1724
        44.5004         31.5004
 -43701839.00047 -33970862.58646  22059551.4304                   22059549.6374
        45.2504         41.5004
-101113476.27046 -78720117.78945  25040920.8444                   25040919.5634
        41.0004         32.5004
-129375531.52347-100678000.00444  23492888.7664                   23492883.7034
        42.5004         28.5004
-127018781.95347 -97651333.59044  22960561.1954                   22960556.2194
        44.5004         29.5004
-110141646.64147 -85747399.28147  20683297.3984                   20683291.5004
        47.5004         47.0004
 -96841661.21147 -74595463.92645  21778363.4534                   21778359.5314
        46.0004         35.0004
 25  7 16  0 53  0.0000000  0  9G16G03G04G26G32G02G28G31G01
   4089675.08646   1055686.48043  23753263.3204                   23753260.4264
        36.5004         18.2504
 -72951101.61348 -57700123.97748  20428560.1484                   20428556.8714
        49.0004         50.5004
 -48464238.69947 -37616756.68745  22113306.4534                   22113303.2034
        44.5004         31.5004
 -44016831.48047 -34216311.24246  21999610.4144                   21999608.4534
        45.7504         41.7504
-101302900.85946 -78867721.40645  25004874.3284                   25004873.4304
        40.7504         32.0004
-129551811.70347-100815361.27744  23459343.4924                   23459338.6174
        42.5004         29.5004
-127189304.18747 -97784208.09045  22928111.6804                   22928107.1414
        44.0004         30.0004
-110349672.06647 -85909497.02347  20643711.4924                   20643705.7624
        47.7504         47.0004
 -97045845.12547 -74754568.32045  21739508.5234                   21739504.4454
        45.7504         34.5004
 25  7 16  0 53 30.0000000  0  9G16G03G04G26G32G02G28G31G01
   3726754.12946    772891.07043  23684202.2664                   23684198.8914
        36.7504         18.5004
 -73257866.69548 -57939161.68748  20370184.3204                   20370181.2384
        49.2504         50.5004
 -48778552.57047 -37861676.55945  22053494.5704                   22053491.3134
        45.5004         32.5004
 -44331335.04747 -34461378.92647  21939762.0864                   21939760.4414
        45.7504         42.0004
-101492282.57846 -79015291.65645  24968836.0554                   24968835.4184
        38.5004         32.0004
-129727937.48447-100952602.23444  23425828.0234                   23425822.8754
        42.7504         28.7504
-127359610.96947 -97916914.69145  22895703.5004                   22895698.6334
        44.2504         30.5004
-110557203.91847 -86071210.16847  20604219.6414                   20604213.6884
        47.2504         47.0004
 -97249551.19147 -74913300.36745  21700744.6174                   21700740.4224
        45.5004         34.2504
 25  7 16  0 54  0.0000000  0  9G16G03G04G26G32G02G28G31G01
   3363908.55146    490154.33243  23615153.9454                   23615151.3054
        36.5004         19.2504
 -73564195.85548 -58177859.72348  20311891.8364                   20311889.1644
        49.5004         50.7504
 -49092720.41847 -38106482.61745  21993710.5784                   21993707.1484
        45.0004         32.0004
 -44645344.75847 -34706061.78146  21880008.0394                   21880006.7934
        45.5004         41.7504
-101681618.89146 -79162826.48845  24932806.5394                   24932806.0634
        40.7504         32.2504
-129903909.78147-101089723.58645  23392341.8594                   23392336.8754
        43.0004         30.0004
-127529702.32447 -98049453.43044  22863336.1644                   22863331.3984
        44.2504         29.5004
-110764241.68447 -86232538.30147  20564821.5554                   20564815.8524
        47.2504         47.0004
 -97452779.52047 -75071660.13745  21662071.8204                   21662067.2154
        44.7504         33.7504
 25  7 16  0 54 30.0000000  0  9G16G03G04G26G32G02G28G31G01
   3001139.62146    207477.34843  23546121.4844                   23546118.3444
        36.2504         19.5004
 -73870089.00848 -58416218.00448  20253682.2034                   20253679.1644
        49.0004         50.7504
 -49406744.34847 -38351176.54745  21933953.7034                   21933950.2854
        44.7504         31.5004
 -44958860.04347 -34950359.35946  21820348.0704                   21820346.5314
        45.7504         41.7504
-101870911.81246 -79310327.52045  24896785.6254                   24896784.9534
        39.7504         30.5004
-130079733.35247-101226729.07044  23358883.3914                   23358878.8324
        43.0004         29.0004
-127699582.65647 -98181827.75044  22831009.7114                   22831004.5274
        43.7504         29.7504
-110970790.49647 -86393485.43747  20525516.5084                   20525510.8874
        47.7504         47.0004
 -97655534.56647 -75229651.13345  21623488.4774                   21623484.5394
        45.5004         33.7504
 25  7 16  0 55  0.0000000  0  9G16G03G04G26G32G02G28G31G01
   4213884.09846   1152473.14143  23776899.2584                   23776896.2974
        38.7504         20.0004
 -72600112.35248 -57426625.79348  20495350.7664                   20495347.9304
        50.0004         50.5004
 -48145192.48047 -37368149.08645  22174019.3754                   22174015.7504
        44.5004         32.0004
 -43696446.53147 -33966660.47746  22060577.3134                   22060575.7464
        45.0004         41.5004
-100484733.19946 -78230188.41045  25160566.9224                   25160565.8484
        40.0004         31.5004
-128679983.75447-100136015.19544  23625247.5784                   23625242.0944
        42.7504         28.2504
-126293827.24247 -97086433.95344  23098515.5084                   23098511.1724
        43.0004         29.5004
-109601423.99247 -85326446.60947  20786098.4844                   20786092.4964
        47.2504         47.2504
 -96282390.61747 -74159668.88345  21884788.8594                   21884785.2504
        44.0004         33.5004
 25  7 16  0 55 30.0000000  0 10G16G09G03G04G26G32G02G28G31G01
   3851277.81346    869922.88743  23707897.5944                   23707893.9024
        38.5004         21.2504
  29252476.05955  22865277.28953  25077258.2894                   25077257.9534
        33.7504         21.5004
 -72905127.50448 -57664299.91848  20437308.3284                   20437305.0984
        49.0004         50.5004
 -48458929.18047 -37612619.20345  22114316.9844                   22114313.5514
        45.2504         32.7504
 -44008965.82047 -34210181.95746  22001107.0554                   22001105.0164
        45.0004         41.5004
-100673938.90246 -78377621.47345  25124561.4304                   25124561.4384
        41.0004         32.5004
-128855518.55947-100272795.66044  23591844.1094                   23591839.4064
        43.7504         29.2504
-126463293.17247 -97218485.36745  23066267.3204                   23066262.3284
        43.0004         30.2504
-109807001.77348 -85486637.09847  20746978.2344                   20746972.3554
        48.2504         47.2504
 -96484206.92647 -74316928.38745  21846384.5634                   21846380.6844
        45.2504         34.2504
 25  7 16  0 56  0.0000000  0 10G16G09G03G04G26G32G02G28G31G01
   3488746.12546    587430.76243  23638910.6954                   23638907.0274
        38.2504         21.7504
  28914507.75845  22601925.55543  25012944.9774                   25012944.5394
        35.2504         23.0004
 -73209711.94148 -57901638.42648  20379347.9534                   20379345.0274
        49.5004         50.7504
 -48772533.87947 -37856986.46945  22054639.7114                   22054636.5084
        45.0004         32.5004
 -44320994.82847 -34453321.41846  21941729.7894                   21941727.9654
        45.5004         41.5004
-100863112.30146 -78525029.37945  25088563.1334                   25088562.9574
        40.5004         31.0004
-129030924.87947-100409476.00444  23558465.5004                   23558460.7814
        42.0004         29.2504
-126632566.93047 -97350387.02744  23034055.6024                   23034050.1994
        43.2504         29.7504
-110012109.30948 -85646461.15647  20707947.6024                   20707941.7504
        48.0004         47.0004
 -96685569.12547 -74473834.04745  21808066.7344                   21808063.0594
        44.5004         34.0004
 25  7 16  0 56 30.0000000  0 10G16G09G03G04G26G32G02G28G31G01
   3126291.91446    304999.02043  23569937.6094                   23569934.2584
        39.0004         22.7504
  28576559.19545  22338589.09844  24948634.2344                   24948634.5824
        33.2504         24.5004
 -73513864.31248 -58138640.26648  20321469.4774                   20321466.5984
        49.2504         51.0004
 -49086007.31647 -38101251.45345  21994987.8754                   21994983.9964
        45.5004         32.5004
 -44632531.77047 -34696077.44146  21882446.2664                   21882444.7074
        46.0004         41.7504
-101052253.94146 -78672412.50844  25052570.8914                   25052570.0474
        40.0004         28.5004
-129206205.96147-100546058.80544  23525110.9384                   23525106.0204
        42.7504         29.2504
-126801651.69147 -97482141.42645  23001879.6564                   23001875.2584
        42.5004         30.0004
-110216749.52748 -85805921.07447  20669005.9774                   20668999.8714
        48.0004         47.0004
 -96886480.47747 -74630388.39545  21769834.5394                   21769830.7974
        46.0004         33.5004
 25  7 16  0 57  0.0000000  0 10G16G09G03G04G26G32G02G28G31G01
   2763922.51246     22633.34043  23500980.6174                   23500977.6294
        40.2504         22.7504
  28238634.59446  22075271.36744  24884330.6564                   24884330.1954
        37.0004         26.0004
 -73817578.20348 -58375300.43448  20263675.0314                   20263671.7624
        49.5004         51.0004
 -49399345.26247 -38345410.84445  21935361.7894                   21935357.8524
        44.0004         32.2504
 -44943569.86347 -34938444.74646  21823257.4774                   21823255.9694
        44.5004         41.7504
-101241359.42246 -78819767.49645  25016585.8754                   25016585.2704
        41.7504         31.7504
-129381360.68747-100682543.10544  23491780.0474                   23491775.2624
        42.5004         28.7504
-126970545.51647 -97613747.03544  22969740.2114                   22969735.6914
        43.0004         29.0004
-110420920.53947 -85965015.37947  20630153.2344                   20630147.4614
        47.2504         47.0004
 -97086939.10547 -74786589.96945  21731688.6334                   21731684.9574
        45.7504         33.2504
 25  7 16  0 57 30.0000000  0 10G16G09G03G04G26G32G02G28G31G01
   2401644.57446   -259661.06244  23432041.6334                   23432038.1254
        41.7504         24.7504
  27900737.33646  21811974.94944  24820030.3204                   24820030.0664
        36.7504         26.7504
 -74120847.95748 -58611614.52048  20205964.2974                   20205961.4884
        49.5004         50.7504
 -49712544.27747 -38589461.99645  21875761.9534                   21875758.0124
        45.5004         32.5004
 -45254103.10247 -35180418.66446  21764165.1644                   21764163.4454
        45.7504         41.7504
-101430424.91046 -78967091.33245  24980607.4534                   24980606.9384
        41.0004         30.5004
-129556387.87947-100818928.03544  23458473.6644                   23458468.8754
        42.5004         28.5004
-127139247.18047 -97745202.92644  22937637.1024                   22937632.7814
        42.0004         29.0004
-110624621.59848 -86123743.48447  20591390.3364                   20591384.4654
        48.0004         47.0004
 -97286944.12947 -74942438.08645  21693628.9844                   21693625.1684
        45.7504         33.7504
 25  7 16  0 58  0.0000000  0 10G16G09G03G04G26G32G02G28G31G01
   2039462.43046   -541880.83644  23363120.6724                   23363117.3714
        41.5004         27.0004
  27562868.07046  21548700.22344  24755736.0864                   24755735.1024
        39.0004         26.5004
 -74423670.75448 -58847580.33248  20148339.3444                   20148336.1914
        49.5004         51.0004
 -50025603.60947 -38833404.27745  21816188.7504                   21816185.1214
        43.7504         32.5004
 -45564128.29347 -35421996.69547  21705169.3284                   21705167.5204
        44.7504         42.0004
-101619449.51246 -79114383.31644  24944637.6954                   24944637.1994
        41.5004         27.7504
-129731289.55146-100955215.16444  23425191.2424                   23425186.9884
        41.7504         28.2504
-127307758.35547 -97876510.37944  22905570.9144                   22905566.3954
        42.5004         29.7504
-110827854.21147 -86282106.56647  20552716.5164                   20552710.5944
        47.7504         47.0004
 -97486497.30147 -75097934.10545  21655655.2034                   21655651.2704
        46.0004         33.2504
 25  7 16  0 58 30.0000000  0 10G16G09G03G04G26G32G02G28G31G01
   3252811.63746    403586.16844  23594012.4224                   23594010.0314
        41.5004         26.7504
  28800458.00046  22513056.19143  24991241.2584                   24991239.9264
        37.2504         22.5004
 -73150614.42248 -57855588.37948  20390593.4454                   20390590.3054
        49.5004         50.7504
 -48763092.91847 -37849629.67245  22056436.1024                   22056432.5204
        45.5004         32.0004
 -44298212.72347 -34435568.93447  21946064.8054                   21946062.8794
        45.7504         42.0004
-100233006.85947 -78034038.43044  25208469.2814                   25208468.0744
        42.0004         29.0004
-128330643.07847 -99863802.42244  23691725.7344                   23691720.5514
        42.0004         29.2504
-125900655.81247 -96780066.85944  23173333.5634                   23173329.3014
        42.5004         29.5004
-109455194.17647 -85212501.35247  20813924.8204                   20813919.2894
        47.0004         47.0004
 -96110174.59047 -74025474.89145  21917560.8594                   21917556.5944
        46.0004         33.5004
 25  7 16  0 59  0.0000000  0 10G16G09G03G04G26G32G02G28G31G01
   2890833.05146    121525.02344  23525131.2664                   23525127.3244
        41.5004         26.5004
  28462646.48446  22249826.55944  24926958.3914                   24926957.8984
        39.0004         26.0004
 -73452535.10548 -58090851.24248  20333139.9694                   20333136.8324
        49.5004         50.7504
 -49075871.12547 -38093352.92245  21996916.6024                   21996912.5824
        44.7504         32.5004
 -44607212.67247 -34676348.08247  21887264.0944                   21887262.6844
        46.0004         42.0004
-100421947.23046 -78181264.73844  25172515.1724                   25172514.3484
        40.7504         29.7504
-128505300.76647 -99999899.44144  23658489.6884                   23658484.7194
        42.0004         28.2504
-126068791.10247 -96911081.42245  23141338.6334                   23141334.3094
        42.2504         30.0004
-109657495.59848 -85370138.82447  20775428.3754                   20775422.6954
        48.0004         47.0004
 -96308829.90247 -74180271.28945  21879757.8444                   21879754.5514
        45.7504         33.0004
 25  7 16  0 59 30.0000000  0 10G16G09G03G04G26G32G02G28G31G01
   2528962.39847   -160452.01644  23456269.3054                   23456265.6604
        42.0004         26.7504
  28124864.94946  21986620.21144  24862680.0784                   24862679.8134
        39.0004         29.0004
 -73754000.39148 -58325759.25848  20275773.2274                   20275770.0704
        50.0004         50.7504
 -49388507.57847 -38336965.70345  21937423.8674                   21937420.0554
        45.0004         32.5004
 -44915695.09447 -34916723.97347  21828561.8444                   21828559.9454
        46.0004         42.2504
-100610844.00446 -78328457.10944  25136569.0084                   25136568.6024
        40.0004         28.0004
-128679839.10246-100135903.44944  23625275.5554                   23625270.7344
        41.2504         28.2504
-126236740.77047 -97041951.34045  23109378.7424                   23109374.4264
        42.5004         30.7504
-109859333.83647 -85527415.38747  20737019.9614                   20737014.1024
        47.5004         47.0004
 -96507038.93747 -74334719.93445  21842040.1334                   21842036.1484
        45.2504         33.7504
 25  7 16  1  0  0.0000000  0 10G16G09G03G04G26G32G02G28G31G01
   2167204.17246   -442341.47744  23387428.4614                   23387424.9494
        41.5004         25.5004
  27787114.23846  21723438.00444  24798408.5474                   24798408.0944
        38.7504         28.0004
 -74055007.23048 -58560310.03148  20218493.2584                   20218490.3674
        49.2504         51.0004
 -49701001.37147 -38580467.30945  21877958.3834                   21877954.9804
        45.2504         32.2504
 -45223656.69947 -35156694.02347  21769958.7034                   21769956.7154
        46.2504         42.2504
-100799696.07046 -78475614.65644  25100631.1804                   25100631.1214
        39.0004         26.0004
-128854260.21946-100271816.10244  23592084.2424                   23592079.5044
        41.5004         27.7504
-126404506.12547 -97172677.61745  23077454.0164                   23077449.4494
        42.0004         30.0004
-110060710.56647 -85684332.33247  20698699.3134                   20698693.2704
        46.5004         46.7504
 -96704803.31247 -74488822.08245  21804406.9144                   21804402.7304
        43.5004         33.5004
 25  7 16  1  0 30.0000000  0 10G16G09G03G04G26G32G02G28G31G01
   1805563.75846   -724139.11744  23318610.0554                   23318607.5004
        41.0004         26.7504
  27449396.71946  21460281.71544  24734141.8674                   24734142.6644
        38.0004         28.0004
 -74355551.22348 -58794500.14548  20161302.2194                   20161298.9414
        49.5004         50.7504
 -50013350.12547 -38823855.91845  21818520.4224                   21818516.8954
        45.0004         32.2504
 -45531092.69147 -35396254.50447  21711455.3914                   21711453.9024
        46.0004         42.2504
-100988500.79746 -78622735.26644  25064703.6414                   25064702.4964
        39.5004         25.7504
-129028564.44146-100407637.67244  23558915.5634                   23558911.4144
        41.5004         27.7504
-126572087.13747 -97303260.26244  23045564.3134                   23045559.9884
        42.5004         29.5004
-110261625.77047 -85840889.64147  20660466.4064                   20660460.4574
        47.7504         46.7504
 -96902123.28147 -74642577.94545  21766858.3754                   21766854.8014
        45.2504         33.2504
 25  7 16  1  1  0.0000000  0 10G16G09G03G04G26G32G02G28G31G01
   1444043.80146  -1005842.87944  23249815.8674                   23249812.2974
        41.2504         25.5004
  27111711.63746  21197150.52744  24669882.3834                   24669883.0234
        38.7504         29.0004
 -74655631.07848 -59028328.60248  20104198.8754                   20104195.4104
        49.0004         51.0004
 -50325554.64547 -39067132.12545  21759109.5084                   21759105.5864
        45.0004         32.5004
 -45838001.55947 -35635404.23847  21653052.6254                   21653051.1844
        46.2504         42.2504
-101177258.87146 -78769819.51244  25028783.5164                   25028783.8444
        36.2504         26.5004
-129202755.20346-100543370.82444  23525767.9844                   23525763.6524
        41.5004         27.5004
-126739486.91047 -97433701.67644  23013709.6254                   23013705.4104
        42.5004         29.0004
-110462082.78547 -85997089.91047  20622320.6954                   20622314.6954
        47.5004         46.7504
 -97099002.27047 -74795990.19145  21729393.8524                   21729389.5904
        45.5004         33.2504
 25  7 16  1  1 30.0000000  0 10G16G09G03G04G26G32G02G28G31G01
   2658075.65646    -59843.96544  23480838.2504                   23480834.5594
        39.5004         26.2504
  28349485.89146  22161650.04745  24905423.7424                   24905424.1994
        39.0004         32.0004
 -73379819.00848 -58034189.31648  20346977.5784                   20346974.4844
        49.5004         51.0004
 -49062188.78547 -38082691.16045  21999520.4774                   21999516.2304
        45.0004         32.0004
 -44568954.99247 -34646536.75447  21894544.2814                   21894542.5904
        45.5004         42.5004
 -99790547.82046 -77689265.56644  25292666.1724                   25292666.4184
        38.5004         26.0004
-127801413.81646 -99451416.62144  23792434.3754                   23792429.8284
        41.7504         27.2504
-125331286.38747 -96336402.60545  23281680.6564                   23281676.5664
        42.5004         30.2504
-109086661.64547 -84925333.18747  20884054.4844                   20884048.4884
        47.0004         46.7504
 -95720020.58247 -73721459.05145  21991804.5084                   21991800.7464
        44.0004         34.0004
 25  7 16  1  2  0.0000000  0 10G16G09G03G04G26G32G02G28G31G01
   2296801.73846   -341356.02344  23412090.1254                   23412086.5944
        40.5004         25.5004
  28011859.96546  21898565.04745  24841174.9924                   24841175.8754
        38.0004         30.5004
 -73678969.69548 -58267293.74248  20290050.8674                   20290048.3134
        49.5004         50.7504
 -49374110.09847 -38325746.68745  21940163.1094                   21940159.4344
        45.0004         32.0004
 -44874807.84047 -34884863.61747  21836342.5944                   21836340.5084
        46.0004         42.5004
 -99979216.92246 -77836280.47344  25256763.3524                   25256763.2854
        38.0004         24.5004
-127975391.51246 -99586983.78544  23759327.8054                   23759323.1644
        41.0004         27.7504
-125498335.75047 -96466570.98445  23249893.1094                   23249888.0864
        42.5004         30.0004
-109286214.94547 -85080829.27047  20846080.6174                   20846074.8984
        46.5004         46.7504
 -95916030.75047 -73874194.30545  21954505.3054                   21954501.4104
        44.0004         33.7504
 25  7 16  1  2 30.0000000  0 10G16G09G03G04G26G32G02G28G31G01
   1935652.09846   -622771.25044  23343365.7344                   23343361.4774
        39.0004         26.0004
  27674259.78946  21635500.05544  24776931.4304                   24776931.2704
        37.5004         27.2504
 -73977656.60248 -58500036.77748  20233212.9774                   20233209.8874
        49.0004         50.7504
 -49685893.68447 -38568694.91045  21880832.6414                   21880829.0274
        45.0004         32.0004
 -45180133.09047 -35122779.35947  21778240.8834                   21778239.1294
        46.2504         42.5004
-100167845.14146 -77983263.50844  25220869.0554                   25220869.0744
        38.0004         25.0004
-128149270.57447 -99722474.08644  23726239.9534                   23726235.4414
        42.0004         27.7504
-125665217.23047 -96596608.53945  23218136.4454                   23218132.3954
        43.0004         30.0004
-109485324.15647 -85235979.31647  20808191.5474                   20808185.4494
        47.2504         46.5004
 -96111614.34847 -74026597.15245  21917287.3834                   21917283.0004
        44.7504         33.5004
 25  7 16  1  3  0.0000000  0 10G16G09G03G04G26G32G02G28G31G01
   1574635.36746   -904082.88744  23274666.8054                   23274662.5434
        40.2504         24.5004
  27336690.74246  21372459.32445  24712695.8204                   24712693.9534
        38.0004         30.7504
 -74275872.25848 -58732412.60548  20176464.3524                   20176461.1254
        49.2504         50.7504
 -49997534.01647 -38811531.49645  21821529.4924                   21821526.0704
        45.0004         32.5004
 -45484922.97347 -35360277.94147  21720241.2974                   21720239.3714
        46.5004         42.7504
-100356426.89146 -78130210.33643  25184983.0554                   25184982.8714
        36.7504         22.2504
-128323048.34446 -99857885.46944  23693171.2034                   23693166.5044
        41.0004         27.0004
-125831927.66447 -96726512.81244  23186412.2584                   23186408.3134
        42.7504         29.7504
-109683986.27348 -85390780.96947  20770387.0474                   20770381.6914
        48.0004         47.0004
 -96306768.60547 -74178665.45345  21880150.4304                   21880146.6724
        46.0004         33.5004
 25  7 16  1  3 30.0000000  0 10G16G09G03G04G26G32G02G28G31G01
   1213756.87946  -1185286.80143  23205993.7504                   23205989.3244
        40.5004         22.7504
  26999154.38346  21109444.11345  24648464.2344                   24648463.4384
        39.2504         34.0004
 -74573612.97748 -58964418.34848  20119806.1724                   20119803.0594
        49.2504         50.7504
 -50309029.42647 -39054255.16045  21762254.0554                   21762250.2974
        44.5004         32.5004
 -45789173.53547 -35597356.26247  21662344.3594                   21662342.3244
        46.2504         42.5004
-100544960.16446 -78277119.44144  25149106.7584                   25149106.2774
        37.7504         25.5004
-128496725.71146 -99993218.60244  23660121.8204                   23660117.1024
        41.2504         26.0004
-125998467.60547 -96856284.23044  23154720.9614                   23154716.5044
        42.2504         29.7504
-109882202.15647 -85545234.91447  20732668.2814                   20732662.5234
        46.5004         46.7504
 -96501494.52047 -74330399.98445  21843095.8364                   21843091.4804
        43.5004         34.0004
 25  7 16  1  4  0.0000000  0 10G16G09G03G04G26G32G02G28G31G01
    853016.92646  -1466382.76643  23137345.8524                   23137342.9774
        38.5004         22.7504
  26661647.58645  20846451.96144  24584237.0554                   24584237.5514
        34.0004         28.0004
 -74870879.76248 -59196054.79748  20063238.2344                   20063234.8834
        49.2504         50.7504
 -50620382.90647 -39296868.22345  21703005.3444                   21703001.2464
        44.5004         32.0004
 -46092885.58247 -35834014.96147  21604549.8444                   21604548.0554
        46.5004         42.5004
                                  25113238.6564                   25113238.7584
        37.0004         24.0004
-128670308.68446-100128478.17244  23627089.8284                   23627084.7734
        41.2504         26.5004
-126164842.31247 -96985926.90245  23123061.2034                   23123056.3984
        42.2504         30.0004
-110079977.13747 -85699345.29347  20695032.9614                   20695026.7384
        46.0004         46.7504
 -96695797.75847 -74481805.14845  21806121.1884                   21806116.9384
        43.7504         33.5004
 25  7 16  1  4 30.0000000  0 10G16G09G03G04G26G32G02G28G31G01
   2067853.45746   -519756.82043  23368521.7504                   23368518.7664
        38.2504         22.5004
  27899604.42246  21811093.89545  24819813.1254                   24819814.0904
        37.5004         30.5004
 -73592238.07448 -58199710.61748  20306554.9694                   20306552.1174
        48.7504         50.7504
 -49356161.46947 -38311760.57445  21943578.2424                   21943574.9964
        44.5004         32.7504
 -44820624.18447 -34842642.41447  21846653.2584                   21846651.3524
        47.0004         42.7504
 -99346460.72745 -77343223.84443  25377173.3204                   25377173.3554
        35.5004         22.5004
-127268371.52346 -99036059.72744  23893869.6724                   23893865.3444
        41.0004         27.2504
-124755625.91047 -95887836.24244  23391226.2274                   23391221.5594
        43.0004         29.2504
-108701884.73848 -84625507.06647  20957275.5474                   20957269.2074
        48.5004         46.7504
 -95314251.98847 -73405276.03145  22069020.0784                   22069016.6524
        46.0004         34.2504
 25  7 16  1  5  0.0000000  0 10G16G09G03G04G26G32G02G28G31G01
   1707404.41846   -800626.08643  23299930.7814                   23299927.2114
        39.5004         22.0004
  27562160.59846  21548150.55945  24755601.0704                   24755599.5044
        37.2504         32.0004
 -73888547.46548 -58430601.04348  20250169.9144                   20250166.6414
        49.2504         50.7504
 -49667227.47747 -38554149.62945  21884384.7894                   21884381.0904
        44.5004         33.5004
 -45123248.98047 -35078453.89847  21789065.4534                   21789063.5824
        46.0004         43.0004
 -99534852.80545 -77490022.97743  25341324.0634                   25341323.2274
        30.0004         19.5004
-127441770.24246 -99171175.72344  23860873.0704                   23860868.7814
        40.2504         26.2504
-124921673.34447 -96017223.89844  23359628.6334                   23359623.5554
        43.0004         29.7504
-108898782.40647 -84778933.82847  20919806.7664                   20919800.9654
        47.5004         46.7504
 -95507714.55947 -73556026.13345  22032205.4144                   22032201.9384
        45.7504         34.0004
 25  7 16  1  5 30.0000000  0 10G16G09G03G04G26G32G02G28G31G01
   1347105.67646  -1081378.27043  23231368.4614                   23231364.2424
        40.0004         21.5004
  27224748.05546  21285231.80144  24691393.5474                   24691391.0394
        38.2504         28.0004
 -74184375.24248 -58661116.18448  20193875.8284                   20193872.4494
        48.7504         51.0004
 -49978149.81247 -38796426.75045  21825218.0944                   21825214.6604
        44.0004         33.5004
 -45425326.91047 -35313839.27347  21731581.9694                   21731579.9184
        46.2504         43.0004
 -99723196.93745 -77636784.65643  25305483.7734                   25305482.8364
        33.5004         21.5004
-127615081.01246 -99306223.18044  23827892.6334                   23827888.6414
        40.7504         25.7504
-125087560.62947 -96146486.74244  23328060.8834                   23328055.8134
        43.7504         29.2504
-109095244.98447 -84932021.56247  20882421.0944                   20882415.1804
        47.7504         46.5004
 -95700760.91447 -73706451.91445  21995470.1884                   21995466.8164
        45.0004         34.0004
 25  7 16  1  6  0.0000000  0 10G16G09G03G04G26G32G02G28G31G01
    986961.08646  -1362010.34443  23162834.8054                   23162831.4414
        40.0004         22.7504
  26887367.17245  21022337.73445  24627190.8914                   24627191.7154
        35.7504         31.0004
 -74479718.95748 -58891254.12948  20137673.3204                   20137670.5554
        48.7504         51.0004
 -50288927.91447 -39038591.46545  21766079.0474                   21766075.4024
        45.0004         32.7504
 -45726855.41447 -35548796.50847  21674202.9454                   21674200.9414
        47.0004         43.2504
 -99911492.30545 -77783508.41443  25269652.3984                   25269652.0124
        32.0004         22.5004
-127788306.19546 -99441203.94544  23794929.5474                   23794924.9614
        40.5004         27.0004
-125253289.45747 -96275626.13744  23296523.5004                   23296519.5784
        42.5004         29.2504
-109291275.11347 -85084772.32447  20845117.9064                   20845112.1684
        46.2504         46.5004
 -95893393.35247 -73856555.15645  21958813.6484                   21958809.5634
        44.5004         33.5004
 25  7 16  1  6 30.0000000  0 10G16G09G03G04G26G32G02G28G31G01
    626975.95746  -1642518.16443  23094331.6414                   23094328.2194
        39.2504         22.5004
  26550019.94945  20759469.84444  24562995.0554                   24562994.8794
        31.0004         25.7504
 -74774574.86348 -59121011.97348  20081564.0784                   20081560.9184
        48.5004         51.0004
 -50599559.89847 -39280642.33645  21706967.8284                   21706964.2774
        45.0004         33.2504
 -46027830.41447 -35783322.44947  21616929.1094                   21616927.5084
        46.2504         43.0004
-100099737.08245 -77930192.71143  25233831.3594                   25233829.4924
        32.7504         22.5004
-127961446.62146 -99576118.69144  23761982.2114                   23761977.7464
        40.2504         24.2504
-125418860.28547 -96404642.41444  23265016.4924                   23265012.1294
        42.7504         28.5004
-109486873.40247 -85237186.58247  20807896.8134                   20807890.7814
        47.7504         46.2504
 -96085612.72347 -74006336.53545  21922235.4454                   21922231.6174
        46.0004         33.5004
 25  7 16  1  7  0.0000000  0  9G16G09G03G04G26G02G28G31G01
    267152.12546  -1922900.27343  23025859.7974                   23025855.5394
        39.5004         22.5004
  26212704.03945  20496626.39545  24498806.9694                   24498807.8204
        33.2504         32.0004
 -75068943.19548 -59350389.87948  20025547.8444                   20025544.6884
        49.2504         51.0004
 -50910047.96147 -39522581.05945  21647884.3364                   21647880.5394
        45.5004         34.0004
 -46328252.06247 -36017417.21147  21559760.7664                   21559759.1134
        46.7504         43.0004
-128134507.17646 -99710971.19544  23729050.1724                   23729045.5984
        40.5004         25.2504
-125584277.42247 -96533538.92644  23233539.2974                   23233534.2034
        43.0004         28.0004
-109682044.31647 -85389267.83247  20770757.3284                   20770751.0234
        47.7504         46.5004
 -96277424.07047 -74155799.96545  21885734.9844                   21885731.0744
        45.0004         33.2504
 25  7 16  1  7 30.0000000  0  9G16G09G03G04G26G02G28G31G01
   1482925.48446   -975544.30543  23257214.2344                   23257209.7894
        41.0004         22.5004
  27450851.60246  21461416.87545  24734418.5554                   24734419.3404
        37.2504         32.7504
 -73787391.21148 -58351777.93448  20269419.1174                   20269416.0084
        48.7504         51.0004
 -49644960.66447 -38536798.71945  21888622.0474                   21888618.0664
        45.5004         34.0004
 -45052687.20747 -35023470.53547  21802492.6564                   21802490.9654
        47.0004         43.2504
-126732063.91446 -98618158.37144  23995925.7344                   23995921.6454
        40.5004         24.5004
-124174116.61346 -95434712.37144  23501883.6804                   23501879.2464
        41.7504         28.0004
-108301362.93047 -84313412.21547  21033492.1884                   21033486.0984
        47.0004         46.5004
 -94893402.73047 -73077341.82045  22149105.4534                   22149101.9454
        44.5004         33.5004
 25  7 16  1  8  0.0000000  0  9G16G09G03G04G26G02G28G31G01
   1123443.50846  -1255660.04743  23188806.4614                   23188802.1174
        40.7504         22.0004
  27113608.48845  21198630.05544  24670242.4454                   24670242.4534
        34.7504         29.5004
 -74080768.39548 -58580383.52748  20213591.1954                   20213588.2154
        49.2504         51.2504
 -49955150.41047 -38778504.99245  21829595.1644                   21829591.0664
        46.0004         34.0004
 -45351985.56247 -35256689.99647  21745538.1724                   21745536.6414
        46.5004         43.2504
-126904963.02746 -98752885.09044  23963024.7504                   23963020.6294
        40.5004         24.5004
-124339222.83647 -95563366.61344  23470465.1174                   23470460.6994
        42.0004         27.0004
-108495676.65248 -84464825.51647  20996515.4144                   20996509.4304
        48.7504         46.2504
 -95084396.02347 -73226167.81245  22112760.5554                   22112756.5354
        45.5004         33.0004
 25  7 16  1  8 30.0000000  0  9G16G09G03G04G26G02G28G31G01
    764146.69546  -1535631.50844  23120434.5084                   23120430.5314
        41.7504         25.7504
  26776410.41055  20935878.41854  24606074.1804                   24606074.7384
        32.2504         25.7504
 -74373638.43448 -58808593.93748  20157859.8754                   20157857.0084
        48.7504         51.2504
 -50265182.27047 -39020088.22345  21770597.7584                   21770593.6374
        45.5004         33.7504
 -45650710.55147 -35489462.68047  21688692.8834                   21688690.8984
        46.2504         43.0004
-127077776.72746 -98887545.24644  23930138.9694                   23930134.9614
        40.0004         24.7504
-124504168.23847 -95691895.54344  23439077.0474                   23439072.2154
        42.5004         28.5004
-108689557.21948 -84615901.29347  20959621.2194                   20959615.1334
        48.0004         46.2504
 -95274975.81647 -73374671.59445  22076494.8134                   22076490.8054
        46.0004         33.0004
 25  7 16  1  9  0.0000000  0  9G16G09G03G04G26G02G28G31G01
    405037.16446  -1815457.01643  23052099.0004                   23052093.9804
        41.7504         22.7504
  26439256.30546  20673161.02745  24541920.1804                   24541916.3324
        39.2504         31.5004
 -74666000.77348 -59036408.73848  20102225.0864                   20102221.8714
        48.2504         51.2504
 -50575057.36747 -39261549.31245  21711630.2664                   21711626.4804
        46.2504         33.7504
 -45948861.29347 -35721787.90247  21631956.3284                   21631954.3984
        46.2504         43.5004
-127250509.01246 -99022141.96944  23897269.8134                   23897265.4304
        39.2504         25.0004
-124668956.25046 -95820301.82444  23407719.1174                   23407714.7074
        41.7504         26.0004
-108883008.37947 -84766642.46947  20922808.3594                   20922802.4574
        47.5004         46.0004
 -95465146.16047 -73522856.32445  22040306.4224                   22040302.8834
        45.5004         32.2504
 25  7 16  1  9 30.0000000  0  9G16G09G03G04G26G02G28G31G01
     46113.58647  -2095137.65244  22983797.4534                   22983793.1054
        42.0004         25.0004
  26102140.91445  20410473.91444  24477765.5634                   24477766.8554
        34.2504         28.2504
 -74957858.16848 -59263830.07848  20046686.6724                   20046683.5944
        48.0004         51.5004
 -50884780.55947 -39502892.02345  21652691.9064                   21652688.3404
        45.5004         33.7504
 -46246440.71947 -35953667.94947  21575328.9534                   21575326.8754
        46.0004         43.5004
-127423167.43046 -99156681.09844  23864414.1254                   23864409.7344
        40.0004         24.7504
-124833593.87946 -95948590.94144  23376389.4844                   23376384.8794
        40.7504         25.0004
-109076037.21947 -84917054.57447  20886076.1484                   20886070.4614
        47.2504         46.2504
 -95654914.75447 -73670727.99645  22004194.2734                   22004190.9924
        46.0004         32.0004
 25  7 16  1 10  0.0000000  0  9G16G09G03G04G26G02G28G31G01
   -312622.24247  -2374671.99244  22915532.2584                   22915527.4414
        42.0004         25.7504
  25765063.21945  20147816.05544  24413621.7664                   24413622.3244
        33.0004         27.7504
 -75249210.27348 -59490857.68748  19991244.3834                   19991241.0594
        49.0004         51.2504
 -51194352.99647 -39744117.27345  21593782.4924                   21593778.5664
        45.7504         34.7504
 -46543448.05147 -36185102.21147  21518810.2034                   21518807.7814
        46.5004         43.5004
-127595756.10946 -99291165.93044  23831571.1334                   23831566.8594
        39.0004         25.7504
-124998084.62146 -96076765.58644  23345088.1414                   23345083.9614
        40.7504         27.0004
-109268647.88747 -85067140.82847  20849424.0084                   20849418.3094
        47.5004         46.0004
 -95844285.61747 -73818289.76245  21968158.9534                   21968155.1254
        45.7504         32.2504
 25  7 16  1 10 30.0000000  0  9G16G09G03G04G26G02G28G31G01
    904266.00846  -1426447.28544  23147098.5634                   23147093.8054
        41.0004         27.2504
  27003455.16445  21112796.91444  24649279.5234                   24649279.8404
        32.2504         26.5004
 -73964624.64548 -58489881.86748  20235692.5634                   20235689.4844
        48.7504         51.2504
 -49928343.53547 -38757616.37145  21834696.1804                   21834692.2504
        45.2504         34.0004
 -45264450.70347 -35188480.87947  21762195.5314                   21762193.5664
        46.7504         43.5004
-126192850.80546 -98197993.10244  24098535.6254                   24098531.4494
        38.5004         24.2504
-123587004.29346 -94977222.52344  23613607.5394                   23613603.6564
        41.0004         27.0004
-107885415.80147 -83989297.66047  21112643.8594                   21112638.1484
        47.5004         46.0004
 -94457834.55147 -72737938.32845  22231991.4064                   22231987.4534
        46.0004         31.7504
 25  7 16  1 11  0.0000000  0  9G16G09G03G04G26G02G28G31G01
    545916.75446  -1705680.37944  23078905.9384                   23078902.3164
        40.2504         26.5004
  26666453.50455  20850198.21954  24585151.4304                   24585151.4804
        33.0004         29.5004
 -74254959.85548 -58716117.08648  20180443.6414                   20180440.4184
        49.0004         51.2504
 -50237613.71547 -38998606.09445  21775843.8914                   21775840.1844
        45.7504         34.5004
 -45560307.43447 -35419018.55547  21705895.3284                   21705893.6644
        46.5004         43.5004
-126365307.30946 -98332374.90244  24065718.1804                   24065714.8634
        39.0004         25.2504
-123751206.98846 -95105172.73444  23582361.0314                   23582356.4844
        41.7504         26.7504
-108077197.11747 -84138737.66447  21076149.4064                   21076143.8444
        47.5004         46.0004
 -94646418.00447 -72884886.52045  22196105.5084                   22196102.0004
        45.7504         31.0004
 25  7 16  1 11 30.0000000  0  9G16G09G03G04G26G02G28G31G01
    187761.93446  -1984761.96944  23010751.3674                   23010747.6374
        40.2504         26.5004
  26329485.49245  20587625.86344  24521028.8984                   24521026.9574
        34.0004         27.5004
 -74544788.03148 -58941957.21548  20125291.3914                   20125288.4534
        49.0004         51.2504
 -50546736.80547 -39239481.20345  21717019.3984                   21717015.8874
        45.5004         34.0004
 -45855590.16847 -35649108.96147  21649705.5084                   21649702.7934
        46.0004         43.5004
-126537706.08646 -98466711.71944  24032912.6334                   24032907.4414
        39.0004         24.7504
-123915273.14146 -95233016.52344  23551139.9144                   23551135.4064
        41.0004         27.7504
-108268572.07847 -84287861.03147  21039731.9774                   21039726.0204
        46.7504         46.0004
 -94834616.21147 -73031534.52045  22160292.5084                   22160288.7384
        44.2504         32.0004
 25  7 16  1 12  0.0000000  0  9G16G09G03G04G26G02G28G31G01
   -170193.64846  -2263688.28944  22942635.1724                   22942630.6724
        41.5004         26.7504
  25992552.38356  20325080.77354  24456913.8754                   24456910.5164
        37.5004         28.5004
 -74834106.07048 -59167399.84448  20070235.6564                   20070232.6724
        48.2504         51.2504
 -50855711.42247 -39480240.63345  21658223.7814                   21658219.8404
        44.5004         34.5004
 -46150295.68747 -35878749.59447  21593625.0084                   21593622.6644
        46.0004         43.7504
-126710048.44146 -98601004.59444  24000116.3674                   24000112.3794
        39.0004         25.2504
-124079203.57446 -95360754.56644  23519945.4844                   23519941.4264
        41.2504         28.5004
-108459541.92247 -84436668.71947  21003391.2974                   21003385.1954
        47.5004         46.0004
 -95022430.75847 -73177883.56645  22124552.8284                   22124548.5744
        45.5004         32.2504
 25  7 16  1 12 30.0000000  0  9G16G09G03G04G26G02G28G31G01
   -527950.00846  -2542459.39144  22874555.9694                   22874552.6094
        41.5004         27.0004
  25655651.07046  20062560.27044  24392804.6644                   24392800.1764
        36.7504         28.7504
 -75122915.55948 -59392446.19148  20015277.3284                   20015274.1414
        49.2504         51.2504
 -51164540.91847 -39720886.96145  21599455.2584                   21599451.2584
        45.2504         34.5004
 -46444425.53547 -36107941.66047  21537653.7274                   21537651.6094
        45.7504         43.7504
-126882340.59846 -98735258.35943  23967330.3984                   23967326.5594
        39.2504         23.7504
-124243003.83246 -95488391.19144  23488775.2114                   23488771.2624
        41.0004         26.7504
-108650112.57447 -84585165.34047  20967127.1414                   20967121.2704
        47.7504         46.0004
 -95209867.87547 -73323938.52345  22088884.5864                   22088880.8284
        44.5004         31.5004
 25  7 16  1 13  0.0000000  0  9G16G09G03G04G26G02G28G31G01
   -885501.71946  -2821071.03944  22806516.9614                   22806512.6644
        41.0004         27.0004
  25318783.16446  19800066.00045  24328699.2114                   24328699.6134
        37.5004         32.7504
 -75411212.86748 -59617093.44148  19960415.7424                   19960412.9924
        48.2504         51.2504
 -51473223.25447 -39961418.62545  21540714.9454                   21540711.4454
        45.5004         34.5004
 -46737975.98447 -36336682.24247  21481792.7344                   21481791.0824
        46.0004         43.7504
-127054583.34446 -98869473.60944  23934554.1644                   23934549.7664
        39.5004         25.2504
-124406674.13346 -95615926.52744  23457629.8834                   23457625.5704
        41.0004         26.7504
-108840284.80547 -84733351.52047  20930938.6954                   20930932.7274
        47.5004         46.0004
 -95396928.60547 -73469700.17245  22053288.1174                   22053284.4734
        45.5004         32.0004
 25  7 16  1 13 30.0000000  0  9G16G09G03G04G26G02G28G31G01
    332587.48846  -1871910.55144  23038310.7814                   23038306.7304
        41.2504         26.0004
  26557381.02346  20765207.24644  24564395.1954                   24564394.0434
        36.7504         27.5004
 -74123565.56648 -58613731.89848  20205447.0944                   20205444.0984
        49.0004         51.2504
 -50206327.05147 -38974226.75845  21781797.6334                   21781793.5204
        45.5004         34.5004
 -45455514.40247 -35337361.49647  21725836.8134                   21725834.7274
        45.5004         43.7504
-125651352.62146 -97776047.19544  24201579.8674                   24201576.1414
        39.5004         25.0004
-122994790.12146 -94515757.20744  23726302.8594                   23726298.0274
        40.7504         27.0004
-107454633.88347 -83653623.54747  21194619.3754                   21194613.3524
        47.2504         46.0004
 -94008188.58247 -72387565.14145  22317556.3984                   22317552.8164
        45.2504         32.0004
 25  7 16  1 14  0.0000000  0  9G16G09G03G04G26G02G28G31G01
    -24542.30146  -2150193.41044  22970351.2664                   22970347.1414
        41.0004         27.0004
  26220582.55946  20502767.08645  24500304.6484                   24500305.6644
        38.2504         33.0004
 -74410830.78148 -58837574.92248  20150782.1174                   20150779.2624
        49.0004         51.2504
 -50514712.47347 -39214527.05945  21723113.5784                   21723109.7194
        45.7504         34.2504
 -45747898.24647 -35565193.03947  21670198.1414                   21670196.1024
        46.2504         43.7504
-125823502.05546 -97910189.73044  24168820.3284                   24168817.0474
        39.0004         24.2504
-123158204.52046 -94643093.14544  23695205.6334                   23695201.7424
        41.2504         28.5004
-107644014.69947 -83801193.03147  21158581.5394                   21158575.6374
        47.2504         45.5004
 -94194502.85247 -72532745.14145  22282102.2664                   22282098.6214
        43.7504         32.2504
 25  7 16  1 14 30.0000000  0  9G16G09G03G04G26G02G28G31G01
   -381457.56646  -2428309.11744  22902433.0004                   22902428.4774
        41.2504         26.5004
  25883817.39846  20240352.69145  24436221.6334                   24436219.6564
        39.0004         31.7504
 -74697578.74248 -59061014.88748  20096216.1254                   20096213.0474
        48.5004         51.2504
 -50822950.66447 -39454712.63345  21664457.7734                   21664453.5984
        45.2504         34.5004
 -46039697.45347 -35792569.01247  21614670.4844                   21614668.4414
        46.0004         43.7504
-125995610.62146 -98044300.43044  24136069.6174                   24136065.7894
        40.0004         25.5004
-123321495.52046 -94770332.93044  23664132.7734                   23664128.4964
        41.0004         28.2504
-107833005.09848 -83948458.28947  21122617.6024                   21122611.3554
        48.0004         46.0004
 -94380449.69147 -72677638.84845  22246717.5474                   22246714.0984
        45.2504         32.5004
 25  7 16  1 15  0.0000000  0  9G16G09G03G04G26G02G28G31G01
   -738156.56246  -2706256.30144  22834555.0394                   22834551.3554
        41.5004         25.7504
  25547083.50446  19977962.78944  24372141.1414                   24372141.4574
        36.0004         29.7504
 -74983809.75048 -59284052.02748  20041748.3134                   20041744.7074
        48.5004         51.2504
 -51131043.58647 -39694785.01245  21605829.5164                   21605825.8634
        45.5004         35.0004
 -46330912.37547 -36019489.69947  21559254.2274                   21559252.4024
        45.0004         44.0004
-126167682.92246 -98178382.89844  24103325.8444                   24103322.0124
        40.2504         25.2504
-123484667.25846 -94897479.77044  23633081.7814                   23633077.6994
        41.5004         27.7504
-108021609.67247 -84095422.91047  21086727.5784                   21086721.3364
        47.7504         45.7504
 -94566034.02347 -72822250.06645  22211402.8204                   22211398.8244
        44.7504         33.2504
 25  7 16  1 15 30.0000000  0  9G16G09G03G04G26G02G28G31G01
  -1094631.83646  -2984029.14844  22766720.2274                   22766716.0904
        41.0004         26.5004
  25210384.93446  19715600.32044  24308071.0164                   24308069.0594
        37.0004         28.2504
 -75269518.13748 -59506681.93448  19987379.7894                   19987376.4264
        49.0004         51.2504
 -51438987.09047 -39934740.97345  21547229.5234                   21547225.8094
        45.0004         35.0004
 -46621537.33247 -36245950.67647  21503950.3134                   21503947.7704
        46.2504         44.2504
-126339717.53146 -98312435.98444  24070588.7814                   24070584.8134
        39.7504         24.0004
-123647717.83646 -95024532.21944  23602054.5474                   23602050.4144
        41.5004         29.2504
-108209827.27747 -84242085.99247  21050910.8134                   21050905.3164
        47.7504         45.5004
 -94751254.83247 -72966578.02745  22176156.3364                   22176152.5904
        45.0004         33.0004
 25  7 16  1 16  0.0000000  0  9G16G09G03G04G26G02G28G31G01
  -1450882.02746  -3261626.62144  22698927.7194                   22698923.6644
        41.2504         26.5004
  24873719.45346  19453263.73045  24244004.7974                   24244005.8524
        37.0004         30.2504
 -75554704.34448 -59728904.94548  19933110.3284                   19933107.3284
        48.7504         51.2504
 -51746783.25447 -40174582.10945  21488658.1564                   21488654.4574
        45.0004         34.5004
 -46911572.73047 -36471952.25447  21448757.9774                   21448756.2424
        46.5004         44.0004
-126511719.45746 -98446463.59044  24037858.5554                   24037854.1134
        39.7504         24.0004
-123810651.51646 -95151493.58244  23571049.8984                   23571045.7704
        41.5004         28.5004
-108397662.50447 -84388451.12547  21015167.1094                   21015160.7074
        47.0004         45.5004
 -94936117.18447 -73110626.66845  22140978.1564                   22140974.6644
        44.7504         33.5004
 25  7 16  1 16 30.0000000  0  9G16G09G03G04G26G02G28G31G01
   -231475.12546  -2311439.32444  22930972.7274                   22930969.2704
        41.2504         26.0004
  26112515.01246  20418559.02044  24479739.0004                   24479738.3914
        37.7504         29.0004
 -74263940.57048 -58723114.98448  20178734.8674                   20178731.5634
        49.2504         51.2504
 -50479005.10947 -39186703.01245  21729908.0704                   21729904.3794
        45.5004         34.7504
 -45625590.56247 -35469888.19947  21693472.3204                   21693470.9224
        46.5004         44.0004
-125108268.86746 -97352865.84044  24304925.5004                   24304921.9654
        39.7504         24.0004
-122398048.32446 -94050763.85944  23839859.2504                   23839854.8874
        41.2504         29.2504
-107009695.40248 -83306918.33247  21279288.4064                   21279282.4344
        48.2504         45.5004
 -93545201.25447 -72026796.12945  22405660.5634                   22405656.9844
        44.5004         32.7504
 25  7 16  1 17  0.0000000  0  9G16G09G03G04G26G02G28G31G01
   -587269.07446  -2588681.28544  22863267.6484                   22863262.9574
        41.7504         26.0004
  25775911.57046  20156270.67644  24415684.7424                   24415685.3794
        36.5004         29.5004
 -74548081.70748 -58944523.66448  20124664.4774                   20124661.5314
        48.7504         51.2504
 -50786510.53547 -39426317.60945  21671391.9454                   21671388.1334
        45.7504         34.2504
 -45914446.14547 -35694970.43747  21638505.3754                   21638502.9924
        46.2504         44.0004
-125280217.53546 -97486851.95744  24272204.5944                   24272201.2974
        40.0004         24.5004
-122560758.74647 -94177551.24644  23808896.4144                   23808891.9144
        42.5004         28.5004
-107196778.19548 -83452697.14847  21243687.6094                   21243682.0314
        48.2504         45.5004
 -93729359.89147 -72170296.43045  22370616.2274                   22370612.6134
        44.0004         32.5004
 25  7 16  1 17 30.0000000  0  9G16G09G03G04G26G02G28G31G01
   -942826.85547  -2865739.21544  22795607.3524                   22795602.9184
        42.0004         25.7504
  25439342.27346  19894009.01244  24351639.5864                   24351637.2624
        38.2504         28.5004
 -74831694.73848 -59165520.82848  20070694.5784                   20070691.6374
        49.2504         51.2504
 -51093867.26647 -39665816.34045  21612904.2974                   21612900.0824
        46.2504         35.2504
 -46202706.29347 -35919588.71147  21583651.0474                   21583648.8794
        46.2504         43.7504
-125452140.65246 -97620818.17243  24239489.2424                   24239485.6414
        39.0004         22.5004
-122723357.46147 -94304251.58244  23777954.8204                   23777950.9534
        42.0004         28.0004
-107383485.54347 -83598183.41447  21208158.6884                   21208153.0274
        46.2504         45.2504
 -93913168.03147 -72313523.62145  22335638.5554                   22335635.5234
        43.2504         32.0004
 25  7 16  1 18  0.0000000  0  9G16G09G03G04G26G02G28G31G01
  -1298146.48047  -3142611.55144  22727991.5004                   22727987.8754
        42.0004         26.0004
  25102805.43446  19631772.55144  24287597.7194                   24287596.9774
        37.2504         28.7504
 -75114779.71148 -59386106.52348  20016825.5004                   20016822.0784
        49.2504         51.2504
 -51401076.94547 -39905200.48845  21554443.8834                   21554439.7424
        45.0004         34.7504
 -46490371.11747 -36143743.09447  21528910.2504                   21528908.0084
        46.0004         44.0004
-125624042.48446 -97754767.78543  24206778.2734                   24206773.8554
        39.2504         22.7504
-122885848.32447 -94430867.88744  23747033.4774                   23747029.9264
        42.2504         27.7504
-107569822.06248 -83743380.71147  21172699.8594                   21172694.0904
        48.5004         45.5004
 -94096630.32847 -72456481.32045  22300727.0704                   22300723.8164
        44.2504         31.7504
 25  7 16  1 18 30.0000000  0  9G16G09G03G04G26G02G28G31G01
  -1653225.72747  -3419296.60944  22660422.3524                   22660418.0984
        42.2504         26.5004
  24766299.68846  19369560.35944  24223563.7814                   24223561.8014
        38.5004         29.7504
 -75397336.39848 -59606280.55948  19963056.7584                   19963053.3834
        48.2504         51.2504
 -51708140.74247 -40144470.96545  21496011.6174                   21496007.2894
        45.7504         35.2504
 -46777440.41047 -36367433.43047  21474282.4454                   21474280.5664
        46.0004         44.0004
-125795927.00046 -97888703.89843  24174069.4144                   24174065.1174
        40.2504         22.7504
-123048234.69946 -94557402.78144  23716133.1724                   23716128.7194
        41.7504         26.7504
-107755791.55548 -83888292.02347  21137311.1724                   21137305.3324
        48.2504         45.5004
 -94279751.18447 -72599172.96945  22265880.0004                   22265876.8014
        43.7504         31.7504
 25  7 16  1 19  0.0000000  0  9G16G09G03G04G26G02G28G31G01
  -2008059.81647  -3695790.64844  22592899.7034                   22592895.1684
        42.2504         26.2504
  24429826.47346  19107373.52045  24159534.6484                   24159533.4224
        39.0004         31.2504
 -75679361.80548 -59826040.62148  19909389.0474                   19909385.9774
        49.0004         51.2504
 -52015057.14147 -40383626.57845  21437607.0944                   21437603.2464
        45.2504         34.5004
 -47063911.22747 -36590657.42647  21419769.0784                   21419767.2034
        45.2504         44.0004
-125967795.64146 -98022627.63343  24141363.6334                   24141360.2194
        39.2504         21.7504
-123210517.24646 -94683856.76644  23685251.7894                   23685247.2854
        41.7504         26.7504
-107941395.40247 -84032918.41047  21101991.6884                   21101985.8674
        47.0004         45.2504
 -94462532.19547 -72741599.78945  22231098.1174                   22231095.4024
        42.7504         31.2504
 25  7 16  1 19 30.0000000  0  9G16G09G03G04G26G02G28G31G01
   -787213.54347  -2744481.78544  22825219.1724                   22825214.6054
        42.5004         27.0004
  25668817.17246  20072820.91045  24395306.7584                   24395304.2974
        38.5004         30.0004
 -74385424.85248 -58817778.05548  20155616.8674                   20155613.6294
        49.0004         51.2504
 -50746395.66447 -39395059.16845  21679025.5554                   21679021.6994
        44.5004         35.0004
 -45774352.53547 -35585806.47347  21665163.9384                   21665162.0904
        46.2504         44.2504
-124564225.27346 -96928936.57443  24408454.1564                   24408451.1844
        39.2504         23.5004
-121797272.50846 -93582627.14844  23954182.5234                   23954179.0784
        40.7504         26.5004
-106551209.96547 -82949657.05147  21366535.3914                   21366529.5474
        47.5004         45.5004
 -93069550.11747 -71656159.27045  22496174.2274                   22496170.4264
        43.0004         31.7504
 25  7 16  1 20  0.0000000  0  9G16G09G03G04G26G02G28G31G01
  -1141548.11347  -3020586.57044  22757791.1884                   22757786.9694
        42.2504         26.5004
  25332408.11746  19810684.09045  24331290.7424                   24331289.1414
        40.0004         31.7504
 -74666384.00048 -59036707.25848  20102151.8984                   20102149.1174
        49.0004         51.2504
 -51053017.79747 -39633985.48045  21620677.1174                   21620673.9064
        45.0004         35.2504
 -46059622.87947 -35808095.02747  21610879.0164                   21610876.7384
        47.2504         44.5004
-124736071.23446 -97062842.68744  24375753.2114                   24375749.8164
        39.5004         24.2504
-121959354.49646 -93708924.85944  23923339.5944                   23923335.9024
        39.5004         25.5004
-106736091.42647 -83093720.54347  21331353.4454                   21331348.0124
        46.2504         45.2504
 -93251661.39847 -71798064.23445  22461519.2194                   22461515.8164
        44.5004         31.0004
 25  7 16  1 20 30.0000000  0  9G16G09G03G04G26G02G28G31G01
  -1495628.37547  -3296493.19944  22690412.2424                   22690408.2704
        43.0004         28.0004
  24996030.53946  19548571.76645  24267280.4224                   24267278.6764
        37.5004         31.5004
 -74946808.32048 -59255219.71948  20048789.6024                   20048786.2814
        48.7504         51.2504
 -51359493.27747 -39872797.52345  21562357.0944                   21562353.1524
        45.0004         34.5004
 -46344291.42247 -36029914.64847  21556707.7194                   21556705.8094
        46.7504         44.5004
-124907910.46946 -97196743.50043  24343053.5944                   24343049.9024
        39.7504         22.5004
-122121339.91046 -93835147.30544  23892515.4304                   23892511.2074
        40.0004         24.0004
-106920616.21148 -83237506.10547  21296240.1724                   21296233.9184
        48.2504         45.2504
 -93433443.07047 -71939712.36345  22426927.6564                   22426924.2854
        44.5004         30.5004
 25  7 16  1 21  0.0000000  0  9G16G09G03G04G26G02G28G31G01
  -1849448.50047  -3572197.14544  22623081.9774                   22623078.3674
        42.2504         27.0004
  24659686.68446  19286485.71545  24203275.7504                   24203273.7584
        38.5004         30.7504
 -75226694.16448 -59473312.57848  19995528.7424                   19995525.6134
        49.5004         51.0004
 -51665819.74647 -40111493.44945  21504064.8284                   21504060.7384
        45.0004         35.2504
 -46628354.57447 -36251262.53947  21502652.5394                   21502650.8524
        46.0004         44.2504
-125079743.34446 -97330639.38343  24310354.9774                   24310351.5634
        40.5004         23.5004
-122283228.53146 -93961294.32844  23861708.5164                   23861704.7384
        39.5004         25.0004
-107104784.82047 -83381014.13347  21261193.4774                   21261187.8674
        45.7504         45.2504
 -93614895.87547 -72081104.21945  22392398.6334                   22392394.8914
        42.0004         31.0004
 25  7 16  1 21 30.0000000  0 10G16G09G03G06G04G26G02G28G31G01
  -2203004.29747  -3847695.09444  22555803.0474                   22555798.1484
        42.2504         28.5004
  24323377.32846  19024426.58245  24139277.6804                   24139276.0554
        36.5004         30.5004
 -75506039.13748 -59690983.98448  19942371.1564                   19942367.8204
        48.7504         51.2504
  41996647.58656  32792094.46554  25355925.1564                   25355924.7814
        36.0004         28.7504
 -51971996.19947 -40350072.48845  21445801.8284                   21445797.7664
        45.0004         35.5004
 -46911810.06647 -36472136.92647  21448713.1334                   21448710.8444
        47.2504         44.5004
-125251571.96946 -97464531.96943  24277657.2504                   24277653.4144
        38.7504         22.7504
-122445021.55546 -94087366.86744  23830920.4454                   23830916.4654
        38.5004         24.0004
-107288599.19147 -83524246.12547  21226215.1024                   21226209.1644
        47.0004         45.0004
 -93796022.07847 -72222241.59045  22357931.1954                   22357927.8874
        45.2504         31.2504
 25  7 16  1 22  0.0000000  0 10G16G09G03G06G04G26G02G28G31G01
  -2556301.60947  -4122991.63344  22488572.4534                   22488568.2894
        42.7504         27.2504
  23987093.34846  18762387.20345  24075284.1954                   24075283.6764
        36.0004         30.7504
 -75784851.02348 -59908240.00448  19889314.8594                   19889312.0944
        48.5004         51.2504
  41672945.59845  32539859.13744  25294326.3754                   25294326.5904
        35.2504         28.0004
 -52278031.76247 -40588541.73445  21387564.3834                   21387560.6764
        44.5004         35.2504
 -47194665.78547 -36692543.96147  21394887.4694                   21394885.0824
        47.0004         44.2504
-125423407.75846 -97598430.13743  24244958.3444                   24244954.5784
        39.0004         22.7504
-122606730.26246 -94213373.71544  23800147.9064                   23800144.3834
        40.5004         25.2504
-107472070.99647 -83667211.18047  21191301.1884                   21191295.4104
        47.0004         45.5004
 -93976833.94947 -72363134.01245  22323524.2814                   22323520.4064
        44.2504         30.5004
 25  7 16  1 22 30.0000000  0 10G16G09G03G06G04G26G02G28G31G01
  -1333908.45747  -3170477.43744  22721186.5004                   22721181.4964
        42.7504         27.7504
  25226262.53545  19727973.68445  24311090.4534                   24311089.8404
        34.2504         30.7504
 -74487702.48848 -58897474.91048  20136154.3594                   20136151.0234
        48.5004         51.2504
  42925103.30545  33515566.43044  25532604.6334                   25532603.8164
        33.0004         26.0004
 -51008499.46147 -39599295.77345  21629148.6644                   21629144.6254
        45.5004         35.0004
 -45901494.36747 -35684877.91447  21640969.2504                   21640967.6724
        47.0004         44.5004
-124019831.82046 -96504734.76643  24512049.7114                   24512046.3054
        39.0004         22.2504
-121192934.67246 -93111714.85243  24069185.2194                   24069180.8054
        39.7504         22.7504
-106079780.52347 -82582309.53547  21456245.3054                   21456239.7034
        46.2504         44.7504
 -92581911.97347 -71276181.87945  22588969.0944                   22588965.3244
        42.5004         30.2504
 25  7 16  1 23  0.0000000  0 10G16G09G03G06G04G26G02G28G31G01
  -1686687.03547  -3445369.75844  22654054.7664                   22654050.2234
        43.0004         28.5004
  24890020.59446  19465967.09445  24247105.3134                   24247104.9534
        36.2504         31.5004
 -74765452.54748 -59113903.52348  20083299.9614                   20083296.7074
        48.0004         51.2504
  42602259.30945  33263999.73844  25471169.3134                   25471168.8554
        34.7504         27.7504
 -51314261.41847 -39837551.81645  21570964.1564                   21570960.3404
        43.7504         35.0004
 -46183155.26647 -35904353.91847  21587371.2194                   21587369.1914
        46.5004         44.5004
-124191699.68746 -96638657.91443  24479344.6804                   24479341.2734
        39.7504         22.0004
-121354489.37946 -93237601.68743  24038441.9144                   24038437.7074
        40.2504         23.0004
-106262584.05947 -82724753.86347  21421459.3984                   21421453.5004
        47.5004         45.0004
 -92762113.16047 -71416598.44545  22554677.9454                   22554674.4774
        45.2504         31.0004
 25  7 16  1 23 30.0000000  0 10G16G09G03G06G04G26G02G28G31G01
  -2039198.37147  -3720053.86344  22586973.8054                   22586969.3324
        42.0004         28.0004
  24553802.57446  19203979.11745  24183124.1724                   24183124.6684
        36.0004         30.0004
 -75042666.65648 -59329914.51648  20030547.7894                   20030544.6294
        48.5004         51.2504
  42279850.05945  33012771.78144  25409816.8134                   25409815.3204
        34.7504         25.5004
 -51619883.49647 -40075698.86745  21512806.0314                   21512802.1254
        45.0004         35.2504
 -46464213.91447 -36123360.64547  21533887.8204                   21533885.5394
        47.5004         44.5004
-124363584.34846 -96772594.14543  24446636.5234                   24446632.8364
        38.7504         22.0004
-121515967.23446 -93363428.66044  24007714.0784                   24007709.7274
        40.5004         25.2504
-106445054.76647 -82866938.85547  21386735.8444                   21386730.2974
        47.7504         45.0004
 -92942010.71947 -71556778.41445  22520444.7274                   22520441.0904
        46.0004         31.0004
 25  7 16  1 24  0.0000000  0 10G16G09G03G06G04G26G02G28G31G01
  -2391438.73847  -3994526.79344  22519945.1884                   22519940.2704
        43.5004         28.0004
  24217608.45345  18942009.79344  24119149.1954                   24119148.5004
        35.5004         29.0004
 -75319343.57848 -59545506.92248  19977898.0784                   19977894.9414
        48.5004         51.2504
  41957877.27345  32761883.92244  25348547.1334                   25348546.0554
        33.5004         24.2504
 -51925365.58247 -40313736.84445  21454674.5864                   21454670.6564
        46.0004         35.7504
 -46744669.15647 -36341897.18447  21480518.9774                   21480516.7704
        47.0004         44.7504
-124535488.93446 -96906545.91443  24413923.1724                   24413919.4614
        36.7504         21.5004
-121677370.32046 -93489197.33644  23976999.5314                   23976995.9344
        41.2504         24.7504
-106627195.64147 -83008866.82447  21352075.6094                   21352070.0004
        47.7504         44.5004
 -93121607.84447 -71696724.28545  22486267.9224                   22486265.0984
        45.5004         30.7504
 25  7 16  1 24 30.0000000  0 10G16G09G03G06G04G26G02G28G31G01
  -2743401.57047  -4268783.48044  22452968.3834                   22452964.3954
        43.2504         28.5004
  23881441.45745  18680061.59044  24055178.7664                   24055178.2234
        35.2504         29.5004
 -75595478.61348 -59760677.08648  19925351.1884                   19925348.2774
        49.0004         51.2504
  41636346.16445  32511340.25843  25287362.7194                   25287361.0824
        33.5004         23.0004
 -52230704.26647 -40551663.06245  21396570.8594                   21396567.0004
        46.2504         35.0004
 -47024516.49647 -36559960.02047  21427265.4304                   21427263.2664
        46.5004         44.7504
-124707412.68746 -97040512.64543  24381208.1954                   24381204.3484
        37.7504         21.5004
-121838697.30146 -93614906.72344  23946300.6094                   23946296.5274
        41.0004         24.0004
-106809005.73448 -83150537.05147  21317478.3364                   21317472.6094
        48.0004         44.5004
 -93300904.35247 -71836435.90245  22452149.7114                   22452146.1414
        46.0004         31.5004
 25  7 16  1 25  0.0000000  0 10G16G09G03G06G04G26G02G28G31G01
  -3095081.10247  -4542819.41044  22386045.9384                   22386041.8164
        42.5004         28.0004
  23545304.16445  18418136.55945  23991213.7734                   23991212.8164
        34.5004         30.0004
 -75871067.98848 -59975422.06248  19872908.3134                   19872904.9414
        49.2504         51.2504
  41315260.97345  32261144.02344  25226261.9694                   25226260.7854
        32.7504         25.0004
 -52535896.94947 -40789475.52045  21338494.4844                   21338490.7774
        45.5004         35.5004
 -47303752.32847 -36777546.36747  21374128.6254                   21374126.4024
        46.5004         44.5004
-124879356.01646 -97174494.57043  24348488.1414                   24348484.7704
        38.2504         21.7504
-121999947.74246 -93740556.46544  23915615.1954                   23915611.1914
        41.2504         24.2504
-106990485.19547 -83291949.63747  21282944.1094                   21282938.2344
        47.0004         44.5004
 -93479900.87547 -71975913.77345  22418087.5474                   22418084.1214
        45.0004         31.7504
 25  7 16  1 25 30.0000000  0 10G16G09G03G06G04G26G02G28G31G01
  -1871041.74647  -3589022.44544  22618971.9694                   22618968.3754
        42.7504         28.5004
  24784627.99645  19383843.53545  24227050.0554                   24227048.3834
        35.5004         30.2504
 -74570680.82448 -58962133.37948  20120364.0084                   20120360.6214
        48.2504         51.2504
  42570054.60245  33238905.35944  25465040.3204                   25465040.7074
        33.0004         25.0004
 -51265512.92647 -39799565.86345  21580240.6564                   21580236.6684
        45.5004         35.5004
 -46006945.84447 -35767047.78547  21620902.8984                   21620900.8244
        46.2504         44.7504
-123475895.14846 -96080888.88343  24615557.5634                   24615555.0434
        37.0004         21.7504
-120585697.86346 -92638543.61744  24184738.7664                   24184734.5044
        41.0004         24.5004
-105596210.38347 -82205501.74647  21548265.5704                   21548259.7384
        45.5004         44.5004
 -92083174.31247 -70887555.47745  22683875.7974                   22683872.7034
        42.5004         31.7504
 25  7 16  1 26  0.0000000  0 10G16G09G03G06G04G26G02G28G31G01
  -2222143.14847  -3862607.89544  22552160.6564                   22552156.0354
        43.2504         29.2504
  24448551.28146  19121965.68445  24163097.0084                   24163095.4964
        36.7504         31.7504
 -74845173.70748 -59176023.93748  20068129.6254                   20068126.5124
        48.5004         51.2504
  42249867.80545  32989409.17643  25404111.5554                   25404110.2624
        34.0004         22.2504
 -51570411.98047 -40037149.51245  21522220.2584                   21522215.9064
        44.7504         35.0004
 -46284954.00047 -35983677.51247  21567999.6564                   21567997.4964
        46.2504         44.5004
-123647883.82046 -96214906.18743  24582830.1024                   24582826.4884
        38.5004         20.0004
-120746799.99246 -92764077.78944  24154081.4384                   24154077.8444
        41.7504         25.2504
-105777035.60247 -82346404.53547  21513855.9224                   21513850.4694
        46.5004         44.5004
 -92261579.19947 -71026572.32045  22649926.3914                   22649922.9064
        44.0004         31.7504
 25  7 16  1 26 30.0000000  0 10G16G09G03G06G04G26G02G28G31G01
  -2572949.61347  -4135963.51644  22485403.8834                   22485400.0394
        42.5004         29.2504
  24112505.43446  18860111.87145  24099149.7814                   24099147.7894
        37.0004         31.5004
 -75119115.68748 -59389485.21948  20016000.0944                   20015997.1454
        48.2504         51.2504
  41930133.61345  32740265.68844  25343268.5084                   25343266.9304
        33.0004         24.2504
 -51875163.23447 -40274617.99645  21464228.2274                   21464223.9574
        45.0004         35.5004
 -46562345.98047 -36199827.09847  21515213.8134                   21515211.5664
        46.5004         44.5004
-123819898.55546 -96348943.79343  24550096.0234                   24550092.8524
        38.0004         21.7504
-120907830.13347 -92889555.87944  24123438.8754                   24123434.4844
        42.5004         25.7504
-105957537.13747 -82487055.10547  21479507.8594                   21479502.1994
        47.5004         44.2504
 -92439692.23847 -71165361.77045  22616033.3204                   22616029.6054
        44.7504         30.7504
 25  7 16  1 27  0.0000000  0 10G16G09G03G06G04G26G02G28G31G01
  -2923455.93447  -4409085.24244  22418705.1414                   22418700.7974
        42.0004         29.0004
  23776492.49646  18598283.71545  24035207.7894                   24035205.7304
        36.0004         31.5004
 -75392503.72747 -59602514.85248  19963976.0474                   19963973.4104
        47.2504         51.2504
  41610855.66045  32491477.76244  25282512.3444                   25282510.5784
        34.2504         24.7504
 -52179764.72747 -40511969.78945  21406264.2974                   21406260.6684
        44.5004         35.0004
 -46839118.86347 -36415494.26247  21462545.0704                   21462543.4024
        45.2504         44.5004
-123991940.21146 -96483002.35243  24517358.3984                   24517355.5204
        38.2504         21.2504
-121068788.52746 -93014978.06244  24092809.3284                   24092805.4614
        41.5004         26.2504
-106137715.75847 -82627454.04747  21445220.6564                   21445215.3754
        47.0004         44.2504
 -92617514.76647 -71303924.83645  22582194.2894                   22582191.7464
        44.5004         30.7504
 25  7 16  1 27 30.0000000  0 10G16G09G03G06G04G26G02G28G31G01
  -3273658.27047  -4681970.10244  22352063.1024                   22352059.4264
        42.0004         29.0004
  23440513.14146  18336481.68445  23971272.7274                   23971271.6414
        37.0004         32.7504
 -75665335.83647 -59815111.29348  19912058.0944                   19912055.1134
        47.5004         51.2504
  41292036.18845  32243047.05143  25221842.2194                   25221841.3714
        32.7504         22.5004
 -52484215.61347 -40749204.22745  21348329.2664                   21348325.3364
        45.0004         35.5004
 -47115270.95747 -36630677.68747  21409995.3204                   21409993.6764
        45.5004         44.7504
-124164010.88346 -96617083.57043  24484614.4144                   24484611.4224
        37.5004         20.0004
-121229676.37146 -93140345.27044  24062193.2194                   24062189.3634
        41.5004         25.0004
-106317573.52347 -82767602.96947  21410994.8984                   21410988.9494
        46.5004         44.0004
 -92795049.21947 -71442263.43045  22548410.6174                   22548407.2274
        44.2504         30.5004
 25  7 16  1 28  0.0000000  0 10G16G09G03G06G04G26G02G28G31G01
  -3623556.10547  -4954617.71144  22285480.4064                   22285475.5744
        43.0004         29.2504
  23104564.05946  18074703.27045  23907344.2194                   23907342.9454
        38.0004         33.0004
 -75937614.14847 -60027276.21548  19860245.0864                   19860242.3094
        47.7504         51.2504
  40973673.83655  31994972.56653  25161259.7274                   25161258.6054
        33.0004         22.2504
 -52788518.98447 -40986323.70345  21290421.9534                   21290417.8164
        45.7504         35.2504
 -47390804.48047 -36845379.10547  21357563.1094                   21357561.2504
        46.0004         44.7504
-124336116.32446 -96751191.85943  24451864.0164                   24451860.8634
        38.2504         20.7504
-121390498.94946 -93265661.61344  24031590.2974                   24031585.7074
        41.5004         27.0004
-106497116.19547 -82907506.36747  21376829.3984                   21376823.7274
        46.7504         44.5004
 -92972302.09447 -71580382.62945  22514680.1804                   22514677.2114
        43.5004         30.5004
 25  7 16  1 28 30.0000000  0 10G16G09G03G06G04G26G02G28G31G01
  -2397711.94947  -3999414.40645  22518750.1804                   22518745.7774
        42.7504         30.0004
  24344079.32446  19040559.38345  24143216.4924                   24143214.8404
        36.5004         32.0004
 -74633905.59447 -59011399.41048  20108333.0234                   20108329.7424
        47.7504         51.5004
  42231203.57045  32974865.91843  25400559.3674                   25400558.9494
        35.2504         23.7504
 -51517241.80947 -39995718.08645  21532337.6954                   21532334.0274
        44.7504         35.5004
 -46090286.66447 -35831988.58647  21605043.4844                   21605041.2114
        46.0004         44.7504
-122932830.91446 -95657722.82443  24718899.7664                   24718897.5044
        39.0004         20.7504
-119975830.06647 -92163322.28544  24300793.2424                   24300788.8054
        42.0004         26.5004
-105100918.33647 -81819560.00047  21642516.6484                   21642511.5314
        46.0004         44.0004
 -91573847.88347 -70490678.11345  22780797.6644                   22780794.4804
        43.0004         30.0004
 25  7 16  1 29  0.0000000  0 10G16G09G03G06G04G26G02G28G31G01
  -2746985.22347  -4271575.32845  22452285.9454                   22452281.8834
        43.2504         30.2504
  24008196.77046  18778832.80545  24079299.1724                   24079297.9654
        37.5004         32.7504
 -74905066.80948 -59222693.86748  20056732.4144                   20056729.2154
        48.0004         51.5004
  41913766.07045  32727512.09843  25340153.2194                   25340152.5474
        33.5004         23.7504
 -51821243.83247 -40232602.75845  21474488.1564                   21474483.9414
        46.7504         35.2504
 -46364574.39847 -36045719.27347  21552848.5944                   21552846.0984
        46.0004         44.7504
-123105008.35246 -95791887.21943  24686135.9614                   24686132.8244
        39.5004         21.0004
-120136522.03146 -92288536.85244  24270214.3054                   24270210.4104
        41.2504         25.5004
-105279833.87547 -81958974.73047  21608470.4224                   21608464.7624
        46.7504         44.0004
 -91750541.23447 -70628361.32444  22747173.9454                   22747170.8874
        42.7504         29.0004
 25  7 16  1 29 30.0000000  0 10G16G09G03G06G04G26G02G28G31G01
  -3095943.78547  -4543491.03144  22385880.7894                   22385876.8594
        42.0004         29.2504
  23672344.86346  18517130.09045  24015389.2504                   24015387.8094
        38.2504         33.5004
 -75175670.44148 -59433553.85248  20005238.3054                   20005235.1024
        49.2504         51.5004
  41596790.95345  32480518.53544  25279834.3364                   25279834.1724
        35.5004         25.0004
 -52125097.59847 -40469371.90645  21416666.7114                   21416662.6844
        46.5004         35.5004
 -46638240.53547 -36258965.59047  21500771.3444                   21500769.3054
        47.0004         44.7504
-123277228.15246 -95926084.62543  24653364.0704                   24653361.1094
        40.7504         19.7504
-120297154.23846 -92413704.87944  24239646.8054                   24239643.1254
        41.0004         25.0004
-105458442.34847 -82098150.17647  21574482.6024                   21574476.5204
        46.2504         44.0004
 -91926962.21947 -70765832.29344  22713602.2504                   22713599.2584
        43.0004         29.2504
 25  7 16  1 30  0.0000000  0 10G16G09G03G06G04G26G02G28G31G01
  -3444584.09447  -4815158.74644  22319537.7814                   22319532.5354
        43.5004         29.5004
  23336523.77746  18255451.42645  23951484.0474                   23951482.8794
        37.5004         33.0004
 -75445715.29748 -59643978.41848  19953850.2664                   19953847.6604
        48.0004         51.5004
  41280279.86745  32233886.56344  25219604.5164                   25219604.5594
        34.2504         24.0004
 -52428802.84047 -40706025.32445  21358873.5084                   21358869.4224
        45.0004         35.5004
 -46911284.17247 -36471726.84847  21448812.8834                   21448810.9384
        46.2504         44.7504
-123449493.28546 -96060317.30943  24620583.4534                   24620580.0124
        39.5004         19.5004
-120457728.59846 -92538827.81244  24209090.6414                   24209086.7344
        41.5004         26.5004
-105636746.46147 -82237088.47347  21540552.2734                   21540546.4494
        45.0004         44.5004
 -92103114.08246 -70903093.55945  22680081.2584                   22680078.2344
        41.0004         30.0004
 25  7 16  1 30 30.0000000  0 10G16G09G03G06G04G26G02G28G31G01
  -3792899.91847  -5086573.60545  22253254.5234                   22253250.3364
        43.5004         30.0004
  23000736.60546  17993799.15245  23887585.8754                   23887584.7854
        37.0004         34.0004
 -75715197.09047 -59853964.23048  19902569.6254                   19902566.9924
        47.7504         51.5004
  40964237.64846  31987619.92643  25159463.7504                   25159462.7894
        36.0004         22.5004
 -52732356.29347 -40942560.46545  21301109.3914                   21301105.2854
        46.2504         35.5004
 -47183701.24247 -36683999.87547  21396973.3524                   21396971.2664
        47.0004         45.0004
-123621803.24246 -96194584.92243  24587793.5004                   24587790.4304
        40.2504         19.7504
-120618243.87946 -92663904.72744  24178545.6484                   24178542.2504
        40.2504         25.5004
-105814745.69947 -82375789.19947  21506680.1804                   21506674.4924
        45.7504         44.2504
 -92278996.75447 -71040145.07044  22646612.6724                   22646609.7304
        43.0004         29.7504
 25  7 16  1 31  0.0000000  0 10G16G09G03G06G04G26G02G28G31G01
  -4140889.77347  -5357734.45744  22187034.6414                   22187030.1954
        44.0004         29.7504
  22664981.14846  17732171.60545  23823694.0394                   23823692.2814
        38.0004         33.2504
 -75984116.94148 -60063512.16848  19851396.0314                   19851393.0234
        48.5004         51.5004
  40648663.59046  31741718.05944  25099412.0864                   25099409.9694
        36.5004         25.2504
 -53035759.89847 -41178978.84045  21243373.7194                   21243369.5554
        47.2504         35.0004
 -47455493.15247 -36895785.75847  21345253.2584                   21345251.1174
        47.0004         45.0004
-123794162.49246 -96328890.98843  24554995.0314                   24554992.2154
        39.5004         20.0004
-120778704.15246 -92788938.78944  24148011.1414                   24148007.1454
        40.7504         24.7504
-105992445.11347 -82514256.30547  21472864.9454                   21472859.5594
        45.2504         44.2504
 -92454615.72747 -71176991.10245  22613193.0394                   22613190.4774
        42.5004         30.0004
 25  7 16  1 31 30.0000000  0 10G16G09G03G06G04G26G02G28G31G01
  -2913121.18047  -4401031.59845  22420671.3204                   22420666.2624
        43.5004         30.5004
  23904686.50846  18698175.84845  24059602.2734                   24059600.5204
        38.2504         34.5004
 -74677047.05548 -59045016.14548  20100123.0864                   20100120.1454
        48.5004         51.5004
  41908987.68846  32723788.80944  25339243.8054                   25339242.2504
        36.2504         24.5004
 -51763585.58647 -40187674.16046  21485460.4384                   21485456.3054
        46.7504         36.0004
 -46151232.25047 -35879478.54747  21593445.5084                   21593443.5904
        46.5004         44.7504
-122391150.55546 -95235635.07043  24821979.8054                   24821976.4454
        40.2504         21.2504
-119363688.21946 -91686329.03544  24417280.6644                   24417276.1414
        40.2504         24.0004
-104594423.57847 -81424888.89847  21738899.6564                   21738894.5434
        46.7504         44.7504
 -91054550.49646 -70086031.27044  22879617.0864                   22879613.6604
        41.5004         28.0004
 25  7 16  1 32  0.0000000  0 10G16G09G03G06G04G26G02G28G31G01
  -3260449.62147  -4671677.06645  22354577.4304                   22354571.9064
        43.5004         30.5004
  23568994.46546  18436597.70345  23995721.9844                   23995720.4384
        39.5004         34.5004
 -74944840.10248 -59253686.05548  20049163.6724                   20049160.8014
        48.7504         51.5004
  41594354.57046  32478620.19544  25279371.2734                   25279369.6524
        38.0004         24.2504
 -52066689.22347 -40423858.79745  21427781.6414                   21427777.4574
        46.7504         35.5004
 -46421771.71147 -36090288.49247  21541963.2734                   21541961.6374
        46.7504         45.0004
-122563617.30946 -95370024.91043  24789160.5234                   24789157.6294
        40.2504         21.0004
-119524044.53546 -91811282.10244  24386765.1254                   24386761.1844
        41.0004         24.0004
-104771531.23047 -81562894.88747  21705197.2034                   21705191.9344
        46.5004         44.0004
 -91229651.82847 -70222473.93444  22846296.0784                   22846293.1524
        43.0004         29.5004
 25  7 16  1 32 30.0000000  0 10G16G09G03G06G04G26G02G28G31G01
  -3607440.89147  -4942059.81645  22288546.0784                   22288541.6374
        42.7504         30.0004
  23233335.38746  18175045.25845  23931848.2034                   23931846.5124
        39.0004         35.0004
 -75212067.03148 -59461914.83248  19998312.1094                   19998309.2114
        48.0004         51.5004
  41280195.43446  32233820.83644  25219588.4774                   25219587.3674
        38.2504         25.5004
 -52369641.40247 -40659925.41845  21370131.6484                   21370127.6334
        46.2504         35.5004
 -46691682.64147 -36300608.68447  21490601.6644                   21490599.6214
        45.7504         44.7504
-122736140.21946 -95504458.53143  24756330.4144                   24756327.6644
        39.5004         20.2504
-119684350.39846 -91936195.84443  24356259.8284                   24356256.0864
        40.5004         22.5004
-104948345.93047 -81700672.60547  21671550.7894                   21671544.6334
        47.0004         44.0004
 -91404497.96147 -70358717.75844  22813024.2424                   22813021.3094
        43.0004         29.5004
 25  7 16  1 33  0.0000000  0 10G16G09G03G06G04G26G02G28G31G01
  -3954094.78547  -5212179.68445  22222580.1564                   22222575.6804
        43.0004         30.0004
  22897706.48846  17913516.32045  23867979.2894                   23867978.6954
        39.2504         34.7504
 -75478729.63747 -59669703.88348  19947567.6174                   19947564.8714
        47.7504         51.5004
  40966509.01646  31989389.89844  25159894.9144                   25159895.3284
        38.2504         28.0004
 -52672444.73447 -40895876.05145  21312510.3754                   21312506.1604
        46.5004         35.5004
 -46960967.15247 -36510440.75047  21439358.4774                   21439355.7704
        46.2504         44.7504
-122908724.94546 -95638940.27043  24723488.8204                   24723485.3794
        39.2504         20.7504
-119844610.53146 -92061073.89843  24325763.4614                   24325759.4804
        40.5004         23.0004
-105124873.40247 -81838226.51247  21637958.2584                   21637953.0594
        46.5004         44.0004
 -91579094.99647 -70494767.46145  22779799.9304                   22779796.5274
        42.2504         30.7504
 25  7 16  1 33 30.0000000  0 10G16G09G03G06G04G26G02G28G31G01
  -4300406.61747  -5482032.98844  22156679.1884                   22156674.4224
        43.5004         29.5004
  22562109.20346  17652012.03145  23804118.0234                   23804116.4774
        39.7504         34.5004
 -75744825.61748 -59877051.40248  19896931.6804                   19896928.7504
        49.0004         51.5004
  40653298.20746  31745329.55144  25100293.5314                   25100292.5514
        38.0004         28.2504
 -52975097.66447 -41131709.48846  21254916.9304                   21254913.7074
        47.0004         36.5004
 -47229623.24247 -36719783.12947  21388234.6564                   21388232.7114
        46.5004         44.7504
-123081372.77746 -95773471.21543  24690635.8984                   24690632.4454
        37.5004         22.0004
-120004825.54346 -92185916.83243  24295275.7344                   24295272.0354
        41.0004         23.0004
-105301114.57447 -81975557.32047  21604420.7664                   21604415.6214
        46.5004         44.0004
 -91753444.69547 -70630624.44544  22746622.0314                   22746619.0634
        43.0004         29.2504
 25  7 16  1 34  0.0000000  0 10G16G09G03G06G04G26G02G28G31G01
  -4646370.57847  -5751615.24645  22090843.7504                   22090840.1604
        42.5004         30.7504
  22226546.19546  17390534.43045  23740262.2114                   23740260.8714
        40.2504         35.2504
 -76010351.32447 -60083954.55948  19846403.8834                   19846400.6644
        47.0004         51.5004
  40340567.08646  31501642.98044  25040782.6414                   25040781.6524
        38.2504         27.2504
 -53277597.35547 -41367423.52746  21197353.9454                   21197349.0904
        46.7504         36.5004
 -47497647.59447 -36928633.25847  21337231.7734                   21337229.4964
        44.5004         45.0004
-123254083.56246 -95908051.21543  24657770.3054                   24657766.6254
        37.0004         20.7504
-120164994.68446 -92310724.02743  24264796.4614                   24264792.6214
        40.5004         22.2504
-105477069.93047 -82112665.41447  21570937.7974                   21570932.4924
        45.2504         44.2504
 -91927547.69547 -70766289.18444  22713491.2664                   22713487.8874
        43.0004         29.5004
 25  7 16  1 34 30.0000000  0 10G16G09G03G06G04G26G02G28G31G01
  -3416549.72347  -4793313.21145  22324871.7504                   22324867.0784
        43.5004         30.5004
  23466450.43046  18356693.65245  23976208.2664                   23976206.5044
        41.2504         35.2504
 -74699875.26648 -59062804.37948  20095779.2584                   20095776.0084
        48.2504         51.5004
  41603749.35546  32485940.88744  25281158.8914                   25281157.1414
        38.5004         29.2504
 -52004511.70347 -40375408.72345  21439612.9774                   21439609.2894
        47.2504         35.5004
 -46189608.94547 -35909382.34447  21586142.7034                   21586140.8754
        45.5004         45.0004
-121851432.66046 -94815076.60943  24924685.4694                   24924682.5984
        36.0004         20.5004
-118749692.64146 -91207891.36343  24534118.7974                   24534115.7274
        40.5004         22.0004
-104077314.30547 -81021946.77347  21837302.4384                   21837296.8984
        46.2504         43.7504
 -90525979.68747 -69674158.34044  22980200.9694                   22980198.2544
        42.5004         29.2504
 25  7 16  1 35  0.0000000  0 10G16G09G03G06G04G26G02G28G31G01
  -3761805.96947  -5062343.99245  22259171.6644                   22259166.8794
        43.5004         30.5004
  23130957.52046  18095270.68045  23912365.8594                   23912363.9884
        41.7504         34.5004
 -74964256.35948 -59268815.61348  20045469.0314                   20045465.7734
        48.0004         51.5004
  41291983.43846  32243006.41044  25221831.8134                   25221830.5864
        39.0004         28.0004
 -52306702.87147 -40610882.34045  21382108.7734                   21382104.3014
        47.5004         35.7504
 -46456366.71947 -36117245.52747  21535380.3284                   21535378.3554
        45.7504         45.0004
-122024276.26646 -94949760.10243  24891793.8834                   24891791.8554
        36.0004         20.5004
-118909774.12546 -91332630.24643  24503657.1954                   24503653.1254
        40.5004         23.5004
-104252704.34047 -81158614.36347  21803926.5634                   21803921.2234
        46.7504         43.7504
 -90699597.67647 -69809445.15644  22947162.6804                   22947159.5124
        43.0004         29.0004
 25  7 16  1 35 30.0000000  0 10G16G09G03G06G04G26G02G28G31G01
  -4106704.44947  -5331095.98845  22193539.3284                   22193534.7424
        44.0004         30.5004
  22795498.85546  17833874.38745  23848529.9844                   23848528.1914
        40.7504         34.2504
 -75228064.66848 -59474380.52748  19995268.0164                   19995264.9384
        48.0004         51.5004
  40980701.41046  32000449.02045  25162596.5634                   25162595.5004
        38.5004         30.5004
 -52608740.34447 -40846236.21546  21324632.5704                   21324628.8204
        47.5004         36.5004
 -46722491.22347 -36324615.26647  21484738.5704                   21484736.4384
        45.5004         45.0004
-122197191.06246 -95084499.10543  24858889.7194                   24858887.4414
        37.0004         22.0004
-119069815.37146 -91457337.71943  24473201.9694                   24473198.7154
        40.2504         22.7504
-104427816.60247 -81295065.50047  21770604.1334                   21770598.3984
        47.0004         43.7504
 -90872978.82447 -69944547.42344  22914169.1564                   22914165.9384
        43.0004         29.2504
 25  7 16  1 36  0.0000000  0 10G16G09G03G06G04G26G02G28G31G01
  -4451242.10247  -5599566.82445  22127976.1174                   22127971.0704
        44.0004         30.0004
  22460073.96146  17572504.41845  23784700.9454                   23784699.1254
        41.7504         34.7504
 -75491299.84848 -59679498.84848  19945176.2034                   19945172.9264
        48.5004         51.5004
  40669904.14146  31758269.34845  25103453.4064                   25103453.2154
        37.7504         30.2504
 -52910624.39847 -41081470.52746  21267185.8984                   21267181.9654
        46.5004         36.0004
 -46987982.44147 -36531491.53147  21434217.6334                   21434215.3164
        46.0004         45.0004
-122370179.85245 -95219295.80543  24825971.3284                   24825968.1334
        34.0004         20.2504
-119229818.80146 -91582015.76643  24442754.2344                   24442750.6804
        40.0004         22.7504
-104602654.23847 -81431302.64147  21737333.5944                   21737328.3364
        46.5004         43.7504
 -91046127.02347 -70079468.17244  22881220.3594                   22881217.4884
        42.7504         29.2504
 25  7 16  1 36 30.0000000  0 10G16G09G03G06G04G26G02G28G31G01
  -4795413.56647  -5867752.33645  22062482.2734                   22062477.7074
        44.2504         30.7504
  22124685.18846  17311162.59845  23720878.3524                   23720876.9494
        40.5004         34.5004
 -75753958.85248 -59884168.20348  19895193.9384                   19895190.4534
        48.2504         51.5004
  40359595.31646  31516470.27045  25044403.3754                   25044402.9384
        38.2504         30.5004
 -53212352.55147 -41316583.35946  21209768.8054                   21209765.0084
        46.5004         36.0004
 -47252837.65647 -36737872.20747  21383817.0864                   21383815.0634
        46.5004         45.0004
-122543243.33645 -95354150.66042  24793037.9924                   24793036.2624
        33.5004         17.7504
-119389784.01646 -91706664.04744  24412314.6334                   24412310.8524
        41.0004         24.5004
-104777217.67647 -81567326.12547  21704115.3054                   21704110.1334
        46.5004         44.0004
 -91219043.15247 -70214208.10544  22848316.2974                   22848312.3094
        42.2504         28.5004
 25  7 16  1 37  0.0000000  0 10G16G09G03G06G04G26G02G28G31G01
  -5139216.44947  -6135650.62944  21997058.8134                   21997053.6644
        44.7504         29.7504
  21789331.91046  17049848.43045  23657062.2974                   23657060.5984
        40.5004         33.7504
 -76016041.48847 -60088388.44948  19845320.9614                   19845317.9414
        47.5004         51.5004
  40049775.68046  31275052.32445  24985447.8134                   24985446.3444
        38.7504         31.5004
 -53513925.31647 -41551575.11745  21152381.4774                   21152377.6374
        46.0004         35.5004
 -47517057.03547 -36943757.41847  21333537.7194                   21333535.8794
        46.7504         45.0004
-122716384.65245 -95489066.18443  24760090.4454                   24760088.9614
        35.0004         21.2504
-119549713.50446 -91831284.49243  24381880.8444                   24381877.2704
        40.5004         22.5004
-104951510.34047 -81703138.60947  21670948.5634                   21670942.9694
        47.2504         43.5004
 -91391731.22346 -70348770.31644  22815454.2584                   22815451.8524
        40.0004         28.7504
 25  7 16  1 37 30.0000000  0 10G16G09G03G06G04G26G02G28G31G01
  -5482644.80547  -6403257.07845  21931706.7664                   21931701.6334
        44.0004         30.0004
  21454016.77346  16788563.97745  23593254.6334                   23593251.9224
        40.5004         33.5004
 -76277544.41848 -60292156.98048  19795558.8364                   19795555.4064
        48.0004         51.5004
  39740449.06646  31034018.63345  24926584.1564                   24926583.2154
        38.7504         30.0004
 -53815339.75047 -41786443.50046  21095024.3984                   21095020.1454
        47.5004         36.0004
 -47780637.59047 -37149144.84447  21283380.1724                   21283377.9104
        47.5004         44.7504
-122889603.74646 -95624042.29343  24727128.5394                   24727126.0904
        36.2504         20.5004
-119709606.44146 -91955876.45343  24351454.1174                   24351450.9924
        40.2504         22.7504
-105125532.19547 -81838740.07847  21637833.5704                   21637827.9304
        46.0004         44.0004
 -91564191.80947 -70483155.28544  22782636.0084                   22782633.0514
        42.0004         27.0004
 25  7 16  1 38  0.0000000  0 10G16G09G03G06G04G26G02G28G31G01
  -4250267.02347  -5442962.63745  22166220.2114                   22166215.2894
        44.0004         30.7504
  22694167.64546  17754915.36745  23829247.0634                   23829245.0864
        39.7504         33.5004
 -74963041.55548 -59267869.05148  20045700.2194                   20045697.3014
        48.0004         51.2504
  41007043.74646  32020975.53545  25167609.1804                   25167607.9574
        38.5004         30.2504
 -52541169.05947 -40793583.19546  21337491.3834                   21337487.3444
        47.5004         36.7504
 -46468153.59047 -36126430.02347  21533137.5314                   21533135.2304
        45.2504         44.7504
-121487481.12146 -94531479.44143  24993944.5164                   24993941.4224
        37.0004         22.0004
-118294042.77746 -90852839.89143  24620827.2974                   24620823.8204
        40.5004         22.7504
-103723863.83647 -80746530.99247  21904562.0554                   21904556.6414
        46.5004         43.2504
 -90161005.92646 -69389763.78144  23049653.8914                   23049650.9384
        41.5004         29.0004
 25  7 16  1 38 30.0000000  0 10G16G09G03G06G04G26G02G28G31G01
  -4592941.47347  -5709981.62945  22101011.8674                   22101006.6524
        44.5004         31.0004
  22358923.96546  17493686.59845  23765452.1334                   23765450.4964
        39.5004         32.5004
 -75223387.86347 -59470736.32448  19996158.1174                   19996154.9654
        47.2504         51.5004
  40698702.19146  31780709.39545  25108933.2114                   25108933.3014
        38.7504         30.7504
 -52842271.37547 -41028208.37546  21280193.2424                   21280188.9264
        46.7504         36.7504
 -46730460.48447 -36330824.99247  21483222.1644                   21483220.0124
        45.0004         45.0004
-121660868.80146 -94666586.91843  24960949.5004                   24960947.0514
        37.7504         22.7504
-118453873.29746 -90977383.19543  24590412.5394                   24590408.8054
        40.0004         22.5004
-103897357.34847 -80881720.76647  21871547.1094                   21871541.5004
        45.0004         43.5004
 -90333026.57446 -69523805.93044  23016919.2894                   23016916.5664
        41.0004         29.2504
 25  7 16  1 39  0.0000000  0 10G16G09G03G06G04G26G02G28G31G01
  -4935234.55947  -5976703.45345  22035874.4694                   22035870.6214
        44.5004         31.2504
  22023715.48046  17232485.25845  23701663.6724                   23701661.9574
        40.2504         32.7504
 -75483155.35947 -59673152.57448  19946726.0474                   19946722.7154
        47.7504         51.2504
  40390854.44446  31540828.05945  25050352.1804                   25050351.4344
        38.0004         31.0004
 -53143217.93447 -41262712.16446  21222924.9694                   21222920.7934
        47.0004         36.2504
 -46992130.68747 -36534723.84447  21433428.0864                   21433425.7234
        44.7504         45.0004
-121834345.53146 -94801763.80543  24927937.5474                   24927935.9694
        38.5004         20.5004
-118613675.84046 -91101904.70743  24560002.6174                   24559999.4964
        38.7504         22.7504
-104070591.34447 -81016708.32047  21838582.0864                   21838576.7774
        45.5004         43.7504
 -90504832.82446 -69657681.02044  22984225.6334                   22984222.9734
        41.5004         28.7504
 25  7 16  1 39 30.0000000  0 10G16G09G03G06G04G26G02G28G31G01
  -5277141.42247  -6243124.32845  21970812.4614                   21970807.5904
        44.5004         30.0004
  21688544.10946  16971312.84045  23637882.6484                   23637881.3324
        39.7504         32.2504
 -75742341.54347 -59875115.84848  19897404.3524                   19897401.4344
        47.0004         51.5004
  40083503.75046  31301334.03544  24991865.4384                   24991864.5204
        37.0004         29.2504
 -53444006.54747 -41497092.88745  21165686.3674                   21165682.6644
        47.2504         35.7504
 -47253161.99647 -36738124.85547  21383755.5234                   21383753.1484
        45.0004         45.0004
-122007911.66446 -94937010.36743  24894909.7194                   24894907.5704
        39.0004         22.5004
-118773450.44946 -91226404.46143  24529598.9224                   24529595.3014
        39.5004         22.0004
-104243566.90247 -81151494.50447  21805665.8524                   21805660.3594
        45.7504         42.7504
 -90676425.98847 -69791390.06244  22951572.4144                   22951570.0314
        42.0004         29.2504
 25  7 16  1 40  0.0000000  0 10G16G09G03G06G04G26G02G28G31G01
  -5618660.04747  -6509242.68445  21905823.1254                   21905818.4924
        45.0004         31.7504
  21353408.78946  16710168.50445  23574108.0944                   23574107.2274
        39.0004         32.5004
 -76000946.87547 -60076626.50048  19848193.6884                   19848190.4574
        47.0004         51.5004
  39776650.11346  31062227.32045  24933473.0394                   24933472.4574
        38.5004         30.2504
 -53744638.20747 -41731351.30546  21108478.0084                   21108474.4454
        47.0004         36.0004
 -47513555.32047 -36941028.73447  21334204.0944                   21334202.0744
        44.5004         45.0004
-122181571.00846 -95072329.59043  24861863.5004                   24861861.8914
        40.5004         22.5004
-118933200.00046 -91350884.68743  24499199.5784                   24499196.0704
        40.5004         22.5004
-104416287.57847 -81286082.07047  21772797.7974                   21772792.4844
        45.0004         43.0004
 -90847810.61746 -69924936.61344  22918959.4384                   22918956.5744
        41.7504         29.7504
 25  7 16  1 40 30.0000000  0 10G16G09G03G06G04G26G02G28G31G01
  -5959783.50847  -6775053.12945  21840909.6174                   21840905.1524
        44.7504         31.0004
  21018313.24246  16449055.16045  23510342.8444                   23510340.2894
        40.0004         33.0004
 -76258967.08647 -60277681.21548  19799093.7894                   19799090.7464
        47.0004         51.5004
  39470298.37146  30823511.70745  24875175.8524                   24875175.5124
        38.0004         30.5004
 -54045109.04347 -41965484.40646  21051300.5164                   21051296.8634
        47.0004         36.5004
 -47773306.77747 -37143432.45747  21284774.8284                   21284773.1454
        45.2504         44.7504
-122355322.70346 -95207720.75843  24828799.5554                   24828797.8554
        40.0004         22.0004
-119092922.75046 -91475344.03543  24468805.0634                   24468802.5594
        38.7504         22.5004
-104588752.28547 -81420470.18447  21739979.0084                   21739973.6374
        45.5004         42.2504
 -91018986.25046 -70058320.30544  22886385.7504                   22886383.1524
        40.5004         28.7504
 25  7 16  1 41  0.0000000  0 10G16G09G03G06G04G26G02G28G31G01
  -4725081.16847  -5812947.35945  22075865.5554                   22075860.7344
        44.5004         31.5004
  22258684.57046  17415578.34045  23746377.1804                   23746375.2464
        40.0004         32.5004
 -74940977.07847 -59250676.01248  20049899.2344                   20049896.1484
        47.7504         51.5004
  40739875.79346  31812792.82845  25116768.8134                   25116767.7344
        38.0004         31.5004
 -52769992.84447 -40971887.34446  21293946.9224                   21293943.0594
        46.5004         36.2504
 -46456991.66847 -36117732.35947  21535261.6094                   21535259.1454
        46.7504         44.5004
-120953747.42246 -94115584.37143  25095511.0634                   25095509.3054
        39.2504         22.0004
-117677199.04346 -90372182.77743  24738208.6884                   24738205.5634
        38.7504         21.2504
-103185542.25847 -80327059.79747  22007001.4224                   22006995.6604
        45.7504         42.7504
 -89614534.64846 -68963942.51244  23153643.5394                   23153641.3364
        41.0004         28.5004
 25  7 16  1 41 30.0000000  0 10G16G09G03G06G04G26G02G28G31G01
  -5065411.34847  -6078139.65245  22011103.0314                   22011097.9694
        45.2504         31.5004
  21923661.95346  17154521.82045  23682624.2734                   23682622.3404
        39.0004         31.7504
 -75197832.04348 -59450822.73048  20001021.1334                   20001017.8164
        48.2504         51.5004
  40434524.68446  31574856.93045  25058661.9454                   25058661.9344
        38.5004         31.0004
 -53070147.98047 -41205774.44546  21236829.3984                   21236825.3674
        47.2504         36.2504
 -46715465.66847 -36319140.65647  21486075.0164                   21486073.5554
        47.0004         44.7504
-121127698.05946 -94251130.57843  25062409.2974                   25062407.5354
        39.5004         21.2504
-117836880.07446 -90496609.60243  24707822.5084                   24707818.8914
        39.0004         22.7504
-103357510.07047 -80461060.71547  21974276.7734                   21974271.2074
        46.0004         42.5004
 -89785309.05946 -69097013.57044  23121146.3984                   23121144.2034
        41.2504         28.5004
 25  7 16  1 42  0.0000000  0 10G16G09G03G06G04G26G02G28G31G01
  -5405337.44147  -6343017.07045  21946417.1174                   21946412.4224
        45.0004         31.5004
  21588678.73046  16893495.98845  23618879.7114                   23618876.8754
        39.0004         32.7504
 -75454100.69148 -59650512.58248  19952254.8204                   19952251.7464
        49.0004         51.2504
  40129678.33646  31337314.35945  25000652.1644                   25000651.5274
        37.7504         30.5004
 -53370142.09447 -41439536.07446  21179742.3204                   21179738.4694
        46.5004         36.5004
 -46973297.85247 -36520048.84847  21437011.5864                   21437009.5434
        46.7504         45.0004
-121301749.03146 -94386754.94943  25029288.8284                   25029287.1564
        40.2504         20.2504
-117996540.14546 -90621020.07843  24677439.4454                   24677436.4494
        39.0004         21.5004
-103529230.82847 -80594869.12947  21941599.8284                   21941594.0234
        45.7504         42.2504
 -89955884.97346 -69229929.94944  23088687.5394                   23088684.7704
        41.5004         29.5004
 25  7 16  1 42 30.0000000  0 10G16G09G03G06G04G26G02G28G31G01
  -5744856.93447  -6607577.67245  21881808.8054                   21881804.2704
        45.7504         32.0004
  21253734.18046  16632500.30545  23555141.1414                   23555139.7774
        39.0004         33.2504
 -75709783.34447 -59849745.81648  19903600.0084                   19903596.8834
        47.2504         51.2504
  39825337.14146  31100165.38345  24942737.5004                   24942737.0784
        38.2504         31.5004
 -53669975.78947 -41673172.69946  21122686.2424                   21122682.0394
        46.7504         36.7504
 -47230489.05547 -36720457.56247  21388069.7814                   21388067.9104
        45.0004         44.7504
-121475904.18046 -94522460.49243  24996148.7114                   24996146.7034
        40.2504         18.5004
-118156181.83246 -90745416.27043  24647061.1644                   24647058.1414
        38.5004         21.5004
-103700707.77747 -80728487.55547  21908968.7734                   21908962.8874
        47.0004         42.0004
 -90126266.60247 -69362694.93444  23056264.8204                   23056261.8524
        42.0004         27.7504
 25  7 16  1 43  0.0000000  0 11G16G09G03G06G04G26G07G02G28G31G01
  -6083967.31647  -6871819.47745  21817278.1564                   21817273.6724
        45.5004         32.0004
  20918827.80546  16371534.36345  23491410.6484                   23491408.7194
        40.5004         34.0004
 -75964880.10248 -60048522.50448  19855056.5314                   19855053.4064
        48.7504         51.2504
  39521501.71546  30863410.55945  24884919.9384                   24884918.8134
        37.5004         31.0004
 -53969649.37147 -41906684.55546  21065659.8054                   21065656.1374
        46.7504         36.5004
 -47487039.64847 -36920367.10947  21339249.6334                   21339248.1254
        45.0004         45.0004
  52992976.30556  41364609.97754  25167108.5704                   25167108.0084
        38.0004         28.0004
-121650166.31646 -94658249.41042  24962987.4694                   24962986.3984
        39.5004         17.7504
-118315807.38746 -90869799.91043  24616685.4454                   24616682.5904
        37.5004         21.5004
-103871944.16047 -80861918.52347  21876383.3364                   21876377.8444
        46.5004         42.0004
 -90296457.75446 -69495311.52344  23023878.6414                   23023875.9104
        41.5004         28.5004
 25  7 16  1 43 30.0000000  0 11G16G09G03G06G04G26G07G02G28G31G01
  -6422671.41447  -7135744.69545  21752825.4614                   21752820.1484
        45.2504         32.0004
  20583953.83646  16110593.66445  23427686.5164                   23427684.1804
        40.0004         34.5004
 -76219396.30147 -60246846.81248  19806623.8834                   19806621.1334
        46.7504         51.2504
  39218167.17246  30627045.99645  24827197.2894                   24827195.7814
        37.5004         30.5004
 -54269168.45347 -42140076.03946  21008663.5234                   21008659.6804
        46.5004         36.5004
 -47742955.59047 -37119782.12547  21290550.4064                   21290548.3014
        45.0004         45.2504
  52649780.80946  41097185.09044  25101800.5164                   25101799.5634
        36.5004         28.5004
-121824544.03946 -94794128.38742  24929805.5634                   24929803.3054
        40.2504         17.2504
-118475424.54346 -90994176.96543  24586311.5474                   24586308.0044
        39.2504         22.5004
-104042948.56247 -80995168.73847  21843842.7274                   21843836.7464
        46.0004         42.0004
 -90466467.63346 -69627786.82844  22991526.6954                   22991524.1334
        41.2504         27.7504
 25  7 16  1 44  0.0000000  0 11G16G09G03G06G04G26G07G02G28G31G01
  -5185539.35247  -6171745.62945  21988243.2274                   21988238.3554
        45.5004         31.7504
  21824539.14546  17077283.57845  23663762.7034                   23663760.1454
        40.2504         34.0004
 -74897907.41848 -59217115.21948  20058094.7114                   20058091.8204
        48.2504         51.2504
  40490760.19146  31618676.97345  25069362.6024                   25069362.4494
        37.2504         30.7504
 -52993107.15247 -41145742.54346  21251489.6484                   21251485.7704
        46.5004         37.0004
 -46422812.69547 -36091099.34047  21541765.1484                   21541763.5864
        45.2504         44.5004
  53882168.91046  42057487.68144  25336315.8594                   25336315.0394
        38.2504         29.0004
-120423618.10946 -93702498.06242  25196392.3134                   25196391.4264
        39.2504         17.7504
-117059614.07846 -89890948.09843  24855732.4144                   24855727.8444
        38.0004         19.7504
-102638302.53547 -79900639.38746  22111137.4614                   22111131.6994
        46.2504         41.7504
 -89060878.30547 -68532522.53144  23259001.7504                   23258999.0084
        42.0004         27.0004
 25  7 16  1 44 30.0000000  0 11G16G09G03G06G04G26G07G02G28G31G01
  -5523429.52047  -6435036.61345  21923944.8674                   21923939.8444
        45.7504         32.0004
  21489721.98846  16816387.18045  23600047.9304                   23600045.9104
        40.5004         34.7504
 -75151269.39148 -59414540.13348  20009881.5314                   20009878.7274
        49.2504         51.5004
  40188422.41445  31383089.15245  25011830.5164                   25011829.6844
        35.7504         30.5004
 -53292324.57047 -41378898.96946  21194550.2114                   21194546.9534
        46.2504         37.2504
 -46677467.40647 -36289531.57847  21493306.2114                   21493303.9414
        47.0004         45.0004
  53539279.26645  41790301.13344  25271065.8364                   25271065.5704
        35.5004         28.5004
-120598242.39846 -93838569.20342  25163163.0084                   25163160.9384
        38.5004         17.2504
-117219227.75046 -90015322.45343  24825357.5234                   24825354.3674
        36.7504         20.2504
-102808858.93747 -80033540.50047  22078681.8134                   22078676.3484
        46.0004         42.5004
 -89230543.69547 -68664729.42244  23226715.1024                   23226712.7304
        42.5004         27.0004
 25  7 16  1 45  0.0000000  0 11G16G09G03G06G04G26G07G02G28G31G01
  -5860906.64547  -6698005.73445  21859725.1484                   21859719.6214
        45.7504         32.0004
  21154935.26646  16555514.48045  23536340.8364                   23536338.4454
        40.7504         35.2504
 -75404051.72347 -59611513.37548  19961778.8754                   19961775.8204
        47.0004         51.2504
  39886586.34046  31147892.28545  24954393.1724                   24954392.2464
        36.7504         32.0004
 -53591388.91047 -41611936.10546  21137640.3984                   21137636.5864
        46.7504         37.0004
 -46931489.71547 -36487471.03147  21444967.1644                   21444965.2704
        44.5004         44.7504
  53196545.85946  41523236.27344  25205846.0634                   25205844.8324
        37.0004         27.5004
-120772992.05546 -93974737.99642  25129909.0704                   25129907.8794
        37.7504         16.2504
-117378840.41846 -90139696.02343  24794984.7504                   24794981.3164
        38.0004         22.0004
-102979193.63747 -80166268.86346  22046268.2424                   22046262.8244
        45.5004         41.7504
 -89400039.98046 -68796804.53944  23194461.5634                   23194459.0164
        41.5004         26.5004
 25  7 16  1 45 30.0000000  0 11G16G09G03G06G04G26G07G02G28G31G01
  -6197964.16447  -6960647.89145  21795585.3524                   21795580.2544
        45.5004         32.2504
  20820182.06346  16294667.89846  23472638.5784                   23472636.7074
        39.5004         36.0004
 -75656251.18448 -59808032.45348  19913786.6094                   19913783.8524
        48.5004         51.2504
  39585255.96146  30913089.43445  24897051.3914                   24897051.1644
        38.5004         31.0004
 -53890297.02747 -41844851.51246  21080759.8204                   21080756.3054
        47.0004         36.5004
 -47184876.84447 -36684915.53947  21396749.5944                   21396747.4064
        45.7504         45.0004
  52853971.43445  41256295.31344  25140656.5234                   25140655.9304
        34.5004         27.2504
-120947866.77346 -94111004.32442  25096631.2034                   25096630.7774
        36.5004         16.2504
-117538450.91046 -90264067.89143  24764612.0314                   24764608.5664
        37.5004         21.0004
-103149306.25447 -80298824.18447  22013897.1484                   22013891.6914
        45.5004         42.0004
 -89569367.54347 -68928748.15244  23162239.5004                   23162237.3714
        42.2504         26.5004
 25  7 16  1 46  0.0000000  0 11G16G09G03G06G04G26G07G02G28G31G01
  -6534597.26647  -7222959.33645  21731525.8204                   21731520.8794
        45.0004         33.0004
  20485463.99646  16033848.69546  23408944.1724                   23408942.2664
        40.5004         36.0004
 -75907865.77748 -60004095.78148  19865906.2584                   19865903.0474
        49.5004         51.5004
  39284433.90646  30678682.70345  24839806.1884                   24839805.7504
        36.2504         30.0004
 -54189046.98047 -42077643.68046  21023909.7424                   21023905.7854
        47.0004         36.7504
 -47437627.22347 -36881863.88347  21348652.4224                   21348650.4064
        45.5004         45.0004
  52511558.86345  40989480.45744  25075497.4304                   25075496.5514
        35.0004         27.0004
-121122867.27046 -94247368.67642  25063331.3674                   25063330.4414
        37.0004         15.5004
-117698059.50846 -90388438.29343  24734239.2194                   24734236.3054
        37.2504         21.5004
-103319197.60247 -80431207.07047  21981567.7504                   21981562.4384
        46.7504         42.2504
 -89738528.06646 -69060561.61744  23130049.9924                   23130047.1334
        41.2504         25.5004
 25  7 16  1 46 30.0000000  0 11G16G09G03G06G04G26G07G02G28G31G01
  -6870800.83247  -7484936.07045  21667548.5634                   21667544.0474
        45.2504         32.5004
  20150783.72746  15773058.93846  23345256.3754                   23345254.6844
        41.0004         36.0004
 -76158892.62948 -60199701.13748  19818137.0864                   19818134.5164
        49.5004         51.5004
  38984123.54746  30444674.67645  24782659.5704                   24782658.5514
        38.0004         30.5004
 -54487635.96547 -42310310.41446  20967090.3914                   20967086.1414
        46.5004         36.7504
 -47689738.51247 -37078314.23047  21300677.3594                   21300675.5944
        46.5004         45.0004
  52169311.18845  40722794.12944  25010368.7194                   25010368.6094
        34.2504         26.0004
-121297993.90245 -94383831.27342  25030005.7814                   25030005.6294
        35.0004         14.7504
-117857664.95746 -90512806.23043  24703868.0394                   24703864.1054
        37.0004         21.0004
-103488868.23047 -80563417.97347  21949280.7194                   21949275.1604
        46.2504         42.0004
 -89907522.39146 -69192245.59044  23097891.3054                   23097888.9224
        41.5004         26.5004
 25  7 16  1 47  0.0000000  0 11G16G09G03G06G04G26G07G02G28G31G01
  -5631141.67247  -6518967.83645  21903447.7584                   21903442.6764
        45.5004         32.2504
  21391571.19546  16739906.39146  23581370.2504                   23581368.5474
        41.5004         37.2504
 -74833904.39548 -59167242.77748  20070274.0234                   20070270.9534
        48.0004         51.5004
  40259754.46946  31438672.85945  25025404.3524                   25025403.2194
        38.5004         31.7504
 -53210635.07447 -41315244.78946  21210095.3054                   21210091.7624
        47.2504         37.0004
 -46365783.82847 -36046661.23047  21552617.7814                   21552615.6764
        45.2504         45.0004
  53402659.37545  41683844.78544  25245066.7584                   25245066.2664
        33.5004         24.7504
-119897824.238 6                  25296449.203
        37.000
-116441845.19146 -89409570.09843  24973289.5164                   24973285.6884
        38.7504         22.2504
-102082896.13347 -79467855.32847  22216828.0634                   22216822.7894
        46.0004         42.2504
 -88500929.53046 -68096199.27544  23365557.0314                   23365554.1564
        41.7504         25.5004
 25  7 16  1 47 30.0000000  0 10G16G09G03G06G04G26G07G28G31G01
  -5966477.00047  -6780268.02745  21839635.1254                   21839630.2814
        45.0004         32.0004
  21056966.46946  16479175.50446  23517696.9534                   23517694.8324
        41.7504         37.5004
 -75083755.28147 -59361931.78948  20022729.6254                   20022726.1134
        47.5004         51.2504
  39960469.93846  31205464.21545  24968452.6644                   24968451.2734
        38.5004         31.5004
 -53508901.71147 -41547660.35246  21153337.5234                   21153333.2814
        47.0004         36.7504
 -46616617.88347 -36242116.33247  21504885.2664                   21504883.2114
        45.5004         44.7504
  53060743.28545  41417416.80544  25180003.0944                   25180001.9734
        35.5004         27.5004
-116601450.36346 -89533937.80543  24942916.3914                   24942914.3164
        38.5004         22.0004
-102252132.92647 -79599728.18047  22184623.2974                   22184618.1334
        46.0004         42.0004
 -88669601.79347 -68227632.28944  23333459.6414                   23333457.1724
        42.0004         25.0004
 25  7 16  1 48  0.0000000  0 10G16G09G03G06G04G26G07G28G31G01
  -6301371.22347  -7041224.51645  21775907.2814                   21775901.9884
        45.7504         32.2504
  20722402.12147  16218476.07446  23454031.7664                   23454029.4574
        42.5004         38.0004
 -75333015.32048 -59556160.39548  19975296.7664                   19975293.9104
        49.0004         51.2504
  39661702.05546  30972658.11344  24911598.5554                   24911597.3364
        38.0004         29.7504
 -53807004.25047 -41779948.03946  21096610.2504                   21096606.4924
        47.0004         37.0004
 -46866811.24647 -36437072.19147  21457275.6484                   21457273.2814
        46.7504         44.7504
                                  25114970.8054                   25114969.3874
        30.5004         24.5004
-116761055.34846 -89658305.40643  24912545.7504                   24912541.8834
        39.5004         20.2504
-102421154.57847 -79731433.38747  22152459.5084                   22152454.2154
        46.0004         42.5004
 -88838115.53546 -68358941.79344  23301393.0554                   23301390.2074
        41.0004         26.5004
 25  7 16  1 48 30.0000000  0 10G16G09G03G06G04G26G07G28G31G01
  -6635813.83647  -7301829.09045  21712264.7344                   21712259.9224
        46.2504         32.7504
  20387885.84047  15957814.09846  23390375.1414                   23390373.2114
        42.5004         38.7504
 -75581676.72348 -59749922.53548  19927977.6954                   19927975.0314
        49.0004         51.5004
  39363459.29346  30740261.21145  24854844.5634                   24854844.0164
        36.5004         30.0004
 -54104934.83647 -42012101.73846  21039915.8524                   21039911.9574
        47.7504         37.0004
 -47116356.54347 -36631523.05947  21409788.5474                   21409786.3164
        46.0004         44.7504
  52377426.54345  40884962.50044  25049972.3204                   25049970.4414
        33.7504         26.7504
-116920654.40246 -89782668.35243  24882174.7424                   24882171.7034
        38.5004         21.7504
-102589955.99247 -79862966.98847  22120337.9384                   22120332.5904
        46.2504         42.2504
 -89006466.53146 -68490124.48844  23269356.6884                   23269354.5784
        41.5004         26.2504
 25  7 16  1 49  0.0000000  0 10G16G09G03G06G04G26G07G28G31G01
  -6969797.01647  -7562075.66445  21648709.8364                   21648704.9224
        45.7504         32.7504
  20053422.51247  15697193.39546  23326729.1024                   23326727.0824
        42.0004         38.7504
 -75829734.57047 -59943214.37948  19880773.9454                   19880771.1134
        47.0004         51.5004
  39065747.22346  30508277.82045  24798191.9774                   24798191.2274
        38.5004         31.7504
 -54402688.43047 -42244117.52346  20983255.0704                   20983251.0314
        47.0004         36.7504
 -47365249.44547 -36825465.57847  21362425.5474                   21362423.5744
        44.5004         44.5004
  52036039.60946  40618946.85244  24985009.0864                   24985007.1414
        36.7504         28.0004
-117080244.37146 -89907024.19543  24851805.5084                   24851803.0554
        38.2504         20.7504
-102758535.07847 -79994327.34847  22088258.6094                   22088252.8554
        47.0004         42.0004
 -89174653.33646 -68621179.23044  23237351.8364                   23237349.3914
        41.2504         25.7504
 25  7 16  1 49 30.0000000  0 10G16G09G03G06G04G26G07G28G31G01
  -7303318.96947  -7821962.83245  21585243.0944                   21585237.4224
        45.7504         33.0004
  19719011.25846  15436613.26246  23263092.9774                   23263090.1884
        41.0004         38.0004
 -76077189.64148 -60136036.53148  19833684.8204                   19833682.1724
        48.5004         51.5004
  38768565.66446  30276707.81645  24741640.0704                   24741639.4574
        38.0004         30.7504
 -54700265.75047 -42475995.94146  20926628.2504                   20926624.4184
        46.2504         37.0004
 -47613491.18747 -37018900.70347  21315186.8054                   21315184.7424
        46.0004         44.5004
  51694835.30546  40353073.49644  24920079.1724                   24920077.8594
        37.7504         28.7504
-117239828.03946 -90031375.14143  24821438.4064                   24821434.8594
        38.0004         20.7504
-102926895.11347 -80125517.01647  22056220.6724                   22056215.4144
        47.0004         42.2504
 -89342680.25047 -68752109.38744  23205377.5634                   23205374.8204
        42.0004         27.0004
 25  7 16  1 50  0.0000000  0 10G16G09G03G06G04G26G07G28G31G01
  -6060946.59847  -6853880.42245  21821658.2664                   21821653.0704
        45.2504         33.0004
  20960082.50846  16403681.84846  23499260.7664                   23499258.3014
        40.5004         38.5004
 -74748614.47348 -59100783.16848  20086504.0554                   20086501.1994
        49.0004         51.2504
  40047344.38346  31273158.80945  24984984.1094                   24984983.2424
        38.5004         32.2504
 -53422237.40247 -41480129.68746  21169828.6954                   21169824.9384
        46.5004         36.0004
 -46285654.83647 -35984223.02347  21567865.8674                   21567863.2274
        47.5004         44.7504
  52929244.40246  41314950.81644  25154979.4384                   25154977.7154
        37.2504         27.5004
-115823982.45746 -88928118.87943  25090865.4774                   25090861.4694
        37.7504         20.7504
-101519614.31647 -79028934.60247  22324017.0234                   22324012.0904
        45.2504         42.0004
 -87935125.96947 -67655313.93044  23473226.0314                   23473223.9454
        42.5004         27.0004
 25  7 16  1 50 30.0000000  0 10G16G09G03G06G04G26G07G28G31G01
  -6393542.19947  -7113045.77345  21758367.4384                   21758362.2704
        45.5004         33.0004
  20625770.42646  16143179.00046  23435642.5864                   23435641.2774
        41.0004         38.5004
 -74994868.99648 -59292669.81248  20039643.8594                   20039640.8364
        48.7504         51.5004
  39751220.66446  31042413.10245  24928633.2974                   24928632.1214
        36.0004         30.5004
 -53719466.55147 -41711736.82046  21113268.3134                   21113264.0044
        46.5004         36.7504
 -46532600.89847 -36176648.51647  21520873.0944                   21520871.3834
        47.2504         44.5004
  52588400.93846  41049358.67644  25090119.2814                   25090117.5084
        38.5004         29.5004
-115983563.60246 -89052467.89543  25060497.9534                   25060494.6484
        36.7504         21.5004
-101687550.12947 -79159793.70746  22292060.2504                   22292054.7544
        45.2504         41.5004
 -88102848.53547 -67786006.95344  23441310.1414                   23441307.7234
        42.5004         27.5004
 25  7 16  1 51  0.0000000  0 10G16G09G03G06G04G26G07G28G31G01
  -6725671.37547  -7371847.68745  21695165.0554                   21695160.4614
        45.0004         33.0004
  20291506.91846  15882714.00046  23372034.5864                   23372033.1174
        39.7504         38.2504
 -75240524.23448 -59484089.48448  19992896.8594                   19992894.2974
        49.2504         51.5004
  39455625.91046  30812079.54745  24872383.4064                   24872382.0784
        37.7504         31.5004
 -54016522.38747 -41943208.88746  21056740.4384                   21056736.1884
        47.0004         36.7504
 -46778900.90247 -36368570.59447  21474003.9694                   21474001.8554
        47.5004         44.5004
  52247737.86346  40783907.10544  25025292.7034                   25025291.3674
        38.5004         27.7504
-116143147.27746 -89176818.85943  25030129.8524                   25030126.9964
        38.2504         21.0004
-101855278.87547 -79290491.46946  22260142.4454                   22260136.5904
        45.7504         41.0004
 -88270425.17247 -67916586.25044  23409420.8594                   23409418.5944
        43.2504         27.5004
 25  7 16  1 51 30.0000000  0 10G16G09G03G06G04G26G07G28G31G01
  -7057332.72747  -7630285.05945  21632052.1564                   21632047.1054
        45.0004         33.0004
  19957290.50446  15622285.68846  23308435.2734                   23308433.2894
        41.2504         37.7504
 -75485581.78548 -59675043.43448  19946264.3364                   19946261.3164
        49.2504         51.5004
  39160559.13346  30582157.40645  24816233.6724                   24816233.5744
        36.5004         31.0004
 -54313406.15647 -42174546.87946  21000244.9774                   21000241.2154
        46.5004         37.2504
 -47024556.94947 -36559990.88747  21427257.6564                   21427255.3954
        47.7504         44.7504
  51907253.88346  40518595.08244  24960500.8284                   24960499.5904
        40.0004         28.0004
-116302736.56246 -89301174.17643  24999761.5234                   24999758.0164
        39.2504         21.0004
-102022804.53947 -79421030.98046  22228263.0554                   22228258.2544
        46.0004         41.0004
 -88437860.77047 -68047055.65244  23377559.5164                   23377556.9694
        43.0004         27.7504
 25  7 16  1 52  0.0000000  0 10G16G09G03G06G04G26G07G28G31G01
  -7388524.11347  -7888356.22745  21569028.3984                   21569023.5234
        45.2504         33.0004
  19623120.55146  15361893.59046  23244845.2034                   23244842.3524
        41.5004         37.2504
 -75730042.36748 -59865532.19948  19899745.0004                   19899741.9884
        49.5004         51.5004
  38866020.16446  30352646.55945  24760185.1024                   24760183.6954
        38.7504         31.0004
 -54610118.39147 -42405751.20746  20943782.9144                   20943778.5044
        46.7504         36.5004
 -47269570.33647 -36750910.39847  21380632.5634                   21380630.6844
        47.2504         44.5004
  51566949.23446  40253422.73844  24895742.9304                   24895741.0084
        41.5004         26.5004
-116462333.94546 -89425535.78543  24969390.7114                   24969388.1484
        38.0004         20.2504
-102190130.75847 -79551415.08647  22196422.7274                   22196417.0594
        46.0004         42.0004
 -88605159.38347 -68177418.35944  23345723.7504                   23345721.1764
        42.2504         27.7504
 25  7 16  1 52 30.0000000  0 10G16G09G03G06G04G26G07G28G31G01
  -7719241.78547  -8146058.24645  21506094.9384                   21506090.1994
        44.5004         33.0004
  19288998.24246  15101538.61746  23181263.2114                   23181261.3594
        41.0004         36.5004
 -75973904.94148 -60055554.99248  19853339.3674                   19853336.5234
        49.0004         51.5004
  38572010.87546  30123548.39145  24704236.9064                   24704235.5004
        37.5004         31.2504
 -54906657.69547 -42636820.78946  20887353.2194                   20887349.0434
        47.0004         36.5004
 -47513940.53947 -36941328.73847  21334130.9384                   21334128.5704
        47.0004         44.2504
  51226824.78947  39988390.78544  24831019.4384                   24831017.2304
        42.0004         28.2504
-116621939.99246 -89549904.19143  24939018.6724                   24939015.4144
        37.0004         19.2504
-102357259.08247 -79681644.98447  22164618.7034                   22164613.8204
        46.0004         42.0004
 -88772323.39847 -68307676.09844  23313912.9144                   23313910.8054
        42.5004         28.7504
 25  7 16  1 53  0.0000000  0 10G16G09G03G06G04G26G07G28G31G01
  -6474053.15647  -7175781.34845  21743046.3204                   21743040.9494
        44.7504         33.0004
  20530353.69346  16068828.65646  23417485.4774                   23417483.5474
        40.2504         36.5004
 -74641742.60248 -59017506.41448  20106841.5314                   20106838.6914
        49.2504         51.5004
  39853960.40646  31122470.15645  24948183.9384                   24948182.8674
        37.0004         32.2504
 -53627595.04747 -41640148.57846  21130750.8284                   21130746.2774
        46.7504         36.5004
 -46182241.17647 -35903640.91847  21587544.5314                   21587542.5354
        47.5004         44.5004
  52462311.59846  40951107.95344  25066123.9774                   25066122.5634
        40.0004         26.2504
-115206132.25846 -88446677.41843  25208438.6954                   25208435.2504
        38.0004         20.2504
-100948767.55547 -78584119.15246  22432645.7194                   22432640.6884
        45.2504         41.5004
 -87363931.73047 -67210228.15244  23581921.4694                   23581918.9454
        42.2504         27.7504
 25  7 16  1 53 30.0000000  0 10G16G09G03G06G04G26G07G28G31G01
  -6803817.65247  -7432740.64145  21680294.4844                   21680289.0234
        44.7504         33.2504
  20196324.25846  15808546.04346  23353922.0084                   23353919.5474
        39.7504         36.0004
 -74884412.05948 -59206599.49648  20060663.2894                   20060660.0864
        49.5004         51.5004
  39561009.28946  30894196.58245  24892436.9534                   24892436.2664
        37.0004         31.0004
 -53923790.35247 -41870950.11746  21074386.5474                   21074382.6024
        47.0004         37.5004
 -46425329.53947 -36093060.41847  21541286.3444                   21541284.4534
        46.7504         44.7504
  52122546.96946  40686356.41444  25001468.9694                   25001466.8364
        41.0004         27.0004
-115365763.41846 -88571065.39543  25178061.5704                   25178057.8714
        39.0004         21.2504
-101115510.49247 -78714048.75447  22400916.0474                   22400910.5824
        45.5004         42.0004
 -87530839.29347 -67340286.09444  23550159.8204                   23550157.2304
        42.5004         28.0004
 25  7 16  1 54  0.0000000  0 10G16G09G03G06G04G26G07G28G31G01
  -7133101.38347  -7689325.32845  21617633.7504                   21617628.6764
        44.5004         33.0004
  19862341.75846  15548299.99645  23290366.9534                   23290364.6914
        38.7504         34.7504
 -75126484.71148 -59395227.53148  20014598.2584                   20014595.5984
        48.7504         51.5004
  39268588.57446  30666336.30945  24836791.1884                   24836790.0554
        37.7504         30.0004
 -54219812.88347 -42101617.00846  21018055.5634                   21018051.4144
        46.5004         37.0004
 -46667777.58647 -36281980.97747  21495150.1174                   21495147.8834
        46.7504         44.7504
  51782963.22746  40421745.85544  24936848.6334                   24936846.3634
        41.2504         25.5004
-115525409.23046 -88695464.74243  25147681.6174                   25147678.6684
        39.0004         21.0004
-101282064.15247 -78843830.85546  22369222.0234                   22369216.4064
        46.0004         41.5004
 -87697623.35947 -67470247.82444  23518422.0784                   23518419.9964
        42.5004         28.7504
 25  7 16  1 54 30.0000000  0 10G16G09G03G06G04G26G07G28G31G01
  -7461901.15647  -7945532.88345  21555064.8834                   21555059.7974
        44.2504         33.5004
  19528406.01646  15288090.39845  23226820.4454                   23226818.6414
        39.2504         35.0004
 -75367961.00848 -59583390.87948  19968646.6644                   19968643.7894
        49.0004         51.5004
  38976698.34046  30438889.41045  24781246.5634                   24781245.1414
        38.5004         31.7504
 -54515662.63747 -42332149.27746  20961756.8524                   20961753.0004
        46.7504         37.0004
 -46909586.37147 -36470403.39847  21449135.7034                   21449133.5164
        46.2504         44.5004
  51443560.66046  40157276.39144  24872262.1724                   24872260.3914
        41.7504         26.5004
-115685071.65646 -88819877.08243  25117298.9534                   25117295.9454
        39.2504         21.2504
-101448431.56647 -78973467.84046  22337563.0314                   22337557.8594
        45.2504         41.0004
 -87864287.64147 -67600116.23444  23486706.8914                   23486704.7154
        42.7504         28.0004
 25  7 16  1 55  0.0000000  0 10G16G09G03G06G04G26G07G28G31G01
  -7790214.10247  -8201361.10945  21492588.9224                   21492584.0004
        44.5004         34.2504
  19194517.39546  15027917.52745  23163283.9774                   23163281.8164
        40.0004         35.5004
 -75608840.96548 -59771089.55148  19922808.8594                   19922805.4774
        48.7504         51.2504
  38685339.25846  30211856.35945  24725802.2034                   24725801.3054
        37.5004         30.2504
 -54811339.16447 -42562546.55546  20905492.1254                   20905487.7894
        45.0004         36.5004
 -47150756.35547 -36658328.04747  21403242.5784                   21403240.2034
        47.0004         44.5004
  51104339.92646  39892948.71944  24807710.2814                   24807708.9144
        41.2504         27.7504
-115844752.15646 -88944303.47343  25086913.0394                   25086910.3094
        39.0004         19.5004
-101614615.34047 -79102961.71146  22305939.3444                   22305934.2894
        45.5004         41.5004
 -88030835.13746 -67729893.60544  23455014.2274                   23455012.1524
        41.2504         26.2504
 25  7 16  1 55 30.0000000  0 10G16G09G03G06G04G26G07G28G31G01
  -8118037.59047  -8456807.93745  21430206.6094                   21430201.5594
        44.5004         34.5004
  18860675.84846  14767781.30945  23099756.0234                   23099753.7274
        40.2504         34.5004
 -75849124.85248 -59958323.76248  19877084.4774                   19877081.6334
        48.2504         51.5004
  38394511.80946  29985237.57845  24670459.9774                   24670458.6724
        38.2504         31.5004
 -55106842.19947 -42792808.64546  20849259.3984                   20849255.3594
        46.0004         37.5004
 -47391288.43747 -36845755.64547  21357470.9144                   21357468.5204
        45.7504         44.5004
  50765301.15246  39628762.75444  24743194.2194                   24743191.3834
        41.2504         28.0004
-116004452.43046 -89068745.28143  25056523.3594                   25056520.2894
        40.0004         19.5004
-101780617.92647 -79232314.40246  22274350.0704                   22274345.0274
        45.0004         41.2504
 -88197269.50446 -67859582.81644  23423342.8204                   23423340.7304
        41.5004         24.7504
 25  7 16  1 56  0.0000000  0 10G16G09G03G06G04G26G07G28G31G01
  -6869936.86347  -7484261.87145  21667711.9694                   21667707.2234
        44.0004         34.0004
  20102314.14546  15735291.71945  23336031.6564                   23336029.2664
        40.5004         34.7504
 -74513383.44948 -58917486.31648  20131267.5234                   20131264.4734
        48.7504         51.5004
  39679647.45346  30986641.98845  24915013.4064                   24915012.1454
        38.2504         32.0004
 -53826740.25447 -41795326.59846  21092854.6094                   21092850.6334
        46.0004         37.7504
 -46055753.96947 -35805079.42247  21611614.0784                   21611612.1334
        45.2504         44.5004
  52001877.65246  40592329.04744  24978505.7114                   24978503.4064
        40.2504         24.7504
-114588747.31646 -87965598.43043  25325923.3204                   25325919.9024
        41.0004         20.0004
-100371015.04347 -78133922.57446  22542588.9384                   22542583.5124
        46.0004         40.5004
 -86788167.10546 -66761581.05944  23691485.7734                   23691484.1254
        40.5004         24.5004
 25  7 16  1 56 30.0000000  0 10G16G09G03G06G04G26G07G28G31G01
  -7196768.99247  -7738936.20745  21605518.1254                   21605512.7664
        43.7504         34.0004
  19768571.83646  15475232.82445  23272523.3444                   23272520.1454
        40.7504         34.5004
 -74752471.20348 -59103788.45748  20085770.6804                   20085767.7034
        48.0004         51.5004
  39389889.03546  30760856.23045  24859873.0554                   24859873.0234
        36.5004         31.0004
 -54121890.88747 -42025314.09446  21036689.3914                   21036685.2114
        46.5004         37.7504
 -46295008.01647 -35991511.14147  21566085.5314                   21566083.7234
        45.5004         44.5004
  51663209.21546  40328431.60544  24914060.2034                   24914056.3874
        41.5004         27.0004
-114748487.35946 -88090071.21543  25295525.4144                   25295522.0394
        41.2504         20.2504
-100536658.44547 -78262995.38346  22511067.7504                   22511062.5984
        45.5004         40.5004
 -86954380.62546 -66891098.20344  23659856.8754                   23659855.1214
        40.7504         25.2504
 25  7 16  1 57  0.0000000  0 10G16G09G03G06G04G26G07G28G31G01
  -7523100.82847  -7993220.71145  21543419.3364                   21543413.8674
        44.7504         33.7504
  19434879.91046  15215213.19945  23209022.7114                   23209021.1374
        41.2504         34.5004
 -74990960.74247 -59289624.46948  20040387.4144                   20040384.8204
        47.5004         51.2504
  39100666.36746  30535487.95345  24804836.0944                   24804835.5664
        36.0004         31.7504
 -54416864.27747 -42255163.48046  20980557.6174                   20980553.3204
        45.5004         37.2504
 -46533623.69547 -36177445.44147  21520678.4224                   21520676.7974
        45.2504         44.5004
  51324727.00046  40064679.46944  24849647.4144                   24849646.1024
        39.0004         29.0004
-114908249.25046 -88214560.96943  25265123.7034                   25265120.9304
        40.0004         19.7504
-100702125.32447 -78391930.63746  22479580.8834                   22479575.4884
        45.5004         39.7504
 -87120488.23046 -67020532.78944  23628247.7274                   23628245.3834
        40.7504         25.0004
 25  7 16  1 57 30.0000000  0 10G16G09G03G06G04G26G07G28G31G01
  -7848928.89147  -8247112.68445  21481416.0314                   21481410.8834
        44.7504         34.2504
  19101239.37946  14955233.60945  23145533.6334                   23145531.2664
        41.0004         34.5004
 -75228851.42248 -59474993.84048  19995118.6484                   19995115.2074
        48.7504         51.5004
  38811980.62546  30310538.01245  24749901.5394                   24749900.4694
        36.5004         31.2504
 -54711659.25847 -42484873.84846  20924460.3914                   20924455.9184
        45.5004         37.2504
 -46771601.04347 -36362882.33247  21475393.0394                   21475391.2544
        46.5004         45.0004
  50986432.16846  39801073.22744  24785273.0944                   24785271.7734
        39.7504         29.5004
-115068033.55146 -88339068.29343  25234717.3134                   25234714.2894
        40.0004         18.5004
-100867417.99247 -78520730.14846  22448126.4774                   22448121.0474
        45.0004         40.2504
 -87286492.39146 -67149886.83243  23596657.6884                   23596656.0664
        40.2504         22.7504
 25  7 16  1 58  0.0000000  0 10G16G09G03G06G04G26G07G28G31G01
  -8174251.71147  -8500610.93445  21419508.6414                   21419503.8984
        45.0004         33.7504
  18767648.98047  14695293.09445  23082053.6334                   23082050.9884
        42.0004         34.7504
 -75466144.98447 -59659897.91448  19949963.3134                   19949960.1094
        47.2504         51.2504
  38523830.82046  30086005.75045  24695069.0394                   24695067.7504
        37.7504         31.5004
 -55006276.85247 -42714445.99246  20868396.2034                   20868392.1484
        45.5004         37.7504
 -47008942.35547 -36547823.60547  21430228.6484                   21430226.5824
        44.7504         44.2504
  50648323.55946  39537612.16444  24720932.7664                   24720930.7154
        38.5004         26.2504
-115227843.27046 -88463595.34443  25204307.2034                   25204303.5864
        39.5004         18.5004
-101032540.18447 -78649396.82446  22416705.0944                   22416699.6254
        45.0004         40.2504
 -87452397.79746 -67279163.88743  23565087.2034                   23565085.7074
        39.7504         23.7504
 25  7 16  1 58 30.0000000  0 10G16G09G03G06G04G26G07G28G31G01
  -8499065.32847  -8753712.41845  21357699.0704                   21357693.7304
        44.7504         34.7504
  18434110.20346  14435392.78945  23018583.2114                   23018580.8324
        41.5004         35.5004
 -75702840.50847 -59844335.99248  19904921.2734                   19904918.3484
        47.7504         51.2504
  38236218.65246  29861892.35545  24640337.0474                   24640336.4804
        37.5004         31.7504
 -55300715.45747 -42943878.65246  20812366.8284                   20812362.6764
        47.0004         37.2504
 -47245647.22747 -36732268.94547  21385185.1334                   21385183.2854
        45.0004         44.7504
  50310403.12946  39274297.59844  24656628.0234                   24656625.7894
        36.2504         26.2504
-115387678.78546 -88588142.50842  25173891.3914                   25173888.1604
        39.0004         17.2504
-101197493.07847 -78777931.57046  22385315.0164                   22385309.8324
        45.0004         39.7504
 -87618206.56246 -67408365.59843  23533534.8284                   23533533.4884
        40.0004         22.7504
 25  7 16  1 59  0.0000000  0 10G16G09G03G06G04G26G07G28G31G01
  -7247937.99647  -7778807.95745  21595780.4144                   21595775.4024
        45.0004         34.5004
  19676052.56647  15403140.12946  23254917.1094                   23254914.4844
        42.0004         36.0004
 -74363512.08647 -58800703.44948  20159787.1484                   20159784.0434
        47.5004         51.2504
  39524572.10546  30865804.14545  24885503.3914                   24885502.1914
        37.7504         32.0004
 -54019546.65247 -41945565.28946  21056164.7974                   21056160.4924
        46.0004         37.2504
 -45906290.47347 -35688614.33247  21640056.2814                   21640054.1764
        44.7504         44.2504
  51548100.64846  40238737.41444  24892154.7344                   24892153.2774
        37.5004         29.0004
-113972117.80946 -87485107.95742  25443263.4534                   25443260.8594
        39.5004         16.2504
 -99786855.37947 -77678733.39546  22653750.5004                   22653745.0554
        44.7504         40.0004
 -86208498.25046 -66309891.73443  23801794.3914                   23801791.9224
        39.7504         22.5004
 25  7 16  1 59 30.0000000  0 10G16G09G03G06G04G26G07G28G31G01
  -7571729.15247  -8031112.70345  21534165.0864                   21534160.3984
        45.0004         34.0004
  19342613.77747  15143317.73846  23191465.7034                   23191462.7274
        42.2504         37.0004
 -74599016.22347 -58984213.16848  20114972.1804                   20114969.3244
        46.7504         51.2504
  39238032.23846  30642526.34445  24830976.9844                   24830975.5864
        37.5004         30.5004
 -54313629.92247 -42174721.06646  21000202.7344                   21000198.4024
        46.5004         37.5004
 -46141729.05147 -35872072.96547  21595253.7114                   21595251.6564
        44.5004         44.5004
  51210553.91446  39975714.18044  24827921.6724                   24827920.0394
        38.5004         28.7504
-114132012.95746 -87609701.56642  25412837.0164                   25412833.8164
        38.5004         16.7504
 -99951480.75447 -77807012.94146  22622423.5634                   22622418.2894
        45.0004         39.7504
 -86374127.59046 -66438953.68043  23770275.8284                   23770273.9184
        39.5004         22.7504
 25  7 16  2  0  0.0000000  0 10G16G09G03G06G04G26G07G28G31G01
  -7895004.42247  -8283015.46545  21472647.9774                   21472642.5704
        45.0004         35.0004
  19009226.10247  14883535.17646  23128024.1174                   23128021.4924
        43.5004         37.5004
 -74833924.45348 -59167258.53948  20070270.6954                   20070267.8324
        48.0004         51.2504
  38952029.76646  30419667.25845  24776552.3834                   24776551.0634
        38.0004         31.7504
 -54607534.21147 -42403737.37546  20944274.6724                   20944270.5164
        46.2504         37.2504
 -46376535.19147 -36055038.78547  21550571.9304                   21550569.3204
        45.0004         44.5004
  50873195.48046  39712837.62144  24763723.5164                   24763721.9774
        36.7504         26.2504
-114291939.50446 -87734319.64142  25382403.4304                   25382400.9694
        38.0004         14.7504
-100115945.60947 -77935167.41046  22591126.8204                   22591121.5124
        44.2504         39.0004
 -86539671.34046 -66567948.95343  23738774.2114                   23738772.1484
        39.7504         22.2504
 25  7 16  2  0 30.0000000  0 10G16G09G03G06G04G26G07G28G31G01
  -8217759.38747  -8534512.79345  21411229.8984                   21411224.5354
        45.7504         34.5004
  18675891.03547  14623793.60246  23064592.6884                   23064589.6564
        43.5004         38.2504
 -75068235.85947 -59349838.85248  20025682.4144                   20025679.8134
        47.2504         51.2504
  38666566.26246  30197228.19945  24722230.4694                   24722228.7814
        37.5004         31.2504
 -54901257.78547 -42632612.86746  20888380.5474                   20888376.0474
        46.5004         37.5004
 -46610708.53547 -36237511.52347  21506010.2664                   21506007.8914
        45.5004         44.0004
  50536027.31345  39450109.23844  24699562.6414                   24699561.4924
        34.0004         27.0004
-114451897.60545 -87858962.27742  25351964.5944                   25351962.1134
        35.5004         17.2504
-100280250.82447 -78063197.48446  22559860.6644                   22559855.2894
        44.7504         39.0004
 -86705131.47746 -66696879.03144  23707288.0394                   23707285.8404
        39.7504         24.5004
 25  7 16  2  1  0.0000000  0 10G16G09G03G06G04G26G07G28G31G01
  -8539990.63347  -8785602.03145  21349911.2194                   21349905.9144
        45.0004         34.2504
  18342610.04347  14364094.16846  23001171.6174                   23001168.6254
        43.0004         38.0004
 -75301949.64548 -59531953.49248  19981208.2974                   19981205.4884
        48.0004         51.2504
  38381643.20745  29975210.25045  24668009.3914                   24668010.2424
        34.7504         30.7504
 -55194799.06647 -42861346.30546  20832521.1804                   20832517.6564
        47.0004         37.2504
 -46844248.89547 -36419491.02047  21461568.4614                   21461566.3484
        46.2504         44.2504
  50199050.32446  39187529.95345  24635440.0234                   24635436.3914
        40.0004         31.0004
-114611887.71545 -87983629.99242  25321519.4384                   25321517.4024
        34.2504         15.5004
-100444397.93747 -78191104.37546  22528624.8204                   22528619.0824
        44.5004         40.0004
 -86870510.16846 -66825745.63343  23675817.8754                   23675815.7774
        40.0004         22.7504
 25  7 16  2  1 30.0000000  0 10G16G09G03G06G04G26G07G28G31G01
  -8861696.25047  -9036281.68745  21288692.3364                   21288687.3444
        44.2504         34.2504
  18009382.62947  14104436.48046  22937759.9064                   22937757.2734
        44.0004         39.0004
 -75535066.97748 -59713603.37148  19936847.8364                   19936844.5514
        48.2504         51.2504
  38097260.24645  29753613.16044  24613895.1884                   24613893.8634
        35.7504         29.2504
 -55488158.28947 -43089937.89146  20776697.2504                   20776693.2274
        47.0004         37.7504
 -47077158.01247 -36600978.63747  21417247.6954                   21417245.3164
        46.2504         44.5004
  49862264.43046  38925099.55145  24571351.7274                   24571348.0984
        40.0004         31.7504
-114771911.69145 -88108324.00442  25291068.0634                   25291066.3754
        30.7504         14.7504
-100608389.78547 -78318890.27346  22497417.9064                   22497412.9774
        44.5004         38.5004
 -87035811.32446 -66954551.86344  23644362.2664                   23644360.3364
        40.7504         24.5004
 25  7 16  2  2  0.0000000  0 10G16G09G03G06G04G26G07G28G31G01
  -7607441.44547  -8058940.22745  21527369.0554                   21527364.1024
        44.5004         34.5004
  19251641.77347  15072430.64846  23174154.0314                   23174151.5594
        44.2504         39.0004
 -74192158.95348 -58667181.55148  20192394.5864                   20192391.8634
        48.0004         51.2504
  39388848.53946  30760045.60544  24859675.7504                   24859674.8834
        36.2504         29.7504
 -54205903.73847 -42090778.47746  21020702.0314                   21020698.1134
        45.7504         38.0004
 -45734007.67247 -35554367.98047  21672840.5704                   21672838.4774
        46.2504         44.0004
  51101103.00846  39890428.55545  24807094.2034                   24807092.0274
        40.0004         31.5004
-113356544.26254 -87005440.39552  25560402.8984                   25560402.6414
        29.2504         16.7504
 -99196801.91447 -77218951.71146  22766034.3984                   22766029.1414
        44.0004         39.0004
 -85625611.24246 -65855694.75044  23912714.2114                   23912711.7584
        39.7504         24.5004
 25  7 16  2  2 30.0000000  0 10G16G09G03G06G04G26G07G28G31G01
  -7928085.20747  -8308792.46145  21466352.4694                   21466347.3284
        45.0004         34.5004
  18918525.27747  14812859.38346  23110763.6334                   23110761.5944
        43.0004         39.0004
 -74424081.80948 -58847900.67248  20148261.0474                   20148258.2154
        48.5004         51.2504
  39105549.04746  30539292.80145  24805766.3444                   24805764.6094
        38.0004         30.5004
 -54498894.72747 -42319083.12146  20964947.3984                   20964943.5474
        45.5004         37.2504
 -45965654.68447 -35734872.14147  21628759.6484                   21628758.0044
        46.2504         44.2504
  50764703.60546  39628299.25844  24743078.0084                   24743075.3714
        37.5004         28.0004
-113516637.62945 -87130188.51242  25529939.4774                   25529937.8094
        33.5004         15.5004
 -99360487.87947 -77346499.25446  22734885.9924                   22734880.2934
        44.0004         39.0004
 -85790764.39147 -65984385.62544  23881286.0164                   23881284.7074
        42.0004         25.5004
 25  7 16  2  3  0.0000000  0 10G16G09G03G06G04G26G07G28G31G01
  -8248193.12147  -8558227.16045  21405438.1414                   21405433.0904
        45.0004         34.7504
  18585465.32847  14553332.18446  23047384.6484                   23047382.3014
        43.7504         39.0004
 -74655407.49647 -59028154.46948  20104241.0394                   20104238.5314
        47.2504         51.0004
  38822792.39146  30318962.95345  24751959.6334                   24751957.7074
        37.7504         30.5004
 -54791700.28547 -42547243.26646  20909228.5314                   20909224.5394
        44.7504         37.0004
 -46196671.54747 -35914885.28147  21584798.4614                   21584796.4654
        45.0004         44.0004
  50428498.54346  39366321.46145  24679100.5784                   24679098.7274
        39.2504         31.7504
-113676767.33645 -87254964.94542  25499467.4614                   25499465.1914
        31.7504         15.5004
 -99524024.02047 -77473930.06646  22703765.9694                   22703760.8094
        44.5004         39.2504
 -85955847.72746 -66113022.13744  23849872.6094                   23849870.4924
        41.2504         25.0004
 25  7 16  2  3 30.0000000  0  9G16G09G03G06G04G26G07G31G01
  -8567763.22747  -8807242.79345  21344626.1334                   21344621.1684
        44.5004         34.2504
  18252461.96147  14293849.07446  22984016.1024                   22984013.9414
        43.5004         39.5004
 -74886136.74647 -59207943.49648  20060335.0554                   20060331.9454
        47.7504         51.0004
  38540578.39146  30099055.96144  24698255.2734                   24698254.1524
        37.0004         29.7504
 -55084320.17647 -42775258.74646  20853544.9064                   20853540.5864
        45.0004         38.0004
 -46427059.70747 -36094408.52047  21540957.4064                   21540955.2544
        45.2504         44.0004
  50092488.11346  39104495.27345  24615159.2584                   24615157.0864
        39.5004         31.5004
 -99687412.67647 -77601245.94946  22672674.4924                   22672668.8874
        45.0004         39.5004
 -86120864.74246 -66241606.94544  23818471.3284                   23818469.2304
        39.7504         25.5004
 25  7 16  2  4  0.0000000  0  9G16G09G03G06G04G26G07G31G01
  -8886793.24647  -9055837.57445  21283917.0234                   21283910.9924
        45.5004         35.0004
  17919515.08647  14034409.98846  22920658.6174                   22920655.9734
        43.5004         38.7504
 -75116270.49247 -59387268.50448  20016541.7504                   20016539.1024
        47.7504         51.0004
  38258906.78546  29879571.59445  24644654.7274                   24644653.7464
        36.7504         30.7504
 -55376754.29747 -43003129.47346  20797896.5474                   20797892.5554
        45.5004         37.2504
 -46656820.64547 -36273443.01647  21497235.3444                   21497233.0234
        45.0004         44.0004
  49756672.05146  38842820.59045  24551255.8204                   24551254.1764
        40.0004         31.5004
 -99850656.96547 -77728449.32846  22641610.2814                   22641604.7464
        44.5004         39.2504
 -86285819.08246 -66370142.93444  23787081.7814                   23787079.4924
        41.0004         25.5004
 25  7 16  2  4 30.0000000  0  9G16G09G03G06G04G26G07G31G01
  -9205272.62947  -9304003.29345  21223311.9304                   21223306.7704
        45.2504         35.5004
  17586633.18047  13775021.51646  22857313.9144                   22857311.0744
        43.0004         39.5004
 -75345801.18448 -59566123.61348  19972863.7504                   19972860.9694
        48.0004         51.2504
  37977785.91446  29660516.40645  24591159.7814                   24591158.6174
        37.7504         31.7504
 -55668994.06647 -43230848.75046  20742285.1174                   20742281.1764
        45.5004         38.0004
 -46885947.41847 -36451983.34847  21453633.5634                   21453631.4064
        45.5004         43.7504
  49421059.04746  38581304.08645  24487390.3674                   24487387.7894
        41.2504         31.2504
-100013750.84047 -77855535.51246  22610574.1724                   22610569.3714
        45.0004         39.7504
 -86450705.78946 -66498626.18744  23755704.5704                   23755702.7194
        40.7504         24.0004
 25  7 16  2  5  0.0000000  0  9G16G09G03G06G04G26G07G31G01
  -9523197.33247  -9551736.78145  21162813.2504                   21162807.6054
        45.0004         35.5004
  17253817.84847  13515684.93446  22793980.2504                   22793978.4344
        43.0004         39.0004
 -75574728.01248 -59744508.16048  19929300.2504                   19929297.5904
        48.2504         51.0004
  37697217.14146  29441891.38745  24537769.4304                   24537767.5864
        38.5004         31.5004
 -55961037.66447 -43458415.18046  20686711.0394                   20686707.2704
        46.5004         38.0004
 -47114439.93447 -36630029.46147  21410152.9534                   21410150.8404
        45.5004         43.7504
  49085650.81346  38319947.22345  24423564.7194                   24423562.9224
        40.2504         33.0004
-100176695.44947 -77982505.37546  22579567.2734                   22579561.8524
        44.7504         39.5004
 -86615526.84446 -66627058.30944  23724339.5554                   23724338.4964
        39.0004         25.7504
 25  7 16  2  5 30.0000000  0  9G16G09G03G06G04G26G07G31G01
  -8265130.33647  -8571424.80545  21402215.2344                   21402209.7154
        45.5004         35.0004
  18496504.64847  14484012.36346  23030455.6094                   23030453.5354
        42.7504         39.0004
 -74227619.91448 -58694813.53948  20185646.6724                   20185643.6334
        48.5004         51.0004
  38992634.10246  30451307.17645  24784278.0004                   24784277.4614
        37.2504         30.0004
 -54677450.77347 -42458217.58246  20930969.3444                   20930965.6484
        45.7504         38.0004
 -45766867.72347 -35579973.18747  21666587.3754                   21666585.3874
        46.0004         43.7504
  50325882.90646  39286361.96145  24659572.3284                   24659570.6054
        40.2504         32.0004
 -98764063.62147 -76881753.33646  22848381.5004                   22848376.8594
        44.2504         39.7504
 -85204855.80946 -65527834.24244  23992781.6954                   23992780.6174
        39.2504         24.7504
 25  7 16  2  6  0.0000000  0  9G16G09G03G06G04G26G07G31G01
  -8581933.39147  -8818284.28545  21341929.6724                   21341924.0864
        45.7504         35.5004
  18163828.77747  14224784.46146  22967149.3594                   22967147.3634
        42.0004         39.0004
 -74455335.60548 -58872254.33648  20142313.5864                   20142311.0704
        48.5004         51.0004
  38713175.19546  30233547.03945  24731099.6174                   24731098.3634
        37.5004         30.2504
 -54969095.27047 -42685473.02746  20875471.2274                   20875467.5824
        46.5004         37.7504
 -45994090.08647 -35757029.56647  21623348.5234                   21623346.5124
        46.2504         43.7504
  49990890.11746  39025328.78545  24595825.5084                   24595823.8484
        41.7504         33.7504
 -98926711.39547 -77008491.89846  22817431.2974                   22817425.8324
        44.5004         40.0004
 -85369549.84446 -65656167.39544  23961441.6644                   23961440.1954
        39.0004         25.7504
 25  7 16  2  6 30.0000000  0  9G16G09G03G06G04G26G07G31G01
  -8898177.80947  -9064708.46945  21281750.1724                   21281744.5784
        45.7504         35.5004
  17831216.95347  13965606.45346  22903855.6644                   22903853.4774
        42.7504         39.0004
 -74682452.94148 -59049228.88348  20099095.0554                   20099091.8094
        48.2504         51.0004
  38434265.04346  30016214.41045  24678024.2734                   24678023.4924
        36.5004         30.7504
 -55260545.72347 -42912577.27746  20820010.1564                   20820006.4964
        46.2504         38.5004
 -46220685.54747 -35933597.45747  21580229.0864                   21580226.8674
        46.5004         44.0004
  49656099.35546  38764452.97745  24532116.5004                   24532114.3284
        41.5004         32.0004
 -99089220.48047 -77135122.40246  22786506.6484                   22786501.4844
        44.0004         39.5004
 -85534191.39146 -65784459.63744  23930111.9614                   23930109.7734
        38.5004         25.5004
 25  7 16  2  7  0.0000000  0  9G16G09G03G06G04G26G07G31G01
  -9213860.48847  -9310694.92245  21221677.5004                   21221672.0274
        44.7504         34.5004
  17498670.34846  13706479.27346  22840574.0474                   22840571.9264
        41.5004         39.5004
 -74908971.78948 -59225737.07848  20055989.4924                   20055987.0394
        48.2504         51.0004
  38155904.45346  29799310.09044  24625053.8444                   24625052.8754
        36.5004         29.2504
 -55551800.75447 -43139529.23446  20764586.1174                   20764582.3404
        46.5004         38.0004
 -46446654.50447 -36109677.15647  21537228.2814                   21537226.6214
        45.7504         43.7504
  49321511.82847  38503735.58245  24468447.3134                   24468444.9454
        43.0004         34.2504
 -99251592.50847 -77261646.09446  22755608.5554                   22755603.1174
        43.0004         38.5004
 -85698782.90646 -65912712.89844  23898790.9144                   23898789.2384
        39.2504         24.5004
 25  7 16  2  7 30.0000000  0  9G16G09G03G06G04G26G07G31G01
  -9528979.69147  -9556242.31645  21161712.4224                   21161706.7464
        45.2504         35.5004
  17166188.79747  13447402.78946  22777305.2734                   22777302.7074
        42.5004         38.7504
 -75134893.33248 -59401779.86348  20012998.0864                   20012995.2774
        48.0004         51.0004
  37878092.95746  29582833.62945  24572188.5084                   24572187.4774
        37.0004         30.7504
 -55842860.38747 -43366328.94146  20709199.4384                   20709195.6054
        46.2504         37.7504
 -46671998.79747 -36285270.10947  21494346.4384                   21494344.8674
        46.2504         44.0004
  48987127.39847  38243176.45345  24404815.4064                   24404813.3984
        43.0004         33.0004
 -99413830.37147 -77388065.23846  22724735.6644                   22724730.6334
        43.0004         39.0004
 -85863328.02346 -66040930.00044  23867479.4304                   23867478.1484
        39.5004         25.5004
 25  7 16  2  8  0.0000000  0  9G16G09G03G06G04G26G07G31G01
  -9843532.45347  -9801348.33245  21101854.7504                   21101849.3834
        45.2504         34.7504
  16833773.38347  13188377.85246  22714048.4924                   22714046.1454
        42.7504         38.2504
 -75360217.46547 -59577357.11748  19970120.4614                   19970117.6884
        47.5004         51.0004
  37600831.26246  29366785.53545  24519427.6484                   24519426.0434
        39.0004         31.0004
 -56133723.32047 -43592975.37946  20653849.9844                   20653846.1844
        46.7504         38.5004
 -46896719.10247 -36460376.83247  21451583.6884                   21451581.7464
        45.0004         43.5004
  48652946.94547  37982776.25445  24341223.5784                   24341221.3134
        43.2504         33.5004
 -99575935.28147 -77514380.78146  22693888.1024                   22693883.4064
        42.7504         38.7504
 -86027829.21546 -66169112.86744  23836175.7194                   23836174.9574
        39.0004         25.2504
 25  7 16  2  8 30.0000000  0  9G16G09G03G06G04G26G07G31G01
  -8582086.03547  -8818403.03945  21341900.3284                   21341894.8914
        46.2504         35.0004
  18076855.22747  14157013.10946  22950599.8364                   22950596.9144
        42.2504         39.0004
 -74009517.88747 -58524863.93748  20227149.6954                   20227147.0554
        47.5004         51.0004
  38899548.16046  30378772.71544  24766564.5394                   24766563.5704
        38.2504         29.5004
 -54848959.69947 -42591860.86746  20898332.5704                   20898328.4144
        47.0004         38.5004
 -45545389.64147 -35407392.83647  21708733.1884                   21708731.3134
        45.0004         43.7504
  49894401.52047  38950143.60245  24577463.2664                   24577462.1294
        42.0004         32.5004
 -98162484.72347 -76412990.77046  22962858.7734                   22962853.6374
        42.0004         39.0004
 -84616864.61346 -65069660.08644  24104673.1724                   24104672.2504
        40.2504         25.0004
 25  7 16  2  9  0.0000000  0  9G16G09G03G06G04G26G07G31G01
  -8895499.71147  -9062621.46545  21282259.7194                   21282254.1254
        46.0004         35.2504
  17744571.86347  13898091.06646  22887367.8444                   22887365.3324
        42.5004         39.0004
 -74233651.10247 -58699513.20348  20184499.0864                   20184495.9574
        46.5004         51.0004
  38623384.37946  30163580.14845  24714012.6804                   24714011.5004
        37.7504         31.0004
 -55139429.16047 -42818200.70346  20843058.0784                   20843054.1254
        46.5004         38.2504
 -45768867.48847 -35581531.41847  21666206.6564                   21666204.8794
        44.0004         43.5004
  49560628.66446  38690060.93445  24513948.6884                   24513946.1954
        40.5004         30.0004
 -98324332.52347 -76539105.96546  22932060.2894                   22932055.0824
        43.2504         38.5004
 -84781289.09046 -65197783.21943  24073385.1884                   24073383.6414
        38.5004         23.0004
 25  7 16  2  9 30.0000000  0  9G16G09G03G06G04G26G07G31G01
  -9208342.00447  -9306394.65645  21222727.8754                   21222722.3164
        46.2504         34.7504
  17412353.89547  13639219.98446  22824148.4844                   22824146.1094
        43.0004         39.0004
 -74457191.22748 -58873700.32048  20141960.3364                   20141957.8524
        48.0004         51.0004
  38347768.25846  29948814.36345  24661565.2034                   24661563.0704
        37.7504         30.5004
 -55429702.25447 -43044387.52346  20787820.7424                   20787816.6134
        46.7504         38.2504
 -45991727.43747 -35755188.52347  21623798.1334                   21623795.7274
        44.5004         43.7504
  49227058.59846  38430136.34845  24450472.1024                   24450469.7894
        41.0004         30.2504
 -98486056.34047 -76665124.55946  22901285.2194                   22901280.3674
        43.2504         38.7504
 -84945681.02046 -65325880.94143  24042102.6414                   24042100.9184
        38.2504         22.2504
 25  7 16  2 10  0.0000000  0  9G16G09G03G06G04G26G07G31G01
  -9520609.33647  -9549719.80945  21163304.9304                   21163299.2814
        46.7504         35.5004
  17080201.87147  13380400.28546  22760942.1254                   22760939.4654
        43.0004         39.0004
 -74680138.87948 -59047425.79348  20099535.0084                   20099532.0704
        49.0004         51.0004
  38072699.88346  29734475.36345  24609221.5234                   24609220.1334
        38.5004         31.2504
 -55719778.24647 -43270420.76646  20732621.3444                   20732617.1134
        46.5004         38.2504
 -46213970.72347 -35928365.11747  21581506.4844                   21581504.5434
        46.2504         44.0004
  48893692.01646  38170370.32444  24387034.7424                   24387032.2424
        41.7504         29.2504
 -98647658.34447 -76791048.23846  22870533.5084                   22870528.2234
        43.7504         38.5004
 -85110043.52046 -65453955.78943  24010825.4534                   24010823.8954
        37.5004         22.5004
 25  7 16  2 10 30.0000000  0  9G16G09G03G06G04G26G07G31G01
  -9832300.28547  -9792595.82445  21103992.0944                   21103986.5124
        46.2504         35.5004
  16748115.85247  13121632.02046  22697748.0164                   22697745.5124
        42.7504         38.7504
 -74902495.23447 -59220690.51248  20057221.8834                   20057219.5394
        47.2504         51.0004
  37798178.71546  29520562.77045  24556981.6334                   24556980.6094
        37.7504         31.0004
 -56009656.91447 -43496300.23446  20677458.9454                   20677454.9224
        47.0004         38.2504
 -46435599.23447 -36101062.65247  21539332.1884                   21539330.2774
        46.0004         43.5004
  48560528.85946  37910762.80944  24323636.7584                   24323633.9774
        40.7504         29.7504
 -98809141.03547 -76916878.93446  22839804.1484                   22839799.3204
        43.7504         39.0004
 -85274380.06646 -65582010.39143  23979553.0864                   23979552.2114
        37.0004         22.7504
