     2.11           OBSERVATION DATA    G (GPS)             RINEX VERSION / TYPE
teqc  2019Feb25     K Rivera            20250725 01:24:28UTCPGM / RUN BY / DATE
Linux 2.6.32-573.12.1.x86_64|x86_64|gcc -static|Linux 64|=+ COMMENT
teqc  2019Feb25                         20250725 01:19:59UTCCOMMENT
BIT 2 OF LLI FLAGS DATA COLLECTED UNDER A/S CONDITION       COMMENT
GS36                                                        MARKER NAME
                                                            MARKER NUMBER
K Baraggiotta       University of California, Riverside     OBSERVER / AGENCY
0220413523          TRIMBLE R7          2.32                REC # / TYPE / VERS
1441040465          TRM57971.00                             ANT # / TYPE
 -2373517.3995 -4649764.1251  3653668.8753                  APPROX POSITION XYZ
        1.2880        0.0000        0.0000                  ANTENNA: DELTA H/E/N
     1     1                                                WAVELENGTH FACT L1/2
     7    L1    L2    C1    P1    P2    S1    S2            # / TYPES OF OBSERV
    18                                                      LEAP SECONDS
 SNR is mapped to RINEX snr flag value [0-9]                COMMENT
  L1 & L2: min(max(int(snr_dBHz/6), 0), 9)                  COMMENT
  2025     7    15    21    24   30.0000000     GPS         TIME OF FIRST OBS
                                                            END OF HEADER
 25  7 15 21 24 30.0000000  0 10G02G08G10G18G23G27G28G32G24G31
   -225401.54357   -144677.28155  23173097.3984                   23173090.0554
        45.5004         32.5004
    -24581.57057    -16030.73456  22996474.5554                   22996472.6844
        43.0004         38.5004
    -52154.73858    -33841.62958  21436515.8444                   21436512.9924
        50.5004         50.7504
    103724.66856     61149.07853  24829906.2194                   24829905.1644
        40.5004         22.0004
     34232.87557     21986.74254  23355832.8594                   23355829.5164
        42.5004         27.7504
     58575.10957     39185.75456  23209557.9454                   23209555.9844
        43.0004         39.2504
   -256285.97356   -167515.94954  23179326.4144                   23179323.2274
        41.7504         29.0004
    -64532.52758    -41547.39158  20699787.1804                   20699783.9804
        51.2504         53.5004
     65396.37156     37677.93455  24612887.1414                   24612886.3554
        41.5004         31.2504
   -259061.86756   -135626.07055  25072449.9924                   25072449.9304
        37.2504         32.0004
 25  7 15 21 25  0.0000000  0 10G02G08G10G18G23G27G28G32G24G31
   -351691.19147   -243084.79345  23149064.7814                   23149057.6414
        46.0004         32.2504
    -39040.83647    -27297.73446  22993723.1254                   22993721.2304
        42.0004         38.2504
    -82403.36348    -57412.01248  21430759.5634                   21430756.7304
        50.0004         50.5004
    163370.34846    107626.00844  24841256.7344                   24841256.2544
        39.5004         24.0004
     52159.36347     35955.37144  23359244.6724                   23359240.7464
        42.0004         27.0004
     91650.22747     64958.48446  23215852.1024                   23215849.8954
        43.0004         39.5004
   -399222.19147   -278894.74644  23152126.1254                   23152123.5084
        42.5004         28.5004
   -101290.46948    -70189.94548  20692792.5704                   20692788.9144
        52.0004         53.5004
    102047.62146     66237.32844  24619861.1954                   24619860.9024
        39.5004         29.7504
   -418251.21146   -259669.40644  25042156.6644                   25042156.8524
        36.0004         29.7504
 25  7 15 21 25 30.0000000  0 10G02G08G10G18G23G27G28G32G24G31
   -478182.00447   -341649.03145  23124995.1094                   23124987.2154
        46.5004         33.0004
    -53457.70747    -38531.70346  22990979.4694                   22990978.2854
        42.7504         39.0004
   -112909.58648    -81183.11348  21424954.7504                   21424951.9654
        50.0004         50.2504
    222747.06646    153893.41043  24852556.9774                   24852554.4654
        41.5004         23.7504
     69773.44147     49680.60244  23362596.2814                   23362592.3954
        42.5004         27.2504
    124546.64147     90591.98446  23222112.6484                   23222109.7274
        43.7504         39.2504
   -542381.13346   -390447.08244  23124883.9844                   23124881.6214
        41.7504         29.2504
   -138049.18448    -98833.10248  20685797.4064                   20685793.9304
        51.5004         53.5004
    138690.90646     94790.43444  24626833.9694                   24626833.5004
        37.5004         29.7504
   -577960.09045   -384117.60944  25011764.2584                   25011764.8554
        33.0004         26.0004
 25  7 15 21 26  0.0000000  0 10G02G08G10G18G23G27G28G32G24G31
   -604821.99647   -440329.54345  23100895.9384                   23100888.6994
        45.5004         30.7504
    -67784.15247    -49695.21546  22988253.2664                   22988251.8754
        43.5004         39.0004
   -143623.14548   -105115.77348  21419109.7974                   21419107.0984
        51.0004         50.2504
    281902.96946    199988.59044  24863813.5084                   24863813.0984
        41.5004         26.7504
     87125.19547     63201.39144  23365897.6644                   23365894.0394
        42.7504         28.0004
    157311.13747    116122.69146  23228346.7584                   23228345.0204
        43.7504         39.2504
   -685709.81647   -502131.70344  23097610.2344                   23097606.8674
        43.2504         29.2504
   -174760.05948   -127438.97348  20678811.4694                   20678808.2304
        52.0004         53.5004
    175373.57456    117656.29355  24633815.2274                   24633814.1174
        39.2504         31.0004
   -738135.75845   -508929.43043  24981282.3754                   24981284.5744
        31.7504         20.5004
 25  7 15 21 26 30.0000000  0 10G02G08G10G18G23G27G28G32G24G31
   -731578.82447   -539101.07445  23076774.7894                   23076767.4734
        47.0004         32.5004
    -81992.13347    -60766.41846  22985550.2274                   22985547.8444
        43.0004         38.7504
   -174513.59048   -129186.27048  21413231.3984                   21413228.9384
        50.7504         50.2504
    340866.18446    245933.70743  24875034.1174                   24875033.2424
        39.5004         19.7504
    104244.81347     76541.28144  23369155.6484                   23369151.9734
        42.7504         27.0004
    189970.70347    141571.64146  23234561.6724                   23234560.0164
        42.5004         40.0004
   -829175.10947   -613922.75844  23070309.4384                   23070305.8554
        43.0004         28.5004
   -211394.34848   -155985.18048  20671840.2344                   20671836.7814
        52.0004         53.2504
    212122.85246    146292.03545  24640808.7344                   24640807.9264
        40.5004         32.2504
   -898745.62946   -634079.84843  24950720.6954                   24950720.1094
        37.2504         21.2504
 25  7 15 21 27  0.0000000  0 10G02G08G10G18G23G27G28G32G24G31
   -858429.32847   -637945.59445  23052635.4774                   23052629.0434
        45.7504         32.5004
    -96062.54347    -71730.41446  22982872.1884                   22982870.4224
        43.7504         37.5004
   -205559.48448   -153377.90248  21407323.8134                   21407321.0984
        50.0004         50.0004
    399655.82046    291743.65243  24886219.8594                   24886220.9774
        38.0004         22.0004
    121153.59047     89716.90244  23372373.8524                   23372369.4734
        43.0004         26.5004
    222543.37147    166952.86746  23240760.1174                   23240758.4924
        43.2504         39.7504
   -972752.86347   -725801.44944  23042986.9924                   23042983.8674
        43.5004         28.5004
   -247932.30948   -184456.32048  20664887.4614                   20664883.9804
        52.0004         53.2504
    248957.27746    174994.15245  24647817.4304                   24647817.2234
        38.5004         31.2504
  -1059765.62546   -759549.80143  24920079.9384                   24920078.3594
        36.2504         23.0004
 25  7 15 21 27 30.0000000  0 10G02G08G10G18G23G27G28G32G24G31
   -985355.69547   -736849.23045  23028482.5394                   23028475.5554
        46.0004         32.2504
   -109981.46547    -82576.36746  22980223.7034                   22980221.5744
        43.5004         38.5004
   -236744.63348   -177678.03948  21401389.5554                   21401386.5824
        50.2504         50.2504
    458286.08246    337429.41443  24897378.3594                   24897377.7624
        40.2504         21.5004
    137867.50447    102740.67244  23375554.2974                   23375550.5664
        43.7504         27.5004
    255041.80947    192276.27046  23246944.2194                   23246942.7194
        43.0004         39.5004
  -1116424.21547   -837753.07444  23015647.8444                   23015644.4024
        43.7504         29.7504
   -284359.51648   -212841.16848  20657955.7584                   20657952.0664
        51.7504         53.2504
    285890.13745    203772.87944  24654845.3204                   24654844.7274
        34.2504         25.2504
  -1221177.35245   -885324.90644  24889363.0704                   24889363.4414
        34.2504         25.0004
 25  7 15 21 28  0.0000000  0 10G02G08G10G18G23G27G28G32G24G31
  -1112342.50447   -835799.96545  23004317.5164                   23004310.4804
        46.0004         32.2504
   -123737.95747    -93295.75046  22977606.0004                   22977604.4264
        44.0004         38.2504
   -268055.62948   -202076.23048  21395431.0394                   21395428.2074
        50.5004         50.2504
    516768.16845    382999.51242  24908507.1414                   24908506.8244
        35.7504         17.7504
    154399.71947    115622.85944  23378699.9924                   23378696.4024
        43.0004         26.0004
    287476.03947    217549.61346  23253116.3594                   23253114.7234
        42.5004         39.5004
  -1260172.96547   -949765.01644  22988293.0474                   22988290.0864
        43.7504         29.2504
   -320664.19948   -241130.53948  20651046.9694                   20651043.5004
        51.7504         53.5004
    322931.53545    232636.31344  24661894.1174                   24661893.9024
        35.7504         28.5004
  -1382965.34446  -1011393.16444  24858574.8284                   24858574.9024
        36.2504         25.0004
 25  7 15 21 28 30.0000000  0 10G02G08G10G18G23G27G28G32G24G31
  -1239374.27347   -934785.73845  22980144.6414                   22980137.4384
        46.0004         32.5004
   -137320.49647   -103879.59046  22975021.4224                   22975019.5514
        43.5004         38.0004
   -299478.64848   -226561.71548  21389451.7344                   21389448.5984
        49.2504         50.2504
                                  24919608.2734                   24919609.8134
        32.0004         15.5004
    170763.90647    128374.12144  23381814.4304                   23381810.4384
        42.7504         25.7504
    319856.42247    242781.00446  23259277.9534                   23259276.6844
        43.5004         39.5004
  -1403982.58647  -1061824.37144  22960926.3524                   22960922.8094
        44.2504         29.2504
   -356834.32848   -269315.05948  20644164.3204                   20644160.6914
        51.0004         53.5004
    360092.42645    261592.77344  24668966.2424                   24668965.2624
        35.2504         28.7504
  -1545113.18046  -1137741.80544  24827719.6954                   24827719.6844
        40.2504         27.7504
 25  7 15 21 29  0.0000000  0 10G02G08G10G18G23G27G28G32G24G31
  -1366435.28147  -1033794.27745  22955965.2344                   22955958.4144
        45.2504         33.0004
   -150717.49247   -114318.85246  22972471.4924                   22972469.9064
        43.5004         38.7504
   -330999.64848   -251123.54748  21383453.5164                   21383450.5944
        50.7504         50.2504
    633333.69956    473829.44952  24930689.5864                   24930689.3594
        37.0004         16.7504
    186973.84047    141005.18844  23384898.9694                   23384895.4734
        42.5004         27.0004
    352193.46947    267978.62546  23265431.8594                   23265430.7114
        42.5004         39.2504
  -1547836.43047  -1173918.19944  22933552.3594                   22933548.0554
        44.0004         29.5004
   -392857.62548   -297385.17248  20637309.1414                   20637305.5004
        51.7504         53.2504
    397383.66845    290650.84045  24676061.9304                   24676062.0784
        34.7504         30.5004
  -1707604.90646  -1264358.54344  24796799.3204                   24796798.3014
        39.7504         27.0004
 25  7 15 21 29 30.0000000  0 10G02G08G10G18G23G27G28G32G24G31
  -1493522.03147  -1132822.90645  22931781.3524                   22931774.2934
        44.0004         33.0004
   -163929.87947   -124614.25446  22969957.5864                   22969955.8674
        43.5004         38.5004
   -362617.13748   -275760.57048  21377436.8834                   21377434.0164
        49.2504         50.0004
                                  24941745.617
        37.750
    203030.84446    153517.09844  23387954.2344                   23387950.8524
        41.2504         27.0004
    384485.30947    293141.01646  23271577.0164                   23271575.4654
        42.5004         39.0004
  -1691730.25047  -1286043.16845  22906170.1564                   22906166.4454
        43.7504         30.0004
   -428734.30148   -325341.03148  20630481.9924                   20630478.4414
        50.5004         53.2504
    434803.71945    319809.20344  24683182.0864                   24683183.0664
        33.2504         27.7504
  -1870436.57446  -1391240.11344  24765812.1724                   24765811.9064
        38.0004         26.7504
 25  7 15 21 30  0.0000000  0 11G02G08G10G18G23G27G28G32G24G31G01
  -1620627.19147  -1231865.85945  22907594.2734                   22907586.9264
        45.5004         33.5004
   -176954.34047   -134763.23846  22967478.6254                   22967477.2854
        44.0004         38.0004
   -394325.30548   -300468.24648  21371402.9614                   21371399.7814
        50.0004         50.2504
     69211.83245    532597.78152  24952775.3364                   24952776.6334
        33.0004         16.2504
    218940.42647    165914.11344  23390981.7194                   23390978.7704
        42.0004         26.0004
    416734.11347    318269.89146  23277713.5084                   23277711.7814
        42.5004         39.5004
  -1835655.61347  -1398192.72745  22878782.2274                   22878778.1294
        44.2504         30.7504
   -464460.41848   -353179.56648  20623683.4924                   20623680.0864
        51.2504         53.2504
    472355.24255    349070.02754  24690328.8594                   24690327.9844
        32.7504         27.0004
  -2033600.13746  -1518380.23045  24734763.2664                   24734763.5984
        39.2504         31.2504
   -320990.64815                  25111801.117
        33.500
 25  7 15 21 30 30.0000000  0 11G02G08G10G18G23G27G28G32G24G31G01
  -1747740.68447  -1330915.32845  22883404.6804                   22883397.8714
        44.7504         33.0004
   -189785.36747   -144761.48046  22965037.6414                   22965035.6254
        43.0004         38.0004
   -426116.13748   -325240.33648  21365353.4844                   21365350.5004
        51.2504         50.0004
    127067.82846    577680.30143  24963786.1954                   24963785.9884
        37.7504         18.2504
    234710.41046    178202.36344  23393982.9144                   23393979.7114
        40.5004         25.7504
    448944.51646    343368.83246  23283842.9144                   23283841.2584
        41.7504         39.0004
  -1979601.81247  -1510358.51245  22851389.9694                   22851386.0434
        44.2504         30.2504
   -500029.75048   -380895.93448  20616914.7114                   20616911.7304
        51.0004         53.2504
    510043.12945    378437.17243  24697501.1174                   24697499.5514
        32.0004         22.7504
  -2197085.20746  -1645770.93445  24703653.3364                   24703652.3364
        40.5004         33.0004
   -475696.21546    -37794.98453  25082361.2194                   25082358.5434
        37.5004         18.5004
 25  7 15 21 31  0.0000000  0 11G02G08G10G18G23G27G28G32G24G31G01
  -1874852.83647  -1429963.71545  22859216.6564                   22859209.2774
        44.0004         32.5004
   -202417.38347   -154604.64846  22962633.8364                   22962632.1564
        43.0004         38.2504
   -457981.69548   -350070.65648  21359289.5394                   21359286.6174
        50.0004         50.0004
    184813.18846    622676.27343  24974775.2894                   24974775.2114
        38.5004         18.5004
    250348.50046    190387.84044  23396958.8754                   23396955.7424
        41.5004         24.7504
    481120.91447    368441.28146  23289966.5864                   23289964.7974
        43.0004         39.5004
  -2123558.17247  -1622532.20745  22823995.5084                   22823992.1174
        43.5004         30.2504
   -535436.08648   -408485.28148  20610177.0164                   20610173.7544
        51.5004         53.2504
    547872.31345    407914.44544  24704699.6484                   24704699.1524
        32.2504         26.0004
  -2360881.52046  -1773404.19145  24672484.2584                   24672482.0704
        40.2504         31.0004
   -630635.51246   -158526.82043  25052877.4144                   25052874.8594
        38.0004         19.5004
 25  7 15 21 31 30.0000000  0 11G02G08G10G18G23G27G28G32G24G31G01
  -2001951.53547  -1529001.64845  22835030.3594                   22835023.3054
        45.0004         33.5004
   -214842.50447   -164286.60946  22960269.8914                   22960267.4654
        44.0004         38.5004
   -489911.44547   -374950.99648  21353213.6644                   21353210.5984
        47.7504         50.0004
    242455.94545    667592.66043  24985742.2894                   24985743.7854
        35.7504         21.0004
    265864.98047    202478.55144  23399911.7424                   23399908.0204
        42.0004         26.0004
    513270.39547    393492.74246  23296084.2274                   23296082.8714
        42.7504         39.5004
  -2267511.57847  -1734703.61745  22796602.1644                   22796598.4414
        44.0004         30.7504
   -570670.80548   -435940.91848  20603472.4144                   20603468.4024
        49.0004         53.2504
                                  24711926.8524                   24711925.5984
        31.5004         27.2504
  -2524976.37946  -1901270.08644  24641257.0864                   24641255.6214
        39.0004         28.7504
   -785796.50846   -279431.48443  25023351.0944                   25023347.7034
        39.5004         21.5004
 25  7 15 21 32  0.0000000  0 10G02G08G10G18G23G27G28G32G31G01
  -2129028.93747  -1628022.97745  22810848.3914                   22810841.3594
        43.5004         33.7504
   -227057.38747   -173804.73046  22957944.5704                   22957943.4384
        43.0004         37.5004
   -521899.52047   -399876.77748  21347126.8054                   21347123.2074
        47.7504         50.0004
    299999.74246    712431.74243  24996694.8364                   24996693.8444
        40.5004         21.5004
    281265.53146    214478.92244  23402842.2274                   23402838.4454
        41.2504         26.0004
    545395.25447    418525.01646  23302197.3674                   23302196.2584
        43.0004         40.0004
  -2411453.48847  -1846866.05545  22769210.8134                   22769206.8094
        43.0004         31.2504
   -605729.87548   -463259.68448  20596800.9454                   20596797.4774
        49.0004         53.2504
  -2689361.67646  -2029362.31645  24609975.7584                   24609974.3594
        39.2504         30.7504
   -941171.80946   -400503.10943  24993784.2344                   24993781.7814
        37.5004         19.5004
 25  7 15 21 32 30.0000000  0 11G02G08G10G18G23G27G28G32G24G31G01
  -2256074.89847  -1727019.80945  22786672.8054                   22786665.2814
        44.5004         33.0004
   -239055.95747   -183154.31246  22955661.5234                   22955660.2974
        42.7504         37.5004
   -553937.27747   -424841.27048  21341029.7114                   21341026.8754
        47.7504         50.0004
    357450.93046    757198.63743  25007627.5704                   25007626.5864
        36.7504         19.5004
    296558.43846    226395.43044  23405752.4774                   23405748.9024
        41.5004         26.5004
    577500.64847    443542.12946  23308306.8914                   23308305.1994
        42.5004         39.2504
  -2555372.64147  -1959010.75045  22741823.9694                   22741820.1804
        42.7504         30.2504
   -640606.54348   -490436.31648  20590164.2974                   20590160.6134
        49.0004         53.2504
     16341.82056    466044.07455  24726468.3834                   24726466.9844
        36.0004         30.5004
  -2854026.19146  -2157672.09845  24578640.3914                   24578639.8134
        39.5004         32.7504
  -1096751.26246   -521733.81643  24964178.3754                   24964176.6254
        38.7504         18.5004
 25  7 15 21 33  0.0000000  0 11G02G08G10G18G23G27G28G32G24G31G01
  -2383084.14847  -1825988.03945  22762503.3594                   22762496.0084
        45.0004         33.7504
   -250837.49647   -192334.78546  22953419.9534                   22953418.4654
        42.2504         37.5004
   -586021.49248   -449841.97348  21334924.5394                   21334921.5314
        49.5004         50.0004
    414810.30546    801894.02343  25018542.2814                   25018542.9454
        38.0004         23.0004
    311746.72746    238230.41844  23408642.6884                   23408639.1484
        41.5004         26.5004
    609586.29747    468543.84446  23314412.9224                   23314411.3244
        42.5004         38.7504
  -2699263.12547  -2071133.13745  22714442.5084                   22714438.8204
        44.0004         30.5004
   -675299.38348   -517469.70348  20583562.0634                   20583558.3244
        50.7504         53.2504
     54784.32446    495999.28945  24733783.6334                   24733782.3014
        37.7504         30.2504
  -3018964.44146  -2286195.14844  24547254.4534                   24547253.0864
        38.5004         29.7504
  -1252530.28946   -643120.05543  24934534.6254                   24934532.0704
        39.7504         21.2504
 25  7 15 21 33 30.0000000  0 11G02G08G10G18G23G27G28G32G24G31G01
  -2510047.68747  -1924920.65245  22738342.8594                   22738336.3054
        44.0004         33.5004
   -262397.04747   -201342.27046  22951220.1414                   22951218.0984
        43.2504         36.7504
   -618144.46148   -474872.86748  21328811.7584                   21328808.7304
        48.0004         50.0004
    472083.40646    846522.13743  25029441.7974                   25029441.4844
        38.2504         22.5004
    326837.81346    249989.65244  23411514.2894                   23411511.0904
        41.0004         26.5004
    641656.35247    493533.42246  23320515.9534                   23320513.9574
        42.2504         38.5004
  -2843114.64547  -2183225.15645  22687068.4924                   22687064.8284
        43.0004         30.5004
   -709802.64148   -544355.36748  20576996.7424                   20576992.7814
        49.2504         53.2504
     93388.12146    526080.13344  24741128.4614                   24741128.6094
        36.5004         29.2504
  -3184166.75846  -2414923.97344  24515816.2814                   24515814.9264
        38.0004         27.7504
  -1408499.64846   -764654.52743  24904854.6094                   24904851.6764
        37.2504         21.5004
 25  7 15 21 34  0.0000000  0 11G02G08G10G18G23G27G28G32G24G31G01
  -2636956.59047  -2023810.68045  22714192.6254                   22714185.8594
        45.5004         34.0004
   -273730.28547   -210173.40246  22949063.6954                   22949061.8404
        43.0004         37.0004
   -650299.38748   -499928.65648  21322693.1254                   21322689.6214
        50.7504         50.0004
    529274.56646    891086.50844  25040325.3594                   25040324.7894
        38.5004         26.7504
    341838.22347    261678.23444  23414368.9304                   23414365.8984
        42.2504         25.7504
    673714.12147    518513.42646  23326616.2274                   23326614.2854
        43.0004         38.5004
  -2986917.77747  -2295279.46145  22659703.2114                   22659699.8244
        44.0004         30.5004
   -744111.38748   -571089.45748  20570467.7664                   20570464.2894
        51.7504         53.0004
    132157.00045    556289.53944  24748506.0314                   24748506.7114
        31.5004         26.0004
  -3349623.76646  -2543851.36345  24484331.6564                   24484329.4344
        40.5004         30.2504
  -1564650.98846   -886330.82043  24875139.8444                   24875136.9384
        38.0004         21.5004
 25  7 15 21 34 30.0000000  0 11G02G08G10G18G23G27G28G32G24G31G01
  -2763803.39147  -2122652.32045  22690055.0314                   22690047.5434
        45.0004         34.5004
   -284834.20747   -218825.85946  22946950.3754                   22946948.8954
        42.5004         37.2504
   -682480.54348   -525004.89148  21316569.1334                   21316565.9804
        51.0004         50.0004
    586387.27046    935589.63343  25051193.4694                   25051192.7624
        39.0004         22.5004
    356753.45346    273300.42644  23417207.1804                   23417203.6764
        41.7504         25.0004
    705761.77347    543485.55146  23332714.1804                   23332712.7934
        42.7504         38.2504
  -3130664.14547  -2407289.54345  22632349.2034                   22632345.4774
        43.5004         31.0004
   -778221.81248   -597669.01248  20563976.7274                   20563973.1994
        51.2504         53.0004
    171093.45345    586629.48444  24755915.8204                   24755915.7034
        35.5004         29.2504
  -3515327.41846  -2672970.94544  24452799.2034                   24452796.6054
        38.2504         29.0004
  -1720977.01245  -1008143.27343  24845391.7664                   24845389.3794
        35.7504         21.7504
 25  7 15 21 35  0.0000000  0 11G02G08G10G18G23G27G28G32G24G31G01
  -2890584.18047  -2221442.52345  22665929.4454                   22665922.3284
        45.2504         34.5004
   -295709.04347   -227299.80146  22944881.7114                   22944879.2344
        43.2504         38.0004
   -714685.53148   -550099.69948  21310440.6254                   21310437.4774
        50.5004         49.7504
    643421.44146    980031.65643  25062046.7974                   25062046.5594
        37.2504         22.5004
    371585.62147    284857.90644  23420030.3524                   23420025.9964
        42.0004         25.7504
    737798.18047    568448.92646  23338811.1094                   23338808.9144
        42.7504         38.0004
  -3274348.74647  -2519251.48845  22605007.1174                   22605003.1524
        43.7504         31.5004
   -812133.40248   -624093.63348  20557523.7274                   20557520.1414
        52.0004         53.0004
    210196.39146    617099.31345  24763357.1884                   24763356.6994
        37.5004         30.5004
  -3681272.94145  -2802278.89544  24421218.9144                   24421218.5864
        35.5004         27.0004
  -1877474.03945  -1130088.84843  24815611.1484                   24815608.6094
        35.0004         20.2504
 25  7 15 21 35 30.0000000  0 11G02G08G10G18G23G27G28G32G24G31G01
  -3017287.98047  -2320172.73045  22641817.9224                   22641811.3634
        44.0004         34.2504
   -306348.31647   -235590.18046  22942856.7584                   22942854.7384
        43.0004         37.7504
   -746905.19548   -575205.94148  21304309.4924                   21304306.2234
        50.2504         50.0004
    700384.02355   1024417.80153  25072886.1484                   25072885.9224
        34.0004         19.0004
    386343.60947    296357.58244  23422838.2894                   23422834.8554
        42.2504         26.5004
    769829.05147    593407.96946  23344905.9304                   23344904.9184
        42.7504         38.5004
  -3417959.79347  -2631156.13745  22577678.5084                   22577674.7734
        44.0004         31.2504
   -845838.94948   -650357.69548  20551109.8524                   20551105.7504
        52.2504         53.0004
    249471.91446    647703.59845  24770830.6564                   24770830.8324
        36.7504         30.2504
  -3847448.90646  -2931766.44145  24389597.6954                   24389596.4184
        39.5004         31.7504
  -2034131.38345  -1252159.43042  24785800.2274                   24785797.7274
        33.5004         17.7504
 25  7 15 21 36  0.0000000  0 10G02G08G10G23G27G28G32G24G31G01
  -3143904.48447  -2418834.92245  22617723.6724                   22617716.9264
        44.0004         34.0004
   -316746.17247   -243692.45746  22940878.4224                   22940876.5784
        43.2504         38.0004
   -779130.95348   -600316.93448  21298176.9304                   21298174.0944
        50.5004         50.0004
    401035.71947    307805.91844  23425634.3284                   23425630.7114
        42.0004         26.7504
    801859.33646    618366.54746  23351001.4454                   23350999.8284
        41.7504         38.2504
  -3561486.14547  -2742994.77745  22550366.3444                   22550362.1484
        44.2504         31.0004
   -879331.84048   -676456.06248  20544736.2034                   20544732.5164
        51.5004         53.0004
    288925.38346    678446.47345  24778339.2584                   24778339.0204
        36.0004         30.7504
  -4013844.33246  -3061425.09845  24357935.1254                   24357932.4964
        40.5004         30.7504
  -2190938.84045  -1374346.93443  24755961.0084                   24755958.1884
        35.0004         19.7504
 25  7 15 21 36 30.0000000  0 11G02G08G10G18G23G27G28G32G24G31G01
  -3270423.01247  -2517420.76645  22593648.3984                   22593641.3594
        45.2504         34.5004
   -326896.32047   -251601.70346  22938946.5474                   22938944.5864
        42.0004         37.2504
   -811353.82848   -625425.67248  21292045.3054                   21292041.7664
        48.7504         49.7504
    814116.37555   1068441.19953  25094528.5944                   25094530.0004
        30.2504         18.5004
    415670.60947    319209.67244  23428419.3834                   23428415.1914
        43.0004         27.5004
    833894.50046    643328.93446  23357098.1414                   23357095.9844
        41.2504         37.5004
  -3704916.23447  -2854758.41045  22523072.6094                   22523068.6644
        44.5004         31.2504
   -912605.04348   -702383.23848  20538404.6024                   20538401.1134
        50.2504         53.0004
    328562.58245    709332.47344  24785882.4614                   24785881.1764
        35.5004         29.7504
  -4180447.85546  -3191245.89144  24326230.0704                   24326227.6134
        40.2504         29.5004
  -2347885.83246  -1496643.21543  24726094.3134                   24726091.8754
        38.2504         21.2504
 25  7 15 21 37  0.0000000  0 11G02G08G10G18G23G27G28G32G24G31G01
  -3396840.21947  -2615927.65645  22569591.5864                   22569584.7384
        44.7504         34.0004
   -336799.91047   -259318.83246  22937061.8754                   22937060.4304
        42.0004         37.7504
   -843572.22748   -650530.92648  21285914.1954                   21285911.0984
        48.5004         50.0004
    870895.06655   1112684.02752  25105332.9144                   25105335.4104
        32.2504         17.2504
    430249.54747    330569.83644  23431193.5554                   23431190.1764
        42.5004         26.2504
    865932.52046    668293.53946  23363193.7814                   23363192.9144
        41.2504         37.5004
  -3848245.90247  -2966443.79745  22495797.7894                   22495793.6884
        43.0004         31.7504
   -945658.96948   -728139.54348  20532114.5394                   20532110.9694
        50.0004         53.0004
    368381.67246    740360.21544  24793459.6024                   24793458.4924
        37.2504         26.0004
  -4347255.54746  -3321225.79744  24294487.5084                   24294485.1564
        39.5004         28.5004
  -2504969.38746  -1619045.84843  24696202.9534                   24696200.0984
        37.5004         20.5004
 25  7 15 21 37 30.0000000  0 11G02G08G10G18G23G27G28G32G24G31G01
  -3523155.93047  -2714355.45345  22545554.8674                   22545547.6844
        45.7504         34.0004
   -346461.38747   -266847.30546  22935223.1174                   22935222.0434
        42.7504         37.7504
   -875787.81648   -675633.99248  21279783.7424                   21279780.9654
        49.7504         49.7504
    927610.02746   1156877.21143  25116127.5864                   25116127.6174
        36.2504         20.0004
    444770.70347    341884.97344  23433956.6024                   23433953.2704
        42.2504         25.7504
    897968.29346    693256.39146  23369290.3674                   23369289.0704
        41.2504         37.2504
  -3991474.19947  -3078050.19945  22468542.3524                   22468538.5664
        44.5004         31.7504
   -978497.22348   -753727.80148  20525865.6414                   20525861.7384
        50.5004         52.7504
    408377.83646    771526.18443  24801070.2274                   24801068.2154
        36.7504         21.2504
  -4514266.91046  -3451364.30944  24262705.4534                   24262703.4104
        40.5004         29.5004
  -2662189.61746  -1741555.08642  24666284.7424                   24666281.5744
        38.2504         17.7504
 25  7 15 21 38  0.0000000  0 11G02G08G10G18G23G27G28G32G24G31G01
  -3649364.07847  -2812699.45345  22521537.8134                   22521530.7894
        44.5004         34.0004
   -355878.80947   -274185.61346  22933431.7034                   22933429.7854
        43.0004         38.0004
   -907995.94148   -700731.23848  21273655.2114                   21273651.7624
        50.2504         50.0004
    984263.53145   1201022.57842  25126906.3524                   25126908.6644
        33.0004         16.2504
    459238.32446    353158.38744  23436709.6484                   23436706.2344
        41.5004         26.0004
    930002.82446    718218.29346  23375386.6254                   23375385.3324
        41.5004         36.7504
  -4134593.91847  -3189571.99645  22441307.5314                   22441303.5514
        43.7504         31.2504
  -1011117.16448   -779145.93748  20519657.8444                   20519654.5594
        51.0004         52.7504
    448552.39846    802830.98845  24808715.2734                   24808714.2734
        40.0004         31.0004
  -4681475.07847  -3581656.25845  24230888.1254                   24230885.3754
        42.0004         31.0004
  -2819540.25446  -1864165.93743  24636341.7664                   24636338.8054
        37.0004         18.2504
 25  7 15 21 38 30.0000000  0 11G02G08G10G18G23G27G28G32G24G31G01
  -3775462.19947  -2910957.71145  22497541.6174                   22497535.2304
        45.0004         33.5004
   -365054.55547   -281335.58246  22931685.4304                   22931683.6954
        42.5004         37.0004
   -940196.14548   -725822.31248  21267527.4534                   21267524.1174
        50.5004         49.7504
   1040853.87146   1245118.62543  25137676.5234                   25137677.8984
        36.2504         19.0004
    473652.62947    364390.25844  23439453.1414                   23439449.7814
        42.2504         25.7504
    962033.05947    743176.84046  23381481.8204                   23381480.2814
        42.0004         37.0004
  -4277602.01647  -3301006.81645  22414093.8364                   22414090.2424
        44.2504         32.5004
  -1043520.30148   -804395.14148  20513492.0314                   20513488.8794
        51.2504         53.0004
    488902.48446    834272.56345  24816393.6254                   24816393.4534
        41.7504         34.7504
  -4848876.58246  -3712098.86344  24199030.9384                   24199029.0904
        38.0004         27.0004
  -2977019.44946  -1986876.91443  24606373.6804                   24606371.2344
        38.2504         19.2504
 25  7 15 21 39  0.0000000  0  9G02G08G10G23G27G28G32G31G01
  -3901442.97347  -3009124.52345  22473568.8984                   22473562.2894
        45.0004         34.5004
   -373985.77347   -288295.02346  22929986.0864                   22929984.6604
        43.2504         38.0004
   -972382.76248   -750902.80148  21261402.4384                   21261399.4024
        50.2504         49.7504
    488018.90646    375584.69144  23442186.2664                   23442183.3204
        41.5004         25.7504
    994061.12546    768133.70746  23387576.3984                   23387575.3134
        40.7504         36.5004
  -4420490.31647  -3412348.28945  22386903.5084                   22386899.3554
        43.7504         32.0004
  -1075703.07448   -829472.62948  20507367.5944                   20507364.2384
        51.5004         52.7504
  -5016463.94146  -3842686.23845  24167140.5084                   24167139.1374
        41.0004         32.5004
  -3134619.85246  -2109682.35243  24576383.8754                   24576381.0124
        39.5004         19.5004
 25  7 15 21 39 30.0000000  0  9G02G08G10G23G27G28G32G31G01
  -4027302.97347  -3107197.22745  22449618.6804                   22449611.5474
        45.0004         34.0004
   -382673.49647   -295064.73446  22928332.6724                   22928331.2894
        42.5004         37.5004
  -1004554.02748   -775971.33248  21255280.4454                   21255276.9884
        50.2504         49.7504
    502338.69947    386742.91444  23444911.1884                   23444908.3834
        42.5004         25.5004
   1026085.22346    793087.47746  23393670.6254                   23393669.3054
        39.2504         37.0004
  -4563254.46547  -3523593.01645  22359735.8444                   22359731.8674
        44.2504         32.2504
  -1107665.65248   -854378.53548  20501285.5784                   20501281.8674
        51.5004         52.7504
  -5184232.86347  -3973415.08245  24135215.5784                   24135213.6844
        42.0004         34.2504
  -3292338.18446  -2232579.69943  24546371.2034                   24546367.1094
        40.2504         20.0004
 25  7 15 21 40  0.0000000  0  9G02G08G10G23G27G28G32G31G01
  -2577604.27747  -1977561.85545  22725487.6644                   22725480.1684
        45.0004         34.7504
   1184311.98847    925962.87546  23226520.6484                   23226518.6724
        42.5004         37.2504
    538723.39548    426582.49648  21548956.4614                   21548953.3714
        49.5004         50.0004
   2092043.44147   1625473.82844  23747422.0234                   23747419.2384
        42.0004         26.0004
   2633532.90646   2045644.02746  23699557.7194                   23699556.5864
        40.0004         36.7504
  -3130454.96147  -2407125.80545  22632388.1174                   22632384.6254
        43.5004         32.2504
    436023.18848    348495.89148  20795039.6174                   20795036.3134
        50.7504         53.0004
  -3776743.22746  -2876669.70344  24403050.6804                   24403048.6954
        37.7504         28.0004
  -1874735.38746  -1127954.05543  24816132.4534                   24816128.9844
        41.0004         20.7504
 25  7 15 21 40 30.0000000  0  9G02G08G10G23G27G28G32G31G01
  -2703180.65247  -2075413.55945  22701590.7504                   22701583.7304
        44.7504         35.0004
   1176139.79747    919594.89546  23224964.9774                   23224964.0164
        42.5004         37.5004
    506619.92248    401566.79748  21542847.5704                   21542844.5124
        48.7504         50.0004
   2106306.28947   1636587.69143  23750136.7894                   23750133.3714
        42.0004         23.7504
   2665575.40246   2070612.10946  23705655.7424                   23705654.4344
        40.5004         37.0004
  -3272926.14847  -2518142.25445  22605277.1564                   22605273.3014
        43.7504         32.2504
    404531.88348    323957.20748  20789047.1804                   20789043.1334
        50.2504         52.7504
  -3944831.44946  -3007647.41445  24371065.6884                   24371062.0824
        41.5004         30.7504
  -2032647.91446  -1251002.72742  24786081.6644                   24786078.7114
        40.0004         17.7504
 25  7 15 21 41  0.0000000  0  9G02G08G10G23G27G28G32G31G01
  -2828603.17247  -2173145.37145  22677723.4694                   22677716.7344
        45.0004         34.0004
   1168230.44547    913431.70746  23223459.6414                   23223458.5434
        42.7504         37.5004
    474559.72747    376584.81648  21536746.5004                   21536743.3014
        47.7504         49.7504
   2120549.50846   1647686.25044  23752847.1564                   23752843.5984
        41.0004         24.0004
   2697631.16446   2095590.53146  23711755.3594                   23711754.0554
        40.5004         37.5004
  -3415237.66447  -2629034.27745  22578195.8594                   22578192.2274
        43.2504         32.2504
    373282.52348    299607.05948  20783100.6884                   20783097.0824
        49.5004         52.5004
  -4113066.12146  -3138739.19145  24339050.7664                   24339049.5204
        41.0004         33.2504
  -2190645.76246  -1374117.91043  24756016.0314                   24756012.0474
        40.7504         19.0004
 25  7 15 21 41 30.0000000  0  9G02G08G10G23G27G28G32G31G01
  -2953871.10247  -2270756.72345  22653886.0164                   22653878.5434
        45.0004         34.5004
   1160580.34447    907470.53546  23222004.6724                   23222002.6804
        42.5004         38.0004
    442542.05948    351635.98048  21530653.7344                   21530650.4614
        49.5004         49.5004
   2134772.04746   1658768.68444  23755553.1954                   23755549.5634
        41.5004         24.5004
   2729695.85246   2120575.91446  23717857.1414                   23717855.7814
        41.0004         38.0004
  -3557387.80147  -2739800.55545  22551145.8054                   22551141.9534
        43.0004         32.0004
    342272.29748    275443.23848  20777199.8444                   20777196.0394
        50.7504         52.7504
  -4281445.67646  -3269943.78144  24307008.7344                   24307007.5274
        36.2504         29.2504
  -2348728.09046  -1497298.93743  24725934.0394                   24725930.2034
        40.0004         18.2504
 25  7 15 21 42  0.0000000  0  9G02G08G10G23G27G28G32G31G01
  -3078978.53147  -2368243.02045  22630078.7034                   22630071.4774
        44.2504         34.5004
   1153190.81647    901712.42246  23220598.2274                   23220596.3324
        43.0004         38.0004
    410571.23448    326723.63348  21524569.8914                   21524566.9494
        49.7504         49.5004
   2148977.92246   1669838.14543  23758256.9224                   23758253.7034
        40.5004         22.5004
   2761770.18446   2145568.81646  23723960.8204                   23723959.6804
        39.7504         36.7504
  -3699369.75847  -2850435.78145  22524127.7034                   22524123.2344
        43.0004         32.0004
    311503.38348    251467.46148  20771344.3134                   20771340.8594
        50.0004         52.5004
  -4449963.75846  -3401256.36344  24274941.6564                   24274938.2424
        39.5004         28.5004
  -2506889.17646  -1620541.27343  24695837.1094                   24695833.5234
        37.0004         19.2504
 25  7 15 21 42 30.0000000  0  9G02G08G10G23G27G28G32G31G01
  -3203925.88347  -2465604.57445  22606302.2274                   22606295.0354
        45.0004         34.2504
   1146056.77346    896153.36346  23219240.6174                   23219239.1954
        41.2504         38.2504
    378645.02748    301846.06648  21518494.5704                   21518491.3874
        49.2504         49.5004
   2163164.57846   1680892.62143  23760956.0394                   23760953.5004
        40.0004         22.2504
   2793848.41846   2170564.76246  23730064.7734                   23730064.3134
        40.2504         36.7504
  -3841183.18447  -2960939.68745  22497141.1254                   22497137.2194
        43.2504         31.5004
    280971.54348    227676.40648  20765534.6094                   20765531.4184
        50.5004         52.5004
  -4618619.82046  -3532676.53545  24242847.1414                   24242845.0944
        37.7504         30.2504
  -2665129.56646  -1743845.40643  24665724.0944                   24665721.0354
        37.0004         20.0004
 25  7 15 21 43  0.0000000  0  9G02G08G10G23G27G28G32G31G01
  -3328709.83247  -2562838.80545  22582556.8594                   22582549.2344
        44.5004         35.2504
   1139176.91047    890792.37146  23217931.5004                   23217930.2934
        42.2504         37.5004
    346765.12948    277004.57048  21512428.1024                   21512424.8284
        48.7504         49.7504
   2177333.27346   1691933.10243  23763652.2114                   23763649.5354
        40.5004         22.5004
   2825928.62946   2195562.24246  23736169.8134                   23736168.6844
        39.0004         36.2504
  -3982823.97747  -3071309.07445  22470187.3134                   22470183.7664
        44.0004         32.0004
    250676.29348    204069.71148  20759769.3834                   20759765.8674
        49.7504         52.5004
  -4787410.37146  -3664201.35945  24210726.4844                   24210725.0634
        38.7504         32.0004
  -2823445.92646  -1867208.71143  24635597.5784                   24635594.2034
        36.0004         19.0004
 25  7 15 21 43 30.0000000  0  9G02G08G10G23G27G28G32G31G01
  -3453326.82047  -2659942.93445  22558842.9144                   22558835.5044
        45.7504         34.5004
   1132550.18847    885628.63746  23216670.7894                   23216669.0004
        42.7504         38.0004
    314933.35548    252200.58648  21506370.5704                   21506367.4774
        49.0004         49.7504
   2191485.55946   1702960.79343  23766345.6254                   23766342.7774
        39.2504         22.2504
   2858009.07046   2220559.90246  23742275.1174                   23742273.3874
        40.2504         36.5004
  -4124287.79747  -3181540.55145  22443268.3984                   22443264.3324
        43.5004         32.2504
    220617.39848    180647.19148  20754049.5394                   20754045.9264
        50.5004         52.7504
  -4956330.46946  -3795827.16845  24178582.3984                   24178580.1134
        40.0004         32.2504
  -2981834.90245  -1990628.60243  24605456.4454                   24605454.2154
        33.5004         19.5004
 25  7 15 21 44  0.0000000  0  9G02G08G10G23G27G28G32G31G01
  -3577774.08647  -2756914.80945  22535160.9224                   22535153.4884
        45.0004         35.5004
   1126174.77747    880660.74246  23215457.4614                   23215455.5594
        43.0004         37.5004
    283150.97748    227435.08248  21500322.7734                   21500320.0864
        49.2504         49.7504
   2205622.37546   1713976.43443  23769035.6724                   23769032.4884
        40.0004         21.5004
   2890087.40646   2245555.89846  23748379.4064                   23748378.1214
        40.0004         36.5004
  -4265570.93447  -3291631.25445  22416382.5314                   22416378.6524
        44.0004         32.2504
    190794.00448    157408.17648  20748374.5634                   20748371.0124
        50.7504         52.7504
  -5125376.58846  -3927551.28945  24146414.9144                   24146410.7734
        40.7504         31.0004
  -3140293.69145  -2114102.80943  24575303.5784                   24575300.4534
        33.2504         19.0004
 25  7 15 21 44 30.0000000  0  9G02G08G10G23G27G28G32G31G01
  -3702046.54347  -2853750.47345  22511512.4534                   22511505.3364
        44.5004         34.5004
   1120051.21547    875889.07446  23214292.5314                   23214291.0124
        42.5004         38.2504
    251421.46547    202710.78148  21494284.8674                   21494281.5634
        47.5004         49.7504
   2219746.73046   1724982.35543  23771724.5314                   23771720.7384
        40.5004         22.5004
   2922163.63746   2270550.29346  23754483.3834                   23754481.7384
        40.7504         37.2504
  -4406667.43747  -3401576.52345  22389533.0784                   22389529.1334
        45.0004         32.5004
    161207.43048    134353.69948  20742744.2424                   20742740.5434
        49.2504         53.0004
  -5294543.18746  -4059369.21145  24114221.2664                   24114220.2304
        38.0004         31.5004
  -3298817.13746  -2237627.45743  24545137.1254                   24545134.5314
        36.5004         20.7504
 25  7 15 21 45  0.0000000  0  9G02G08G10G23G27G28G32G31G01
  -3826140.00447  -2950446.65645  22487898.0394                   22487891.2154
        45.2504         35.0004
   1114178.64847    871312.98046  23213174.6564                   23213173.4414
        42.7504         37.7504
    219746.91847    178029.30548  21488257.2814                   21488254.0744
        47.2504         49.7504
   2233860.46146   1735979.98843  23774409.3984                   23774406.7584
        40.5004         22.5004
   2954236.21546   2295541.81646  23760585.9774                   23760585.1054
        40.5004         38.0004
  -4547572.74647  -3511372.80945  22362719.7974                   22362715.2814
        44.5004         32.5004
    131857.71548    111483.78548  20737158.9694                   20737155.4534
        48.7504         53.0004
  -5463825.46946  -4191277.19145  24082009.0634                   24082007.2894
        40.7504         33.5004
  -3457401.43046  -2361199.53543  24514959.9304                   24514956.7304
        39.5004         23.0004
 25  7 15 21 45 30.0000000  0  9G02G08G10G23G27G28G32G31G01
  -3950050.69547  -3047000.42245  22464319.0554                   22464311.7704
        45.0004         35.2504
   1108556.65247    866932.16046  23212104.9774                   23212103.0984
        42.0004         37.0004
    188130.01647    153392.75048  21482240.8444                   21482237.7544
        47.5004         49.5004
   2247965.80546   1746971.11743  23777094.0164                   23777090.4614
        40.5004         22.5004
   2986304.15646   2320529.74646  23766688.5314                   23766687.7814
        41.0004         37.5004
  -4688281.80547  -3621016.17645  22335943.8524                   22335939.0274
        44.5004         33.5004
    102745.29748     88798.77748  20731619.3524                   20731615.8324
        49.0004         52.7504
  -5633218.81246  -4323271.84845  24049774.3674                   24049771.7154
        40.0004         31.2504
  -3616042.33646  -2484815.76644  24484771.2814                   24484767.7854
        40.2504         27.7504
 25  7 15 21 46  0.0000000  0  9G02G08G10G23G27G28G32G31G01
  -4073775.33247  -3143409.21945  22440774.8834                   22440767.9384
        46.0004         34.2504
   1103183.62547    862745.32846  23211082.5004                   23211080.9414
        42.0004         38.0004
    156572.07847    128802.12948  21476235.5394                   21476232.1914
        47.5004         49.7504
   2262063.74246   1757956.44143  23779777.1884                   23779773.5274
        40.0004         22.0004
   3018365.35546   2345512.41446  23772790.1724                   23772788.3134
        40.5004         36.7504
  -4828790.79747  -3730503.64145  22309205.2274                   22309201.3554
        45.5004         33.0004
     73869.39848     66298.06648  20726124.3054                   20726121.0864
        48.7504         52.7504
  -5802719.04346  -4455349.71545  24017519.4694                   24017516.7234
        41.5004         32.0004
  -3774737.02047  -2608473.86744  24454572.7664                   24454569.9964
        42.7504         27.0004
 25  7 15 21 46 30.0000000  0  9G02G08G10G23G27G28G32G31G01
  -4197307.96547  -3239668.39545  22417267.6254                   22417259.8954
        45.2504         34.5004
   1098060.86347    858753.49246  23210108.1334                   23210106.4614
        42.0004         38.0004
    125077.52747    104260.91048  21470242.4694                   21470239.1684
        47.5004         49.7504
   2276158.30546   1768939.16443  23782459.4384                   23782455.7344
        41.2504         22.5004
   3050420.53946   2370490.39146  23778890.0314                   23778888.7584
        39.7504         36.5004
  -4969092.90647  -3839829.90245  22282507.0084                   22282502.2734
        46.0004         32.7504
     45232.27048     43983.42248  20720675.0704                   20720671.4574
        48.7504         52.7504
  -5972319.29347  -4587505.62145  23985245.7274                   23985242.9454
        42.7504         32.5004
  -3933479.39147  -2732169.13344  24424365.2194                   24424362.1134
        43.2504         27.5004
 25  7 15 21 47  0.0000000  0  9G02G08G10G23G27G28G32G31G01
  -4320643.77747  -3335774.20345  22393797.5314                   22393790.2424
        46.0004         34.5004
   1093188.64846    854956.91046  23209179.9454                   23209179.0704
        41.5004         37.5004
     93649.65648     79771.64848  21464261.7274                   21464259.1954
        49.0004         49.7504
   2290252.43846   1779921.57443  23785140.0394                   23785138.0084
        39.7504         22.5004
   3082469.53146   2395463.52346  23784988.5784                   23784987.2854
        40.5004         36.0004
  -5109182.38347  -3948990.47745  22255848.6174                   22255844.1644
        45.7504         32.7504
     16835.06648     21855.71948  20715270.9304                   20715267.2624
        50.7504         52.7504
  -6142014.25446  -4719735.25845  23952952.7034                   23952950.2814
        40.0004         30.5004
  -4092264.46947  -2855897.69544  24394149.2974                   24394146.0234
        43.2504         27.7504
 25  7 15 21 47 30.0000000  0  9G02G08G10G23G27G28G32G31G01
  -4443776.60247  -3431721.84845  22370366.2424                   22370359.0514
        46.0004         35.2504
   1088568.57846    851356.79746  23208301.5164                   23208300.2734
        41.5004         37.7504
     62293.16848     55338.01248  21458294.7974                   21458291.6524
        48.5004         49.5004
   2304350.37946   1790906.88744  23787824.0864                   23787820.4104
        40.2504         24.0004
   3114513.34046   2420432.63346  23791085.5554                   23791085.1054
        40.0004         36.2504
  -5249052.23847  -4057979.92645  22229232.3914                   22229227.9884
        45.0004         33.2504
    -11319.77748       -83.12948  20709913.4064                   20709909.4804
        50.5004         52.5004
  -6311796.63747  -4852033.05945  23920644.9454                   23920641.4574
        42.2504         33.0004
  -4251086.05147  -2979654.69944  24363926.9844                   24363923.3054
        44.0004         27.2504
 25  7 15 21 48  0.0000000  0  9G02G08G10G23G27G28G32G31G01
  -4566701.46947  -3527507.45345  22346974.0474                   22346967.2194
        46.2504         34.5004
   1084200.71547    847953.20746  23207470.6804                   23207469.1644
        42.5004         38.0004
     31011.19547     30962.43848  21452342.1094                   21452338.9774
        47.5004         49.5004
   2318454.98846   1801897.41044  23790507.8524                   23790504.8204
        41.2504         24.0004
   3146551.55946   2445397.37146  23797183.1644                   23797182.2584
        41.0004         36.7504
  -5388696.85547  -4166793.85245  22202658.5314                   22202654.3484
        45.7504         33.5004
    -39231.24248    -21832.32048  20704602.0704                   20704598.3874
        50.0004         52.5004
  -6481660.80946  -4984394.58245  23888319.8754                   23888317.9964
        39.7504         32.2504
  -4409939.27347  -3103436.36744  24333698.0784                   24333694.0594
        43.0004         24.5004
 25  7 15 21 48 30.0000000  0  9G02G08G10G23G27G28G32G31G01
  -4689413.10947  -3623126.89845  22323622.7664                   22323615.4964
        46.0004         35.5004
   1080085.44147    844746.43846  23206687.0864                   23206686.0664
        42.2504         38.2504
      -192.79747      6647.62948  21446404.1644                   21446400.9224
        47.7504         49.5004
   2332569.20346   1812895.42644  23793193.3134                   23793189.8364
        41.0004         25.2504
   3178584.16846   2470357.76646  23803277.9534                   23803277.8404
        39.5004         36.5004
  -5528110.40647  -4275427.73045  22176128.9694                   22176124.8284
        45.5004         33.0004
    -66898.07448    -43390.89548  20699337.2584                   20699333.4774
        49.2504         52.5004
  -6651601.04346  -5116815.32045  23855982.3284                   23855979.8284
        41.5004         34.7504
  -4568819.04747  -3227238.68743  24303463.5704                   24303460.2544
        42.0004         22.2504
 25  7 15 21 49  0.0000000  0  9G02G08G10G23G27G28G32G31G01
  -4811903.41847  -3718573.87545  22300313.8834                   22300306.7074
        46.2504         35.7504
   1076226.39547    841739.34446  23205953.1804                   23205951.2734
        42.2504         38.0004
    -31312.02748    -17601.13748  21440482.4144                   21440479.3204
        49.2504         49.7504
   2346699.46946   1823905.96944  23795882.2734                   23795879.9574
        40.0004         24.2504
   3210614.25446   2495316.17646  23809373.2344                   23809372.6644
        40.0004         36.0004
  -5667283.73047  -4383874.41845  22149645.1954                   22149641.0664
        46.0004         34.0004
    -94315.68448    -64755.27748  20694119.9224                   20694116.0554
        51.2504         52.5004
  -6821608.16046  -5249288.25045  23823630.3524                   23823627.0474
        41.2504         31.5004
  -4727716.99246  -3351055.20343  24273226.6334                   24273223.2664
        41.0004         21.7504
 25  7 15 21 49 30.0000000  0  9G02G08G10G23G27G28G32G31G01
  -4934168.48447  -3813845.34445  22277047.7424                   22277040.4264
        46.0004         35.0004
   1072622.88747    838931.35546  23205267.4774                   23205266.2194
        42.5004         38.2504
    -62344.07848    -41781.96148  21434577.1954                   21434574.3674
        48.0004         49.5004
   2360847.87946   1834930.64844  23798574.9614                   23798572.4414
        41.0004         25.5004
   3242640.76246   2520271.80946  23815468.4384                   23815467.4964
        39.0004         36.2504
  -5806212.03547  -4492130.19145  22123207.9064                   22123204.1684
        45.5004         34.0004
   -121483.86348    -85925.30148  20688949.6414                   20688946.2624
        50.5004         52.5004
  -6991677.03947  -5381809.30945  23791267.1484                   23791264.0704
        42.0004         33.0004
  -4886628.87546  -3474882.67643  24242986.3284                   24242982.9064
        39.7504         21.2504
 25  7 15 21 50  0.0000000  0  9G02G08G10G23G27G28G32G31G01
  -5056200.89547  -3908935.53145  22253825.4384                   22253818.1764
        46.2504         35.0004
   1069277.37946    836324.39546  23204630.8674                   23204629.6094
        40.7504         37.2504
    -93283.37548    -65890.52048  21428689.9304                   21428686.6024
        48.0004         49.5004
   2375019.53146   1845973.40244  23801272.2034                   23801268.9494
        40.5004         24.2504
   3274665.60246   2545226.12546  23821562.1954                   23821562.3674
        39.0004         36.5004
  -5944887.41047  -4600188.86345  22096819.2424                   22096814.7464
        45.5004         33.7504
   -148399.24248   -106898.32448  20683827.9924                   20683824.1134
        49.5004         52.5004
  -7161799.95746  -5514372.43445  23758892.7274                   23758890.7304
        39.5004         31.7504
  -5045547.64546  -3598715.37143  24212744.8754                   24212741.1684
        38.7504         18.2504
 25  7 15 21 50 30.0000000  0  9G02G08G10G23G27G28G32G31G01
  -5177995.68047  -4003840.54345  22230648.6484                   22230641.4344
        46.2504         35.7504
   1066190.24247    833918.77046  23204043.8524                   23204042.1604
        42.0004         37.0004
   -124126.39548    -89924.05948  21422820.5164                   21422817.0704
        48.2504         49.5004
   2389217.48846   1857036.66444  23803973.8914                   23803970.0354
        41.7504         26.0004
   3306688.77046   2570179.14546  23827657.0474                   23827656.0704
        38.5004         36.0004
  -6083304.00447  -4708045.89845  22070479.2344                   22070474.6994
        45.2504         33.7504
   -175060.50048   -127673.34048  20678754.5864                   20678750.7584
        49.7504         52.5004
  -7331970.89146  -5646973.03145  23726511.3984                   23726508.1334
        40.2504         32.2504
  -5204468.00446  -3722549.36343  24182503.1334                   24182500.0004
        38.7504         19.0004
 25  7 15 21 51  0.0000000  0  9G02G08G10G23G27G28G32G31G01
  -5299548.55147  -4098557.05146  22207518.0084                   22207510.5664
        46.0004         36.0004
   1063361.07846    831714.18446  23203504.8054                   23203504.1914
        41.0004         37.7504
   -154870.34048   -113880.39148  21416970.0394                   21416966.9654
        48.2504         49.5004
   2403444.16847   1868122.30944  23806682.1484                   23806678.1054
        42.0004         25.2504
   3338709.51646   2595130.28145  23833749.8754                   23833748.6134
        38.2504         35.0004
  -6221456.67647  -4815697.27745  22044189.7114                   22044185.3954
        46.0004         33.5004
   -201467.04748   -148249.87548  20673729.5944                   20673725.6214
        50.5004         52.5004
  -7502184.16846  -5779606.55945  23694119.6094                   23694118.0824
        38.5004         32.5004
  -5363385.51646  -3846381.10543  24152261.6414                   24152258.5394
        39.0004         20.2504
 25  7 15 21 51 30.0000000  0  9G02G08G10G23G27G28G32G31G01
  -5420855.63747  -4193082.04745  22184433.6484                   22184426.4104
        46.7504         35.7504
   1060788.96546    829709.87546  23203014.5864                   23203014.1484
        39.7504         37.2504
   -185512.93448   -137757.75048  21411139.0394                   21411135.5084
        49.5004         49.5004
   2417701.46947   1879231.82444  23809394.2664                   23809390.8524
        42.0004         26.0004
   3370726.53146   2620078.51245  23839842.8524                   23839842.1374
        38.0004         35.0004
  -6359340.80147  -4923139.40245  22017950.7814                   22017946.7894
        45.2504         33.7504
   -227618.90648   -168627.95748  20668753.1254                   20668749.4224
        51.0004         52.5004
  -7672435.68747  -5912269.91445  23661723.1954                   23661719.6914
        42.2504         34.7504
  -5522296.17246  -3970207.54343  24122022.8054                   24122018.3324
        40.5004         20.0004
 25  7 15 21 52  0.0000000  0  9G02G08G10G23G27G28G32G31G01
  -5541914.08647  -4287413.29745  22161397.1484                   22161390.3594
        46.5004         35.2504
   1058471.91446    827904.32446  23202574.5164                   23202573.4774
        40.7504         37.2504
   -216053.00848   -161555.22748  21405327.5084                   21405324.4184
        49.0004         49.2504
   2431990.07446   1890365.72744  23812112.6804                   23812110.6484
        41.2504         25.7504
   3402737.35246   2645021.90245  23845933.5554                   23845933.1414
        38.0004         34.0004
  -6496952.93747  -5030369.58645  21991764.1644                   21991760.0434
        45.5004         34.2504
   -253517.14148   -188808.40648  20663824.7664                   20663821.3594
        50.5004         52.5004
  -7842721.66846  -6044960.13745  23629317.4224                   23629315.2194
        40.0004         31.7504
  -5681197.16446  -4094026.43443  24091784.3754                   24091781.1564
        38.0004         20.0004
 25  7 15 21 52 30.0000000  0  9G02G08G10G23G27G28G32G31G01
  -5662721.72347  -4381549.10245  22138408.2584                   22138401.0554
        47.0004         35.7504
   1056407.43846    826295.58646  23202181.4924                   23202180.5984
        40.0004         37.2504
   -246489.89148   -185272.29348  21399535.5864                   21399532.5234
        48.5004         49.2504
   2446310.27747   1901524.21144  23814839.5234                   23814835.6644
        43.0004         27.5004
   3434739.11346   2669958.25045  23852023.8524                   23852022.9494
        38.7504         35.0004
  -6634290.09847  -5137385.50445  21965629.9064                   21965625.5354
        46.0004         33.2504
   -279163.27748   -208792.41848  20658944.4384                   20658941.0664
        50.2504         52.5004
  -8013038.95347  -6177674.75445  23596907.9224                   23596904.2854
        42.0004         34.7504
  -5840086.19546  -4217835.96943  24061549.5784                   24061545.5204
        40.2504         19.7504
 25  7 15 21 53  0.0000000  0  9G02G08G10G23G27G28G32G31G01
  -5783281.92647  -4475492.10946  22115466.9534                   22115459.0984
        46.5004         36.0004
   1054587.57046    824877.43846  23201834.9064                   23201834.2034
        41.0004         36.0004
   -276828.25448   -208912.59448  21393762.0634                   21393759.2074
        48.5004         49.0004
   2460656.85547   1912703.28544  23817569.2344                   23817565.4184
        42.5004         26.0004
   3466723.57046   2694881.10945  23858109.8134                   23858109.3204
        38.2504         34.0004
  -6771354.73047  -5244189.05945  21939546.9614                   21939542.7274
        45.5004         34.0004
   -304564.32848   -228585.45348  20654110.9924                   20654107.0784
        51.0004         52.5004
  -8183389.35946  -6310415.15245  23564490.0784                   23564487.8914
        39.2504         32.0004
  -5998966.16446  -4341638.49243  24031315.4224                   24031311.9144
        39.5004         22.5004
 25  7 15 21 53 30.0000000  0  9G02G08G10G23G27G28G32G31G01
  -5903591.54347  -4569239.85246  22092572.5864                   22092565.2624
        46.5004         36.0004
   1053010.48846    823648.46946  23201535.1174                   23201533.7934
        41.5004         36.5004
   -307066.80948   -232475.12148  21388007.7814                   21388005.2544
        48.7504         49.0004
   2475030.87546   1923903.75444  23820303.7344                   23820300.8444
        41.5004         25.2504
   3498688.55146   2719788.79345  23864193.2814                   23864192.1334
        38.5004         33.7504
  -6908143.16447  -5350777.39545  21913517.5084                   21913512.7074
        45.5004         33.7504
   -329721.13748   -248188.17648  20649323.8674                   20649320.0394
        49.5004         52.5004
  -8353769.64847  -6443178.84845  23532068.1804                   23532065.7154
        42.0004         34.7504
  -6157834.12146  -4465431.59843  24001083.7034                   24001079.9654
        39.7504         22.0004
 25  7 15 21 54  0.0000000  0  9G02G08G10G23G27G28G32G31G01
  -4448227.14547  -3435189.64846  22369519.3444                   22369512.0274
        47.0004         36.5004
   2627091.01246   2050204.66846  23501072.8524                   23501071.9144
        41.0004         37.5004
   1238213.60548    971639.47348  21682065.2344                   21682062.1884
        48.7504         49.0004
   4064849.30546   3162723.21944  24122836.4614                   24122833.0904
        41.7504         26.0004
   5106047.46546   3972276.15645  24170063.2814                   24170062.7624
        38.7504         34.2504
  -5469230.55947  -4229546.74645  22187333.3204                   22187329.1134
        46.0004         34.0004
   1220782.90648    959996.78548  20944374.7114                   20944371.0864
        51.0004         52.5004
  -6948753.66046  -5348361.05145  23799433.7894                   23799430.8754
        40.7504         34.0004
  -4741264.93446  -3361611.41844  24270647.4304                   24270643.9964
        39.7504         24.5004
 25  7 15 21 54 30.0000000  0  9G02G08G10G23G27G28G32G31G01
  -4568032.75847  -3528544.66045  22346720.6024                   22346713.1684
        46.0004         35.2504
   2625988.01646   2049345.13746  23500863.3204                   23500861.8714
        40.7504         36.5004
   1208173.12148    948231.28948  21676348.4844                   21676345.6524
        48.0004         49.0004
   4079275.03547   3173963.95344  24125584.1414                   24125578.4144
        42.5004         25.2504
   5137961.08246   3997143.80945  24176136.4384                   24176136.0204
        38.5004         34.0004
  -5605461.47347  -4335700.66045  22161408.9534                   22161404.5394
        46.2504         33.7504
   1196106.11348    940768.10548  20939678.9774                   20939675.4024
        52.0004         52.5004
  -7119187.81246  -5481166.72345  23767001.6724                   23766998.8284
        41.7504         35.7504
  -4900105.26246  -3485383.01244  24240421.4844                   24240418.1604
        41.2504         24.0004
 25  7 15 21 55  0.0000000  0  9G02G08G10G23G27G28G32G31G01
  -4687590.23047  -3621706.31245  22323970.0394                   22323962.2464
        46.7504         35.7504
   2625111.35546   2048661.94546  23500696.2664                   23500695.0904
        40.5004         36.0004
   1178225.67248    924895.59448  21670649.8364                   21670647.1374
        49.2504         49.0004
   4093719.90246   3185219.62544  24128329.9144                   24128327.3484
        41.5004         24.7504
   5169837.67646   4021982.61745  24182202.0394                   24182201.2854
        37.7504         33.0004
  -5741416.26247  -4441639.41045  22135537.8134                   22135533.5434
        45.5004         34.5004
   1171659.90648    921719.10548  20935027.0474                   20935023.3554
        50.5004         52.2504
  -7289651.04346  -5613995.04745  23734563.2344                   23734559.7034
        41.5004         33.5004
  -5058935.16447  -3609146.54744  24210197.0164                   24210193.8714
        42.2504         27.5004
 25  7 15 21 55 30.0000000  0  9G02G08G10G23G27G28G32G31G01
  -4806900.62547  -3714675.44946  22301265.9774                   22301258.3484
        46.0004         36.5004
   2624454.87546   2048150.35946  23500571.4614                   23500570.0944
        40.5004         36.2504
   1148368.54748    901630.28948  21664968.4774                   21664965.6564
        49.2504         49.0004
   4108180.89146   3196487.84844  24131081.6414                   24131079.5634
        39.5004         25.0004
   5201671.06346   4046787.75845  24188260.4534                   24188259.6414
        39.2504         34.5004
  -5877095.34847  -4547363.32445  22109718.8594                   22109714.3954
        45.7504         34.5004
   1147439.35948    902845.94548  20930417.9924                   20930414.4534
        51.0004         52.2504
  -7460143.83246  -5746846.44545  23702119.0234                   23702116.6564
        40.5004         33.5004
  -5217755.71147  -3732902.72344  24179974.7344                   24179971.0704
        42.2504         26.5004
 25  7 15 21 56  0.0000000  0  9G02G08G10G23G27G28G32G31G01
  -4925961.85947  -3807450.41846  22278609.3444                   22278601.5164
        46.5004         36.0004
   2624015.90646   2047808.23845  23500487.9844                   23500486.4774
        39.5004         35.2504
   1118602.29748    878435.78548  21659303.9534                   21659300.9924
        48.0004         49.0004
   4122657.95346   3207768.57044  24133837.2274                   24133834.6724
        39.2504         24.0004
   5233458.12146   4071556.81645  24194308.8754                   24194308.0514
        38.7504         34.5004
  -6012495.99647  -4652870.27745  22083953.0004                   22083948.5984
        46.2504         34.2504
   1123442.71548    884147.25448  20925851.3284                   20925848.0354
        50.7504         52.2504
  -7630662.78946  -5879718.15245  23669670.7504                   23669667.2894
        41.2504         34.7504
  -5376564.55547  -3856649.82044  24149753.9304                   24149750.4734
        42.5004         26.5004
 25  7 15 21 56 30.0000000  0  9G02G08G10G23G27G28G32G31G01
  -5044777.15647  -3900033.75046  22255999.3054                   22255991.8954
        46.0004         36.5004
   2623786.67846   2047629.55145  23500444.0164                   23500443.5234
        39.0004         35.0004
   1088922.38348    855308.56348  21653656.1724                   21653652.8134
        48.0004         49.0004
   4137146.10946   3219057.95743  24136593.8284                   24136591.4224
        38.7504         22.0004
   5265190.82046   4096283.49645  24200348.0634                   24200346.9224
        39.5004         34.5004
  -6147620.62947  -4758162.15245  22058239.8134                   22058235.1254
        46.2504         34.0004
   1099663.06348    865617.64148  20921326.2974                   20921323.1054
        49.7504         52.2504
  -7801210.11746  -6012612.09045  23637215.6884                   23637212.5784
        40.2504         34.0004
  -5535364.57847  -3980390.07044  24119535.0864                   24119531.4104
        42.5004         27.5004
 25  7 15 21 57  0.0000000  0  9G02G08G10G23G27G28G32G31G01
  -5163342.34447  -3992422.20746  22233437.2974                   22233429.6454
        46.2504         36.2504
   2623766.09846   2047613.46145  23500440.8364                   23500439.1374
        39.7504         34.7504
   1059331.10248    832250.40648  21648025.1094                   21648021.8714
        49.0004         49.0004
   4151647.21946   3230357.43843  24139353.8834                   24139351.3914
        39.0004         22.5004
   5296867.93846   4120966.84845  24206376.4844                   24206374.8014
        41.5004         35.0004
  -6282464.60947  -4863235.33245  22032579.3364                   22032574.7504
        46.5004         34.0004
   1076100.52748    847257.21548  20916842.8284                   20916839.0594
        50.7504         52.2504
  -7971781.05947  -6145524.34046  23604758.3054                   23604755.4964
        42.0004         37.2504
  -5694151.66447  -4104120.20344  24089319.9304                   24089315.5944
        43.5004         27.0004
 25  7 15 21 57 30.0000000  0  9G02G08G10G23G27G28G32G31G01
  -5281660.06247  -4084617.81646  22210922.0784                   22210914.8714
        46.2504         36.5004
   2623947.11346   2047754.44545  23500474.8284                   23500473.8554
        40.7504         35.0004
   1029824.61348    809258.32448  21642410.4454                   21642407.1334
        48.5004         49.2504
   4166156.95746   3241663.64143  24142116.3754                   24142111.7814
        40.5004         22.5004
   5328482.09046   4145601.16445  24212392.0634                   24212391.0354
        41.0004         34.0004
  -6417029.62547  -4968091.14845  22006972.4844                   22006968.0514
        46.5004         34.5004
   1052748.94148    829061.16448  20912398.7974                   20912395.4024
        51.5004         52.2504
  -8142377.25046  -6278456.28945  23572293.8134                   23572290.1024
        40.0004         33.2504
  -5852927.93747  -4227841.88744  24059105.0164                   24059101.2274
        42.5004         26.5004
 25  7 15 21 58  0.0000000  0  9G02G08G10G23G27G28G32G31G01
  -5399728.18447  -4176618.93746  22188454.4774                   22188446.9694
        46.5004         36.5004
   2624327.20346   2048050.55145  23500546.5704                   23500545.9184
        40.0004         35.2504
   1000403.77048    786332.97348  21636811.5234                   21636808.5864
        48.7504         49.2504
   4180675.75846   3252976.90643  24144877.4774                   24144874.8284
        38.0004         20.5004
   5360030.50846   4170184.25445  24218395.9224                   24218394.6914
        41.2504         34.5004
  -6551312.73047  -5072727.28145  21981419.5084                   21981415.1374
        46.2504         34.2504
   1029606.80548    811028.32848  20907995.2734                   20907991.6484
        51.7504         52.2504
  -8312995.01646  -6411405.08245  23539826.3594                   23539824.0824
        40.0004         35.7504
  -6011690.85547  -4351553.19944  24028893.5704                   24028890.1054
        42.0004         26.0004
 25  7 15 21 58 30.0000000  0  9G02G08G10G23G27G28G32G31G01
  -5517547.41847  -4268426.12145  22166034.2274                   22166026.7854
        46.2504         35.5004
   2624900.66046   2048497.33245  23500656.9924                   23500655.1644
        40.5004         35.0004
    971066.15648    763472.47748  21631228.8364                   21631225.7734
        48.5004         49.0004
   4195200.63346   3264294.85243  24147642.4064                   24147639.2274
        38.0004         19.2504
   5391507.31346   4194711.53545  24224385.3834                   24224384.7624
        40.2504         34.0004
  -6685314.10547  -5177143.90245  21955919.4844                   21955915.1844
        46.2504         34.7504
   1006669.46948    793155.06648  20903630.4384                   20903626.9414
        50.7504         52.0004
  -8483634.31646  -6544370.60245  23507355.0234                   23507350.8164
        41.7504         33.5004
  -6170441.00446  -4475254.53544  23998684.0554                   23998680.3984
        41.0004         24.5004
 25  7 15 21 59  0.0000000  0  9G02G08G10G23G27G28G32G31G01
  -5635116.98047  -4360038.75046  22143661.4384                   22143654.1724
        45.5004         36.5004
   2625663.62946   2049091.77345  23500801.9534                   23500800.9264
        39.7504         34.7504
    941811.23448    740676.41448  21625661.8284                   21625658.6564
        48.2504         49.2504
   4209730.54746   3275616.78943  24150406.7974                   24150403.8054
        37.0004         19.5004
   5422908.47346   4219179.87145  24230360.7504                   24230360.0394
        39.2504         34.0004
  -6819032.15247  -5281339.73445  21930474.0314                   21930469.5004
        46.7504         35.0004
    983934.04748    775439.14848  20899303.7114                   20899300.4884
        50.5004         52.0004
  -8654293.20346  -6677351.44145  23474878.7814                   23474876.2304
        39.2504         34.5004
  -6329177.17246  -4598944.98843  23968477.7424                   23968473.6094
        40.7504         22.0004
 25  7 15 21 59 30.0000000  0  9G02G08G10G23G27G28G32G31G01
  -5752435.43747  -4451455.71546  22121335.8984                   22121328.9414
        45.5004         36.5004
   2626612.53546   2049831.12545  23500982.2814                   23500980.8874
        40.2504         34.0004
    912638.82448    717944.65648  21620110.4144                   21620107.3444
        49.0004         49.2504
   4224264.89146   3286942.18443  24153172.9384                   24153169.9924
        39.5004         19.0004
   5454230.17646   4243586.28545  24236320.6174                   24236320.9534
        38.5004         34.2504
  -6952464.94547  -5385313.29745  21905082.7034                   21905078.1804
        46.5004         35.5004
    961398.06648    757878.63348  20895015.5784                   20895012.0984
        51.2504         52.2504
  -8824969.72747  -6810345.99645  23442400.7584                   23442396.2934
        42.0004         34.2504
  -6487897.82446  -4722623.40643  23938273.6094                   23938270.5314
        39.2504         22.5004
 25  7 15 22  0  0.0000000  0  9G02G08G10G23G27G28G32G31G01
  -5869500.55147  -4542675.27346  22099059.3834                   22099052.2074
        45.5004         37.0004
   2627745.00446   2050713.50845  23501198.0084                   23501197.1134
        40.7504         34.7504
    883549.82848    695277.88748  21614575.0084                   21614572.1454
        48.7504         49.0004
   4238804.19946   3298271.43443  24155939.0394                   24155936.6094
        38.0004         19.0004
   5485469.88346   4267928.80145  24242265.3834                   24242265.4774
        39.0004         33.7504
  -7085609.43047  -5489062.19945  21879746.0784                   21879741.5594
        46.0004         35.2504
    939060.14148    740472.44948  20890764.8284                   20890760.9924
        50.7504         52.0004
  -8995660.14147  -6943351.40646  23409919.1254                   23409915.8364
        42.2504         36.2504
  -6646600.25046  -4846287.51643  23908073.1174                   23908070.5554
        37.0004         22.2504
 25  7 15 22  0 30.0000000  0  9G02G08G10G23G27G28G32G31G01
  -5986309.59847  -4633695.30146  22076831.5314                   22076824.1994
        45.5004         37.0004
   2629058.68046   2051737.08645  23501447.0704                   23501447.1484
        38.7504         35.0004
    854545.36348    672676.99248  21609055.9384                   21609052.8954
        48.5004         49.0004
   4253348.82846   3309604.84443  24158706.9774                   24158704.7774
        37.5004         18.2504
   5516625.17746   4292205.54245  24248194.9454                   24248194.3094
        39.0004         33.2504
  -7218462.38347  -5592583.93445  21854464.6484                   21854460.5554
        46.5004         35.0004
    916919.01648    723219.60948  20886551.4144                   20886547.7624
        51.7504         52.2504
  -9166360.95746  -7076364.90245  23377435.7424                   23377432.2274
        41.5004         34.5004
  -6805281.63746  -4969935.24243  23877877.8914                   23877873.6214
        39.0004         20.2504
 25  7 15 22  1  0.0000000  0  9G02G08G10G23G27G28G32G31G01
  -6102863.21547  -4724516.28946  22054651.9694                   22054644.6214
        45.5004         36.2504
   2630548.62946   2052898.00845  23501732.0554                   23501730.3524
        39.5004         34.5004
    825623.71148    650140.61748  21603552.2194                   21603549.2934
        48.7504         49.0004
   4267896.70346   3320940.82042  24161476.9694                   24161473.3794
        37.7504         17.7504
   5547690.72346   4316412.35545  24254106.5784                   24254106.2704
        39.2504         35.0004
  -7351023.43047  -5695878.21945  21829239.1644                   21829234.9264
        46.2504         34.2504
    894970.66448    706116.99248  20882374.6564                   20882371.3754
        51.0004         52.2504
  -9337071.32047  -7209385.84046  23344951.0864                   23344947.5234
        43.0004         36.5004
  -6963941.77746  -5093566.42643  23847686.7034                   23847681.5394
        41.0004         22.0004
 25  7 15 22  1 30.0000000  0  9G02G08G10G23G27G28G32G31G01
  -6219158.15647  -4815135.71546  22032521.7814                   22032514.4104
        46.0004         37.0004
   2632212.96946   2054194.82445  23502048.3834                   23502046.9574
        40.7504         35.5004
    796786.44548    627670.01248  21598064.9224                   21598061.3164
        48.2504         48.7504
   4282448.90246   3332280.10242  24164246.7974                   24164243.0164
        38.7504         17.7504
   5578664.69546   4340547.78545  24259999.9064                   24260001.0434
        38.5004         34.5004
  -7483288.87947  -5798942.16445  21804070.1804                   21804065.8054
        46.5004         34.5004
    873214.40248    689164.04348  20878234.7344                   20878231.2774
        50.7504         52.0004
  -9507787.16846  -7342411.02045  23312464.3674                   23312460.3954
        41.5004         34.0004
  -7122577.40246  -5217178.59443  23817498.2344                   23817494.4734
        40.7504         22.7504
 25  7 15 22  2  0.0000000  0  9G02G08G10G23G27G28G32G31G01
  -6335191.36747  -4905551.18746  22010441.8284                   22010434.1174
        45.2504         37.0004
   2634049.96946   2055626.18445  23502398.1724                   23502397.2704
        40.2504         34.7504
    768035.21947    605266.44148  21592593.2034                   21592590.0664
        47.2504         49.0004
   4297006.51246   3343623.60943  24167016.1484                   24167012.8874
        39.7504         20.2504
   5609545.28546   4364610.48445  24265876.9224                   24265876.8244
        38.5004         33.5004
  -7615255.08247  -5901772.93045  21778957.5944                   21778953.3364
        46.2504         35.5004
    851649.50448    672360.21948  20874131.0234                   20874127.6374
        50.5004         52.2504
  -9678504.23847  -7475437.23446  23279977.8594                   23279974.6374
        42.2504         36.2504
  -7281184.97746  -5340768.86743  23787316.0234                   23787311.7274
        41.2504         22.7504
 25  7 15 22  2 30.0000000  0  9G02G08G10G23G27G28G32G31G01
  -6450960.33647  -4995760.76246  21988411.3984                   21988404.0864
        45.7504         36.2504
   2636057.65246   2057190.56345  23502780.0164                   23502779.0704
        40.0004         35.5004
    739371.37148    582930.96148  21587138.9534                   21587135.6524
        48.7504         49.0004
   4311570.32846   3354972.02743  24169786.1094                   24169784.2424
        39.7504         20.0004
   5640330.21946   4388598.64545  24271736.0394                   24271735.7194
        38.2504         34.2504
  -7746918.62947  -6004367.86345  21753902.5394                   21753898.3364
        46.5004         35.0004
    830274.99248    655704.73848  20870063.6334                   20870060.2234
        50.7504         52.0004
  -9849218.58647  -7608461.24246  23247492.1724                   23247487.8674
        43.5004         36.2504
  -7439761.55546  -5464334.96944  23757140.0864                   23757136.4414
        41.0004         24.5004
 25  7 15 22  3  0.0000000  0  9G02G08G10G23G27G28G32G31G01
  -6566464.70747  -5085764.16446  21966431.5474                   21966424.1994
        45.7504         37.0004
   2638231.32446   2058884.25845  23503193.2274                   23503193.1334
        40.7504         35.0004
    710793.62548    560662.57048  21581700.7504                   21581697.7894
        48.5004         49.0004
   4326138.69546   3366323.93443  24172559.7734                   24172556.1214
        41.0004         20.0004
   5671014.78346   4412508.55245  24277575.3754                   24277573.9884
        39.0004         32.2504
  -7878278.66047  -6106726.28545  21728905.6954                   21728901.5164
        46.2504         35.0004
    809087.30948    639194.84848  20866031.7814                   20866027.9774
        51.0004         52.0004
 -10019929.05946  -7741482.28946  23215006.4144                   23215003.5354
        41.2504         36.0004
  -7598306.39547  -5587876.35244  23726970.3834                   23726966.1134
        43.0004         27.0004
 25  7 15 22  3 30.0000000  0  9G02G08G10G23G27G28G32G31G01
  -6681701.98447  -5175559.43746  21944502.7034                   21944495.1414
        46.7504         36.5004
   2640568.57846   2060705.41845  23503638.7894                   23503637.3204
        41.7504         35.2504
    682303.07848    538462.12948  21576279.1954                   21576275.9774
        49.0004         49.0004
   4340712.02746   3377679.72743  24175331.7034                   24175329.5664
        39.7504         21.0004
   5701596.58246   4436338.40645  24283393.2584                   24283393.5164
        37.7504         31.5004
  -8009332.12547  -6208845.82846  21703967.1254                   21703962.6524
        46.2504         36.0004
    788085.15248    622829.51648  20862035.1564                   20862031.3444
        51.0004         52.0004
 -10190632.36747  -7874497.71545  23182522.9774                   23182518.9344
        43.0004         35.7504
  -7756816.81247  -5711390.91844  23696806.1564                   23696802.6524
        42.0004         27.0004
 25  7 15 22  4  0.0000000  0  9G02G08G10G23G27G28G32G31G01
  -6796668.15647  -5265143.46146  21922625.2894                   21922618.2704
        46.2504         36.2504
   2643068.68046   2062653.49245  23504114.0634                   23504113.2814
        41.0004         35.0004
    653902.36348    516331.68848  21570874.5944                   21570871.5904
        49.0004         48.7504
   4355292.53947   3389041.06643  24178107.2974                   24178103.7934
        42.0004         21.5004
   5732074.77046   4460087.49645  24289194.5004                   24289194.0744
        37.5004         33.0004
  -8140074.36747  -6310722.85546  21679087.8364                   21679082.9924
        47.0004         36.0004
    767268.86348    606609.02748  20858073.9694                   20858070.7154
        52.0004         52.2504
 -10361323.38747  -8007503.56246  23150040.1644                   23150037.8444
        43.2504         37.0004
  -7915288.14847  -5834875.02744  23666649.8674                   23666646.2854
        43.0004         27.0004
 25  7 15 22  4 30.0000000  0  9G02G08G10G23G27G28G32G31G01
  -6911356.28547  -5354510.83646  21900800.9454                   21900793.6054
        45.5004         36.7504
   2645733.96946   2064730.28545  23504621.7814                   23504620.6174
        40.7504         35.0004
    625597.13748    494275.64848  21565488.4694                   21565485.3954
        48.0004         48.5004
   4369885.29746   3400412.01643  24180883.7814                   24180880.5864
        41.7504         21.7504
   5762451.43846   4483757.51645  24294974.5864                   24294974.1134
        37.7504         32.2504
  -8270497.70347  -6412351.39145  21654269.0634                   21654264.0634
        46.5004         35.2504
    746641.75448    590535.93848  20854148.8204                   20854145.5394
        51.5004         52.0004
 -10531993.78547  -8140493.36745  23117563.0944                   23117559.6684
        42.0004         35.0004
  -8073713.05547  -5958322.92244  23636503.6484                   23636499.5354
        43.2504         27.7504
 25  7 15 22  5  0.0000000  0  9G02G08G10G23G27G28G32G31G01
  -7025768.82447  -5443663.45346  21879028.8984                   21879021.2544
        47.0004         37.0004
   2648557.21546   2066930.14545  23505158.9384                   23505158.5314
        39.5004         34.5004
    597383.67648    472291.11348  21560119.7194                   21560116.3054
        48.5004         48.5004
   4384486.03547   3411789.09443  24183664.2424                   24183659.2894
        43.2504         22.5004
   5792719.48846   4507342.90645  24300735.4064                   24300733.8524
        40.0004         33.0004
  -8400603.84047  -6513732.75045  21629510.1724                   21629505.7934
        46.5004         35.7504
    726197.79748    574605.56648  20850258.3284                   20850254.7774
        51.7504         52.0004
 -10702644.47347  -8273467.80946  23085089.8594                   23085086.4654
        43.2504         36.7504
  -8232093.34046  -6081736.10544  23606363.9614                   23606360.7074
        41.0004         27.7504
 25  7 15 22  5 30.0000000  0  9G02G08G10G23G27G28G32G31G01
  -7139903.04347  -5532599.19946  21857309.9454                   21857302.3914
        46.2504         37.0004
   2651536.36346   2069251.48845  23505725.8364                   23505724.8714
        39.7504         34.2504
    569263.28148    450379.10248  21554768.6414                   21554765.6134
        48.5004         48.5004
   4399095.62946   3423173.15643  24186441.6804                   24186439.7894
        40.5004         22.5004
   5822876.74646   4530841.97345  24306473.4064                   24306473.0824
        39.5004         34.5004
  -8530389.51647  -6614864.39845  21604813.2664                   21604808.3404
        46.2504         35.0004
    705935.95348    558817.10548  20846402.6954                   20846399.2344
        51.2504         52.0004
 -10873271.69547  -8406423.96545  23052620.6024                   23052616.6914
        43.0004         35.5004
  -8390425.92247  -6205112.09044  23576234.5634                   23576230.7344
        42.5004         27.2504
 25  7 15 22  6  0.0000000  0  9G02G08G10G23G27G28G32G31G01
  -7253756.07447  -5621315.84046  21835644.6334                   21835636.9884
        47.0004         37.2504
   2654669.35546   2071692.70345  23506322.8134                   23506321.4024
        40.2504         35.2504
    541237.32848    428540.68048  21549435.0944                   21549431.8524
        48.0004         48.5004
   4413714.81347   3434564.66043  24189225.9694                   24189222.3164
        43.5004         23.7504
   5852921.05546   4554253.00045  24312190.8444                   24312190.5204
        39.7504         35.0004
  -8659851.39147  -6715743.74645  21580177.1954                   21580172.5824
        47.0004         35.2504
    685855.25448    543169.79348  20842581.4534                   20842578.0084
        51.5004         52.0004
 -11043871.64847  -8539358.87546  23020156.1414                   23020152.9774
        42.5004         36.7504
  -8548707.64546  -6328448.41844  23546115.1954                   23546110.6844
        41.5004         26.5004
 25  7 15 22  6 30.0000000  0  9G02G08G10G23G27G28G32G31G01
  -7367325.03147  -5709811.12946  21814033.0944                   21814025.8554
        46.5004         37.0004
   2657954.24646   2074252.28145  23506946.9924                   23506945.7344
        39.7504         35.0004
    513307.40247    406777.07848  21544120.2894                   21544117.6094
        47.5004         48.5004
   4428344.59046   3445964.43043  24192008.6094                   24192006.5314
        40.5004         22.7504
   5882850.55546   4577574.57445  24317886.7034                   24317885.8834
        38.7504         34.0004
  -8788985.97347  -6816368.05546  21555603.6024                   21555599.3594
        46.2504         36.0004
    665954.94548    527663.03948  20838794.7274                   20838791.1174
        50.5004         52.0004
 -11214440.39146  -8672269.48046  22987698.3984                   22987694.0434
        41.7504         36.0004
  -8706935.09847  -6451742.46544  23516004.9774                   23516000.9064
        42.2504         26.5004
 25  7 15 22  7  0.0000000  0  9G02G08G10G23G27G28G32G31G01
  -7480607.08247  -5798082.84446  21792476.2344                   21792468.8244
        46.2504         37.0004
   2661389.53146   2076929.06345  23507601.3914                   23507600.2814
        40.5004         34.5004
    485475.29347    385089.69948  21538824.4224                   21538820.9304
        47.7504         48.5004
   4442986.28546   3457373.46144  24194793.6024                   24194792.5394
        39.5004         25.2504
   5912663.69946   4600805.46145  24323560.1954                   24323559.3244
        38.7504         33.2504
  -8917789.44547  -6916734.34446  21531093.3204                   21531088.5394
        47.2504         36.0004
    646234.48848    512296.43848  20835041.9694                   20835038.4264
        50.7504         51.7504
 -11384973.67647  -8805152.42646  22955246.5634                   22955243.2624
        43.0004         37.0004
  -8865104.48046  -6574991.31244  23485905.7814                   23485902.4144
        40.0004         25.0004
 25  7 15 22  7 30.0000000  0  9G02G08G10G23G27G28G32G31G01
  -6018175.95347  -4658526.12546  22070767.4614                   22070759.8954
        46.7504         37.5004
   4240392.56346   3307320.94945  23808075.6884                   23808074.7154
        40.2504         34.7504
   2033162.95748   1591080.06348  21833338.8914                   21833336.4804
        48.7504         48.0004
   6033059.85246   4696391.71944  24497376.0004                   24497373.5824
        41.0004         25.0004
   7517776.97746   5851542.96545  24629002.8444                   24629002.2234
        39.0004         33.0004
  -7470834.65647  -5789237.06646  21806439.6484                   21806434.6414
        47.2504         36.0004
   2202113.23048   1724669.46948  21131115.7424                   21131112.2624
        50.2504         51.7504
  -9980041.70747  -7710400.14546  23222596.0944                   23222591.8754
        42.0004         36.2504
  -7447787.70346  -5470588.57844  23755611.3444                   23755608.6454
        41.0004         26.5004
 25  7 15 22  8  0.0000000  0  9G02G08G10G23G27G28G32G31G01
  -6130879.22347  -4746346.84846  22049320.7734                   22049313.1134
        46.5004         37.2504
   4244118.88346   3310224.51645  23808785.0394                   23808783.2504
        40.5004         35.2504
   2005527.29747   1569545.76648  21828080.1954                   21828077.0084
        47.5004         48.0004
   6047724.43446   4707818.61344  24500167.0704                   24500163.7154
        40.2504         24.2504
   7547347.68446   5874584.96945  24634629.5164                   24634629.4494
        38.2504         31.0004
  -7598969.47347  -5889082.33645  21782056.6644                   21782051.8484
        46.7504         35.7504
   2182746.23848   1709578.29748  21127430.5704                   21127426.9384
        50.5004         51.7504
 -10150495.09047  -7843220.84846  23190160.0474                   23190156.2584
        42.0004         37.5004
  -7605834.76646  -5593742.05144  23725537.2424                   23725533.0664
        41.5004         25.7504
 25  7 15 22  8 30.0000000  0  9G02G08G10G23G27G28G32G31G01
  -6243285.53547  -4833936.17246  22027930.7344                   22027923.0824
        47.0004         37.5004
   4247991.02046   3313241.68445  23809521.0864                   23809521.3244
        40.7504         35.7504
   1977995.32448   1548092.25448  21822841.3594                   21822838.6524
        48.2504         48.2504
   6062405.22746   4719258.11743  24502958.9694                   24502957.7704
        37.7504         22.2504
   7576797.57446   5897532.82045  24640233.5234                   24640234.0164
        39.5004         31.0004
  -7726761.62547  -5988660.60545  21757738.2274                   21757733.5634
        47.5004         35.5004
   2163558.02048   1694626.41848  21123779.2034                   21123775.6254
        50.5004         51.7504
 -10320898.78147  -7976002.84846  23157733.4144                   23157729.4304
        42.7504         37.2504
  -7763812.40247  -5716841.44944  23695474.7194                   23695470.5044
        42.2504         26.0004
 25  7 15 22  9  0.0000000  0  9G02G08G10G23G27G28G32G31G01
  -6355394.60247  -4921293.87946  22006597.2114                   22006589.9774
        46.5004         37.2504
   4252004.55146   3316369.01645  23810286.2114                   23810284.1214
        41.5004         34.5004
   1950566.07848   1526718.80148  21817621.8364                   21817618.8524
        48.0004         48.2504
   6077100.52046   4730708.89143  24505758.2344                   24505754.1334
        40.5004         23.7504
   7606122.09846   5920382.98844  24645814.4844                   24645814.3484
        38.7504         29.5004
  -7854210.21147  -6087971.15645  21733485.4614                   21733480.7424
        47.0004         35.7504
   2144545.21548   1679811.23848  21120161.0864                   21120157.1914
        50.0004         51.7504
 -10491252.11747  -8108745.60246  23125315.6724                   23125311.7734
        42.2504         36.7504
  -7921719.67647  -5839886.05544  23665426.1334                   23665421.4104
        43.0004         25.0004
 25  7 15 22  9 30.0000000  0  9G02G08G10G23G27G28G32G31G01
  -6467208.85547  -5008421.86746  21985319.2814                   21985311.8164
        47.0004         37.0004
   4256152.53946   3319601.16045  23811074.8054                   23811073.6844
        40.5004         34.5004
   1923236.08248   1505422.68448  21812421.0474                   21812418.3244
        48.0004         48.0004
   6091806.28946   4742167.83644  24508557.3444                   24508552.9414
        39.5004         24.0004
   7635314.45746   5943130.15245  24651369.7894                   24651369.0664
        39.0004         30.7504
  -7981316.89847  -6187015.29745  21709298.0554                   21709293.4104
        46.7504         35.5004
   2125701.94148   1665128.14848  21116575.6644                   21116571.8714
        50.5004         51.7504
 -10661555.59847  -8241449.50846  23092908.5784                   23092904.3204
        43.0004         37.5004
  -8079558.30147  -5962877.16044  23635390.8204                   23635386.2664
        43.2504         25.0004
 25  7 15 22 10  0.0000000  0  9G02G08G10G23G27G28G32G31G01
  -6578716.84447  -5095311.20746  21964100.3134                   21964092.3834
        46.5004         37.0004
   4260441.54346   3322943.13745  23811890.5704                   23811890.0084
        41.2504         35.5004
   1896015.34848   1484211.69948  21807241.0864                   21807237.9614
        48.7504         48.0004
   6106532.01645   4753642.40643  24511356.4534                   24511354.8954
        35.7504         21.5004
   7664381.15646   5965779.44145  24656900.5864                   24656900.4024
        38.5004         30.0004
  -8108069.75447  -6285783.71545  21685178.0394                   21685172.6094
        46.7504         35.5004
   2107035.96948   1650583.22348  21113023.3284                   21113019.5514
        51.0004         51.7504
 -10831796.75847  -8374104.84846  23060512.0634                   23060508.2704
        43.2504         37.7504
  -8237316.28947  -6085805.44144  23605370.2114                   23605365.8634
        43.0004         26.0004
 25  7 15 22 10 30.0000000  0  9G02G08G10G23G27G28G32G31G01
  -6689920.74647  -5181963.58646  21942938.9774                   21942931.4924
        47.5004         37.7504
   4264864.54346   3326389.57445  23812732.4774                   23812731.2194
        40.7504         33.5004
   1868900.29748   1463083.06348  21802081.2584                   21802078.1134
        49.0004         48.0004
   6121273.55945   4765129.29343  24514160.6414                   24514160.4304
        32.5004         20.7504
   7693315.38346   5988325.48445  24662406.6724                   24662406.5784
        38.5004         31.2504
  -8234470.46147  -6384277.74646  21661124.4304                   21661119.7344
        46.5004         36.2504
   2088541.38348   1636171.84448  21109504.0084                   21109500.6024
        51.0004         51.7504
 -11001976.66047  -8506712.46546  23028128.0474                   23028124.3594
        43.0004         37.5004
  -8394995.34047  -6208672.20344  23575364.6954                   23575360.4384
        42.5004         26.7504
 25  7 15 22 11  0.0000000  0  9G02G08G10G23G27G28G32G31G01
  -6800816.41047  -5268375.78546  21921835.7734                   21921828.7734
        46.7504         37.7504
   4269421.07047   3329940.03945  23813600.3284                   23813599.5164
        42.0004         35.2504
   1841893.99648   1442039.17648  21796942.0944                   21796938.9884
        49.2504         48.0004
   6136033.44945   4776630.39843  24516969.9454                   24516968.7814
        33.5004         20.7504
   7722116.62146   6010767.85245  24667888.0314                   24667888.2384
        39.0004         33.0004
  -8360514.23447  -6482493.64846  21637139.1254                   21637134.2854
        46.0004         36.0004
   2070218.87148   1621894.54348  21106017.4694                   21106013.5474
        50.5004         51.7504
 -11172089.45347  -8639267.79346  22995756.9534                   22995752.0354
        43.5004         38.5004
  -8552590.53147  -6331473.62944  23545374.8914                   23545371.1054
        42.5004         27.5004
 25  7 15 22 11 30.0000000  0  9G02G08G10G23G27G28G32G31G01
  -6911403.23047  -5354547.33646  21900791.6024                   21900784.4924
        47.0004         38.0004
   4274106.94546   3333591.28945  23814491.5164                   23814490.8594
        40.5004         34.5004
   1814995.70348   1421079.44947  21791823.6094                   21791820.5084
        48.2504         47.7504
   6150810.28145   4788144.65643  24519783.3284                   24519780.8834
        34.2504         19.7504
   7750780.87146   6033103.49645  24673343.3674                   24673342.4694
        39.7504         32.5004
  -8486199.98447  -6580430.57046  21613221.7584                   21613217.2154
        46.2504         36.2504
   2052065.43848   1607748.99648  21102562.7274                   21102559.3284
        51.0004         51.5004
 -11342133.34847  -8771769.41846  22963398.6024                   22963394.2034
        43.5004         38.5004
  -8710100.71547  -6454208.77744  23515401.7734                   23515397.8404
        43.0004         28.5004
 25  7 15 22 12  0.0000000  0  9G02G08G10G23G27G28G32G31G01
  -7021678.74247  -5440476.30146  21879806.9384                   21879799.4494
        47.5004         37.5004
   4278920.14546   3337341.77045  23815408.5394                   23815406.8014
        39.7504         35.0004
   1788206.91048   1400205.04347  21786726.0234                   21786722.9104
        49.2504         47.7504
   6165605.05145   4799672.99643  24522596.0084                   24522596.9964
        31.7504         19.0004
   7779306.23046   6055330.94145  24678770.3524                   24678770.7814
        37.2504         31.0004
  -8611524.41047  -6678085.94545  21589373.3754                   21589368.6764
        46.2504         35.5004
   2034080.19148   1593734.50048  21099139.9614                   21099136.6054
        51.0004         51.5004
 -11512104.28947  -8904214.21946  22931053.4064                   22931049.3204
        43.7504         38.2504
  -8867522.43447  -6576874.98844  23485445.6724                   23485441.2304
        43.0004         27.5004
 25  7 15 22 12 30.0000000  0  9G02G08G10G23G27G28G32G31G01
  -7131639.14147  -5526159.72346  21858882.2504                   21858875.0274
        46.5004         38.0004
   4283859.33646   3341190.41445  23816347.0634                   23816347.0124
        38.5004         34.2504
   1761529.85248   1379417.70347  21781649.4844                   21781646.3134
        48.5004         47.7504
   6180419.18045   4811216.36342  24525416.3594                   24525415.9304
        32.5004         17.7504
   7807691.52345   6077449.19144  24684172.0474                   24684172.7424
        34.7504         29.7504
  -8736483.54347  -6775456.68046  21565594.4144                   21565589.7274
        46.5004         36.0004
   2016262.98048   1579850.94948  21095749.9924                   21095746.2344
        50.5004         51.7504
 -11681997.69547  -9036598.59446  22898724.2584                   22898720.1914
        43.0004         38.2504
  -9024851.60946  -6699469.15244  23455506.3284                   23455502.8324
        41.2504         26.5004
 25  7 15 22 13  0.0000000  0  9G02G08G10G23G27G28G32G31G01
  -7241286.48047  -5611599.19546  21838017.1724                   21838009.5514
        47.0004         38.5004
   4288918.05546   3345132.17645  23817309.9304                   23817309.5824
        39.7504         34.7504
   1734961.41048   1358715.00447  21776593.5704                   21776590.3634
        48.7504         47.7504
   6195249.20745   4822772.06643  24528238.6414                   24528237.8094
        32.5004         18.5004
   7835930.17245   6099453.16045  24689546.6334                   24689546.8404
        35.7504         33.0004
  -8861078.72347  -6872543.80946  21541884.8834                   21541879.8094
        46.0004         36.5004
   1998608.43448   1566094.14848  21092390.4064                   21092387.0864
        50.2504         51.5004
 -11851814.09447  -9168922.96946  22866409.0864                   22866404.5474
        43.0004         37.5004
  -9182089.50847  -6821992.12544  23425585.4844                   23425581.2424
        42.0004         27.5004
 25  7 15 22 13 30.0000000  0  9G02G08G10G23G27G28G32G31G01
  -7350613.16847  -5696788.82046  21817212.9224                   21817205.7384
        47.7504         38.0004
   4294099.16446   3349169.32045  23818296.3524                   23818295.7194
        39.2504         33.5004
   1708507.98048   1338101.92647  21771559.5784                   21771556.5904
        49.2504         47.5004
   6210100.83246   4834344.69543  24531065.9144                   24531064.4774
        36.0004         18.2504
   7864025.28145   6121345.26645  24694891.6484                   24694893.2544
        34.5004         30.2504
  -8985301.75047  -6969340.94946  21518245.5784                   21518240.8754
        46.7504         36.0004
   1981120.61748   1552467.26248  21089062.5394                   21089058.9184
        50.5004         51.5004
 -12021544.45347  -9301180.29746  22834110.4224                   22834106.4734
        43.7504         38.2504
  -9339227.72746  -6944437.45744  23395682.1804                   23395678.5084
        40.5004         26.7504
 25  7 15 22 14  0.0000000  0  9G02G08G10G23G27G28G32G31G01
  -7459616.14547  -5781726.19146  21796470.5164                   21796462.9144
        47.0004         38.0004
   4299400.88746   3353300.42645  23819305.8444                   23819304.4144
        40.0004         34.2504
   1682171.25048   1317579.78147  21766548.0474                   21766545.0904
        49.0004         47.5004
   6224975.22346   4845935.01643  24533898.1564                   24533894.5474
        37.0004         18.5004
   7891975.28545   6143124.31644  24700210.0944                   24700211.7114
        33.5004         27.7504
  -9109149.23047  -7065845.45746  21494678.1024                   21494673.6484
        45.5004         36.2504
   1963798.92648   1538969.82048  21085766.3594                   21085762.7894
        50.2504         51.5004
 -12191184.45347  -9433367.19546  22801828.8054                   22801824.2304
        44.0004         38.2504
  -9496262.68746  -7066802.27744  23365800.3984                   23365796.0824
        41.7504         27.5004
 25  7 15 22 14 30.0000000  0  9G02G08G10G23G27G28G32G31G01
  -7568296.96147  -5866412.53946  21775789.6564                   21775782.0744
        47.7504         37.5004
   4304817.29746   3357520.93445  23820335.9844                   23820335.2344
        39.0004         33.0004
   1655948.91848   1297146.77047  21761558.1024                   21761554.8954
        49.0004         47.5004
   6239869.21146   4857540.64142  24536731.6804                   24536728.0744
        38.2504         17.7504
   7919774.37146   6164785.85245  24705502.1484                   24705501.3524
        38.5004         31.7504
  -9232621.80947  -7162057.83646  21471182.0944                   21471177.3134
        45.7504         36.5004
   1946638.60948   1525598.13748  21082500.8444                   21082497.3054
        51.0004         51.2504
 -12360733.82847  -9565483.50046  22769564.7974                   22769560.4064
        43.0004         38.5004
  -9653194.76246  -7189086.96944  23335936.8524                   23335932.5744
        41.5004         27.5004
 25  7 15 22 15  0.0000000  0  9G02G08G10G23G27G28G32G31G01
  -7676654.76247  -5950847.18446  21755169.1334                   21755162.1564
        47.2504         37.7504
   4310344.28146   3361827.58645  23821387.1644                   23821387.3244
        39.0004         33.2504
   1629840.19948   1276802.28547  21756589.8134                   21756586.7194
        49.0004         47.2504
   6254781.74646   4869160.75043  24539569.4534                   24539566.9224
        38.5004         18.5004
   7947418.46946   6186326.60245  24710762.0554                   24710762.6094
        39.2504         33.5004
  -9355718.48847  -7257977.30545  21447757.9304                   21447753.1134
        46.2504         35.5004
   1929636.73048   1512349.90648  21079265.6954                   21079261.9104
        50.2504         51.2504
 -12530190.81647  -9697527.81646  22737317.8984                   22737313.3094
        43.7504         39.0004
  -9810022.77747  -7311290.57844  23306093.0634                   23306089.2774
        42.0004         27.5004
 25  7 15 22 15 30.0000000  0  9G02G08G10G23G27G28G32G31G01
  -7784685.95347  -6035027.32446  21734611.7114                   21734604.4574
        46.7504         38.0004
   4315980.82846   3366219.62145  23822460.5704                   23822460.1374
        40.0004         33.5004
   1603847.72348   1256548.39547  21751643.5634                   21751640.4844
        48.7504         47.5004
   6269714.60246   4880796.71942  24542410.6174                   24542408.2344
        38.7504         17.7504
   7974906.85246   6207745.95745  24715993.5784                   24715993.6804
        37.5004         31.0004
  -9478435.05147  -7353600.57046  21424405.4774                   21424401.2034
        46.0004         36.0004
   1912793.44548   1499225.25448  21076060.2814                   21076056.9884
        50.0004         51.2504
 -12699550.44947  -9829496.26646  22705089.8594                   22705084.8634
        42.5004         38.0004
  -9966742.26247  -7433409.60544  23276270.0474                   23276266.8094
        42.0004         27.7504
 25  7 15 22 16  0.0000000  0  9G02G08G10G23G27G28G32G31G01
  -7892388.97747  -6118951.75046  21714116.6724                   21714109.0314
        47.0004         38.2504
   4321724.14546   3370694.85245  23823552.7194                   23823552.6094
        40.0004         33.2504
   1577972.10948   1236385.54747  21746719.8444                   21746716.9184
        48.7504         47.2504
   6284667.99646   4892448.58642  24545256.2344                   24545254.2234
        40.2504         16.7504
   8002236.94946   6229041.95745  24721194.0394                   24721194.7704
        39.5004         31.5004
  -9600769.12947  -7448925.80946  21401126.2344                   21401121.1214
        46.5004         36.7504
   1896107.21548   1486222.98048  21072885.2194                   21072881.4494
        50.2504         51.0004
 -12868809.09447  -9961386.01646  22672880.9224                   22672876.6914
        43.2504         39.0004
 -10123350.53547  -7555441.96144  23246469.4694                   23246465.0904
        43.5004         28.7504
 25  7 15 22 16 30.0000000  0  9G02G08G10G23G27G28G32G31G01
  -7999762.04747  -6202619.07846  21693683.8834                   21693676.4774
        46.7504         37.5004
   4327571.10946   3375250.83645  23824666.0394                   23824665.5824
        40.7504         34.0004
   1552213.76648   1216314.08247  21741818.1334                   21741814.7424
        49.2504         47.2504
   6299641.50846   4904116.26643  24548106.0704                   24548103.3204
        40.5004         18.5004
   8029405.68446   6250212.35245  24726364.6804                   24726363.7584
        41.0004         30.7504
  -9722718.72347  -7543951.44146  21377919.9774                   21377914.8204
        46.0004         36.0004
   1879576.00848   1473341.50448  21069739.2894                   21069735.6724
        50.0004         51.0004
 -13037964.07447 -10093195.00846  22640691.8524                   22640687.2584
        43.0004         39.0004
 -10279845.31247  -7677385.91444  23216689.2424                   23216684.4844
        43.0004         28.7504
 25  7 15 22 17  0.0000000  0  9G02G08G10G23G27G28G32G31G01
  -8106801.28147  -6286026.27746  21673315.1414                   21673307.8284
        47.0004         37.7504
   4333521.08246   3379887.06645  23825798.2814                   23825798.2664
        39.7504         33.2504
   1526575.49648   1196336.18847  21736939.3204                   21736936.2154
        48.7504         47.2504
   6314637.43446   4915801.33643  24550959.3444                   24550956.7854
        40.5004         19.7504
   8056412.57446   6271256.60945  24731503.4924                   24731503.8284
        38.7504         32.5004
  -9844279.33647  -7638673.96546  21354787.6804                   21354783.0084
        46.2504         36.5004
   1863200.37548   1460581.26248  21066623.1804                   21066619.3714
        51.2504         51.0004
 -13207009.82047 -10224918.86746  22608523.4614                   22608518.8634
        43.5004         39.0004
 -10436221.78147  -7799237.67644  23186931.7114                   23186927.0784
        43.7504         28.0004
 25  7 15 22 17 30.0000000  0  9G02G08G10G23G27G28G32G31G01
  -8213504.03147  -6369171.27046  21653010.2814                   21653002.9654
        47.0004         38.0004
   4339572.11746   3384602.09445  23826950.0164                   23826949.3014
        39.7504         33.5004
   1501058.98048   1176453.17247  21732083.8204                   21732080.6684
        48.7504         47.2504
   6329656.78546   4927504.72743  24553818.6334                   24553815.3204
        40.7504         19.2504
   8083256.09046   6292173.48445  24736610.9454                   24736612.4494
        36.0004         31.2504
  -9965447.74247  -7733090.89146  21331730.1024                   21331725.1804
        47.0004         36.7504
   1846979.70748   1447941.76248  21063536.6414                   21063532.6214
        50.7504         51.0004
 -13375942.35247 -10356554.51646  22576376.3364                   22576371.8874
        43.5004         39.0004
 -10592476.38347  -7920994.50444  23157197.2274                   23157192.8834
        43.2504         27.7504
 25  7 15 22 18  0.0000000  0  9G02G08G10G23G27G28G32G31G01
  -8319867.71148  -6452052.06246  21632770.2424                   21632762.3404
        48.0004         38.2504
   4345721.99246   3389394.12945  23828120.1804                   23828120.1564
        38.5004         33.0004
   1475665.43448   1156665.96547  21727251.3754                   21727248.6564
        49.0004         47.2504
   6344700.20746   4939226.75443  24556680.9614                   24556678.5314
        40.5004         18.2504
   8109934.14146   6312961.35245  24741687.9924                   24741689.4924
        37.0004         31.0004
 -10086221.07847  -7827199.95346  21308747.8364                   21308742.7234
        46.5004         36.7504
   1830912.89548   1435422.15248  21060479.1174                   21060475.4804
        51.0004         51.2504
 -13544757.65647 -10488098.82846  22544251.9224                   22544247.4774
        44.0004         38.5004
 -10748605.90247  -8042653.81644  23127487.1804                   23127482.5824
        43.2504         28.0004
 25  7 15 22 18 30.0000000  0  9G02G08G10G23G27G28G32G31G01
  -8425890.55548  -6534667.26646  21612594.6484                   21612587.1484
        48.0004         38.0004
   4351967.83646   3394260.90245  23829308.8204                   23829308.7464
        40.5004         34.0004
   1450395.42648   1136975.02347  21722442.6174                   21722439.7854
        49.2504         47.2504
   6359767.62546   4950967.53143  24559547.5394                   24559545.3874
        38.2504         18.5004
   8136443.96146   6333618.19944  24746733.8204                   24746733.6174
        38.2504         29.7504
 -10206597.21147  -7920999.51246  21285840.6884                   21285836.0434
        46.0004         36.5004
   1814998.14848   1423021.03548  21057450.5634                   21057447.0554
        50.7504         51.0004
 -13713452.54347 -10619549.29746  22512150.4304                   22512145.6684
        43.7504         39.7504
 -10904607.84847  -8164213.72744  23097801.3984                   23097795.9304
        44.7504         28.5004
 25  7 15 22 19  0.0000000  0  9G02G08G10G23G27G28G32G31G01
  -8531568.53148  -6617013.73846  21592484.8754                   21592477.2074
        48.0004         38.0004
   4358309.11346   3399202.10245  23830516.0784                   23830515.3444
        40.5004         32.2504
   1425252.07048   1117382.77347  21717658.0234                   21717654.9884
        49.0004         47.0004
   6374861.39546   4962728.88743  24562419.7344                   24562417.5554
        40.5004         18.5004
   8162785.43846   6354143.94944  24751745.7664                   24751745.7624
        37.2504         28.5004
 -10326571.41847  -8014485.88746  21263010.7034                   21263005.5514
        47.0004         37.0004
   1799236.39548   1410739.12948  21054451.1024                   21054447.7584
        51.0004         51.0004
 -13882021.46147 -10750901.62146  22480072.4454                   22480068.3284
        43.7504         38.7504
 -11060477.15647  -8285670.32044  23068139.6024                   23068135.2274
        43.5004         28.7504
 25  7 15 22 19 30.0000000  0  9G02G08G10G23G27G28G32G31G01
  -8636901.03948  -6699091.02046  21572440.4844                   21572433.1524
        48.5004         38.0004
   4364742.07846   3404214.72345  23831739.7584                   23831739.7384
        39.7504         32.0004
   1400234.98448   1097888.92247  21712897.6484                   21712894.2624
        48.5004         47.0004
   6389980.66846   4974510.01243  24565296.6024                   24565294.9344
        38.0004         21.0004
   8188955.02045   6374535.63744  24756725.8834                   24756726.6844
        33.5004         28.0004
 -10446142.54347  -8107658.16846  21240256.9844                   21240252.2464
        46.2504         37.2504
   1783624.91048   1398574.32448  21051480.5164                   21051476.9064
        51.0004         51.0004
 -14050462.10947 -10882153.98846  22448018.9224                   22448015.3134
        44.0004         38.5004
 -11216212.09847  -8407022.19145  23038504.4454                   23038499.6134
        43.2504         30.0004
 25  7 15 22 20  0.0000000  0  9G02G08G10G23G27G28G32G31G01
  -8741884.09447  -6780896.00046  21552462.7584                   21552455.0474
        47.5004         38.2504
   4371266.14546   3409298.29745  23832981.3984                   23832981.5274
        40.5004         34.0004
   1375347.21548   1078495.82847  21708161.6254                   21708158.5784
        48.7504         47.0004
   6405127.73846   4986312.84443  24568180.5004                   24568177.4264
        39.7504         21.0004
   8214952.29346   6394793.05545  24761672.3834                   24761674.5084
        36.5004         31.5004
 -10565306.07447  -8200512.84446  21217580.8524                   21217575.8404
        46.0004         37.0004
   1768164.45748   1386527.19948  21048538.5004                   21048534.8164
        50.7504         51.0004
 -14218768.96147 -11013302.11346  22415991.6644                   22415986.8524
        43.7504         39.7504
 -11371807.75047  -8528265.50844  23008895.5004                   23008890.4494
        43.0004         28.5004
 25  7 15 22 20 30.0000000  0  9G02G08G10G23G27G28G32G31G01
  -7271093.09847  -5634825.09846  21832345.3284                   21832337.4654
        47.5004         38.0004
   5953297.45346   4642049.88745  24134032.2424                   24134031.3984
        40.5004         32.5004
   2926009.34848   2286803.96547  22003243.0784                   22003239.7344
        48.0004         47.0004
   7995721.44145   6225736.40643  24870858.8054                   24870857.6454
        35.5004         19.2504
   9816193.00846   7642512.92245  25066379.2344                   25066380.4144
        36.7504         32.0004
  -9108636.72347  -7065445.79346  21494775.7504                   21494770.9734
        46.5004         36.7504
   3328273.03148   2602196.19948  21345417.1884                   21345413.9844
        50.2504         50.7504
 -12811513.80147  -9916739.56246  22683783.3134                   22683778.6644
        43.0004         39.7504
  -9951837.22347  -7421794.93044  23279107.2034                   23279102.2384
        43.2504         28.5004
 25  7 15 22 21  0.0000000  0  9G02G08G10G23G27G28G32G31G01
  -7375371.89547  -5716081.29746  21812501.5864                   21812494.1254
        47.2504         38.5004
   5959995.05546   4647268.71945  24135306.4454                   24135305.9024
        40.7504         33.7504
   2901381.93048   2267613.74247  21998556.6644                   21998553.4574
        48.0004         46.7504
   8010924.18446   6237582.61343  24873751.9614                   24873750.3324
        36.5004         21.0004
   9841837.86346   7662495.75044  25071259.4694                   25071259.5704
        37.0004         28.0004
  -9226978.69147  -7157660.28546  21472255.9224                   21472250.8874
        46.0004         36.7504
   3313109.55148   2590380.48848  21342531.6334                   21342528.6724
        51.0004         50.7504
 -12979543.38747 -10047671.63746  22651807.8444                   22651803.5314
        43.5004         39.7504
 -10107146.60547  -7542815.21144  23249552.3444                   23249548.4064
        42.5004         29.5004
 25  7 15 22 21 30.0000000  0 10G02G08G10G03G23G27G28G32G31G01
  -7479296.59447  -5797061.58246  21792725.5164                   21792717.9924
        47.7504         38.2504
   5966774.62146   4652551.41845  24136596.7344                   24136596.3954
        40.7504         33.2504
   2876885.13748   2248525.30947  21993894.7114                   21993892.0044
        48.0004         47.0004
   6078266.05555   4771624.11754  24969488.2664                   24969488.4224
        33.2504         26.5004
   8026154.23846   6249450.02343  24876651.2734                   24876648.1524
        36.0004         18.5004
   9867302.25846   7682337.98844  25076105.7894                   25076105.2584
        37.5004         26.7504
  -9344907.14147  -7249552.57046  21449814.6644                   21449810.0904
        46.5004         36.7504
   3298091.59848   2578678.16848  21339673.8834                   21339670.6804
        50.0004         50.5004
 -13147429.95347 -10178492.26246  22619860.3834                   22619855.8874
        44.5004         40.5004
 -10262309.43047  -7663721.26644  23220025.7894                   23220021.7234
        43.2504         29.7504
 25  7 15 22 22  0.0000000  0 10G02G08G10G03G23G27G28G32G31G01
  -7582868.66447  -5877767.09446  21773016.3524                   21773008.8634
        47.5004         38.0004
   5973630.08646   4657893.25045  24137901.4454                   24137901.3364
        40.5004         32.7504
   2852516.38748   2229536.64147  21989257.6414                   21989254.6094
        48.0004         47.0004
   5930210.55955   4656256.36754  24941314.3444                   24941314.5864
        34.7504         26.7504
   8041408.11345   6261336.09043  24879553.3134                   24879551.9264
        34.0004         19.2504
   9892580.12146   7702034.91044  25080916.3054                   25080916.2464
        38.5004         27.5004
  -9462423.27747  -7341123.56246  21427452.1884                   21427447.7584
        45.7504         36.7504
   3283214.28948   2567085.44148  21336842.7734                   21336839.3714
        50.2504         50.7504
 -13315173.69947 -10309201.59446  22587939.8524                   22587935.1214
        43.5004         40.0004
 -10417326.27047  -7784513.55544  23190527.3754                   23190522.9344
        43.0004         29.7504
 25  7 15 22 22 30.0000000  0 10G02G08G10G03G23G27G28G32G31G01
  -7686088.82447  -5958198.38346  21753373.9384                   21753366.8444
        46.7504         38.0004
   5980556.27346   4663290.21145  24139219.6804                   24139218.5904
        40.2504         31.0004
   2828274.08648   2210646.50847  21984644.5634                   21984641.5354
        48.2504         47.0004
   5782015.50845   4540779.81644  24913114.1094                   24913114.1884
        35.2504         28.7504
   8056683.88355   6273239.20753  24882461.3754                   24882458.4144
        34.2504         19.2504
   9917666.75446   7721582.78944  25085689.6954                   25085690.6174
        38.7504         29.7504
  -9579527.22747  -7432373.35946  21405168.0864                   21405163.2894
        45.5004         36.5004
   3268473.76648   2555599.30548  21334038.1094                   21334034.4694
        50.2504         50.5004
 -13482773.45747 -10439798.73046  22556046.5864                   22556041.4144
        44.5004         40.5004
 -10572196.76647  -7905191.82045  23161056.3524                   23161052.1564
        43.2504         30.0004
 25  7 15 22 23  0.0000000  0  9G02G08G10G03G27G28G32G31G01
  -7788956.34047  -6038354.88746  21733799.0084                   21733792.0084
        47.7504         38.5004
   5987549.59846   4668739.46545  24140550.5084                   24140549.6484
        40.0004         31.5004
   2804158.00848   2191854.72747  21980055.3444                   21980052.3754
        48.5004         47.0004
   5633680.21146   4425193.90244  24884886.5164                   24884886.5474
        38.2504         27.2504
   9942558.77746   7740979.03944  25090426.6334                   25090427.6684
        37.0004         29.5004
  -9696217.76247  -7523301.03146  21382962.7034                   21382957.7934
        45.7504         37.0004
   3253867.62148   2544217.87948  21331258.6094                   21331255.0474
        50.7504         50.5004
 -13650226.81647 -10570281.79746  22524181.6564                   22524176.3834
        45.0004         40.0004
 -10726919.04747  -8025754.57845  23131613.2584                   23131609.4104
        42.7504         30.7504
 25  7 15 22 23 30.0000000  0 10G02G08G10G03G23G27G28G32G31G01
  -7891470.44147  -6118236.00446  21714291.3054                   21714283.6914
        46.5004         38.5004
   5994606.07446   4674237.91045  24141893.1804                   24141892.9384
        39.7504         31.7504
   2780167.78548   2173161.02047  21975490.4224                   21975487.2894
        48.5004         46.7504
   5485204.01245   4309498.25044  24856631.8444                   24856631.9654
        35.0004         24.0004
   8087303.00855   6284689.41053  24888285.5704                   24888283.9144
        32.0004         20.5004
   9967252.66446   7760220.86744  25095125.2034                   25095126.4104
        36.0004         25.5004
  -9812493.85947  -7613905.75046  21360836.3674                   21360831.3014
        46.5004         37.0004
   3239393.12948   2532939.03548  21328504.4384                   21328500.5204
        49.7504         50.5004
 -13817531.46547 -10700648.99246  22492343.9454                   22492339.3204
        44.2504         40.2504
 -10881491.50447  -8146200.63344  23102200.0084                   23102194.7464
        44.2504         29.5004
 25  7 15 22 24  0.0000000  0 10G02G08G10G03G23G27G28G32G31G01
  -7993627.53947  -6197838.94146  21694851.7504                   21694843.8634
        47.0004         38.2504
   6001724.92646   4679784.98445  24143247.5394                   24143247.4734
        38.7504         31.2504
   2756306.11748   2154567.48447  21970949.7664                   21970946.4734
        48.5004         46.7504
   5336589.44146   4193694.71144  24828352.2034                   24828352.0434
        38.2504         27.7504
   8102641.47756   6296641.25053  24891206.2664                   24891203.1844
        36.2504         20.7504
   9991747.99245   7779308.03543  25099786.4844                   25099787.4264
        32.2504         19.2504
  -9928351.37947  -7704184.32446  21338789.1644                   21338784.2774
        45.7504         37.0004
   3225050.81648   2521763.18848  21325774.6094                   21325771.1564
        49.7504         50.5004
 -13984682.45747 -10830896.44546  22460536.3204                   22460531.4534
        44.5004         40.5004
 -11035909.45347  -8266526.27344  23072814.7504                   23072810.0394
        43.5004         29.5004
 25  7 15 22 24 30.0000000  0 10G02G08G10G03G23G27G28G32G31G01
  -8095422.95747  -6277160.04346  21675480.7114                   21675473.1644
        47.2504         38.0004
   6008906.32046   4685380.80545  24144615.1564                   24144613.8164
        39.2504         31.2504
   2732576.65248   2136076.97347  21966433.9844                   21966430.7384
        48.5004         46.7504
   5187839.90646   4077786.09444  24800045.1254                   24800045.5824
        37.7504         29.5004
   8118004.78145   6308612.58243  24894128.2114                   24894126.8244
        34.0004         19.5004
  10016045.21145   7798240.89143  25104410.1484                   25104411.3674
        34.2504         21.2504
 -10043785.30147  -7794132.80146  21316822.3134                   21316818.2194
        46.2504         36.7504
   3210842.08648   2510691.43848  21323070.8754                   21323067.4844
        49.7504         50.5004
 -14151673.23047 -10961019.06246  22428759.3914                   22428753.6604
        45.5004         40.5004
 -11190167.23047  -8386727.10944  23043460.2734                   23043455.9654
        44.0004         29.5004
 25  7 15 22 25  0.0000000  0 10G02G08G10G03G23G27G28G32G31G01
  -8196855.37947  -6356198.30146  21656178.4454                   21656170.8714
        47.2504         38.2504
   6016147.29746   4691023.02345  24145992.1564                   24145991.9264
        39.0004         30.5004
   2708979.90648   2117689.86747  21961943.8524                   21961940.6994
        48.2504         46.7504
   5038955.50446   3961772.34844  24771714.2114                   24771713.5514
        37.7504         29.0004
   8133392.81645   6320603.14843  24897055.7344                   24897054.9384
        33.2504         20.0004
  10040141.42245   7817016.99244  25108995.4844                   25108997.8324
        34.2504         27.7504
 -10158793.77347  -7883749.77046  21294937.1884                   21294932.3834
        46.7504         36.5004
   3196765.13748   2499722.36748  21320392.2194                   21320388.9304
        49.7504         50.5004
 -14318500.92247 -11091014.60246  22397012.3914                   22397007.5084
        44.2504         39.7504
 -11344262.21147  -8506801.07044  23014137.0004                   23014132.4694
        43.2504         29.7504
 25  7 15 22 25 30.0000000  0 10G02G08G10G03G23G27G28G32G31G01
  -8297923.59047  -6434952.74246  21636945.7814                   21636938.4694
        47.2504         38.2504
   6023444.30146   4696708.90645  24147381.6804                   24147380.9304
        39.7504         31.0004
   2685515.80948   2099406.12547  21957478.4844                   21957475.4884
        48.5004         46.7504
   4889936.12146   3845653.43444  24743356.5234                   24743356.1174
        37.0004         28.5004
   8148804.83245   6332612.46943  24899989.3364                   24899987.9734
        35.7504         21.0004
  10064033.64545   7835634.06344  25113542.8364                   25113544.1644
        33.5004         27.7504
 -10273375.50047  -7973034.21946  21273132.8914                   21273128.2934
        47.0004         36.5004
   3182817.78148   2488854.28148  21317738.2814                   21317734.7774
        50.5004         50.5004
 -14485162.94547 -11220881.05146  22365297.8594                   22365292.6214
        45.7504         40.2504
 -11498192.55147  -8626746.75444  22984844.7584                   22984840.7344
        44.2504         29.5004
 25  7 15 22 26  0.0000000  0 10G02G08G10G03G23G27G28G32G31G01
  -8398623.68447  -6513420.34046  21617783.0314                   21617775.6254
        47.2504         38.0004
   6030797.02046   4702438.22345  24148780.4614                   24148780.0634
        40.0004         31.0004
   2662187.51648   2081228.20347  21953039.6094                   21953036.2894
        48.7504         46.5004
   4740784.69146   3729431.60544  24714974.0234                   24714973.1684
        37.5004         28.5004
   8164243.40246   6344642.41443  24902927.9924                   24902925.4574
        38.2504         20.2504
  10087722.03145   7854092.24644  25118051.1484                   25118052.7114
        34.5004         29.5004
 -10387525.98447  -8061982.62546  21251411.0474                   21251406.5704
        46.7504         37.7504
   3169000.89848   2478087.86348  21315109.0864                   21315105.4964
        50.0004         50.5004
 -14651653.28147 -11350613.72346  22333615.8594                   22333610.7344
        45.2504         40.5004
 -11651953.05547  -8746560.09844  22955584.9144                   22955581.4304
        42.5004         29.2504
 25  7 15 22 26 30.0000000  0 10G02G08G10G03G23G27G28G32G31G01
  -8498952.27047  -6591598.46146  21598691.4384                   21598683.4614
        47.0004         38.5004
   6038204.42246   4708210.14544  24150189.4384                   24150189.6524
        39.0004         29.7504
   2638997.52348   2063158.05147  21948626.7114                   21948623.7624
        48.7504         46.7504
   4591503.33646   3613108.59844  24686565.8134                   24686565.4534
        37.5004         26.5004
   8179710.35946   6356694.40243  24905871.2274                   24905869.2934
        36.2504         20.5004
  10111205.62546   7872390.94545  25122519.8914                   25122521.1764
        37.7504         31.0004
 -10501241.43447  -8150592.04746  21229771.3674                   21229766.5084
        46.5004         37.2504
   3155314.76648   2467423.33248  21312504.5084                   21312500.9774
        50.2504         50.5004
 -14817966.83247 -11480208.62946  22301966.8054                   22301962.2464
        44.7504         40.0004
 -11805539.10947  -8866237.49644  22926358.7344                   22926354.0234
        43.5004         28.2504
 25  7 15 22 27  0.0000000  0 10G02G08G10G03G23G27G28G32G31G01
  -8598908.71947  -6669486.60246  21579670.3524                   21579662.5004
        47.5004         38.0004
   6045662.70746   4714021.68445  24151609.4774                   24151609.2774
        39.7504         30.2504
   2615945.54748   2045195.44947  21944239.7274                   21944236.8754
        48.5004         46.5004
   4442091.80146   3496684.06344  24658134.1254                   24658133.8874
        39.7504         28.5004
   8195204.62946   6368767.82843  24908819.2114                   24908817.6994
        38.2504         20.2504
  10134481.33246   7890527.74245  25126949.3054                   25126950.4774
        39.7504         33.0004
 -10614520.89847  -8238861.74646  21208215.1724                   21208210.4844
        47.0004         36.7504
   3141756.91448   2456858.75448  21309924.5234                   21309921.0084
        50.0004         50.5004
 -14984101.67647 -11609664.29346  22270352.6414                   22270347.8714
        44.2504         41.0004
 -11958948.95747  -8985777.60944  22897164.9454                   22897161.3754
        42.5004         29.7504
 25  7 15 22 27 30.0000000  0 10G02G08G10G03G23G27G28G32G31G01
  -8698492.29747  -6747084.19546  21560719.9384                   21560712.4534
        47.7504         38.7504
   6053168.39146   4719870.22345  24153038.0474                   24153037.8524
        39.5004         30.7504
   2593031.58648   2027340.38747  21939879.3204                   21939876.4774
        48.5004         46.5004
   4292549.76646   3380157.84445  24629677.2664                   24629676.7894
        40.0004         31.2504
   8210725.47346   6380861.94543  24911773.1884                   24911771.1804
        38.0004         19.5004
  10157545.90646   7908500.07045  25131338.2344                   25131339.3834
        39.7504         33.5004
 -10727363.00847  -8326790.64146  21186742.1884                   21186737.2074
        47.2504         37.5004
   3128325.07848   2446392.37948  21307368.8204                   21307365.1374
        50.5004         50.5004
 -15150054.99247 -11738978.50846  22238772.9924                   22238767.9064
        45.5004         40.2504
 -12112180.62547  -9105178.88345  22868006.4064                   22868002.1764
        44.5004         30.7504
 25  7 15 22 28  0.0000000  0  9G02G08G10G03G27G28G32G31G01
  -8797701.25847  -6824389.87546  21541841.2504                   21541833.9064
        47.2504         38.5004
   6060718.73046   4725753.48045  24154475.0394                   24154474.6524
        39.5004         31.0004
   2570256.33248   2009593.40247  21935545.4774                   21935542.6294
        49.2504         46.5004
   4142877.72746   3263530.39145  24601195.2424                   24601195.6174
        40.0004         30.5004
  10180396.94146   7926305.92645  25135687.3674                   25135688.2544
        38.5004         34.0004
 -10839765.88347  -8414377.28546  21165352.4064                   21165347.7074
        47.2504         37.5004
   3115017.81648   2436023.06648  21304836.6644                   21304833.2424
        50.2504         50.5004
 -15315823.55947 -11868148.76246  22207228.0394                   22207222.9654
        44.5004         40.5004
 -12265231.34047  -9224439.15645  22838882.6174                   22838877.7234
        44.0004         30.5004
 25  7 15 22 28 30.0000000  0  9G02G08G10G03G27G28G32G31G01
  -8896533.84447  -6901402.28546  21523034.2734                   21523026.5204
        47.7504         38.2504
   6068311.25846   4731669.64145  24155919.4224                   24155919.2154
        40.2504         31.0004
   2547620.78148   1991955.28547  21931238.3444                   21931235.2234
        48.5004         46.2504
   3993076.50046   3146802.22344  24572689.6024                   24572689.1524
        40.0004         28.2504
  10203032.44146   7943943.73445  25139994.4844                   25139995.6214
        37.2504         34.5004
 -10951727.21947  -8501619.87146  21144046.7194                   21144042.2114
        47.0004         37.2504
   3101833.90648   2425749.88348  21302327.8204                   21302324.0984
        49.7504         50.2504
 -15481403.80947 -11997172.27346  22175719.6884                   22175714.5634
        45.2504         41.2504
 -12418098.10247  -9343556.05945  22809792.3524                   22809788.5044
        42.5004         30.5004
 25  7 15 22 29  0.0000000  0  9G02G08G10G03G27G28G32G31G01
  -8994980.17647  -6978113.72346  21504299.9534                   21504292.8094
        47.7504         38.7504
   6075951.41446   4737622.92245  24157374.3204                   24157373.5004
        39.7504         32.5004
   2525133.90248   1974433.01247  21926959.0164                   21926956.3364
        48.5004         46.0004
   3843154.89546   3029980.17244  24544161.0084                   24544158.6604
        40.5004         26.0004
  10225458.18846   7961418.12545  25144261.0704                   25144263.2894
        37.5004         34.2504
 -11063236.91847  -8588510.52046  21122827.5314                   21122822.4104
        46.5004         37.2504
   3088780.11348   2415578.07848  21299843.8594                   21299839.8714
        50.0004         50.2504
 -15646784.12947 -12126040.00446  22144248.2034                   22144243.5314
        45.7504         41.7504
 -12570769.88747  -9462521.05544  22780740.2114                   22780735.6334
        44.0004         29.5004
 25  7 15 22 29 30.0000000  0  9G02G08G10G03G27G28G32G31G01
  -9093031.64148  -7054517.45746  21485641.7974                   21485634.1054
        48.0004         38.5004
   6083643.17646   4743616.38745  24158836.4844                   24158836.7464
        38.2504         31.0004
   2502802.96547   1957032.25847  21922709.6564                   21922706.7544
        47.7504         46.0004
   3693119.99246   2913069.98444  24515609.5234                   24515608.8484
        37.5004         25.0004
  10247678.53946   7978732.48846  25148490.7974                   25148492.3594
        40.5004         36.2504
 -11174286.40647  -8675042.56246  21101695.5234                   21101690.0864
        47.0004         37.7504
   3075861.58648   2405511.68048  21297385.1254                   21297381.8164
        51.0004         50.2504
 -15811954.70747 -12254744.28546  22112817.4694                   22112812.5004
        46.5004         41.7504
 -12723237.26247  -9581326.77745  22751726.5704                   22751722.1374
        44.5004         30.5004
 25  7 15 22 30  0.0000000  0  9G02G08G10G03G27G28G32G31G01
  -9190684.05548  -7130610.25046  21467059.1094                   21467051.8134
        48.5004         39.0004
   6091386.87946   4749650.34044  24160309.9614                   24160310.8404
        38.5004         29.7504
   2480631.94148   1939756.10947  21918490.8364                   21918487.6524
        48.0004         46.0004
   3542975.73046   2796074.51644  24487038.3834                   24487037.3634
        39.5004         29.0004
  10269694.31646   7995887.46945  25152679.9614                   25152682.1804
        40.0004         34.5004
 -11284870.59047  -8761212.03946  21080651.6644                   21080646.8554
        46.5004         38.2504
   3063080.05548   2395552.02748  21294952.6954                   21294949.4414
        50.0004         50.0004
 -15976908.78547 -12383279.87146  22081427.7034                   22081422.5594
        44.7504         41.2504
 -12875494.30547  -9699968.60544  22722753.3204                   22722748.1644
        44.2504         29.5004
 25  7 15 22 30 30.0000000  0  9G02G08G10G03G27G28G32G31G01
  -9287938.81247  -7206393.18046  21448552.0474                   21448544.6994
        47.2504         38.5004
   6099176.80146   4755720.31645  24161793.2424                   24161793.3554
        37.5004         30.2504
   2458618.54748   1922602.78547  21914301.5634                   21914299.1724
        48.0004         46.0004
   3392719.58645   2678991.87544  24458445.1414                   24458444.6374
        34.5004         25.7504
  10291500.19146   8012878.87145  25156830.5004                   25156830.8754
        39.7504         30.2504
 -11394990.55147  -8847019.77746  21059696.4384                   21059691.7894
        46.5004         38.0004
   3050431.10948   2385695.69148  21292546.0164                   21292542.5394
        50.5004         50.0004
 -16141646.05947 -12511646.52346  22050078.9774                   22050074.2504
        44.5004         41.5004
 -13027541.22747  -9818446.69945  22693818.3134                   22693814.8204
        42.7504         31.0004
 25  7 15 22 31  0.0000000  0  9G02G08G10G03G27G28G32G31G01
  -9384794.34847  -7281865.03146  21430121.4304                   21430113.7304
        47.7504         38.7504
   6107010.14846   4761824.10945  24163283.6804                   24163284.2034
        37.0004         30.7504
   2436763.31647   1905572.69947  21910142.8674                   21910140.1334
        47.5004         45.7504
   3242352.04346   2561822.46944  24429830.9384                   24429830.1484
        37.5004         26.0004
  10313093.74645   8029704.96543  25160939.4534                   25160940.0274
        35.0004         22.5004
 -11504644.64147  -8932464.50446  21038830.2814                   21038825.2074
        46.5004         37.5004
   3037913.14148   2375941.41448  21290163.8284                   21290160.5044
        49.7504         50.0004
 -16306163.43447 -12639841.81646  22018772.7034                   22018767.5434
        45.2504         41.2504
 -13179375.33247  -9936758.93744  22664926.2734                   22664921.5904
        45.0004         29.7504
 25  7 15 22 31 30.0000000  0  8G02G08G10G03G28G32G31G01
  -9481251.23847  -7357026.24646  21411766.1094                   21411758.4064
        47.7504         38.5004
   6114882.26646   4767958.10545  24164781.2814                   24164782.3444
        37.7504         30.5004
   2415065.15647   1888665.01647  21906013.7584                   21906011.2704
        47.7504         46.0004
   3091871.87146   2444565.22744  24401195.3364                   24401195.0434
        37.2504         27.0004
 -11613832.79347  -9017546.15646  21018052.3834                   21018047.3714
        46.7504         38.0004
   3025522.92648   2366286.69148  21287806.1024                   21287802.3954
        50.5004         50.0004
 -16470459.16847 -12767864.40246  21987507.6174                   21987502.9024
        46.0004         41.7504
 -13330995.68747 -10054904.66445  22636073.7424                   22636069.4534
        44.5004         31.0004
 25  7 15 22 32  0.0000000  0  8G02G08G10G03G28G32G31G01
  -9577307.50848  -7431875.28946  21393486.8284                   21393479.7704
        48.2504         39.0004
   6122790.62146   4774120.36745  24166286.8914                   24166287.2304
        37.2504         30.0004
   2393524.94547   1871880.41047  21901914.6414                   21901911.9924
        47.5004         46.0004
   2941279.75446   2327220.84044  24372539.3444                   24372538.4494
        36.2504         27.7504
 -11722553.06247  -9102263.22746  20997363.8834                   20997358.3754
        46.7504         38.5004
   3013259.14848   2356730.48048  21285472.4384                   21285468.7074
        50.0004         50.0004
 -16634530.05547 -12895711.78546  21956286.3524                   21956281.3754
        45.5004         41.5004
 -13482399.32847 -10172881.50845  22607262.2424                   22607258.0554
        43.5004         30.2504
 25  7 15 22 32 30.0000000  0  9G02G08G10G03G27G28G32G31G01
  -8097539.45747  -6278809.27746  21675077.7894                   21675070.1844
        47.5004         39.5004
   7706151.30146   6007907.76645  24467591.6094                   24467590.9304
        38.5004         31.5004
   3947563.21947   3082819.28947  22197638.6174                   22197635.7274
        47.5004         45.7504
   4366000.62545   3437393.03944  24643653.8984                   24643653.4304
        33.2504         25.2504
   7895952.96155   9282207.15654  25472811.4144                   25472811.3484
        35.7504         28.7504
 -10255380.88747  -7959012.16046  21276557.2504                   21276552.3594
        47.0004         37.7504
   4576539.95348   3574871.35248  21582954.9454                   21582951.3984
        50.0004         50.0004
 -15222948.44147 -11795778.00846  22224901.5234                   22224895.9804
        45.2504         41.7504
 -12058159.39547  -9063084.12945  22878285.7504                   22878281.8984
        43.5004         31.2504
 25  7 15 22 33  0.0000000  0  9G02G08G10G03G27G28G32G31G01
  -8192797.00848  -6353035.94146  21656950.7894                   21656943.4884
        48.5004         39.2504
   7714117.46546   6014115.05945  24469106.5234                   24469106.8794
        38.0004         31.5004
   3926334.58248   3066277.46947  22193598.8444                   22193596.1604
        48.0004         45.5004
   4215180.20346   3319870.73044  24614953.7034                   24614953.2704
        37.5004         26.7504
   7916661.05946   9298343.11744  25476751.0634                   25476752.7854
        37.5004         29.0004
 -10363166.47747  -8043000.91046  21256046.1724                   21256041.2704
        47.0004         37.5004
   4564518.39548   3565503.88348  21580667.6174                   21580663.9614
        50.5004         50.0004
 -15386566.61347 -11923272.61747  22193765.9064                   22193760.9064
        45.5004         42.2504
 -12209127.76247  -9180721.79745  22849557.6564                   22849553.7734
        44.0004         30.7504
 25  7 15 22 33 30.0000000  0  9G02G08G10G03G27G28G32G31G01
  -8287656.85948  -6426952.71546  21638900.0314                   21638892.0824
        48.2504         39.2504
   7722104.29746   6020338.43445  24470626.3444                   24470627.4184
        37.2504         31.2504
   3905258.60947   3049854.59447  22189588.2814                   22189585.5274
        47.0004         45.5004
   4064242.47346   3202256.92244  24586231.0314                   24586230.1134
        36.5004         25.0004
   7937136.44545   9314297.77044  25480647.7034                   25480648.9534
        35.2504         25.5004
 -10470486.17647  -8126626.62946  21235623.6724                   21235619.0744
        47.5004         37.7504
   4552611.69148   3556225.91448  21578401.5314                   21578398.0634
        50.5004         50.0004
 -15549957.34047 -12050590.00447  22162673.5944                   22162668.3834
        45.5004         42.0004
 -12359878.45747  -9298189.85245  22820870.3914                   22820866.1844
        44.0004         30.0004
 25  7 15 22 34  0.0000000  0  9G02G08G10G03G27G28G32G31G01
  -8382113.90647  -6500555.60546  21620925.2194                   21620918.0554
        47.7504         39.2504
   7730112.78546   6026578.69145  24472151.2974                   24472151.1134
        38.5004         30.7504
   3884339.74248   3033554.14847  22185607.5944                   22185604.5864
        48.2504         45.7504
   3913191.45745   3084554.91844  24557487.0004                   24557486.5004
        35.2504         26.7504
   7957380.60245   9330072.21543  25484499.3204                   25484501.4774
        34.7504         22.5004
 -10577334.58647  -8209885.10546  21215291.3054                   21215286.6564
        46.5004         38.0004
   4540822.08648   3547039.19948  21576157.9534                   21576154.1414
        50.7504         49.7504
 -15713113.39847 -12177724.53546  22131625.8914                   22131620.7234
        45.5004         41.7504
 -12510404.98847  -9415483.21545  22792226.1564                   22792222.2194
        43.2504         30.5004
 25  7 15 22 34 30.0000000  0  9G02G08G10G03G27G28G32G31G01
  -8476165.42247  -6573842.50446  21603027.7424                   21603019.9414
        47.5004         39.5004
   7738141.59846   6032834.83245  24473678.9304                   24473679.3524
        38.5004         31.5004
   3863580.09048   3017377.76647  22181657.2894                   22181654.3594
        48.0004         45.5004
   3762029.69145   2966766.63744  24528722.1254                   24528721.4884
        32.5004         25.7504
   7977392.62945   9345665.88742  25488307.8444                   25488309.6724
        31.7504         16.2504
 -10683708.58247  -8292773.91046  21195048.6644                   21195044.0704
        47.0004         38.0004
   4529149.63748   3537943.76648  21573936.9614                   21573933.5164
        49.7504         49.7504
 -15876030.57447 -12304672.91047  22100623.6884                   22100618.4654
        45.7504         42.0004
 -12660703.18047  -9532598.66445  22763625.8204                   22763621.7894
        44.7504         32.0004
 25  7 15 22 35  0.0000000  0  9G02G08G10G03G27G28G32G31G01
  -8569811.08247  -6646813.15246  21585207.3754                   21585199.6564
        47.5004         39.0004
   7746186.97746   6039103.83645  24475209.7664                   24475210.3054
        38.2504         31.5004
   3842979.33248   3001325.19947  22177737.0554                   22177734.0824
        48.0004         45.7504
   3610756.71145   2848891.65644  24499936.3674                   24499934.9804
        31.5004         25.2504
   7997169.40245   9361076.28543  25492071.3284                   25492074.1644
        33.2504         19.0004
 -10789607.43047  -8375292.47346  21174896.8834                   21174891.9774
        46.5004         37.5004
   4517591.92248   3528937.73848  21571737.5084                   21571734.1524
        49.7504         49.7504
 -16038706.31247 -12431433.16447  22069667.3134                   22069662.1484
        46.0004         42.2504
 -12810771.13747  -9649534.71545  22735069.0234                   22735064.6604
        44.5004         32.2504
 25  7 15 22 35 30.0000000  0  9G02G08G10G03G27G28G32G31G01
  -8663045.56648  -6719463.39846  21567465.7194                   21567457.6484
        48.0004         39.2504
   7754250.41046   6045386.88345  24476744.4534                   24476744.6054
        38.5004         31.7504
   3822542.19148   2985400.12147  22173848.0084                   22173845.3874
        48.0004         45.5004
   3459376.99645   2730933.61744  24471128.3594                   24471128.1994
        33.0004         27.5004
   8016712.62546   9376304.53544  25495791.0864                   25495793.2854
        37.5004         27.7504
 -10895025.48447  -8457436.38746  21154836.5784                   21154831.8524
        46.0004         37.5004
   4506151.59048   3520023.18048  21569560.3834                   21569556.6054
        49.5004         49.7504
 -16201133.28947 -12557999.57447  22038758.4144                   22038753.4454
        45.7504         42.2504
 -12960602.16447  -9766286.12945  22706557.4144                   22706552.8524
        44.7504         32.2504
 25  7 15 22 36  0.0000000  0  9G02G08G10G03G27G28G32G31G01
  -8755871.72747  -6791795.47746  21549801.3594                   21549793.5984
        47.5004         39.2504
   7762324.41046   6051678.21945  24478281.2814                   24478280.8754
        38.7504         31.2504
   3802264.72347   2969599.46147  22169989.2664                   22169986.4344
        47.5004         45.5004
   3307886.71945   2612889.32445  24442300.8444                   24442300.7274
        34.7504         31.7504
   8036015.52746   9391345.58245  25499463.9534                   25499466.5044
        38.2504         31.5004
 -10999965.70747  -8539207.97346  21134867.1414                   21134862.6134
        46.5004         37.0004
   4494822.64148   3511195.41048  21567404.6254                   21567401.2734
        50.0004         49.5004
 -16363312.87947 -12684373.22347  22007896.7814                   22007891.7774
        46.2504         42.7504
 -13110198.05147  -9882854.32845  22678089.2734                   22678085.1724
        44.0004         31.5004
 25  7 15 22 36 30.0000000  0  9G02G08G10G03G27G28G32G31G01
  -8848282.71947  -6863804.05146  21532216.1024                   21532208.4144
        46.7504         39.0004
   7770412.03946   6057980.16045  24479819.6954                   24479820.3754
        38.0004         30.2504
   3782153.36347   2953928.24247  22166162.1414                   22166159.4384
        47.7504         45.0004
   3156292.36346   2494763.96545  24413453.6414                   24413453.1214
        36.7504         32.7504
   8055081.56346   9406202.03145  25503093.1174                   25503094.6214
        41.2504         35.5004
 -11104420.71147  -8620601.46546  21114989.5084                   21114984.9694
        46.0004         38.0004
   4483609.45348   3502457.84448  21565270.8984                   21565267.3914
        49.7504         49.5004
 -16525236.38747 -12810547.32047  21977083.4454                   21977078.7154
        46.0004         42.5004
 -13259550.24247  -9999232.62145  22649668.9454                   22649664.8244
        44.2504         31.7504
 25  7 15 22 37  0.0000000  0  9G02G08G10G03G27G28G32G31G01
  -8940278.99248  -6935489.45346  21514710.1094                   21514702.5554
        48.0004         39.2504
   7778509.10246   6064289.41445  24481361.2504                   24481361.3714
        38.0004         31.0004
   3762207.28547   2938385.82047  22162366.6564                   22162363.5084
        47.5004         45.2504
   3004593.17246   2376556.88746  24384585.8134                   24384585.5864
        39.5004         36.0004
   8073907.06246   9420871.02445  25506674.9844                   25506677.6054
        39.2504         35.2504
 -11208390.43047  -8701616.80946  21095205.4224                   21095200.2424
        45.2504         37.5004
   4472509.12548   3493808.21148  21563158.5234                   21563155.1994
        49.7504         49.5004
 -16686901.88747 -12936520.37547  21946319.9224                   21946314.2934
        46.0004         42.0004
 -13408657.46947 -10115420.03945  22621294.9924                   22621290.9454
        44.2504         32.0004
 25  7 15 22 37 30.0000000  0  9G02G08G10G03G27G28G32G31G01
  -9031860.97347  -7006852.03946  21497282.4534                   21497274.3364
        47.0004         39.7504
   7786610.57046   6070602.12945  24482902.9304                   24482902.9774
        40.5004         32.0004
   3742424.84847   2922970.89847  22158602.0084                   22158599.2194
        47.5004         44.7504
   2852787.43046   2258266.78946  24355698.8444                   24355697.6334
        40.5004         37.2504
   8092487.55546   9435349.11745  25510211.4224                   25510213.7664
        39.2504         35.5004
 -11311875.57447  -8782254.57046  21075512.7424                   21075507.5434
        45.0004         38.2504
   4461518.00848   3485243.68448  21561067.0004                   21561063.4694
        49.2504         49.5004
 -16848308.26247 -13062291.51647  21915605.1484                   21915599.8874
        46.2504         42.5004
 -13557519.28947 -10231416.22345  22592967.2034                   22592962.7584
        44.0004         31.5004
 25  7 15 22 38  0.0000000  0  9G02G08G10G03G27G28G32G31G01
  -9123028.84847  -7077891.94546  21479933.5474                   21479925.8954
        47.7504         38.5004
   7794712.50446   6076915.25845  24484444.7974                   24484444.4804
        40.0004         31.2504
   3722805.53947   2907683.09447  22154868.8444                   22154865.9064
        47.5004         44.7504
   2700874.61746   2139893.27046  24326790.0704                   24326789.9804
        40.0004         36.5004
   8110819.72346   9449633.64145  25513700.0394                   25513701.7624
        36.7504         31.0004
 -11414875.80547  -8862514.47746  21055912.5864                   21055906.9344
        45.7504         37.7504
   4450633.50448   3476762.24248  21558995.6564                   21558992.4344
        50.0004         49.5004
 -17009453.34847 -13187859.04747  21884940.2664                   21884934.8054
        47.0004         42.7504
 -13706134.10247 -10347219.94145  22564687.3054                   22564682.3794
        44.0004         31.5004
 25  7 15 22 38 30.0000000  0  9G02G08G10G03G27G28G32G31G01
  -9213779.79747  -7148606.98446  21462664.1094                   21462656.8134
        47.7504         39.0004
   7802813.80946   6083227.87944  24485986.0004                   24485986.0554
        38.5004         28.5004
   3703351.56348   2892524.12147  22151166.8984                   22151163.8134
        48.0004         45.0004
   2548857.02746   2021438.07846  24297862.7664                   24297861.8874
        40.2504         37.0004
   8128902.77745   9463724.05944  25517140.5864                   25517143.1024
        31.0004         26.7504
 -11517388.05147  -8942394.14146  21036404.8754                   21036399.6484
        45.5004         37.2504
   4439855.82448   3468364.02348  21556944.7194                   21556941.2234
        49.2504         49.5004
 -17170332.32447 -13313219.21947  21854325.9224                   21854320.6724
        46.0004         43.0004
 -13854497.57047 -10462827.80945  22536453.9694                   22536449.6844
        44.0004         32.0004
 25  7 15 22 39  0.0000000  0 10G02G08G10G03G25G27G28G32G31G01
  -9304107.34447  -7218992.08246  21445475.5004                   21445468.0124
        47.5004         39.0004
   7810916.94546   6089541.87145  24487528.5314                   24487528.6684
        38.7504         31.0004
   3684068.73047   2877498.51247  22147497.1094                   22147494.7344
        47.7504         44.7504
   2396740.47346   1902905.78546  24268915.3524                   24268914.9654
        40.5004         37.0004
   7735521.69555   6051442.50453  24812117.5704                   24812119.8714
        33.2504         23.2504
   8146740.00855   9477622.80554  25520534.6724                   25520537.9384
        33.0004         26.7504
 -11619405.66847  -9021888.37146  21016991.6724                   21016986.5204
        46.0004         37.5004
   4429188.70748   3460051.96948  21554915.2114                   21554911.6644
        49.7504         49.2504
 -17330937.24647 -13438365.83647  21823763.2504                   21823758.7974
        46.0004         43.2504
 -14002601.84847 -10578233.70745  22508271.1484                   22508266.5314
        44.7504         32.2504
 25  7 15 22 39 30.0000000  0 10G02G08G10G03G25G27G28G32G31G01
  -9394018.57047  -7289052.78546  21428366.1094                   21428358.5434
        47.7504         39.0004
   7819010.94546   6095848.77045  24489068.9924                   24489069.1174
        38.5004         31.5004
   3664949.44147   2862600.33247  22143859.2734                   22143856.4614
        47.7504         45.0004
   2244517.57046   1784290.61746  24239948.3284                   24239947.7344
        41.2504         36.0004
   7621547.69946   5962631.66844  24790431.7504                   24790431.5084
        38.5004         27.5004
   8164320.83645   9491321.94944  25523880.5004                   25523883.5314
        32.2504         25.5004
 -11720935.31647  -9101002.36746  20997671.6174                   20997666.1024
        47.5004         38.0004
   4418622.66048   3451818.66848  21552904.2504                   21552900.9964
        49.5004         49.2504
 -17491272.71947 -13563302.50447  21793252.5234                   21793247.7384
        47.0004         43.5004
 -14150452.30147 -10693441.82845  22480136.0164                   22480131.7424
        44.0004         32.0004
 25  7 15 22 40  0.0000000  0 10G02G08G10G03G25G27G28G32G31G01
  -9483522.28948  -7358795.94946  21411334.1094                   21411326.5864
        48.2504         39.0004
   7827083.06346   6102138.61744  24490603.8754                   24490604.6334
        36.7504         28.5004
   3645984.27747   2847822.25447  22140250.5394                   22140247.7544
        47.2504         44.5004
   2092178.87146   1665585.18845  24210958.7894                   24210958.3284
        41.2504         35.5004
   7507822.39846   5874014.58244  24768791.1884                   24768789.4184
        38.5004         26.7504
   8181633.07445   9504811.66844  25527175.5704                   25527178.5084
        33.7504         24.0004
 -11821985.77047  -9179742.96146  20978441.9924                   20978436.8054
        47.0004         38.0004
   4408146.19948   3443655.16448  21550910.9924                   21550907.4144
        49.2504         49.2504
 -17651345.63747 -13688034.58247  21762791.9304                   21762786.7304
        46.7504         43.2504
 -14298056.25847 -10808457.85545  22452048.3204                   22452043.1914
        44.5004         32.0004
 25  7 15 22 40 30.0000000  0 10G02G08G10G03G25G27G28G32G31G01
  -9572616.59848  -7428220.08646  21394380.1024                   21394372.2034
        48.0004         39.5004
   7835131.20745   6108409.78144  24492136.0554                   24492136.3874
        35.2504         26.5004
   3627174.43047   2833165.19947  22136670.7194                   22136668.2074
        47.0004         44.5004
   1939725.63746   1546790.55145  24181948.3914                   24181947.1764
        41.7504         34.2504
   7394349.22346   5785594.02344  24747197.7034                   24747195.8244
        38.2504         27.0004
   8198674.95345   9518090.85244  25530418.6174                   25530421.3634
        34.5004         24.2504
 -11922554.98847  -9258108.56646  20959304.3134                   20959298.9654
        47.0004         37.5004
   4397758.52048   3435560.84848  21548934.2814                   21548931.1914
        49.0004         49.2504
 -17811152.57047 -13812559.38747  21732381.2974                   21732376.6054
        46.5004         43.0004
 -14445410.52047 -10923279.33645  22424007.5864                   22424002.3364
        45.2504         32.0004
 25  7 15 22 41  0.0000000  0  9G02G08G10G03G25G28G32G31G01
  -9661300.95747  -7497324.78946  21377503.8914                   21377496.1414
        47.5004         39.5004
   7843151.76646   6114659.44945  24493662.8054                   24493663.8834
        39.2504         32.2504
   3608519.84048   2818629.13747  22133120.9534                   22133118.3634
        48.0004         44.5004
   1787157.98846   1427906.71945  24152915.7194                   24152914.5354
        40.7504         32.5004
   7281130.44546   5697371.65244  24725651.4774                   24725652.9654
        36.5004         26.5004
 -12022642.29747  -9336098.65646  20940258.4304                   20940253.2154
        47.0004         38.0004
   4387457.63348   3427534.16448  21546973.8754                   21546970.5704
        48.7504         49.0004
 -17970690.82047 -13936874.85247  21702022.5164                   21702017.5944
        45.7504         43.0004
 -14592512.89847 -11037904.54745  22396015.2194                   22396009.9534
        45.0004         31.7504
 25  7 15 22 41 30.0000000  0  9G02G08G10G03G25G28G32G31G01
  -9749567.89147  -7566104.21946  21360707.3054                   21360699.9654
        47.7504         39.0004
   7851148.61746   6120890.63345  24495184.8364                   24495185.0704
        38.7504         32.0004
   3590027.46948   2804219.46947  22129602.3914                   22129599.5204
        48.5004         44.7504
   1634483.07446   1308939.32844  24123862.3594                   24123861.0634
        40.7504         29.5004
   7168175.08646   5609354.62144  24704157.3054                   24704159.2734
        37.0004         28.7504
 -12122239.91447  -9413707.17646  20921305.6094                   20921300.2624
        46.2504         38.5004
   4377248.53948   3419579.01648  21545030.9384                   21545027.6914
        48.7504         49.2504
 -18129950.27747 -14060973.05947  21671716.1484                   21671711.2814
        46.0004         43.0004
 -14739354.28947 -11152326.37945  22368072.0474                   22368066.8874
        44.5004         32.5004
 25  7 15 22 42  0.0000000  0  9G02G08G10G03G25G28G32G31G01
  -9837413.51248  -7634555.35546  21343990.5864                   21343983.1454
        48.5004         39.0004
   7859121.99646   6127103.48845  24496702.0084                   24496702.6684
        37.0004         30.0004
   3571700.92247   2789939.00847  22126114.6254                   22126111.9774
        47.7504         44.7504
   1481704.54746   1189891.17244  24094789.4844                   24094788.3714
        40.7504         28.5004
   7055489.39546   5521547.34044  24682716.6334                   24682712.8954
        36.0004         24.7504
 -12221343.51647  -9490930.74246  20902446.4224                   20902441.1484
        46.0004         37.7504
   4367132.86748   3411696.65248  21543106.2734                   21543102.9304
        49.0004         49.0004
 -18288925.60947 -14184849.88347  21641464.3204                   21641459.0634
        45.5004         43.2504
 -14885928.98447 -11266540.39545  22340179.5394                   22340174.9104
        45.7504         32.5004
 25  7 15 22 42 30.0000000  0  9G02G08G10G03G25G28G32G31G01
  -9924829.28548  -7702671.54746  21327356.3134                   21327348.7114
        48.0004         39.0004
   7867076.40246   6133301.59045  24498215.5784                   24498216.0864
        38.2504         30.5004
   3553548.04747   2775793.88347  22122660.3284                   22122657.4844
        47.5004         44.7504
   1328830.25846   1070768.41443  24065698.9144                   24065697.2664
        37.2504         22.7504
   6943082.84456   5433958.24653  24661324.9924                   24661324.6914
        38.2504         22.2504
 -12319944.57847  -9567762.72346  20883683.2974                   20883678.1804
        45.5004         38.2504
   4357116.48448   3403891.65648  21541200.2114                   21541196.8164
        48.0004         49.0004
 -18447606.21147 -14308497.04747  21611268.2974                   21611262.9924
        46.0004         43.2504
 -15032227.09047 -11380538.90645  22312339.5474                   22312334.9064
        44.5004         32.0004
 25  7 15 22 43  0.0000000  0  9G02G08G10G03G25G28G32G31G01
 -10011809.91448  -7770448.66846  21310804.1094                   21310796.6844
        48.2504         38.7504
   7875013.31346   6139486.09045  24499725.9534                   24499727.0594
        39.7504         31.2504
   3535573.63747   2761787.81647  22119240.2894                   22119237.2774
        46.7504         44.7504
   1175865.46545    951575.04743  24036590.2664                   24036587.0824
        34.5004         19.0004
   6830961.90255   5361741.05154  24639985.6174                   24639988.4774
        33.5004         26.2504
 -12418037.58647  -9644198.82046  20865016.8754                   20865011.6724
        45.7504         38.0004
   4347202.33648   3396166.32848  21539313.6644                   21539310.2154
        48.0004         49.0004
 -18605984.33647 -14431908.51247  21581129.6254                   21581124.7504
        45.0004         43.5004
 -15178241.57447 -11494316.41045  22284553.5084                   22284549.2664
        45.7504         31.7504
 25  7 15 22 43 30.0000000  0  9G02G08G10G03G25G28G32G31G01
 -10098350.99248  -7837883.27746  21294336.1884                   21294328.4384
        48.7504         39.2504
   7882933.36746   6145657.43845  24501233.2274                   24501233.7664
        39.0004         30.7504
   3517781.48048   2747923.76247  22115854.3754                   22115851.7114
        48.2504         44.5004
   1022813.87145    832314.14142  24007465.4694                   24007462.8914
        35.0004         16.7504
   6719134.75455   5274602.96153  24618707.3284                   24618708.4844
        33.2504         23.5004
 -12515618.10547  -9720235.57846  20846447.8754                   20846442.2814
        46.5004         38.0004
   4337392.28948   3388522.11348  21537446.9454                   21537443.3594
        48.2504         49.0004
 -18764053.89847 -14555079.53547  21551050.0634                   21551044.5164
        46.0004         43.5004
 -15323966.52747 -11607868.30545  22256823.1724                   22256818.8444
        45.0004         32.7504
 25  7 15 22 44  0.0000000  0  9G02G08G10G03G25G28G32G31G01
 -10184451.28147  -7904974.41446  21277951.8054                   21277944.0204
        47.7504         39.0004
   7890834.08646   6151813.70345  24502736.2584                   24502738.3554
        38.7504         32.7504
   3500172.57447   2734202.51247  22112503.2974                   22112500.4734
        47.5004         44.2504
    869676.84045    712986.52043  23978324.1564                   23978321.8014
        33.0004         19.7504
   6607603.00846   5187695.21144  24597486.0634                   24597484.3874
        37.5004         25.0004
 -12612684.57047  -9795871.76246  20827976.9224                   20827971.8524
        46.5004         38.0004
   4327685.28548   3380958.19148  21535599.5084                   21535596.3984
        48.0004         49.0004
 -18921811.38347 -14678007.39847  21521029.9384                   21521023.9884
        46.2504         43.7504
 -15469398.95347 -11721192.24245  22229148.5314                   22229143.8054
        45.7504         32.2504
 25  7 15 22 44 30.0000000  0  9G02G08G10G03G25G28G32G31G01
  -8694689.84048  -6744121.35246  21561443.7734                   21561436.5234
        48.0004         38.7504
   9474129.59846   7385550.32045  24804028.1954                   24804029.3164
        39.7504         32.0004
   5058165.09047   3948222.62547  22408979.4224                   22408976.8874
        47.5004         44.7504
   2291877.18845   1821194.68443  24248959.4064                   24248958.0634
        33.0004         22.7504
   8071790.54755   6328620.61353  24876108.5864                   24876110.1134
        34.0004         22.7504
 -11133815.41047  -8643506.16846  21109396.1254                   21109390.9844
        46.0004         38.5004
   5893497.50447   4601071.59048  21833563.8284                   21833560.4924
        47.5004         49.0004
 -17503831.46547 -13573087.93747  21790862.3364                   21790857.1564
        45.7504         43.7504
 -14039114.11347 -10606684.55945  22501322.4144                   22501318.2974
        45.2504         32.5004
 25  7 15 22 45  0.0000000  0  9G02G08G10G03G25G28G32G31G01
  -8779911.13748  -6810527.55946  21545226.8524                   21545219.2624
        48.5004         39.0004
   9481978.09046   7391665.89544  24805522.0634                   24805522.6254
        39.2504         28.7504
   5040918.70747   3934783.85547  22405697.5554                   22405694.9734
        47.7504         44.5004
   2138565.77045   1701731.33644  24219784.8524                   24219784.6484
        33.5004         24.7504
                                  24854999.563
        37.000
 -11229855.70747  -8718342.74646  21091120.4534                   21091115.1724
        46.5004         38.7504
   5883987.18848   4593660.94548  21831753.8594                   21831750.6804
        48.0004         49.0004
 -17660961.11347 -13695526.57847  21760961.6954                   21760956.2734
        46.5004         43.7504
 -14183958.83647 -10719550.56645  22473759.8134                   22473755.0474
        45.5004         32.0004
 25  7 15 22 45 30.0000000  0  9G02G08G10G03G25G28G32G31G01
  -8864692.70748  -6876591.12946  21529093.3054                   21529085.8284
        48.0004         38.7504
   9489795.10546   7397757.04743  24807009.3834                   24807009.0234
        37.0004         22.5004
   5023853.11348   3921485.96147  22402450.6094                   22402447.4774
        48.5004         44.2504
   1985167.09045   1582200.00444  24190594.5234                   24190593.5944
        34.2504         28.2504
   7850215.59445   6170927.70754  24833942.7894                   24833944.5354
        31.7504         25.2504
 -11325382.47747  -8792779.18446  21072942.4614                   21072937.2274
        46.0004         38.5004
   5874571.92248   4586324.34848  21829962.4064                   21829959.1914
        48.5004         49.0004
 -17817773.50847 -13817718.00047  21731121.3914                   21731115.7234
        45.5004         44.0004
 -14328506.99247 -10832185.46145  22446252.9844                   22446248.2074
        46.0004         32.0004
 25  7 15 22 46  0.0000000  0  9G02G08G10G03G25G28G32G31G01
  -8949029.51648  -6942308.12946  21513044.7814                   21513037.1604
        48.7504         39.0004
   9497582.18046   7403824.84444  24808491.5084                   24808491.1134
        36.2504         24.0004
   5006973.07847   3908332.65247  22399238.0554                   22399235.4964
        47.2504         44.2504
   1831686.07446   1462604.53145  24161388.5944                   24161387.5944
        37.7504         31.5004
   7739885.15246   6084955.98444  24812952.2974                   24812949.5824
        36.7504         26.5004
 -11420390.44147  -8866811.35246  21054862.3914                   21054857.6724
        45.2504         38.5004
   5865254.58248   4579064.06648  21828189.4304                   21828185.7854
        48.7504         48.7504
 -17974261.04347 -13939656.30147  21701342.6174                   21701337.1884
        45.2504         44.0004
 -14472751.68447 -10944583.90245  22418803.8204                   22418800.0044
        45.5004         32.7504
 25  7 15 22 46 30.0000000  0  9G02G08G10G03G25G28G32G31G01
  -9032922.52048  -7007679.30946  21497080.0394                   21497072.6094
        48.7504         38.7504
   9505334.27346   7409865.27344  24809966.2274                   24809967.3404
        36.0004         26.2504
   4990276.84847   3895322.56647  22396061.2814                   22396058.2774
        47.5004         44.0004
   1678121.27346   1342943.70345  24132165.9454                   24132164.8244
        36.5004         32.2504
   7629861.91845   5999223.66444  24792013.7344                   24792012.6804
        35.7504         26.5004
 -11514880.78547  -8940440.18046  21036881.8834                   21036876.6954
        46.2504         39.0004
   5856031.49648   4571877.22348  21826434.4694                   21826431.0164
        48.2504         48.5004
 -18130423.09847 -14061340.97347  21671625.7034                   21671620.6294
        46.0004         44.2504
 -14616692.52747 -11056745.57445  22391412.9694                   22391408.3554
        45.5004         33.0004
 25  7 15 22 47  0.0000000  0  8G02G08G10G03G28G32G31G01
  -9116369.25048  -7072702.74246  21481200.8364                   21481193.1914
        48.7504         39.5004
   9513050.41046   7415877.70343  24811435.0084                   24811436.1684
        36.0004         22.5004
   4973766.62147   3882457.43047  22392918.7344                   22392916.5084
        47.7504         44.0004
   1524475.09446   1223219.48845  24102928.7424                   24102926.9344
        40.2504         33.5004
 -11608850.73047  -9013663.50446  21018999.8984                   21018994.6214
        46.2504         38.5004
   5846903.15248   4564764.20748  21824697.3284                   21824694.2854
        48.5004         48.5004
 -18286254.93447 -14182768.32847  21641972.2424                   21641966.9454
        45.7504         44.0004
 -14760325.14147 -11168667.07445  22364080.7344                   22364076.0434
        46.2504         33.2504
 25  7 15 22 47 30.0000000  0  9G02G08G10G03G25G28G32G31G01
  -9199369.37148  -7137378.16446  21465406.5474                   21465399.0234
        48.7504         39.0004
   9520727.32054   7421859.70752  24812895.0004                   24812895.5984
        29.5004         16.7504
   4957442.36348   3869737.19547  22389812.8444                   22389810.5434
        48.0004         44.2504
   1370747.83346   1103432.06545  24073674.4224                   24073673.4184
        38.2504         32.0004
   9375129.10554   5874544.42653  24750315.3134                   24750317.7624
        28.7504         22.5004
 -11702299.82447  -9086480.95746  21001217.4224                   21001212.2504
        46.7504         38.5004
   5837867.64848   4557723.53548  21822978.0784                   21822974.5664
        48.7504         48.2504
 -18441754.21147 -14303936.55147  21612381.8284                   21612376.0864
        46.2504         44.0004
 -14903647.44947 -11280346.77745  22336807.4454                   22336802.5984
        46.0004         33.2504
 25  7 15 22 48  0.0000000  0  8G02G10G03G25G28G32G31G01
  -9281920.06248  -7201703.39146  21449697.7814                   21449690.1454
        48.5004         39.7504
   4941306.53547   3857163.77747  22386742.5004                   22386739.6454
        47.7504         43.7504
   1216942.33246    983583.68445  24044406.0784                   24044405.4964
        37.5004         32.0004
   9407230.23455   5837705.06654  24729559.5394                   24729560.9454
        30.7504         26.0004
 -11795225.08647  -9158890.24246  20983534.1094                   20983528.8794
        46.5004         38.2504
   5828925.64148   4550755.72348  21821276.3444                   21821272.8794
        48.7504         48.2504
 -18596915.89147 -14424841.70747  21582854.8594                   21582849.8484
        46.2504         44.2504
 -15046654.82447 -11391781.07445  22309593.7814                   22309589.3244
        46.2504         32.5004
 25  7 15 22 48 30.0000000  0  9G02G08G10G03G25G28G32G31G01
  -9364020.06648  -7265677.42646  21434074.5944                   21434067.2034
        48.7504         39.5004
   9458226.34456   7424471.43854  24815795.0634                   24815795.4734
        37.0004         29.0004
   4925360.06647   3844737.92647  22383707.9304                   22383705.0634
        47.0004         44.0004
   1063059.68046    863675.19544  24015123.7424                   24015122.1374
        36.2504         29.0004
   9298473.07045   5752959.32444  24708864.8444                   24708865.2814
        32.7504         27.5004
 -11887625.20747  -9230890.32846  20965950.9614                   20965946.1844
        47.0004         38.2504
   5820076.20348   4543860.02748  21819592.0784                   21819588.9694
        49.0004         48.0004
 -18751736.47747 -14545481.08247  21553393.9384                   21553388.2894
        46.5004         44.5004
 -15189344.25447 -11502967.62545  22282440.8364                   22282436.4654
        46.0004         33.0004
 25  7 15 22 49  0.0000000  0  9G02G08G10G03G25G28G32G31G01
  -9445667.16048  -7329298.54746  21418537.7344                   21418530.0514
        49.0004         38.7504
   9465777.60946   7430355.44144  24817231.6334                   24817233.3364
        37.5004         29.2504
   4909604.83247   3832461.08647  22380709.9384                   22380707.0864
        47.7504         44.0004
    909102.05145    743708.31644  23985825.4694                   23985824.6294
        33.5004         27.0004
   9190041.56346   5668467.39544  24688232.4064                   24688231.2344
        36.7504         29.0004
 -11979497.74647  -9302479.30146  20948468.2504                   20948462.8914
        47.5004         39.0004
   5811319.45348   4537036.57048  21817926.2814                   21817923.0164
        49.5004         48.0004
 -18906211.53947 -14665851.21947  21523998.1024                   21523992.4844
        46.2504         44.2504
 -15331711.69947 -11613903.27345  22255349.5084                   22255344.7734
        45.7504         33.5004
 25  7 15 22 49 30.0000000  0  9G02G08G10G03G25G28G32G31G01
  -9526863.92648  -7392568.75846  21403086.6334                   21403078.6484
        48.2504         39.0004
   9473279.55945   7436200.95344  24818658.9844                   24818660.5944
        35.0004         28.5004
   4894038.12947   3820331.15247  22377747.6254                   22377744.7624
        47.7504         44.0004
    755067.19545    623681.23844  23956514.1254                   23956513.4414
        34.0004         28.2504
   9081935.12545   5584228.60544  24667658.0634                   24667659.2424
        33.5004         26.2504
 -12070845.03947  -9373659.00046  20931085.2114                   20931080.2304
        47.0004         39.0004
   5802650.90648   4530281.84048  21816276.5634                   21816273.1804
        49.0004         48.0004
 -19060341.28547 -14785952.27047  21494668.1804                   21494662.6214
        47.0004         44.5004
 -15473757.68047 -11724588.43445  22228318.8834                   22228315.0004
        45.7504         33.7504
 25  7 15 22 50  0.0000000  0  9G02G08G10G03G25G28G32G31G01
  -9607605.11348  -7455483.98446  21387721.7814                   21387714.0944
        48.5004         39.0004
   9480733.77746   7442009.27345  24820077.8524                   24820079.5594
        36.0004         30.5004
   4878664.77348   3808351.87947  22374822.2194                   22374819.3484
        48.0004         43.5004
    600960.37546    503598.09844  23927187.7274                   23927186.6254
        36.0004         26.5004
   8974160.79745   5500248.68844  24647150.9844                   24647150.0004
        35.2504         24.0004
 -12161661.79747  -9444425.29746  20913803.8594                   20913798.5984
        46.7504         38.7504
   5794073.64548   4523598.23847  21814644.2504                   21814641.2624
        48.7504         47.7504
 -19214118.21147 -14905778.40247  21465405.0944                   21465400.1684
        46.0004         44.5004
 -15615475.25847 -11835017.69145  22201350.6724                   22201346.3484
        45.0004         33.0004
 25  7 15 22 50 30.0000000  0  9G02G08G10G03G25G28G32G31G01
  -9687889.04748  -7518042.89846  21372444.6094                   21372436.9534
        49.0004         39.2504
   9488138.23846   7447778.84445  24821487.3914                   24821487.7734
        38.0004         30.7504
   4863485.95347   3796524.19147  22371933.8674                   22371930.6724
        47.0004         43.5004
    446782.95746    383459.88745  23897849.2664                   23897848.3634
        37.7504         30.5004
   8866721.98045   5416530.08643  24626707.0084                   24626704.5204
        32.7504         23.5004
 -12251946.52047  -9514777.01246  20896623.0314                   20896617.7154
        47.7504         39.2504
   5785587.03948   4516985.27747  21813029.6094                   21813026.1804
        49.0004         47.7504
 -19367538.74247 -15025326.82447  21436210.1094                   21436204.9574
        47.0004         44.7504
 -15756861.16447 -11945188.50445  22174445.5944                   22174441.7464
        45.2504         33.2504
 25  7 15 22 51  0.0000000  0  9G02G08G10G03G25G28G32G31G01
  -9767709.44548  -7580240.62546  21357254.6884                   21357247.4774
        48.0004         39.7504
   9495495.88746   7453511.96145  24822887.5704                   24822888.3754
        40.0004         32.2504
   4848507.75047   3784852.82447  22369083.4304                   22369080.7814
        47.5004         44.0004
    292541.52746    263271.80945  23868498.3674                   23868497.5044
        39.5004         32.0004
   8759626.53145   5333079.21943  24606324.8444                   24606325.1294
        33.7504         23.7504
 -12341692.71147  -9584709.10246  20879544.7194                   20879539.3444
        47.0004         38.5004
   5777195.45348   4510446.36347  21811432.2114                   21811429.4344
        49.0004         47.7504
 -19520594.55547 -15144591.05547  21407084.9144                   21407079.3284
        47.5004         44.7504
 -15897907.09447 -12055094.39845  22147605.6724                   22147601.1564
        45.0004         33.0004
 25  7 15 22 51 30.0000000  0  9G02G08G10G03G25G28G32G31G01
  -9847067.30148  -7642077.92646  21342153.7734                   21342146.0784
        48.0004         39.2504
   9502802.55946   7459205.37545  24824277.9224                   24824279.1094
        41.5004         34.5004
   4833729.08247   3773336.94147  22366271.5474                   22366268.6684
        47.0004         43.5004
    138235.37546    143033.28945  23839135.1024                   23839133.6134
        40.5004         34.5004
   8652875.79355   5249896.89854  24586009.5004                   24586011.3834
        32.5004         26.0004
 -12430901.14547  -9654222.15646  20862569.4384                   20862563.8834
        47.2504         39.0004
   5768896.05948   4503979.28147  21809853.2504                   21809849.6914
        49.0004         47.5004
 -19673283.98847 -15263569.79347  21378028.8364                   21378023.1644
        47.7504         44.5004
 -16038612.05147 -12164734.59445  22120830.5784                   22120825.8284
        45.7504         33.0004
 25  7 15 22 52  0.0000000  0  9G02G08G10G03G25G28G32G31G01
  -9925962.46548  -7703554.68746  21327140.5784                   21327133.0124
        48.0004         39.0004
   9510054.68447   7464856.25845  24825658.6564                   24825659.0984
        42.2504         35.2504
   4819149.51647   3761976.19547  22363496.4534                   22363494.3204
        47.0004         43.5004
    -16135.52746     22744.32445  23809759.3134                   23809758.0634
        41.2504         35.0004
   8546471.55945   5166984.50444  24565763.6644                   24565763.1254
        34.2504         26.0004
 -12519571.85947  -9723316.19546  20845695.5634                   20845690.1484
        47.2504         38.7504
   5760686.74648   4497582.39147  21808291.1884                   21808287.8524
        49.2504         47.5004
 -19825604.93747 -15382261.39847  21349042.9924                   21349037.1954
        47.2504         44.7504
 -16178974.27347 -12274107.72745  22094120.6174                   22094115.5234
        46.0004         33.2504
 25  7 15 22 52 30.0000000  0  9G02G08G10G03G25G28G32G31G01
 -10004395.34448  -7764671.22346  21312214.9534                   21312207.7304
        48.0004         39.7504
   9517248.87546   7470461.99645  24827026.7664                   24827028.5004
        40.5004         35.7504
   4804768.70747   3750770.33247  22360760.2504                   22360757.8444
        47.0004         43.5004
   -170571.14846    -97595.05146  23780370.8444                   23780369.5744
        40.5004         36.0004
   8440415.29745   5084343.28144  24545582.7974                   24545582.2074
        33.0004         27.7504
 -12607704.91447  -9791991.28946  20828924.2584                   20828918.8524
        47.7504         38.5004
   5752565.46148   4491254.09847  21806745.5554                   21806742.5744
        49.0004         47.5004
 -19977555.27347 -15500664.21547  21320127.6254                   21320122.1334
        47.0004         44.5004
 -16318992.00847 -12383212.43745  22067475.8134                   22067471.5124
        46.0004         33.2504
 25  7 15 22 53  0.0000000  0  9G02G08G10G03G25G28G32G31G01
 -10082362.70748  -7825425.02346  21297378.2114                   21297371.0274
        48.0004         39.2504
   9524384.90246   7476022.37545  24828384.8444                   24828386.7734
        38.7504         32.5004
   4790589.49247   3739721.55147  22358061.7424                   22358059.3284
        46.5004         43.5004
   -325068.11346   -217982.25845  23750970.7114                   23750969.6094
        40.5004         35.5004
   8334712.15646   5001977.25844  24525468.1564                   24525467.0904
        37.0004         28.5004
 -12695297.10247  -9860244.92646  20812255.6414                   20812250.6884
        47.7504         38.5004
   5744533.37548   4484995.31347  21805217.1644                   21805213.6844
        49.0004         47.2504
 -20129129.52747 -15618773.99247  21291284.0554                   21291278.7734
        47.2504         44.5004
 -16458660.25447 -12492044.80545  22040897.5474                   22040893.2344
        45.2504         33.5004
 25  7 15 22 53 30.0000000  0  9G02G08G10G03G25G28G32G31G01
 -10159863.38747  -7885815.17246  21282630.5704                   21282623.3594
        47.7504         39.0004
   9531460.45746   7481535.63745  24829731.4454                   24829733.0984
        39.0004         31.7504
   4776612.75047   3728830.53947  22355402.5394                   22355399.6454
        46.5004         43.2504
   -479625.15646   -338416.24245  23721560.0394                   23721558.8444
        39.2504         35.2504
   8229364.91046   4919888.50044  24505420.2344                   24505420.0204
        36.0004         28.7504
 -12782347.39147  -9928076.31246  20795690.6954                   20795685.3244
        47.5004         38.5004
   5736589.61348   4478805.35247  21803705.3674                   21803702.1994
        49.0004         47.0004
 -20280324.67647 -15736588.35247  21262512.1414                   21262506.7934
        47.7504         44.7504
 -16597976.00847 -12600602.51645  22014387.0944                   22014382.2194
        46.0004         34.2504
 25  7 15 22 54  0.0000000  0  9G02G08G10G03G25G28G32G31G01
 -10236894.94148  -7945839.77046  21267971.7584                   21267964.5594
        48.0004         39.5004
   9538474.85946   7487001.23445  24831066.3204                   24831067.6764
        38.2504         32.0004
   4762840.80547   3718099.12147  22352782.0234                   22352779.3324
        46.5004         43.2504
   -634239.47746   -458894.84845  23692136.9534                   23692136.4024
        37.5004         33.0004
   8124378.04346   4838080.61744  24485442.3674                   24485441.5044
        36.7504         27.7504
 -12868853.13747  -9995483.37546  20779229.1884                   20779224.2234
        47.5004         38.2504
   5728735.02048   4472684.87947  21802210.7424                   21802207.3794
        49.0004         47.0004
 -20431135.89147 -15854103.54747  21233814.2034                   21233808.7894
        47.5004         44.5004
 -16736934.81647 -12708882.07845  21987943.9454                   21987939.4264
        45.7504         34.5004
 25  7 15 22 54 30.0000000  0  9G02G08G10G03G25G28G32G31G01
 -10313457.77347  -8005499.13346  21253402.5864                   21253395.1724
        47.2504         38.7504
   9545424.49646   7492416.39145  24832389.4924                   24832390.8634
        38.7504         31.0004
   4749273.20747   3707526.91847  22350199.7194                   22350197.4804
        46.2504         43.0004
   -788911.12946   -579418.13345  23662704.3284                   23662702.6804
        36.0004         31.5004
   8019753.24645   4756554.74244  24465533.3054                   24465531.5274
        35.7504         26.5004
 -12954814.55548 -10062466.28946  20762871.5234                   20762866.2234
        48.0004         38.5004
   5720967.19548   4466632.00047  21800732.6414                   21800729.6094
        49.5004         47.0004
 -20581561.09848 -15971317.95347  21205189.2034                   21205183.8204
        48.0004         45.2504
 -16875534.99647 -12816882.19545  21961569.1174                   21961564.8874
        44.5004         33.5004
 25  7 15 22 55  0.0000000  0  9G02G08G10G03G25G28G32G31G01
 -10389554.84048  -8064795.55546  21238921.8204                   21238914.5594
        48.0004         39.5004
   9552303.18446   7497776.26645  24833699.0704                   24833699.7894
        38.5004         30.0004
   4735906.78147   3697111.48447  22347656.4144                   22347653.4224
        46.2504         42.7504
   -943642.58246   -699987.98045  23633259.4304                   23633258.8984
        36.7504         31.7504
   7915489.35946   4675310.13744  24445691.5164                   24445690.9774
        36.2504         27.0004
 -13040234.60247 -10129027.35246  20746616.5784                   20746611.7194
        47.7504         38.5004
   5713281.50848   4460643.13747  21799269.8524                   21799266.8834
        49.2504         47.2504
 -20731600.85948 -16088232.02047  21176637.6254                   21176632.3134
        48.0004         45.0004
 -17013777.58247 -12924603.65245  21935263.0004                   21935258.3094
        45.5004         33.5004
 25  7 15 22 55 30.0000000  0  9G02G08G10G03G25G28G32G31G01
 -10465182.30147  -8123726.04746  21224530.6094                   21224522.6804
        46.5004         38.7504
   9559111.81346   7503081.56344  24834993.7194                   24834995.6174
        37.5004         27.7504
   4722745.40647   3686855.82847  22345151.7194                   22345149.2504
        46.2504         42.7504
  -1098429.53146   -820601.14545  23603804.7424                   23603803.4144
        37.5004         30.7504
   7811592.38346   4594351.42244  24425921.2814                   24425920.1954
        37.0004         28.0004
 -13125109.21547 -10195163.39146  20730465.1334                   20730460.2544
        47.7504         38.7504
   5705680.17648   4454720.00047  21797823.7424                   21797820.4574
        48.0004         47.0004
 -20881248.93748 -16204840.87147  21148160.4534                   21148155.0044
        48.2504         45.0004
 -17151656.55947 -13032041.78545  21909025.1724                   21909020.6604
        45.0004         34.0004
 25  7 15 22 56  0.0000000  0  9G02G08G10G03G25G28G32G31G01
 -10540341.68447  -8182291.81246  21210228.0554                   21210220.2074
        47.2504         38.7504
   9565845.18846   7508328.20744  24836275.6334                   24836276.8404
        36.5004         25.5004
   4709786.94547   3676758.28147  22342685.9694                   22342683.4534
        46.0004         42.7504
  -1253273.58246   -941258.78145  23574338.8984                   23574337.3714
        39.5004         31.2504
   7708062.09446   4513678.48044  24406219.3364                   24406218.9534
        38.5004         27.5004
 -13209440.35947 -10260875.96546  20714417.7344                   20714412.3834
        47.5004         39.0004
   5698159.44548   4448859.67247  21796392.6724                   21796389.9024
        48.5004         47.0004
 -21030505.13348 -16321144.36747  21119757.9924                   21119752.7274
        48.0004         45.2504
 -17289171.89847 -13139196.58245  21882856.3834                   21882852.0744
        45.5004         33.7504
 25  7 15 22 56 30.0000000  0  9G02G08G10G03G25G28G32G31G01
  -9039608.18747  -7012889.09846  21495807.9304                   21495800.6254
        47.5004         38.5004
  11147922.39545   8741115.51643  25137333.3444                   25137335.6644
        31.7504         20.2504
   6272454.12947   4894420.98047  22640051.9924                   22640049.2974
        45.7504         42.5004
    167253.30146    165645.32445  23844656.2664                   23844654.8324
        39.5004         30.7504
   9180326.25445   5660897.26244  24686381.1174                   24686382.6484
        35.5004         26.7504
 -11717802.77047  -9098560.94946  20998267.0164                   20998261.5204
        47.7504         38.5004
   7266140.31348   5670662.92247  22094769.4304                   22094766.0664
        48.0004         47.0004
 -19603939.55948 -15209534.79347  21391224.6884                   21391218.9384
        48.5004         45.5004
 -15850894.63347 -12018461.03145  22156551.8444                   22156547.5944
        44.5004         34.2504
 25  7 15 22 57  0.0000000  0  9G02G08G10G03G25G28G32G31G01
  -9113821.72348  -7070717.82446  21481685.9774                   21481678.1054
        48.0004         39.2504
  11154505.89155   8746245.34453  25138587.0554                   25138588.8794
        32.5004         18.2504
   6259911.09047   4884647.15247  22637664.8134                   22637662.3914
        46.0004         42.5004
     12306.38746     44907.53145  23815170.7344                   23815169.7034
        40.0004         32.7504
   9077545.18045   5580808.12544  24666823.1954                   24666822.7464
        35.7504         26.0004
 -11801036.90648  -9163418.70746  20982427.8204                   20982422.5234
        48.0004         39.0004
   7258785.70348   5664932.03947  22093370.0394                   22093366.9614
        48.7504         47.2504
 -19752394.93748 -15325214.27047  21362974.5234                   21362968.7584
        48.2504         45.7504
 -15987666.77047 -12125036.70345  22130524.7114                   22130520.5944
        45.2504         34.2504
 25  7 15 22 57 30.0000000  0  9G02G08G10G03G25G28G32G31G01
  -9187567.71547  -7128182.25046  21467652.0004                   21467644.5474
        47.2504         38.7504
  11161004.78155   8751309.24252  25139823.7114                   25139825.9534
        31.7504         17.2504
   6247570.42247   4875031.01247  22635317.0394                   22635314.1374
        45.2504         42.2504
   -142696.48446    -75873.88745  23785674.6724                   23785673.2624
        40.0004         33.2504
   8975136.43846   5501009.10244  24647335.8134                   24647335.5474
        37.7504         27.5004
 -11883727.64148  -9227853.03946  20966692.3054                   20966687.5704
        48.5004         38.7504
   7251506.44948   5659259.87147  22091984.4614                   22091981.2504
        49.0004         47.0004
 -19900451.37948 -15440582.89847  21334800.1254                   21334794.2034
        48.7504         45.5004
 -16124069.44147 -12231324.46945  22104568.3674                   22104563.4414
        44.5004         33.7504
 25  7 15 22 58  0.0000000  0  9G02G08G10G03G25G28G32G31G01
  -9260841.75847  -7185278.91846  21453708.9924                   21453700.9804
        47.5004         38.7504
  11167419.89145   8756307.85943  25141045.1174                   25141046.4924
        35.5004         22.7504
   6235436.26247   4865575.79747  22633007.7034                   22633005.0314
        45.2504         42.2504
   -297750.60246   -196695.21945  23756169.4144                   23756167.3834
        40.7504         34.2504
   8873106.22346   5421504.98444  24627920.5784                   24627919.9384
        37.7504         28.2504
 -11965870.87548  -9291860.74246  20951061.3054                   20951055.7344
        48.0004         38.5004
   7244305.07848   5653648.39847  22090614.3984                   22090610.8674
        48.5004         47.0004
 -20048102.28948 -15555635.51647  21306702.8914                   21306697.5784
        48.5004         45.5004
 -16260096.42247 -12337319.50845  22078683.6254                   22078678.7114
        45.2504         34.5004
 25  7 15 22 58 30.0000000  0  9G02G08G10G03G25G28G32G31G01
  -9333644.95747  -7242008.68446  21439854.8204                   21439847.2074
        47.0004         39.0004
  11173747.31646   8761238.15244  25142250.1024                   25142250.5704
        36.5004         24.2504
   6223507.56347   4856280.66847  22630737.4694                   22630735.1024
        46.0004         42.2504
   -452856.30546   -317556.73845  23726652.9924                   23726652.1414
        41.0004         34.5004
   8771455.32846   5342296.51244  24608577.1884                   24608575.5864
        38.0004         27.5004
 -12047467.37948  -9355442.42646  20935533.8834                   20935528.5984
        48.0004         39.2504
   7237179.08248   5648095.64847  22089258.4924                   22089255.0944
        48.5004         47.0004
 -20195346.70348 -15670371.38747  21278683.0474                   21278677.6334
        48.2504         45.7504
 -16395746.55947 -12443020.89145  22052870.0234                   22052865.1484
        45.0004         34.0004
 25  7 15 22 59  0.0000000  0 10G02G08G10G03G25G04G28G32G31G01
  -9405979.59847  -7298373.35546  21426090.2974                   21426082.3714
        47.2504         39.0004
  11179981.82046   8766096.08644  25143435.5164                   25143437.4614
        36.5004         24.5004
   6211781.97347   4847143.81646  22628506.4844                   22628503.4924
        44.2504         41.7504
   -608015.43446   -438459.89145  23697127.5314                   23697126.3714
        39.0004         34.0004
   8670183.54745   5263383.44544  24589305.5944                   24589305.6844
        35.7504         27.0004
  10784287.80515                  25152258.906
        35.250
 -12128519.65247  -9418600.03946  20920110.4614                   20920104.6564
        47.5004         39.2504
   7230124.45748   5642598.52347  22087915.9384                   22087912.7774
        48.0004         47.0004
 -20342184.57048 -15784790.46547  21250740.6804                   21250735.2074
        48.5004         45.5004
 -16531020.19947 -12548428.91045  22027128.1804                   22027123.8444
        45.2504         34.5004
 25  7 15 22 59 30.0000000  0 10G02G08G10G03G25G04G28G32G31G01
  -9477848.19947  -7354374.86746  21412413.8054                   21412406.1254
        47.5004         39.0004
  11186117.68046   8770877.13743  25144603.2974                   25144605.1134
        36.2504         23.7504
   6200256.70747   4838163.06347  22626313.1644                   22626310.7814
        45.0004         42.0004
   -763229.98046   -559406.22345  23667591.3134                   23667589.5204
        39.0004         33.0004
   8569290.05946   5184765.14144  24570105.7814                   24570105.4384
        36.5004         26.2504
  10631456.453 6                  25123175.852
        36.000
 -12209030.27748  -9481335.58646  20904789.5634                   20904783.7894
        48.2504         39.0004
   7223137.04748   5637153.76647  22086586.2114                   22086582.8094
        48.0004         47.0004
 -20488615.97748 -15898892.81647  21222875.6954                   21222870.1914
        48.5004         45.5004
 -16665917.87547 -12653543.94945  22001458.2274                   22001453.0434
        45.5004         34.7504
 25  7 15 23  0  0.0000000  0 10G02G08G10G03G25G04G28G32G31G01
  -9549251.61348  -7410013.90246  21398826.5314                   21398819.0394
        48.0004         38.5004
  11192151.20345   8775578.40243  25145752.1884                   25145753.4694
        35.0004         22.0004
   6188930.99247   4829337.79346  22624158.1094                   22624155.5744
        44.5004         41.7504
   -918500.27046   -680396.00045  23638043.5864                   23638042.0664
        38.2504         33.0004
   8468775.98445   5106442.50044  24550978.3984                   24550977.6954
        35.5004         25.2504
  10478689.52746   8582971.60953  25094105.1804                   25094102.2734
        36.5004         18.5004
 -12289000.10547  -9543649.73046  20889571.8984                   20889566.2344
        47.7504         39.0004
   7216214.50048   5631759.55147  22085268.8594                   22085265.7544
        48.5004         47.0004
 -20634639.38748 -16012677.26247  21195088.2664                   21195082.9184
        48.7504         45.5004
 -16800438.40247 -12758365.12945  21975859.2114                   21975854.8244
        45.0004         34.2504
 25  7 15 23  0 30.0000000  0 10G02G08G10G03G25G04G28G32G31G01
  -9620186.66447  -7465287.98446  21385327.7424                   21385320.5004
        46.0004         39.0004
  11198082.64545   8780200.17643  25146880.5084                   25146881.7504
        34.5004         22.5004
   6177807.96547   4820670.46546  22622041.3914                   22622039.0394
        45.0004         41.5004
  -1073822.30946   -801426.06245  23608487.2974                   23608485.8984
        37.7504         33.2504
   8368646.64546   5028419.64144  24531925.7504                   24531924.3524
        37.2504         25.2504
  10325990.37145   8463985.43442  25065047.1174                   25065047.1524
        35.5004         14.7504
 -12368425.84448  -9605539.90246  20874457.6094                   20874452.0944
        48.0004         38.5004
   7209358.52348   5626417.21547  22083964.2664                   22083960.9734
        48.2504         46.7504
 -20780249.06648 -16126139.30947  21167379.8054                   21167374.3094
        49.0004         46.0004
 -16934576.34047 -12862888.17245  21950333.8204                   21950329.4734
        45.5004         34.0004
 25  7 15 23  1  0.0000000  0 10G02G08G10G03G25G04G28G32G31G01
  -9690652.72747  -7520196.61746  21371918.4144                   21371910.8484
        45.7504         38.7504
  11203909.93846   8784740.78544  25147990.5944                   25147991.8404
        37.5004         26.0004
   6166888.53947   4812161.79346  22619963.7894                   22619961.0824
        43.7504         41.5004
  -1229194.52346   -922495.25045  23578920.9224                   23578918.9344
        39.7504         34.5004
   8268904.54346   4950698.54344  24512946.4694                   24512943.4694
        39.5004         27.5004
  10173360.10246   8345052.93043  25036002.7344                   25036002.4614
        37.0004         18.2504
 -12447306.76247  -9667005.54746  20859447.1484                   20859441.5004
        47.7504         39.2504
   7202568.51247   5621126.27347  22082672.4694                   22082669.1454
        47.7504         46.7504
 -20925442.08648 -16239276.69147  21139750.6564                   21139745.1644
        48.5004         45.5004
 -17068328.81247 -12967110.85945  21924882.4144                   21924877.1644
        45.2504         34.7504
 25  7 15 23  1 30.0000000  0 10G02G08G10G03G25G04G28G32G31G01
  -9760645.65247  -7574736.56646  21358599.3674                   21358592.1254
        45.7504         38.7504
  11209633.85546   8789200.82444  25149079.1954                   25149080.9414
        37.5004         26.0004
   6156176.29747   4803814.55946  22617925.0314                   22617922.7544
        44.2504         41.7504
  -1384612.76646  -1043600.30545  23549346.0784                   23549343.9574
        40.2504         34.7504
   8169555.33246   4873283.57844  24494039.4534                   24494037.4024
        38.7504         27.7504
  10020802.55946   8226177.10243  25006972.0944                   25006972.2974
        37.0004         18.5004
 -12525639.19947  -9728043.80546  20844540.9534                   20844535.4884
        47.2504         38.7504
   7195846.63347   5615888.42647  22081393.4384                   22081390.1174
        47.5004         46.7504
 -21070212.39548 -16352084.68747  21112201.5474                   21112195.8874
        48.7504         45.7504
 -17201690.03547 -13071028.68445  21899503.7034                   21899499.1134
        45.5004         33.5004
 25  7 15 23  2  0.0000000  0 10G02G08G10G03G25G04G28G32G31G01
  -9830165.94547  -7628908.23446  21345370.2894                   21345362.1994
        46.5004         39.2504
  11215251.38746   8793577.95344  25150148.7114                   25150150.2304
        38.0004         28.2504
   6145671.07047   4795628.62946  22615925.9384                   22615923.6524
        44.5004         41.5004
  -1540076.19146  -1164740.59845  23519761.8524                   23519760.2274
        40.2504         35.0004
   8070600.95346   4796176.26644  24475209.2894                   24475207.8014
        36.7504         27.5004
   9868317.81346   8107357.96543  24977953.8834                   24977954.9844
        37.7504         19.2504
 -12603423.35947  -9788654.82846  20829739.0394                   20829733.5634
        47.7504         38.7504
   7189191.34047   5610702.46547  22080126.7584                   22080123.3714
        47.0004         47.0004
 -21214557.63748 -16464561.46947  21084733.6724                   21084728.1454
        48.5004         46.0004
 -17334658.07447 -13174640.13345  21874201.0554                   21874195.8674
        45.0004         34.5004
 25  7 15 23  2 30.0000000  0 10G02G08G10G03G25G04G28G32G31G01
  -9899211.67247  -7682710.12146  21332231.1024                   21332223.5084
        46.5004         39.0004
  11220761.53146   8797871.40645  25151196.9064                   25151199.2384
        41.0004         32.5004
   6135374.85547   4787605.57046  22613966.6954                   22613964.6564
        44.5004         41.7504
  -1695582.21546  -1285914.08245  23490169.8364                   23490167.6644
        40.0004         33.5004
   7972045.13346   4719379.49644  24456453.6724                   24456453.1134
        36.2504         26.2504
   9715908.02745   7988597.22342  24948952.0634                   24948952.9534
        33.7504         16.2504
 -12680657.44948  -9848837.22746  20815041.4454                   20815036.6684
        48.0004         39.2504
   7182603.06647   5605568.72747  22078872.9844                   22078869.7894
        47.5004         46.7504
 -21358473.60248 -16576703.74247  21057347.2274                   21057341.5474
        48.7504         46.2504
 -17467228.90247 -13277942.06645  21848973.3444                   21848968.5394
        45.0004         34.2504
 25  7 15 23  3  0.0000000  0 10G02G08G10G03G25G04G28G32G31G01
  -9967782.41847  -7736141.88746  21319182.6644                   21319175.0944
        47.2504         38.7504
  11226161.91846   8802079.32445  25152225.0314                   25152226.8834
        40.0004         32.2504
   6125287.98047   4779745.63346  22612047.1414                   22612044.9264
        44.7504         41.5004
  -1851129.73846  -1407119.90245  23460570.3364                   23460568.4804
        38.5004         32.7504
   7873890.26246   4642895.22344  24437775.8284                   24437774.7934
        37.0004         28.0004
   9563573.80144   7869895.41042  24919962.4454                   24919965.3554
        29.2504         16.2504
 -12757341.11348  -9908590.72746  20800449.3834                   20800443.9494
        48.0004         39.0004
   7176080.87148   5600486.47347  22077631.8834                   22077628.5984
        48.2504         46.5004
 -21501957.41848 -16688509.27747  21030043.2664                   21030037.6024
        48.5004         46.0004
 -17599399.96947 -13380932.49645  21823822.2114                   21823817.3554
        45.2504         34.5004
 25  7 15 23  3 30.0000000  0 10G02G08G10G03G25G04G28G32G31G01
 -10035874.64847  -7789200.77746  21306225.1954                   21306217.3524
        47.2504         38.2504
  11231453.51246   8806202.50045  25153231.9384                   25153233.7344
        38.7504         33.0004
   6115414.34847   4772051.84846  22610168.3754                   22610166.3594
        44.5004         41.5004
  -2006714.13746  -1528354.42645  23430963.1024                   23430962.0044
        36.7504         31.5004
   7776141.95746   4566727.76244  24419175.1024                   24419174.9264
        37.2504         29.0004
   9411319.11355   7751255.55952  24890990.1644                   24890992.0784
        31.0004         16.2504
 -12833470.61347  -9967912.40246  20785962.4064                   20785957.1564
        47.7504         39.5004
   7169627.11347   5595457.55547  22076403.6414                   22076400.4804
        47.5004         46.5004
 -21645002.84448 -16799973.21547  21002822.7734                   21002817.0204
        48.7504         46.2504
 -17731165.35247 -13483606.80545  21798748.1334                   21798742.8674
        44.5004         34.0004
 25  7 15 23  4  0.0000000  0 10G02G08G10G03G25G04G28G32G31G01
 -10103492.34047  -7841889.89846  21293357.9774                   21293350.4144
        46.2504         38.7504
  11236629.71946   8810235.71945  25154216.5314                   25154219.4104
        37.2504         32.0004
   6105750.00047   4764521.13746  22608329.3594                   22608327.0704
        44.7504         41.7504
  -2162338.57845  -1649620.12945  23401348.8444                   23401346.9614
        35.7504         31.7504
   7678798.30946   4490875.59844  24400650.9844                   24400651.6024
        37.5004         29.5004
   9259140.45346   7632675.01643  24862031.6484                   24862031.7544
        36.2504         19.0004
 -12909049.98848 -10026805.41846  20771579.9694                   20771574.9734
        48.0004         38.5004
   7163236.60248   5590477.91047  22075187.5474                   22075184.5084
        48.0004         46.5004
 -21787611.88348 -16911097.10947  20975685.3134                   20975679.4574
        49.5004         46.2504
 -17862526.90247 -13585966.44145  21773750.9774                   21773745.8324
        45.0004         34.5004
 25  7 15 23  4 30.0000000  0 10G02G08G10G03G25G04G28G32G31G01
 -10170635.09847  -7894208.94546  21280580.9534                   21280573.4694
        47.5004         39.2504
  11241687.92645   8814176.98444  25155179.0864                   25155181.7664
        34.5004         28.5004
   6096295.27747   4757153.78546  22606530.6484                   22606527.9804
        44.0004         41.0004
  -2318001.73046  -1770916.02045  23371726.5554                   23371725.5634
        38.7504         34.0004
   7581861.54346   4415340.51244  24382204.7114                   24382205.0664
        36.2504         28.2504
   9107038.37546   7514154.09044  24833087.8054                   24833087.6524
        38.5004         25.5004
 -12984079.09847 -10085269.65646  20757302.4614                   20757297.1844
        47.5004         39.0004
   7156908.22747   5585546.69547  22073983.2344                   22073980.1884
        47.7504         46.5004
 -21929781.56648 -17021878.64847  20948630.9144                   20948625.1954
        49.0004         46.0004
 -17993482.22347 -13688009.52745  21748831.1334                   21748825.5554
        44.5004         33.7504
 25  7 15 23  5  0.0000000  0 10G02G08G10G03G25G04G28G32G31G01
 -10237298.09047  -7946154.14146  21267895.5784                   21267888.2424
        45.5004         38.7504
  11246630.14545   8818027.84844  25156120.3834                   25156122.5664
        34.5004         27.5004
   6087054.96547   4749953.50446  22604771.5704                   22604769.4104
        44.2504         41.2504
  -2473698.16846  -1892237.87146  23342098.9844                   23342097.5594
        40.5004         36.0004
   7485338.26645   4340127.60244  24363835.3834                   24363836.9694
        34.7504         24.0004
   8955017.82846   7395696.67644  24804159.5084                   24804159.4574
        39.7504         24.5004
 -13058553.32447 -10143301.51246  20743130.5164                   20743125.1994
        47.2504         39.2504
   7150645.45748   5580666.59847  22072791.7584                   22072788.6564
        48.0004         46.2504
 -22071504.75448 -17132312.25847  20921661.8054                   20921656.1294
        48.5004         46.0004
 -18124024.45747 -13789730.73045  21723989.2814                   21723984.4774
        45.0004         34.0004
 25  7 15 23  5 30.0000000  0 10G02G08G10G03G25G04G28G32G31G01
 -10303481.24248  -7997725.43746  21255301.3524                   21255293.9144
        48.0004         39.0004
  11251453.94545   8821786.45744  25157037.9774                   25157040.3754
        35.5004         27.7504
   6078029.37147   4742920.53146  22603054.2424                   22603052.0004
        45.0004         40.7504
  -2629426.69947  -2013584.71546  23312465.3674                   23312463.5744
        42.0004         37.2504
   7389230.63746   4265238.57044  24345548.0634                   24345546.9884
        37.7504         24.5004
   8803079.29346   7277303.14143  24775245.7664                   24775245.7854
        38.5004         22.5004
 -13132472.44947 -10200900.82846  20729064.0164                   20729058.5234
        47.7504         38.7504
   7144447.26647   5575836.82447  22071612.1174                   22071608.8754
        47.0004         46.2504
 -22212778.87548 -17242395.95747  20894778.2274                   20894772.7934
        49.0004         46.2504
 -18254151.09847 -13891128.10545  21699227.5944                   21699221.9144
        45.0004         34.7504
 25  7 15 23  6  0.0000000  0 10G02G08G10G03G25G04G28G32G31G01
 -10369187.71548  -8048925.30146  21242797.3754                   21242789.9414
        48.0004         39.5004
  11256153.60945   8825448.29744  25157932.1804                   25157935.2814
        35.7504         26.5004
   6069215.51647   4736052.54746  22601377.3754                   22601374.6804
        44.5004         41.2504
  -2785189.43046  -2134958.23045  23282824.6414                   23282822.5044
        41.0004         35.5004
   7293537.53146   4190672.53944  24327338.6484                   24327336.6994
        39.5004         24.5004
   8651220.19546   7158971.54343  24746347.8754                   24746347.8444
        38.5004         22.7504
 -13205839.73447 -10258070.14146  20715102.8204                   20715097.8094
        47.5004         39.2504
   7138309.32448   5571053.98847  22070444.4144                   22070441.2734
        48.0004         46.2504
 -22353604.62948 -17352130.27747  20867980.1484                   20867974.2424
        48.7504         46.2504
 -18383863.15247 -13992202.41445  21674543.6954                   21674538.6414
        45.2504         34.7504
 25  7 15 23  6 30.0000000  0 10G02G08G10G03G25G04G28G32G31G01
 -10434415.75447  -8099752.34846  21230385.1954                   21230378.0784
        47.7504         39.0004
  11260728.32046   8829012.86744  25158803.0944                   25158805.0204
        38.2504         24.0004
   6060615.32447   4729351.04746  22599740.4144                   22599738.3914
        43.7504         41.0004
  -2940983.51246  -2256356.16445  23253178.2734                   23253175.3834
        39.7504         34.0004
   7198262.79946   4116432.49644  24309207.7034                   24309207.1094
        38.0004         28.0004
   8499442.60546   7040703.42643  24717466.0234                   24717465.7304
        40.7504         22.7504
 -13278653.46547 -10314808.09846  20701246.9534                   20701241.3754
        47.0004         39.0004
   7132232.33647   5566318.66047  22069288.0164                   22069284.3364
        47.5004         46.0004
 -22493977.75448 -17461511.90247  20841267.7194                   20841261.7344
        48.7504         46.2504
 -18513156.54347 -14092950.50445  21649939.8834                   21649934.7704
        44.5004         34.0004
 25  7 15 23  7  0.0000000  0 10G02G08G10G03G25G04G28G32G31G01
 -10499160.48447  -8150202.80146  21218064.8834                   21218057.1134
        46.2504         38.7504
  11265180.19546   8832481.70743  25159650.9534                   25159652.2934
        39.7504         22.2504
   6052233.72747   4722819.88346  22598145.0554                   22598143.4694
        43.7504         41.2504
  -3096803.17246  -2377774.02745  23223526.0554                   23223523.9104
        40.2504         32.5004
   7103413.06346   4042523.67244  24291158.4304                   24291157.7074
        38.2504         27.7504
   8347751.82046   6922502.83643  24688600.2974                   24688599.3284
        41.2504         21.7504
 -13350908.91447 -10371111.04346  20687496.8364                   20687491.4734
        46.2504         39.0004
   7126219.86347   5561633.59447  22068143.4774                   22068140.5664
        46.7504         45.7504
 -22633891.10548 -17570535.26247  20814643.2114                   20814637.6374
        49.0004         46.5004
 -18642024.35247 -14193366.96145  21625417.1804                   21625412.2504
        45.0004         34.0004
 25  7 15 23  7 30.0000000  0 10G02G08G10G03G25G04G28G32G31G01
 -10563422.53947  -8200277.14146  21205835.9924                   21205828.7504
        47.0004         39.2504
  11269506.16046   8835852.50043  25160473.8594                   25160475.3914
        39.5004         21.5004
   6044070.28947   4716458.70746  22596591.8054                   22596590.0004
        43.5004         41.0004
  -3252647.94146  -2499211.46545  23193869.9384                   23193867.6174
        39.7504         32.7504
   7008989.82446   3968947.16443  24273191.2504                   24273189.3054
        38.5004         22.5004
   8196147.53546   6804369.69143  24659750.9924                   24659750.0204
        38.7504         21.2504
 -13422606.84447 -10426979.54746  20673852.9774                   20673848.2234
        47.0004         38.7504
   7120270.24247   5556997.50847  22067011.5394                   22067008.4774
        46.5004         45.5004
 -22773342.91848 -17679198.96947  20788106.3914                   20788100.8634
        49.0004         46.7504
 -18770464.88347 -14293450.47345  21600975.7194                   21600970.6374
        45.0004         35.7504
 25  7 15 23  8  0.0000000  0 10G02G08G10G03G25G04G28G32G31G01
  -9051782.65247  -7022375.94146  21493491.7194                   21493484.1454
        47.0004         39.5004
  12849121.01246  10066721.11344  25461065.2664                   25461066.7814
        40.5004         25.0004
   7611542.90647   5937865.90646  22894872.1414                   22894869.8954
        43.7504         40.7504
  -1833094.04346  -1393065.52345  23464001.6334                   23463999.9734
        39.2504         33.7504
   8490415.47346   5123304.79743  24555096.3524                   24555093.4654
        39.0004         22.7504
   9620052.56345   7913906.18443  24930710.8524                   24930710.1644
        35.5004         20.7504
 -11918327.50447  -9254813.82846  20960108.1644                   20960102.9344
        45.2504         39.0004
   8689800.00047   6780007.68447  22365683.5004                   22365679.7734
        47.0004         45.5004
 -21336908.78948 -16559899.61347  21061450.6644                   21061444.9774
        49.0004         46.7504
 -17323054.25447 -13165598.01645  21876408.5084                   21876403.5204
        44.2504         35.0004
 25  7 15 23  8 30.0000000  0 10G02G08G10G03G25G04G28G32G31G01
  -9115080.21547  -7071698.73046  21481446.6484                   21481439.2154
        47.0004         38.7504
  12853187.05546  10069889.34843  25461838.4224                   25461841.2704
        39.0004         23.2504
   7603815.71947   5931844.66846  22893402.3134                   22893399.8954
        43.5004         40.5004
  -1988986.19146  -1514539.85245  23434336.5864                   23434334.7704
        39.5004         35.0004
   8396850.37546   5050396.95743  24537292.6954                   24537288.4414
        39.7504         22.7504
   9468621.82845   7795908.36742  24901894.0634                   24901894.4144
        35.0004         14.7504
 -11988911.21547  -9309814.11346  20946676.5474                   20946671.3954
        46.5004         39.5004
   8683972.22747   6775466.54747  22364574.0084                   22364570.9734
        46.2504         45.5004
 -21475430.86748 -16667838.86347  21035090.8364                   21035085.0354
        48.7504         46.5004
 -17450634.16447 -13265010.91845  21852131.8594                   21852126.3444
        45.0004         35.0004
 25  7 15 23  9  0.0000000  0 10G02G08G10G03G25G04G28G32G31G01
  -9177898.32447  -7120647.91446  21469492.4454                   21469485.1414
        46.5004         38.2504
  12857116.78146  10072951.37544  25462587.0634                   25462588.4224
        39.0004         24.5004
   7596304.39547   5925991.63346  22891972.6804                   22891970.5664
        43.0004         40.7504
  -2144902.93746  -1636033.38746  23404666.6644                   23404664.6914
        39.7504         36.7504
   8303714.70346   4977823.77744  24519568.2974                   24519567.8674
        38.0004         27.2504
   9317276.055 6                  24873094.008
        36.000
 -12058940.55147  -9364382.42646  20933350.4064                   20933345.1684
        46.2504         39.0004
   8678201.23847   6770969.65247  22363475.9774                   22363473.1174
        46.7504         45.5004
 -21613486.78548 -16775414.86747  21008820.0634                   21008813.8754
        49.2504         46.5004
 -17577783.03147 -13364087.94145  21827935.3284                   21827930.8134
        44.5004         35.5004
 25  7 15 23  9 30.0000000  0 10G02G10G03G25G04G28G32G26G31G01
  -9240231.12547  -7169218.94546  21457630.8674                   21457623.7424
        47.7504         38.0004
   7589014.60247   5920311.23046  22890586.0164                   22890583.4264
        43.2504         40.5004
  -2300837.54346  -1757540.78946  23374993.1024                   23374991.5204
        40.0004         36.7504
   8211016.07446   4905591.16444  24501928.3674                   24501927.2384
        38.5004         26.0004
   9166021.379 5                  24844312.305
        33.750
 -12128410.09447  -9418514.52746  20920130.3674                   20920125.5704
        45.7504         38.5004
   8672491.57447   6766520.55147  22362389.2974                   22362386.1644
        46.5004         45.5004
  12306492.33655   9626551.55154  25284966.8914                   25284970.9384
        35.0004         27.2504
 -21751068.69548 -16882621.51647  20982638.9304                   20982632.9184
        49.0004         46.5004
 -17704492.97347 -13462822.94545  21803823.4304                   21803818.5634
        45.0004         34.7504
 25  7 15 23 10  0.0000000  0  9G02G10G03G25G28G32G26G31G01
  -9302085.06648  -7217416.83646  21445860.3134                   21445853.3524
        48.2504         38.5004
   7581940.15247   5914798.61346  22889239.1884                   22889237.3984
        44.0004         40.7504
  -2456795.27346  -1879066.21946  23345315.6094                   23345313.8204
        41.5004         37.2504
   8118749.91046   4833695.47744  24484370.7584                   24484369.1524
        38.7504         25.0004
 -12197326.47747  -9472215.59446  20907016.5004                   20907011.3284
        45.7504         39.0004
   8666835.77747   6762113.41447  22361313.4304                   22361310.1914
        47.7504         45.2504
  12150910.09046   9505318.95344  25255361.1174                   25255364.2074
        36.7504         27.7504
 -21888180.57048 -16989461.89847  20956546.7974                   20956541.3134
        48.7504         46.5004
 -17830768.23447 -13561219.23045  21779794.3524                   21779788.8364
        45.2504         34.2504
 25  7 15 23 10 30.0000000  0  9G02G10G03G25G28G32G26G31G01
  -9363458.55948  -7265240.34046  21434181.7194                   21434174.2974
        48.0004         39.5004
   7575083.05947   5909455.37946  22887934.7584                   22887932.5274
        43.5004         40.2504
  -2612773.05146  -2000607.27746  23315634.1174                   23315631.8054
        41.2504         36.7504
   8026920.07446   4762139.77744  24466896.3984                   24466894.0784
        39.7504         26.5004
 -12265687.98047  -9525484.29346  20894007.9304                   20894002.4654
        46.0004         39.2504
   8661234.74647   6757748.95347  22360247.5164                   22360243.9614
        47.0004         45.0004
  11995135.87946   9383936.60244  25225717.8914                   25225720.5824
        37.5004         28.0004
 -22024818.07048 -17095932.64547  20930546.0234                   20930540.0164
        48.2504         46.5004
 -17956604.77347 -13659273.65645  21755847.7974                   21755843.1134
        44.2504         34.2504
 25  7 15 23 11  0.0000000  0  9G02G10G03G25G28G32G26G31G01
  -9424344.46948  -7312683.92646  21422595.6334                   21422587.8834
        48.7504         38.5004
   7568450.87947   5904287.38746  22886672.4844                   22886670.4694
        42.7504         40.0004
  -2768762.30946  -2122157.29345  23285949.8984                   23285948.0744
        39.0004         35.0004
   7935535.74646   4690931.22344  24449507.3444                   24449504.0514
        39.5004         24.7504
 -12333487.51247  -9578315.08646  20881105.5084                   20881100.6764
        45.2504         39.0004
   8655694.83647   6753432.12147  22359193.0704                   22359190.1484
        45.7504         45.0004
  11839179.44946   9262412.36744  25196040.3134                   25196043.4734
        37.5004         29.0004
 -22160971.73048 -17202026.36747  20904636.4304                   20904630.7234
        49.0004         46.7504
 -18081993.03147 -13756978.77345  21731987.6954                   21731982.5824
        45.0004         35.0004
 25  7 15 23 11 30.0000000  0 10G02G10G03G25G04G28G32G26G31G01
  -9484740.03548  -7359745.41446  21411102.1724                   21411095.4414
        48.7504         39.5004
   7562046.25047   5899296.70746  22885453.3674                   22885451.4534
        43.5004         39.5004
  -2924759.30146  -2243713.32045  23256264.4144                   23256262.7424
        39.7504         35.0004
   7844601.30146   4620073.21544  24432201.8524                   24432200.1994
        39.0004         25.7504
                                  24729348.688
        33.500
 -12400722.66047  -9630706.10246  20868311.2274                   20868306.2544
        45.7504         39.0004
   8650217.59047   6749164.10947  22358151.2664                   22358147.8444
        47.5004         45.0004
  11683046.07046   9140750.14844  25166329.0634                   25166331.8134
        38.0004         28.0004
 -22296636.52748 -17307739.16047  20878820.0864                   20878814.4964
        48.2504         46.7504
 -18206928.22747 -13854330.85545  21708212.9614                   21708208.5004
        45.0004         35.0004
 25  7 15 23 12  0.0000000  0 10G02G10G03G25G04G28G32G26G31G01
  -9544643.16848  -7406423.19146  21399703.4064                   21399695.9304
        49.0004         38.5004
   7555871.82047   5894485.40646  22884279.0314                   22884276.4694
        44.0004         40.0004
  -3080760.38346  -2365272.55545  23226579.2504                   23226576.7704
        41.5004         35.0004
   7754121.09446   4549569.18844  24414984.2344                   24414983.5634
        39.0004         26.5004
  12414299.55946   7593390.92253  24700654.6564                   24700654.8554
        36.2504         19.7504
 -12467391.39847  -9682655.76246  20855624.8524                   20855619.3054
        46.2504         38.7504
   8644804.42647   6744946.03947  22357121.0784                   22357117.5704
        46.5004         45.0004
  11526740.61346   9018953.96544  25136585.0554                   25136587.7384
        37.5004         29.7504
 -22431807.64548 -17413067.27347  20853098.1024                   20853092.5554
        48.2504         47.0004
 -18331405.82847 -13951326.37545  21684525.4774                   21684520.9844
        44.7504         35.5004
 25  7 15 23 12 30.0000000  0 10G02G10G03G25G04G28G32G26G31G01
  -9604053.88748  -7452717.27046  21388398.0634                   21388390.5004
        48.5004         38.7504
   7549927.75847   5889853.63346  22883147.5164                   22883145.3014
        44.2504         39.5004
  -3236764.23047  -2486833.95346  23196892.4614                   23196890.0234
        42.0004         36.0004
   7664097.07046   4479420.61744  24397853.5084                   24397852.4224
        40.0004         28.0004
  12263612.21546   7475972.32844  24671979.9454                   24671979.4104
        38.7504         24.0004
 -12533493.89547  -9734164.18746  20843046.0394                   20843040.4024
        45.7504         39.2504
   8639454.47347   6740777.21947  22356102.6724                   22356099.7464
        46.2504         44.7504
  11370265.82846   8897025.79344  25106809.2584                   25106811.2154
        37.2504         28.0004
 -22566482.84048 -17518008.94947  20827470.3524                   20827464.5704
        48.0004         47.0004
 -18455423.55947 -14047963.55145  21660925.9454                   21660921.0594
        44.0004         35.5004
 25  7 15 23 13  0.0000000  0 10G02G10G03G25G04G28G32G26G31G01
  -9662973.37548  -7498628.57446  21377185.9304                   21377178.3164
        48.2504         39.0004
   7544213.38747   5885400.81646  22882060.3054                   22882058.1374
        43.5004         39.5004
  -3392770.46546  -2608397.23045  23167204.7974                   23167203.1024
        40.5004         35.7504
   7574530.28146   4409628.31344  24380808.2034                   24380807.7624
        39.0004         26.5004
  12113025.77746   7358632.35244  24643323.3524                   24643323.6094
        39.5004         25.0004
 -12599031.24648  -9785232.25046  20830574.1644                   20830569.1804
        48.0004         39.2504
   8634165.92647   6736656.25447  22355096.3594                   22355092.8794
        47.5004         44.5004
  11213623.47345   8774967.10544  25077000.1094                   25077003.4574
        35.5004         26.7504
 -22700660.38348 -17622562.84847  20801937.4304                   20801931.4384
        48.5004         47.0004
 -18578980.12147 -14144241.36745  21637413.9064                   21637408.8714
        45.0004         34.5004
 25  7 15 23 13 30.0000000  0 10G02G10G03G25G04G28G32G26G31G01
  -9721396.56248  -7544153.14846  21366068.4064                   21366060.8914
        48.2504         38.5004
   7538733.88747   5881131.00846  22881017.5314                   22881015.3364
        44.0004         39.7504
  -3548772.73446  -2729957.36346  23137519.5784                   23137516.7114
        41.5004         37.0004
   7485427.50846   4340197.65644  24363853.3914                   24363851.9384
        37.7504         25.5004
  11962545.71146   7241375.25843  24614689.0864                   24614687.6214
        37.0004         22.2504
 -12663998.76247  -9835856.28546  20818211.5084                   20818206.2344
        47.0004         39.0004
   8628942.94947   6732586.37547  22354102.6724                   22354099.5984
        47.0004         44.5004
  11056821.34845   8652783.74644  25047162.2194                   25047164.0474
        35.2504         24.0004
 -22834333.40248 -17726723.61347  20776500.1414                   20776494.2504
        48.5004         47.0004
 -18702068.32447 -14240154.23845  21613991.2034                   21613986.1764
        45.0004         35.2504
 25  7 15 23 14  0.0000000  0 10G02G10G03G25G04G28G32G26G31G01
  -9779327.53948  -7589294.18446  21355044.2974                   21355037.0474
        48.5004         38.7504
   7533485.53147   5877041.32846  22880019.0784                   22880017.1294
        43.7504         39.7504
  -3704773.74246  -2851516.50846  23107833.9224                   23107830.8594
        41.7504         36.7504
   7396786.74246   4271126.91844  24346985.6564                   24346984.2074
        38.5004         26.5004
  11812168.47346   7124198.27743  24586072.4924                   24586071.5164
        39.5004         22.7504
 -12728400.70347  -9886039.60946  20805956.2974                   20805950.7194
        46.5004         39.0004
   8623780.66047   6728563.79347  22353119.9774                   22353117.6024
        46.2504         44.2504
  10899857.95345   8530474.84043  25017293.0474                   25017294.2894
        35.5004         21.5004
 -22967502.99248 -17830492.09447  20751158.9614                   20751152.7934
        48.5004         47.0004
 -18824689.93747 -14335703.53145  21590657.3834                   21590652.1884
        45.0004         35.2504
 25  7 15 23 14 30.0000000  0 10G02G10G03G25G04G28G32G26G31G01
  -9836770.95748  -7634055.30946  21344113.6414                   21344106.1254
        48.5004         39.0004
   7528464.42247   5873128.70346  22879063.3984                   22879061.5394
        44.0004         40.2504
  -3860776.09046  -2973076.78146  23078144.5944                   23078144.4064
        39.0004         36.5004
   7308605.53546   4202414.39544  24330205.5314                   24330204.2544
        37.5004         25.7504
  11661890.60546   7007098.76644  24557475.3984                   24557475.2384
        40.5004         26.2504
 -12792241.41447  -9935785.61346  20793807.7274                   20793802.0234
        46.0004         39.0004
   8618674.20347   6724584.71547  22352148.8134                   22352145.5474
        46.7504         44.0004
  10742732.24245   8408039.39143  24987392.0394                   24987394.4574
        33.7504         20.7504
 -23100171.09047 -17933869.80147  20725912.8204                   20725906.6294
        47.7504         46.7504
 -18946846.83247 -14430890.71145  21567411.2274                   21567406.2304
        45.0004         35.0004
 25  7 15 23 15  0.0000000  0 10G02G10G03G25G04G28G32G26G31G01
  -9893722.10948  -7678432.84446  21333276.1954                   21333268.3754
        48.5004         39.0004
   7523675.32447   5869396.89146  22878152.2504                   22878150.5434
        44.2504         40.0004
  -4016773.88346  -3094633.44946  23048460.2274                   23048459.1414
        38.5004         36.5004
   7220890.53546   4134065.04744  24313512.8834                   24313512.0864
        37.5004         25.2504
  11511717.06346   6890080.57444  24528898.5704                   24528897.7974
        39.0004         24.5004
 -12855516.69947  -9985091.02746  20781766.7664                   20781761.6334
        46.2504         38.7504
   8613627.22347   6720651.98847  22351188.4694                   22351184.9614
        46.7504         44.5004
  10585451.41445   8285483.09043  24957462.8444                   24957464.6644
        31.7504         21.5004
 -23232330.80947 -18036851.37147  20700763.4224                   20700757.5984
        47.5004         46.7504
 -19068532.28547 -14525710.52345  21544255.0554                   21544250.6414
        45.7504         34.7504
 25  7 15 23 15 30.0000000  0 10G02G10G03G25G04G28G32G26G31G01
  -9950173.91848  -7722421.28546  21322533.6484                   21322526.2034
        48.0004         39.0004
   7519125.53147   5865851.55146  22877286.7664                   22877284.4734
        43.2504         39.5004
  -4172758.59046  -3216179.92246  23018777.0084                   23018776.0634
        39.7504         36.0004
   7133650.46546   4066085.84044  24296912.2424                   24296911.2934
        38.5004         26.0004
  11361655.50846   6773149.62143  24500342.5704                   24500341.9104
        39.5004         23.5004
 -12918219.63747 -10033950.45746  20769835.1254                   20769829.5784
        45.5004         38.5004
   8608646.10247   6716770.57047  22350240.2344                   22350237.1374
        46.0004         44.5004
  10428025.35545   8162813.77343  24927504.3204                   24927506.9774
        33.0004         22.2504
 -23363972.57048 -18139429.34047  20675712.8444                   20675707.1134
        48.5004         47.0004
 -19189736.94147 -14620155.69946  21521191.0164                   21521185.8444
        46.0004         36.0004
 25  7 15 23 16  0.0000000  0 10G02G10G03G25G04G28G32G26G31G01
 -10006130.16448  -7766023.57046  21311885.1564                   21311878.1174
        48.0004         39.0004
   7514812.09847   5862490.38746  22876465.5004                   22876463.4774
        43.7504         39.7504
  -4328732.01646  -3337717.63745  22989096.7894                   22989094.7934
        41.5004         35.7504
   7046883.99246   3998475.64144  24280400.7034                   24280399.9224
        37.5004         27.0004
  11211703.11346   6656303.64843  24471808.0164                   24471806.4454
        39.0004         22.2504
 -12980353.96947 -10082366.81646  20758011.1254                   20758005.8984
        46.5004         38.7504
   8603726.78147   6712937.31647  22349304.0314                   22349301.0084
        47.2504         44.5004
  10270453.81345   8040030.76643  24897520.8444                   24897521.0554
        34.2504         19.2504
 -23495097.56647 -18241604.63747  20650760.8204                   20650754.7894
        47.7504         47.0004
 -19310461.92247 -14714227.10545  21498217.3204                   21498212.2194
        46.0004         35.0004
 25  7 15 23 16 30.0000000  0 10G02G10G03G25G04G28G32G26G31G01
 -10061593.21548  -7809241.54746  21301331.1094                   21301323.8204
        48.7504         38.5004
   7510732.77747   5859311.63746  22875689.3054                   22875687.5314
        43.5004         39.2504
  -4484695.17246  -3459247.33646  22959418.3524                   22959416.1374
        41.2504         36.2504
   6960590.62546   3931234.11344  24263981.0784                   24263979.6804
        39.5004         28.5004
  11061858.05146   6539541.34443  24443291.8444                   24443291.4224
        36.7504         22.2504
 -13041922.34847 -10130342.17246  20746295.1564                   20746289.7274
        46.2504         39.5004
   8598866.14547   6709149.78547  22348379.1484                   22348376.2114
        47.2504         44.5004
  10112736.91055   7917134.66452  24867507.8594                   24867509.5704
        32.5004         17.7504
 -23625705.84447 -18343377.28547  20625906.6334                   20625900.8204
        47.7504         47.0004
 -19430707.41847 -14807924.87945  21475335.3204                   21475330.9104
        45.5004         35.5004
 25  7 15 23 17  0.0000000  0 10G02G10G03G25G04G28G32G26G31G01
 -10116562.58248  -7852074.83246  21290870.9924                   21290863.1994
        48.5004         38.2504
   7506888.37947   5856315.95346  22874958.4534                   22874956.0514
        42.5004         40.2504
  -4640646.02746  -3580767.45346  22929741.7504                   22929739.8164
        41.0004         36.0004
   6874772.65646   3864362.96944  24247649.2974                   24247648.5434
        37.5004         27.5004
  10912121.25445   6422863.56643  24414797.7034                   24414798.2194
        35.0004         19.0004
 -13102924.57047 -10177876.37146  20734687.2194                   20734681.5864
        47.0004         39.0004
   8594063.92647   6705407.77747  22347465.5314                   22347462.3634
        46.2504         44.5004
   9954878.21955   7794128.21153  24837467.1884                   24837470.6844
        30.5004         22.7504
 -23755794.62548 -18444745.13347  20601151.5164                   20601145.7974
        48.0004         47.0004
 -19550470.68047 -14901246.88745  21452545.0234                   21452540.3014
        46.0004         35.5004
 25  7 15 23 17 30.0000000  0 10G02G10G03G25G04G28G32G26G31G01
 -10171035.84048  -7894521.54746  21280504.9614                   21280497.6294
        48.0004         38.7504
   7503282.06347   5853505.78946  22874272.2114                   22874270.1764
        43.5004         40.0004
  -4796580.06646  -3702274.46546  22900067.2814                   22900066.5124
        39.7504         36.0004
   6789434.80946   3797866.00044  24231410.2664                   24231409.5044
        38.7504         28.2504
  10762496.46146   6306272.91843  24386326.2424                   24386325.0474
        39.5004         19.5004
 -13163358.08247 -10224967.41046  20723186.8754                   20723181.0984
        47.0004         38.7504
   8589322.41447   6701713.07447  22346562.9844                   22346559.9884
        47.0004         44.0004
   9796883.79345   7671015.85244  24807402.3134                   24807404.9144
        34.0004         27.7504
 -23885358.48848 -18545703.96147  20576496.2974                   20576490.4224
        48.0004         47.2504
 -19669746.61347 -14994189.16445  21429847.5864                   21429842.8794
        46.2504         35.5004
 25  7 15 23 18  0.0000000  0 10G02G10G03G25G04G28G32G26G31G01
 -10225015.78948  -7936583.85946  21270232.9534                   21270225.6374
        49.0004         39.0004
   7499911.39547   5850879.24246  22873630.4304                   22873628.4884
        44.0004         41.0004
  -4952498.51647  -3823769.27046  22870398.6884                   22870395.8094
        42.2504         36.2504
   6704576.19946   3731742.42644  24215262.0474                   24215261.7274
        38.7504         27.2504
  10612981.39845   6189767.69142  24357874.0634                   24357872.6294
        34.7504         16.2504
 -13223225.93747 -10271617.68046  20711794.2734                   20711788.8794
        47.2504         39.2504
   8584638.22347   6698063.02347  22345672.1804                   22345668.5554
        47.2504         44.5004
   9638753.44946   7547797.59044  24777311.2894                   24777313.0084
        36.0004         28.2504
 -24014397.91848 -18646254.13747  20551941.1174                   20551935.0124
        48.2504         47.2504
 -19788535.75047 -15086752.11345  21407242.9924                   21407238.0904
        47.2504         35.5004
 25  7 15 23 18 30.0000000  0 10G02G10G03G25G04G28G32G26G31G01
 -10278502.75448  -7978262.02346  21260054.6334                   21260047.7074
        49.0004         38.7504
   7496776.47347   5848436.39846  22873034.2504                   22873032.2814
        44.0004         40.7504
  -5108399.86747  -3945250.80946  22840731.8524                   22840729.4534
        42.0004         37.2504
   6620198.52346   3665993.61744  24199204.9384                   24199204.7274
        37.0004         27.0004
  10463576.32055   6073348.35252  24329442.0164                   24329442.4184
        34.5004         16.7504
 -13282528.68047 -10317827.60546  20700509.2034                   20700503.7624
        47.2504         39.0004
   8580010.46147   6694456.95747  22344791.2734                   22344788.2304
        47.2504         44.0004
   9480490.02355   7424475.66853  24747193.7814                   24747197.0084
        32.5004         23.0004
 -24142910.81647 -18746394.02347  20527485.7734                   20527479.8134
        47.0004         47.2504
 -19906836.03547 -15178934.14145  21384731.5944                   21384726.8284
        46.7504         35.5004
 25  7 15 23 19  0.0000000  0 10G02G10G03G25G04G28G32G26G31G01
  -8756071.57448  -6791952.03546  21549763.6094                   21549756.3754
        48.5004         38.7504
   9069301.30147   7073780.38346  23172275.3594                   23172273.3634
        43.2504         39.7504
  -3688853.80547  -2839110.96946  23110862.9144                   23110859.4494
        43.0004         36.7504
   8111729.88746   4828225.88344  24483034.3284                   24483033.5984
        37.5004         26.5004
  11889710.68846   7184622.04743  24600827.5474                   24600826.4964
        37.5004         19.5004
 -11765841.07447  -9135993.10546  20989125.3364                   20989120.1254
        47.2504         38.2504
  10150862.37547   7918497.38747  22643714.4844                   22643711.3404
        45.7504         44.2504
  10897525.62545   8528659.35244  25016846.8364                   25016848.8984
        33.7504         24.2504
 -22695466.97747 -17618515.68047  20802925.2274                   20802919.3204
        47.5004         47.5004
 -18449217.69147 -14043127.62145  21662106.7894                   21662101.7624
        46.5004         35.5004
 25  7 15 23 19 30.0000000  0 10G02G10G03G25G04G28G32G26G31G01
  -8808569.94948  -6832859.87946  21539773.6564                   21539766.4614
        49.2504         39.0004
   9066642.09447   7071708.23046  23171769.6564                   23171767.7704
        44.2504         40.2504
  -3844712.89146  -2960559.60546  23081202.9144                   23081200.5944
        41.0004         37.2504
   8028322.81646   4763233.37144  24467161.7974                   24467161.4734
        38.5004         27.0004
  11740531.12146   7068378.28942  24572438.4304                   24572438.4884
        36.0004         15.5004
 -11824011.31648  -9181320.55946  20978055.7194                   20978050.4144
        48.2504         38.5004
  10146349.18447   7914980.59047  22642855.7504                   22642852.4964
        47.0004         44.0004
  10739008.66446   8405139.79744  24986681.9384                   24986684.5434
        36.7504         29.5004
 -22822916.42247 -17717826.90247  20778672.2194                   20778666.6334
        47.2504         47.2504
 -18566530.25847 -14134540.00445  21639782.7894                   21639777.6764
        46.5004         35.0004
 25  7 15 23 20  0.0000000  0 10G02G10G03G25G04G28G32G26G31G01
  -8860570.46148  -6873379.77346  21529878.1884                   21529870.6644
        48.7504         39.0004
   9064224.76647   7069824.55546  23171309.8284                   23171307.6524
        44.0004         40.2504
  -4000544.71546  -3081986.96546  23051548.9774                   23051546.6254
        40.7504         36.5004
   7945407.46146   4698624.04344  24451383.5864                   24451382.7464
        39.0004         27.2504
  11591468.67646   6952225.76242  24544073.8674                   24544072.0594
        37.7504         17.2504
 -11881612.25048  -9226204.40646  20967094.8524                   20967089.7584
        48.0004         38.5004
  10141896.04747   7911510.59047  22642008.1484                   22642005.3554
        46.5004         44.2504
  10580373.18446   8281527.89145  24956494.8134                   24956497.3874
        38.0004         32.5004
 -22949827.16047 -17816718.35547  20754521.7584                   20754515.8874
        46.5004         47.2504
 -18683342.06247 -14225562.18045  21617554.4384                   21617549.3874
        47.5004         35.5004
 25  7 15 23 20 30.0000000  0 10G02G10G03G25G04G28G32G26G31G01
  -8912077.43748  -6913515.09846  21520076.8914                   21520069.8094
        49.0004         38.5004
   9062045.95747   7068126.73046  23170895.2734                   23170892.9614
        42.7504         40.0004
  -4156351.32846  -3203394.70346  23021899.2344                   23021897.5044
        40.5004         36.5004
   7862981.77046   4634396.24644  24435699.0394                   24435697.9384
        38.5004         24.0004
  11442520.51246   6836162.39143  24515729.9064                   24515728.8284
        38.5004         22.7504
 -11938647.93447  -9270647.78146  20956241.2344                   20956235.8834
        47.7504         38.7504
  10137498.65647   7908084.02347  22641171.5474                   22641168.6334
        46.5004         44.2504
  10421618.42645   8157823.04744  24926283.6414                   24926286.5984
        33.7504         25.2504
 -23076200.76247 -17915191.26647  20730473.3674                   20730467.4924
        47.5004         47.5004
 -18799654.54747 -14316195.27345  21595421.0004                   21595415.7074
        47.0004         35.5004
 25  7 15 23 21  0.0000000  0 10G02G10G03G25G04G28G32G26G31G01
  -8963090.30948  -6953265.40246  21510369.4224                   21510361.9494
        48.5004         38.7504
   9060106.51647   7066615.42646  23170525.9694                   23170524.0634
        43.7504         40.0004
  -4312130.56246  -3324781.05546  22992255.9064                   22992253.7464
        41.2504         37.0004
   7781048.10246   4570551.80544  24420107.2344                   24420106.2734
        39.0004         25.0004
  11293687.57446   6720188.74243  24487407.1094                   24487405.8164
        37.7504         18.5004
 -11995118.24247  -9314650.61746  20945495.1564                   20945489.8094
        46.7504         39.0004
  10133157.05547   7904700.93447  22640345.5314                   22640342.0634
        46.5004         44.2504
  10262748.05546   8034028.01245  24896053.3054                   24896054.4144
        36.5004         30.0004
 -23202033.93447 -18013243.06247  20706528.6254                   20706522.8054
        47.7504         47.5004
 -18915465.02347 -14406437.18746  21573382.8284                   21573377.7894
        47.7504         36.0004
 25  7 15 23 21 30.0000000  0 10G02G10G03G25G04G28G32G26G31G01
  -9013603.94148  -6992626.69546  21500757.0634                   21500749.6374
        48.5004         39.5004
   9058411.85947   7065294.85246  23170203.9224                   23170201.8164
        42.2504         39.7504
  -4467875.38746  -3446140.62546  22962618.8444                   22962616.4964
        41.5004         37.5004
   7699613.40646   4507096.18844  24404611.3204                   24404609.3284
        36.7504         25.2504
  11144975.77346   6604309.48043  24459108.8524                   24459106.9804
        39.2504         20.2504
 -12051018.46147  -9358209.21946  20934857.5784                   20934852.2234
        47.2504         39.5004
  10128875.87547   7901364.91047  22639530.8364                   22639527.4964
        46.2504         44.2504
  10103770.33645   7910149.38744  24865800.4774                   24865801.2504
        35.7504         26.5004
 -23327319.55148 -18110868.19947  20682687.2894                   20682681.6254
        48.0004         47.2504
 -19030766.10947 -14496282.18445  21551441.8674                   21551436.8134
        46.7504         35.5004
 25  7 15 23 22  0.0000000  0 10G02G10G03G25G04G28G32G26G31G01
  -9063626.23448  -7031605.12146  21491238.2034                   21491230.9024
        48.5004         38.5004
   9056955.21547   7064159.74646  23169926.3834                   23169924.8094
        44.0004         39.0004
  -4623591.33246  -3567477.68446  22932986.9144                   22932984.8794
        41.7504         38.5004
   7618672.30546   4444025.16843  24389209.1174                   24389207.8134
        36.7504         23.7504
  10996378.51246   6488519.52043  24430830.9064                   24430830.6454
        37.7504         21.7504
 -12106356.17247  -9401329.51246  20924327.7034                   20924322.2734
        47.5004         39.5004
  10124647.46947   7898070.02747  22638726.2274                   22638722.7734
        47.7504         44.2504
   9944681.18445   7786183.91045  24835525.1804                   24835528.3404
        35.2504         31.2504
 -23452062.48447 -18208070.46147  20658949.7034                   20658943.8634
        47.2504         47.5004
 -19145562.87147 -14585734.18745  21529596.5394                   21529591.6054
        47.0004         35.7504
 25  7 15 23 22 30.0000000  0 10G02G10G03G25G04G28G32G26G31G01
  -9113154.62148  -7070198.68746  21481813.2114                   21481805.8054
        48.5004         38.5004
   9055739.24647   7063212.18446  23169695.1254                   23169693.1684
        43.2504         39.0004
  -4779274.07447  -3688788.87546  22903361.4534                   22903359.6334
        42.0004         38.0004
   7538228.94946   4381342.04744  24373900.2504                   24373898.5164
        36.5004         24.0004
  10847898.91846   6372821.25843  24402576.2424                   24402575.6024
        38.7504         21.7504
 -12161129.32047  -9444009.88346  20913904.2194                   20913899.0084
        47.7504         39.0004
  10120473.91047   7894817.87547  22637931.8054                   22637929.0634
        47.5004         44.0004
   9785486.24246   7662136.12944  24805232.4064                   24805233.9184
        37.2504         29.0004
 -23576258.10547 -18304846.24647  20635315.7274                   20635310.0594
        47.5004         47.5004
 -19259850.56647 -14674789.53945  21507848.4694                   21507843.4534
        47.0004         34.7504
 25  7 15 23 23  0.0000000  0 10G02G10G03G25G04G28G32G26G31G01
  -9162189.02048  -7108407.32446  21472482.3444                   21472475.1484
        48.7504         38.5004
   9054764.88347   7062452.87146  23169509.8754                   23169507.3714
        43.0004         38.7504
  -4934921.47747  -3810072.50846  22873743.0234                   22873740.9614
        42.0004         38.0004
   7458285.66046   4319048.57043  24358687.6884                   24358686.4534
        37.0004         23.2504
  10699538.11346   6257215.50843  24374344.6094                   24374342.8634
        37.7504         21.5004
 -12215337.91847  -9486250.34446  20903589.1334                   20903583.8404
        47.7504         39.2504
  10116355.08247   7891608.37947  22637148.2734                   22637144.9224
        47.5004         43.7504
   9626189.11745   7538008.55944  24774918.2584                   24774920.4534
        35.0004         27.2504
 -23699903.52048 -18401193.30147  20611786.6954                   20611781.1524
        48.0004         47.5004
 -19373626.61347 -14763446.18045  21486197.3444                   21486192.4964
        47.2504         35.5004
 25  7 15 23 23 30.0000000  0 10G02G10G03G25G04G28G32G26G31G01
  -9210728.41048  -7146230.25446  21463245.6254                   21463238.4454
        48.0004         39.2504
   9054033.54747   7061882.95346  23169370.1024                   23169368.9144
        43.2504         38.5004
  -5090530.47747  -3931326.24646  22844131.1724                   22844129.1174
        42.0004         37.5004
   7378845.16046   4257146.94143  24343570.8524                   24343569.2664
        36.7504         23.7504
  10551297.92245   6141703.77043  24346133.6954                   24346134.0124
        34.5004         19.2504
 -12268981.26647  -9528050.35246  20893380.8834                   20893375.6454
        47.7504         39.5004
  10112291.81347   7888442.16447  22636374.9774                   22636371.7074
        46.7504         43.7504
   9466794.28146   7413804.90244  24744588.1174                   24744589.0164
        39.2504         29.7504
 -23822995.52048 -18497109.11747  20588363.1564                   20588357.3444
        48.0004         47.5004
 -19486887.68748 -14851701.55545  21464645.0784                   21464639.8244
        48.0004         35.7504
 25  7 15 23 24  0.0000000  0 10G02G10G03G25G04G28G32G26G31G01
  -9258774.78948  -7183669.00846  21454102.7584                   21454095.2074
        48.2504         39.0004
   9053544.07847   7061501.48446  23169277.4534                   23169275.3754
        43.0004         37.5004
  -5246100.79346  -4052549.85546  22814526.8594                   22814525.4964
        41.0004         37.2504
   7299907.79346   4195637.31643  24328550.1484                   24328546.8874
        37.5004         22.0004
  10403177.48445   6026285.42243  24317947.9694                   24317947.2934
        34.2504         18.2504
 -12322061.30947  -9569411.42646  20883279.7734                   20883274.5594
        47.5004         39.0004
  10108282.18847   7885317.75447  22635611.6804                   22635609.1804
        46.7504         43.7504
   9307303.41846   7289526.47744  24714237.2344                   24714238.1334
        37.0004         28.5004
 -23945533.45747 -18592593.20747  20565045.0314                   20565039.1684
        47.5004         47.7504
 -19599633.09047 -14939555.10946  21443189.8284                   21443184.8364
        47.2504         36.0004
 25  7 15 23 24 30.0000000  0 10G02G10G03G25G04G28G32G26G31G01
  -9306324.86348  -7220721.02746  21445054.5164                   21445046.6054
        48.7504         39.0004
   9053300.31347   7061311.47346  23169230.8984                   23169229.4104
        42.7504         37.2504
  -5401626.98847  -4173739.01646  22784932.3674                   22784929.2194
        42.7504         37.0004
   7221478.78946   4134523.84044  24313626.2274                   24313622.8594
        38.5004         26.2504
  10255181.10945   5910963.69542  24289784.3444                   24289785.0394
        31.7504         17.2504
 -12374574.98048  -9610331.17246  20873287.2504                   20873281.6054
        48.0004         39.0004
  10104329.39547   7882237.62147  22634859.9144                   22634856.8014
        46.2504         43.5004
   9147723.22746   7165178.48844  24683869.7424                   24683872.1024
        37.0004         28.5004
 -24067511.47747 -18687640.99648  20541833.5234                   20541827.4884
        47.7504         48.0004
 -19711857.12147 -15027002.39845  21421834.2274                   21421829.4494
        46.7504         35.7504
 25  7 15 23 25  0.0000000  0 10G02G10G03G25G04G28G32G26G31G01
  -9353378.93747  -7257386.56246  21436100.1484                   21436092.7114
        47.7504         38.5004
   9053302.53946   7061313.14546  23169231.6484                   23169229.6684
        41.7504         37.0004
  -5557107.21147  -4294892.40646  22755345.0704                   22755342.9844
        42.5004         38.0004
   7143559.83646   4073807.78944  24298798.2194                   24298795.4884
        38.0004         25.7504
  10107309.28945   5795739.03542  24261646.4384                   24261645.6174
        34.2504         17.2504
 -12426522.80548  -9650810.00046  20863401.7194                   20863396.5314
        48.0004         38.7504
  10100432.98847   7879201.44147  22634118.4384                   22634115.0554
        46.0004         43.2504
   8988057.06346   7040763.40644  24653486.5704                   24653487.7934
        36.0004         27.5004
 -24188927.35948 -18782250.74647  20518728.5634                   20518722.7344
        48.2504         47.7504
 -19823557.63747 -15114041.75446  21400578.6564                   21400573.8444
        46.7504         36.2504
 25  7 15 23 25 30.0000000  0 10G02G10G03G25G04G28G32G26G31G01
  -9399939.34048  -7293667.41046  21427239.9924                   21427232.5044
        48.5004         38.7504
   9053549.04347   7061505.17246  23169278.1484                   23169276.5634
        42.5004         36.5004
  -5712541.73047  -4416010.15646  22725766.2504                   22725764.0864
        42.2504         37.7504
   7066150.52746   4013488.87544  24284067.1644                   24284065.4064
        38.5004         26.0004
   9959560.82845   5680610.51243  24233530.5164                   24233529.7664
        34.2504         19.2504
 -12477907.43748  -9690849.97346  20853623.5784                   20853618.0234
        48.5004         39.0004
  10096590.53147   7876207.28147  22633386.7194                   22633384.2894
        46.0004         43.5004
   8828305.83646   6916282.13344  24623086.3524                   24623087.7504
        37.5004         27.5004
 -24309780.98448 -18876422.37547  20495731.0634                   20495724.8954
        48.7504         47.7504
 -19934734.65647 -15200673.18746  21379421.9614                   21379417.4304
        47.0004         36.0004
 25  7 15 23 26  0.0000000  0 10G02G10G03G25G04G28G32G26G31G01
  -9446004.96948  -7329562.72346  21418474.0084                   21418466.9534
        48.2504         38.5004
   9054041.34847   7061888.71146  23169371.9844                   23169370.4264
        42.5004         36.5004
  -5867927.21947  -4537089.72346  22696197.7894                   22696195.2934
        42.5004         38.7504
   6989253.69946   3953569.28544  24269433.0634                   24269433.2234
        36.2504         27.5004
   9811937.45746   5565579.44143  24205438.0944                   24205437.9964
        36.5004         19.0004
 -12528728.10548  -9730450.49246  20843952.7894                   20843947.2734
        48.2504         39.5004
  10092802.91447   7873255.86347  22632666.2344                   22632663.3594
        46.7504         43.5004
   8668474.29745   6791738.23844  24592670.7114                   24592673.5744
        35.5004         28.5004
 -24430068.90648 -18970153.20347  20472840.8204                   20472835.2234
        48.5004         47.7504
 -20045384.78947 -15286894.05946  21358366.1334                   21358361.4064
        47.0004         36.0004
 25  7 15 23 26 30.0000000  0 10G02G10G03G25G04G28G32G26G31G01
  -9491583.72748  -7365078.66046  21409800.8204                   21409793.2734
        48.2504         38.5004
   9054772.67647   7062458.52046  23169511.4774                   23169509.4694
        42.7504         36.5004
  -6023269.12546  -4658135.33246  22666636.3204                   22666634.1134
        41.0004         37.7504
   6912863.84046   3894044.75444  24254898.0944                   24254896.7934
        39.5004         26.5004
   9664432.85246   5450640.87943  24177369.7034                   24177367.9104
        39.0004         18.2504
 -12578992.53547  -9769617.58646  20834387.9534                   20834382.4694
        47.7504         38.7504
  10089062.71147   7870341.39147  22631954.7894                   22631951.7774
        46.2504         43.0004
   8508558.47346   6667128.67244  24562240.8834                   24562241.2814
        38.2504         26.5004
 -24549796.52048 -19063447.41447  20450057.5004                   20450051.8484
        48.5004         47.7504
 -20155513.09847 -15372708.31646  21337409.5164                   21337405.0824
        47.5004         36.0004
 25  7 15 23 27  0.0000000  0 10G02G10G03G25G04G28G32G26G31G01
  -9536669.85248  -7400210.72746  21401221.1334                   21401213.8134
        49.2504         39.0004
   9055749.14147   7063219.35546  23169697.1804                   23169695.2814
        43.0004         36.5004
  -6178559.60946  -4779140.84046  22637085.0704                   22637084.0864
        41.0004         37.0004
   6836988.43846   3834921.07044  24240458.9144                   24240458.4264
        38.2504         28.5004
   9517053.49646   5335799.92643  24149323.7504                   24149322.7664
        38.7504         19.2504
 -12628695.41848  -9808347.10946  20824929.6484                   20824924.3324
        48.2504         38.5004
  10085375.43847   7867468.16447  22631253.0394                   22631250.0984
        46.2504         43.2504
   8348567.55945   6542460.61744  24531793.5554                   24531796.5354
        33.2504         26.5004
 -24668955.56248 -19156298.59448  20427382.4924                   20427376.6644
        48.7504         48.0004
 -20265111.60947 -15458109.75445  21316553.5164                   21316548.2854
        46.7504         35.7504
 25  7 15 23 27 30.0000000  0 10G02G10G03G25G04G28G32G26G31G01
  -9581260.45348  -7434956.66446  21392735.3674                   21392728.3634
        48.0004         38.7504
   9056974.49247   7064174.11746  23169929.7504                   23169928.6484
        43.2504         36.5004
  -6333793.21547  -4900102.03146  22607545.7894                   22607543.7544
        42.0004         38.0004
   6761632.59446   3776202.19944  24226119.0084                   24226118.4454
        38.5004         29.2504
   9369803.41846   5221059.71143  24121303.0704                   24121301.3674
        39.2504         20.2504
 -12677833.91448  -9846636.84446  20815578.7584                   20815573.5744
        48.0004         38.7504
  10081744.18047   7864638.58247  22630562.3054                   22630559.0824
        46.2504         43.0004
   8188508.37145   6417739.36744  24501336.0944                   24501336.9184
        35.0004         24.0004
 -24787540.59848 -19248702.48448  20404816.3204                   20404810.6214
        48.2504         48.2504
 -20374174.83647 -15543094.07846  21295799.4384                   21295794.5004
        47.0004         36.2504
 25  7 15 23 28  0.0000000  0 10G02G10G03G25G04G28G32G26G31G01
  -9625356.79348  -7469317.47746  21384344.2504                   21384337.3284
        48.5004         39.2504
   9058448.12947   7065322.33246  23170211.0864                   23170209.0594
        43.5004         36.7504
  -6488968.91847  -5021018.12146  22578016.8134                   22578014.5234
        42.5004         38.5004
   6686796.91446   3717888.73044  24211879.6334                   24211877.4224
        40.2504         29.0004
   9222682.42246   5106420.04343  24093307.3524                   24093305.6134
        40.2504         20.2504
 -12726409.53548  -9884487.98046  20806335.4144                   20806329.7934
        48.0004         39.0004
  10078167.79747   7861851.75847  22629881.5864                   22629878.6914
        46.7504         43.2504
   8028383.41446   6292966.78545  24470865.5704                   24470867.6024
        36.5004         30.0004
 -24905550.37148 -19340658.13348  20382359.8524                   20382353.7934
        48.5004         48.0004
 -20482701.60947 -15627660.39546  21275147.7114                   21275142.7304
        46.7504         36.7504
 25  7 15 23 28 30.0000000  0 10G02G10G03G25G04G28G32G26G31G01
  -9668963.51248  -7503296.75046  21376046.7344                   21376039.2774
        48.7504         38.7504
   9060166.03947   7066660.90646  23170537.9614                   23170536.0704
        43.5004         37.0004
  -6644088.94947  -5141890.83246  22548498.7814                   22548496.1374
        43.0004         37.5004
   6612478.68846   3659978.44144  24197736.6884                   24197735.3404
        39.5004         29.7504
   9075686.95746   4991878.23843  24065334.7344                   24065332.6844
        40.0004         19.7504
 -12774427.15648  -9921904.31246  20797197.8204                   20797192.6334
        48.0004         38.5004
  10074641.72347   7859104.14147  22629210.4384                   22629207.7274
        47.0004         43.0004
   7868191.52745   6168142.16443  24440380.5004                   24440382.3444
        33.5004         22.5004
 -25022987.09448 -19432167.24248  20360012.5004                   20360006.3914
        48.2504         48.0004
 -20590694.26647 -15711810.50446  21254597.1484                   21254592.1374
        47.0004         36.5004
 25  7 15 23 29  0.0000000  0 10G02G10G03G25G04G28G32G26G31G01
  -9712078.88347  -7536893.16046  21367841.8674                   21367834.4804
        47.0004         39.5004
   9062130.58647   7068191.68046  23170911.8914                   23170910.1024
        43.0004         37.0004
  -6799149.52747  -5262717.22746  22518991.8364                   22518989.5044
        42.7504         38.5004
   6538681.48446   3602474.15245  24183693.8054                   24183692.6174
        38.7504         30.0004
   8928819.69146   4877436.25843  24037387.0864                   24037385.0554
        40.0004         20.7504
 -12821885.41047  -9958884.76646  20788166.6414                   20788161.2854
        47.7504         38.2504
  10071167.71547   7856397.08247  22628549.6334                   22628546.5664
        46.5004         43.0004
   7707938.12946   6043269.52744  24409886.7114                   24409887.8674
        36.0004         27.2504
 -25139846.85548 -19523226.77048  20337775.0784                   20337768.9844
        49.0004         48.0004
 -20698148.54747 -15795541.10946  21234149.7274                   21234144.1334
        47.5004         36.0004
 25  7 15 23 29 30.0000000  0 10G02G10G03G25G04G28G32G26G31G01
  -9754705.22747  -7570108.51246  21359730.1954                   21359723.1644
        47.7504         38.0004
   9064340.18847   7069913.38346  23171331.9614                   23171330.9414
        43.2504         37.0004
  -6954150.33247  -5383497.03146  22489496.3834                   22489493.3554
        43.2504         39.5004
   6465404.99646   3545375.59844  24169748.9144                   24169748.8714
        38.2504         29.5004
   8782079.35946   4763093.27043  24009463.2274                   24009461.8914
        41.2504         22.5004
 -12868786.81648  -9995431.31246  20779241.4384                   20779236.3244
        48.0004         38.5004
  10067743.59847   7853728.90647  22627897.6484                   22627894.7344
        46.0004         42.7504
   7547624.80145   5918350.18043  24379378.4844                   24379379.8874
        33.0004         22.0004
 -25256129.61748 -19613836.68448  20315646.8204                   20315640.7464
        48.7504         48.0004
 -20805064.40647 -15878852.15645  21213803.5314                   21213799.2234
        47.2504         35.7504
 25  7 15 23 30  0.0000000  0 10G02G10G03G25G04G28G32G26G31G01
  -9796840.78548  -7602941.43746  21351712.0004                   21351705.0664
        48.5004         38.5004
   9066797.66047   7071828.21946  23171799.9304                   23171797.9224
        43.5004         36.7504
  -7109086.83647  -5504226.73846  22460012.2344                   22460010.2934
        43.7504         39.7504
   6392653.16046   3488685.89144  24155904.8054                   24155903.6024
        39.0004         28.5004
   8635469.28546   4648851.75443  23981564.0474                   23981562.0164
        40.0004         21.7504
 -12915129.50047 -10031542.50046  20770422.7034                   20770417.4574
        47.5004         38.7504
  10064371.72747   7851101.44547  22627256.2584                   22627253.3554
        46.5004         42.7504
   7387257.54745   5793388.94544  24348861.4454                   24348864.1884
        33.7504         26.5004
 -25371830.49248 -19703993.18748  20293629.6564                   20293623.4224
        48.7504         48.0004
 -20911437.30947 -15961740.14146  21193561.7814                   21193557.1604
        46.7504         36.5004
 25  7 15 23 30 30.0000000  0 10G02G10G03G25G04G28G32G26G31G01
  -8263066.97747  -6407793.04346  21643579.8594                   21643572.0784
        46.5004         39.0004
  10644920.64847   8301534.37146  23472106.9614                   23472105.0744
        43.7504         36.5004
  -5688534.37147  -4397302.71146  22730333.6254                   22730332.2234
        42.0004         38.7504
   7895847.53546   4660006.18444  24441953.5234                   24441951.5354
        38.5004         27.7504
  10064412.43046   5762314.03543  24253483.1884                   24253480.6564
        40.5004         21.7504
 -11385495.14147  -8839619.62146  21061501.9614                   21061497.2424
        47.5004         38.2504
  11636469.51247   9076112.66847  22926416.7584                   22926413.6174
        46.5004         42.7504
   8802262.45745   6895990.28944  24618128.0864                   24618130.1024
        35.7504         24.0004
 -23911526.29348 -18566093.78948  20571516.3524                   20571510.0044
        48.0004         48.0004
 -19441844.26647 -14816602.69946  21473216.3674                   21473210.9454
        46.5004         36.2504
 25  7 15 23 31  0.0000000  0 10G02G10G03G25G04G28G32G26G31G01
  -8304232.16847  -6439869.83246  21635746.2424                   21635739.3984
        46.7504         38.5004
  10647864.63347   8303828.33246  23472666.9774                   23472665.2894
        43.0004         36.5004
  -5843346.22747  -4517935.27746  22700874.3444                   22700872.4884
        43.5004         39.2504
   7824139.53946   4604129.81644  24428308.6884                   24428306.4064
        38.2504         28.5004
   9918054.69146   5648269.15243  24225631.5004                   24225629.9384
        39.7504         22.2504
 -11430732.58647  -8874869.57846  21052894.2194                   21052888.7464
        47.7504         38.5004
  11633191.39147   9073558.25047  22925792.6334                   22925789.9454
        47.2504         42.5004
   8641787.29746   6770944.80143  24587592.1644                   24587591.9494
        36.7504         23.2504
 -24026067.88348 -18655346.95748  20549719.6414                   20549713.6174
        48.2504         48.0004
 -19547135.39147 -14898647.72745  21453179.7194                   21453175.0354
        46.2504         35.5004
 25  7 15 23 31 30.0000000  0 10G02G10G03G25G04G28G32G26G31G01
  -8344913.18048  -6471569.35246  21628005.3134                   21627998.0274
        48.0004         38.2504
  10651051.76247   8306311.74646  23473274.0164                   23473271.8014
        43.5004         36.7504
  -5998093.22347  -4638517.32446  22671427.3834                   22671425.1604
        43.5004         39.0004
   7752955.15646   4548661.50844  24414761.7734                   24414760.5514
        37.7504         28.0004
   9771823.61746   5534322.96143  24197804.7734                   24197802.9654
        40.0004         22.7504
 -11475418.96547  -8909690.13346  21044390.6954                   21044385.8284
        46.7504         39.0004
  11629959.34447   9071039.73447  22925178.2894                   22925174.9384
        46.5004         42.5004
   8481262.80946   6645860.98044  24557043.5084                   24557045.5434
        36.7504         27.2504
 -24140027.37548 -18744146.53148  20528033.8594                   20528027.8054
        48.2504         48.5004
 -19651883.26247 -14980269.44546  21433246.7034                   21433242.0394
        46.2504         36.2504
 25  7 15 23 32  0.0000000  0 10G02G10G03G25G04G28G32G26G31G01
  -8385108.54348  -6502890.43446  21620356.2274                   21620349.0354
        48.2504         38.5004
  10654484.74647   8308986.73446  23473927.3594                   23473925.3674
        43.2504         37.0004
  -6152770.77347  -4759045.24246  22641992.9064                   22641991.0594
        43.2504         39.0004
   7682298.15646   4493604.15244  24401315.5704                   24401314.6604
        36.0004         27.2504
   9625722.35546   5420477.91443  24170002.7114                   24170000.7234
        39.0004         22.2504
 -11519552.54747  -8944079.93446  21035992.3524                   21035986.8714
        47.5004         38.5004
  11626775.57447   9068558.83647  22924572.3134                   22924569.1804
        47.0004         42.5004
   8320694.89546   6520743.20744  24526489.3674                   24526489.8634
        36.5004         27.2504
 -24253400.38348 -18832489.11348  20506459.9064                   20506453.8094
        48.2504         48.2504
 -19756083.42647 -15061464.37546  21413418.4614                   21413413.1724
        47.0004         36.2504
 25  7 15 23 32 30.0000000  0 10G02G10G03G25G04G28G32G26G31G01
  -8424816.55547  -6533831.76646  21612799.8834                   21612792.6914
        47.5004         38.7504
  10658165.66847   8311854.92646  23474627.5314                   23474625.8204
        44.0004         36.0004
  -6307375.01247  -4879516.03946  22612572.8674                   22612570.5554
        43.0004         39.5004
   7612171.92246   4438960.31344  24387971.0554                   24387970.6134
        36.2504         25.0004
   9479753.43446   5306735.99643  24142225.4064                   24142223.7074
        39.5004         22.7504
 -11563132.28147  -8978038.17246  21027699.6484                   21027694.1254
        47.5004         38.7504
  11623641.79347   9066116.89547  22923975.5634                   22923972.6214
        46.5004         42.0004
   8160088.76646   6395595.73444  24495927.1254                   24495927.0044
        38.5004         28.0004
 -24366183.34448 -18920371.91448  20484997.7194                   20484991.6684
        48.7504         48.5004
 -19859732.13347 -15142229.60246  21393694.5394                   21393689.7584
        46.7504         36.5004
 25  7 15 23 33  0.0000000  0 10G02G10G03G25G04G28G32G26G31G01
  -8464043.01648  -6564397.87146  21605335.4694                   21605328.4574
        48.0004         38.2504
  10662089.56647   8314912.44146  23475374.0704                   23475372.6564
        44.2504         37.0004
  -6461909.05547  -4999932.13346  22583166.3204                   22583163.8444
        43.5004         39.7504
   7542572.46146   4384726.96944  24374725.7034                   24374726.2544
        36.5004         26.0004
   9333912.25046   5193093.62943  24114472.1254                   24114470.8874
        38.0004         22.0004
 -11606164.21947  -9011569.55546  21019511.2504                   21019505.1054
        47.0004         38.7504
  11620552.55547   9063709.66447  22923387.6254                   22923385.0824
        46.5004         42.5004
   7999442.75446   6270417.16445  24465355.8674                   24465358.8914
        36.5004         30.7504
 -24478379.59848 -19007797.53548  20463647.5634                   20463641.7664
        48.2504         48.2504
 -19962832.74647 -15222567.74245  21374075.2584                   21374070.3594
        46.2504         35.7504
 25  7 15 23 33 30.0000000  0 10G02G10G03G25G04G28G32G26G31G01
  -8502784.18748  -6594585.80946  21597962.8284                   21597955.8834
        48.0004         39.0004
  10666261.30147   8318163.07446  23476168.1174                   23476166.6134
        43.2504         36.5004
  -6616366.16047  -5120288.28546  22553773.8204                   22553770.9844
        44.5004         39.7504
   7473505.85946   4330908.82044  24361583.6804                   24361583.0274
        36.0004         26.0004
   9188204.09846   5079554.91043  24086745.3054                   24086743.5984
        39.0004         22.5004
 -11648644.45747  -9044671.03946  21011426.9144                   21011421.5744
        46.5004         38.2504
  11617512.40247   9061340.68047  22922809.4694                   22922806.1644
        47.0004         42.2504
   7838764.94546   6145213.76644  24434781.2034                   24434780.6524
        38.2504         29.7504
 -24589982.35948 -19094760.69948  20442410.4304                   20442404.4264
        49.0004         48.2504
 -20065378.76247 -15302473.72746  21354561.6954                   21354556.5084
        46.2504         36.0004
 25  7 15 23 34  0.0000000  0 10G02G10G03G25G04G28G32G26G31G01
  -8541044.56247  -6624399.11746  21590682.6174                   21590674.9304
        47.0004         38.7504
  10670677.13347   8321603.90646  23477008.3914                   23477007.2194
        43.5004         37.2504
  -6770748.14847  -5240585.91846  22524394.9304                   22524393.6884
        42.0004         39.0004
   7404969.40245   4277503.76644  24348540.7734                   24348540.8674
        34.5004         25.0004
   9042625.69546   4966117.29743  24059042.1954                   24059040.5704
        38.5004         22.5004
 -11690577.85947  -9077346.41846  21003447.1804                   21003441.9494
        47.0004         38.7504
  11614517.09047   9059006.63347  22922239.2734                   22922236.4654
        46.5004         42.0004
   7678054.84846   6019985.29744  24404199.0234                   24404198.9964
        37.7504         29.5004
 -24700994.10248 -19181263.33648  20421285.3754                   20421279.0354
        48.5004         48.2504
 -20167372.27347 -15381949.18746  21335152.7274                   21335147.7304
        46.0004         36.7504
 25  7 15 23 34 30.0000000  0 10G02G10G03G25G04G28G32G26G31G01
  -8578821.53948  -6653835.74646  21583493.6954                   21583486.7854
        48.2504         38.7504
  10675340.38347   8325237.53146  23477895.7974                   23477894.3324
        42.5004         36.5004
  -6925049.93047  -5360821.03946  22495032.6564                   22495030.4654
        43.7504         39.5004
   7336967.52346   4224515.28544  24335601.5394                   24335601.1294
        37.5004         27.5004
   8897180.71546   4852783.66444  24031364.4534                   24031363.1884
        40.0004         24.2504
 -11731962.12147  -9109593.90246  20995572.2814                   20995566.8284
        47.5004         38.7504
  11611569.63747   9056709.87946  22921678.7584                   22921675.7814
        46.0004         41.7504
   7517318.92646   5894736.64545  24373612.2114                   24373612.4414
        37.5004         31.0004
 -24811409.88748 -19267301.57848  20400274.1094                   20400267.7814
        49.0004         48.5004
 -20268808.39547 -15460990.32046  21315850.6724                   21315844.7504
        46.5004         36.0004
 25  7 15 23 35  0.0000000  0 10G02G10G03G25G04G28G32G26G31G01
  -8616117.97347  -6682897.92646  21576396.4534                   21576389.6094
        46.0004         38.7504
  10680249.08647   8329062.43046  23478830.2664                   23478828.6454
        43.2504         37.2504
  -7079271.43747  -5480993.60546  22465685.3594                   22465683.4024
        42.2504         39.5004
   7269499.31346   4171942.66444  24322763.7344                   24322762.0784
        39.2504         27.0004
   8751867.71946   4739552.85243  24003712.9144                   24003710.7194
        39.5004         22.0004
 -11772800.34448  -9141415.89146  20987801.6564                   20987795.7774
        48.0004         38.2504
  11608667.68447   9054448.58647  22921126.1954                   22921123.5204
        47.0004         42.0004
   7356558.55946   5769468.96545  24343020.3524                   24343020.6914
        38.7504         31.7504
 -24921230.23448 -19352875.85248  20379375.7814                   20379369.5554
        48.7504         48.5004
 -20369687.41047 -15539597.34446  21296653.2344                   21296648.4414
        46.5004         36.5004
 25  7 15 23 35 30.0000000  0 10G02G10G03G25G04G28G32G26G31G01
  -8652933.37147  -6711585.27746  21569391.0234                   21569383.7234
        47.5004         38.7504
  10685404.56647   8333079.61746  23479811.7114                   23479810.0354
        42.2504         37.5004
  -7233409.40647  -5601101.06646  22436354.8444                   22436351.8594
        43.2504         40.2504
   7202567.19146   4119787.80144  24310026.2034                   24310024.9184
        38.2504         28.0004
   8606688.42646   4626426.25843  23976085.2814                   23976084.7194
        39.2504         21.7504
 -11813092.16447  -9172812.12146  20980133.8134                   20980128.4774
        47.7504         38.7504
  11605812.28947   9052223.56647  22920582.9774                   22920579.9614
        45.2504         42.0004
   7195778.34846   5644185.81345  24312424.9304                   24312425.2154
        37.7504         30.7504
 -25030452.03148 -19437983.72348  20358591.4224                   20358585.5044
        49.2504         48.5004
 -20470006.53547 -15617768.07446  21277563.2584                   21277558.3754
        47.0004         36.0004
 25  7 15 23 36  0.0000000  0 10G02G10G03G25G04G28G32G26G31G01
  -8689274.05147  -6739902.71146  21562475.2974                   21562468.1684
        47.5004         38.0004
  10690801.43047   8337284.90246  23480838.0084                   23480836.4694
        42.2504         37.7504
  -7387467.28947  -5721146.13746  22407037.7424                   22407034.9384
        43.5004         39.2504
   7136166.73046   4068047.20744  24297390.6644                   24297389.2894
        37.5004         27.0004
   8461637.88346   4513400.00043  23948483.5314                   23948482.2934
        38.0004         21.2504
 -11852844.16047  -9203787.69946  20972569.2274                   20972563.5704
        47.0004         38.5004
  11602997.70347   9050030.34846  22920047.4844                   22920044.6334
        45.7504         41.7504
   7034976.25446   5518885.66844  24281824.6804                   24281825.4884
        37.0004         29.5004
 -25139079.27048 -19522628.30548  20337920.4774                   20337914.6524
        49.0004         48.5004
 -20569769.48047 -15695505.43446  21258578.6094                   21258574.3244
        47.0004         36.0004
 25  7 15 23 36 30.0000000  0 10G02G10G03G25G04G28G32G26G31G01
  -8725137.20747  -6767848.05946  21555650.9534                   21555643.7734
        46.0004         38.2504
  10696443.20347   8341681.02046  23481911.6334                   23481910.4454
        42.2504         37.2504
  -7541439.63347  -5841124.54346  22377738.6564                   22377735.3244
        43.7504         39.7504
   7070302.51246   4016724.46144  24284856.9454                   24284855.1804
        37.5004         27.0004
   8316720.03146   4400477.11743  23920906.7734                   23920905.0164
        39.2504         22.7504
 -11892053.85947  -9234340.71146  20965107.9144                   20965102.3554
        45.0004         39.0004
  11600227.14847   9047871.43846  22919520.2664                   22919517.6174
        45.5004         41.5004
   6874159.22745   5393573.80145  24251222.3524                   24251223.8524
        34.2504         30.5004
 -25247106.97348 -19606805.72348  20317363.3914                   20317357.7854
        48.5004         48.5004
 -20668971.22747 -15772805.48846  21239701.5784                   21239696.5314
        45.7504         36.0004
