     2.11           OBSERVATION DATA    G (GPS)             RINEX VERSION / TYPE
teqc  2019Feb25     K Rivera            20250820 07:07:31UTCPGM / RUN BY / DATE
Linux 2.6.32-573.12.1.x86_64|x86_64|gcc -static|Linux 64|=+ COMMENT
teqc  2019Feb25                         20250820 07:01:51UTCCOMMENT
BIT 2 OF LLI FLAGS DATA COLLECTED UNDER A/S CONDITION       COMMENT
J701                                                        MARKER NAME
                                                            MARKER NUMBER
Katie Baraggiotta   University of California, Riverside     OBSERVER / AGENCY
0220413516          TRIMBLE R7          2.32                REC # / TYPE / VERS
1441040465          TRM57971.00                             ANT # / TYPE
 -2421224.7892 -4595396.3578  3690373.5762                  APPROX POSITION XYZ
        0.8306        0.0000        0.0000                  ANTENNA: DELTA H/E/N
     1     1                                                WAVELENGTH FACT L1/2
     7    L1    L2    C1    P1    P2    S1    S2            # / TYPES OF OBSERV
    18                                                      LEAP SECONDS
 SNR is mapped to RINEX snr flag value [0-9]                COMMENT
  L1 & L2: min(max(int(snr_dBHz/6), 0), 9)                  COMMENT
  2025     8     7    19    35   30.0000000     GPS         TIME OF FIRST OBS
                                                            END OF HEADER
 25  8  7 19 35 30.0000000  0  6G02G08G10G23G27G32
   -283416.41457   -173121.09054  23319278.0704                   23319274.4384
        44.0004         29.7504
   -114822.41857    -70455.38756  22525457.1174                   22525458.9384
        44.5004         40.2504
   -124328.14158    -78267.98858  21111498.7034                   21111497.5234
        50.7504         51.7504
    -43640.59057    -27050.57454  22791999.5164                   22791997.8134
        44.0004         29.5004
    -28381.34857    -17661.87156  22509524.9384                   22509526.0004
        44.7504         40.5004
   -151554.59858    -92731.80158  20418347.3054                   20418345.5354
        50.7504         53.5004
 25  8  7 19 36  0.0000000  0  8G02G08G10G23G24G27G28G32
   -458955.53147   -309904.75445  23285873.9064                   23285870.0984
        43.5004         30.0004
   -186069.51647   -125972.70746  22511899.2734                   22511900.8164
        44.5004         40.5004
   -201854.74248   -138678.35248  21096745.5394                   21096744.5554
        51.2504         51.7504
    -71886.95747    -49060.80945  22786624.1334                   22786623.0434
        45.0004         30.2504
    -26788.44155    -15236.43454  23934112.1954                   23934113.5634
        34.5004         28.5004
    -47052.07447    -32210.61747  22505971.7034                   22505973.2424
        45.7504         42.2504
   -459640.53956   -283219.81652  23496222.1884                   23496223.4494
        37.7504         17.7504
   -245343.77348   -165814.29348  20400499.7424                   20400498.4654
        51.0004         53.5004
 25  8  7 19 36 30.0000000  0  8G02G08G10G23G24G27G28G32
   -634875.15646   -446984.91044  23252396.9224                   23252393.3054
        41.2504         25.5004
   -257345.44547   -181512.48846  22498335.8444                   22498337.5784
        44.7504         38.7504
   -279763.45348   -199386.47348  21081920.2114                   21081919.0984
        50.2504         50.7504
   -100572.25047    -71413.08644  22781166.1414                   22781164.6214
        42.7504         28.7504
    -48874.65246    -32446.52044  23929908.3134                   23929910.1604
        37.0004         28.5004
    -65932.60247    -46922.84047  22502379.4304                   22502380.3714
        44.7504         42.2504
   -651716.94546   -432889.53544  23459671.1334                   23459672.8484
        40.7504         24.7504
   -339214.39548   -238960.25448  20382636.9224                   20382635.1764
        51.0004         53.0004
 25  8  7 19 37  0.0000000  0  9G02G08G10G18G23G24G27G28G32
    764349.89847    643320.36344  23518660.6254                   23518657.2304
        43.5004         28.5004
   1246867.91447    990601.71946  22784578.2814                   22784579.6884
        45.2504         40.5004
   1217465.47348    967285.39148  21366833.5234                   21366832.5434
        49.7504         48.2504
   1592774.07456   1238041.51254  24345364.9614                   24345368.4694
        38.5004         24.2504
   1445821.64146   1133569.06343  23075434.9614                   23075433.6914
        38.2504         22.7504
   1558298.44155   1184623.47353  24225508.4774                   24225508.7584
        34.0004         21.5004
   1490491.74647   1165875.25847  22798556.8594                   22798558.8164
        45.5004         43.7504
    731296.23446    644783.25844  23722849.7584                   23722850.6174
        38.5004         25.0004
   1142352.75048    915507.64848  20664569.3594                   20664567.9654
        48.7504         51.5004
 25  8  7 19 37 30.0000000  0  9G02G08G10G18G23G24G27G28G32
    587930.16447    505850.52044  23485088.8674                   23485085.4614
        44.0004         28.0004
   1175784.55547    935212.00846  22771051.8594                   22771053.3554
        45.7504         41.0004
   1139047.39548    906180.37547  21351911.1644                   21351909.6024
        48.5004         47.0004
   1602105.18446   1245312.19944  24347141.6094                   24347144.4844
        41.2504         27.7504
   1416513.00446   1110731.09043  23069857.6094                   23069856.1804
        39.5004         22.0004
                                  24221332.992
        31.000
   1471437.01647   1151027.32047  22794931.0474                   22794932.5084
        45.0004         43.0004
    538609.36746    494637.83244  23686182.9454                   23686183.4344
        41.7504         25.2504
   1048570.77748    842430.77048  20646723.3204                   20646722.0824
        51.5004         53.0004
 25  8  7 19 38  0.0000000  0  9G02G08G10G18G23G24G27G28G32
    411341.41847    368248.96944  23451485.3524                   23451481.3204
        44.2504         28.5004
   1104873.70747    879956.74245  22757558.1254                   22757559.2774
        42.5004         33.0004
   1060453.31648    844938.18448  21336955.3054                   21336953.8834
        49.7504         50.2504
   1611297.01246   1252474.32444  24348890.6334                   24348894.2584
        40.7504         25.5004
   1386971.17246   1087711.36344  23064236.8054                   23064234.6254
        40.0004         26.5004
   1514574.68845   1159305.08654  24217186.7974                   24217188.1844
        33.2504         27.7504
   1452369.26646   1136169.16845  22791302.7344                   22791304.3324
        40.0004         33.0004
    345700.11347    344319.06344  23649472.9614                   23649473.6954
        42.0004         25.5004
    954910.08248    769448.37548  20628900.8524                   20628899.0204
        50.5004         53.0004
 25  8  7 19 38 30.0000000  0  9G02G08G10G18G23G24G27G28G32
    234622.98447    230546.37545  23417857.2194                   23417853.1024
        44.0004         30.5004
   1034171.02047    824863.66446  22744103.3204                   22744105.1054
        43.7504         39.0004
    981720.47748    783587.88348  21321972.9534                   21321971.7504
        50.7504         51.2504
                                  24350620.5864                   24350623.8874
        34.2504         20.2504
   1357233.55546   1064539.10244  23058577.0944                   23058575.8754
        40.2504         28.7504
   1492971.45746   1142471.35545  24213076.4064                   24213077.1484
        37.2504         31.0004
   1433322.55547   1121327.44947  22787678.2274                   22787679.2664
        44.0004         42.0004
    152608.73047    193858.41443  23612728.5164                   23612729.6954
        42.5004         22.7504
    861406.86748    696588.72348  20611107.5084                   20611105.6454
        51.5004         53.0004
 25  8  7 19 39  0.0000000  0  9G02G08G10G18G23G24G27G28G32
     57807.58247     92768.22744  23384210.4924                   23384206.1644
        43.7504         29.5004
    963705.59447    769955.46546  22730694.1564                   22730695.8524
        43.2504         39.0004
    902879.54748    722153.37948  21306969.9304                   21306968.3134
        50.5004         50.5004
   1629400.01656   1260211.43853  24352335.7664                   24352340.0274
        38.5004         19.7504
   1327330.73046   1041238.10544  23052887.0554                   23052886.0864
        41.2504         28.5004
   1471580.79346   1125803.25445  24209005.9224                   24209006.8014
        38.5004         31.0004
   1414324.53547   1106523.66446  22784062.8054                   22784064.5664
        44.0004         41.5004
    -40631.18047     43282.05544  23575955.7734                   23575957.0904
        42.5004         26.0004
    768090.73448    623874.85248  20593349.7974                   20593348.0904
        50.5004         53.2504
 25  8  7 19 39 30.0000000  0  9G02G08G10G18G23G24G27G28G32
   -119074.23447    -45061.69545  23350550.6804                   23350546.3594
        44.5004         30.0004
    893504.37147    715253.13346  22717335.6644                   22717337.3674
        42.7504         38.7504
    823959.27348    660657.03548  21291951.9144                   21291950.6454
        50.2504         50.5004
   1638364.80945   1267196.62543  24354042.7274                   24354045.6024
        35.5004         22.2504
   1297291.18846   1017830.55145  23047170.6094                   23047169.5234
        41.2504         30.5004
   1450429.06345   1109321.34444  24204980.4144                   24204982.3554
        34.0004         25.5004
   1395400.57447   1091777.59846  22780462.1024                   22780463.5354
        44.2504         41.2504
   -233988.07846   -107385.47744  23539161.7274                   23539162.3014
        41.5004         25.5004
    674989.06648    551328.07448  20575633.1414                   20575631.6374
        50.7504         52.7504
 25  8  7 19 40  0.0000000  0  9G02G08G10G18G23G24G27G28G32
   -296000.00847   -182925.86345  23316883.1334                   23316878.7304
        44.5004         30.0004
    823586.25847    660771.39146  22704030.8284                   22704032.1254
        42.7504         38.5004
    744980.28148    599114.93848  21276922.6884                   21276921.5124
        50.0004         50.5004
   1647300.23846   1274158.95743  24355742.8364                   24355746.2384
        36.5004         22.0004
   1267135.48046    994332.50845  23041432.5394                   23041431.3634
        41.5004         30.0004
   1429534.06646   1093039.46945  24201004.6024                   24201005.8134
        38.7504         31.0004
   1376568.26647   1077102.94946  22776878.6954                   22776880.2074
        44.2504         41.0004
   -427438.49247   -258125.88344  23502349.0394                   23502350.0354
        42.0004         26.5004
    582121.34448    478963.61348  20557961.1174                   20557959.6414
        50.5004         53.0004
 25  8  7 19 40 30.0000000  0  9G02G08G10G18G23G24G27G28G32
   -472948.34847   -320807.61344  23283210.5164                   23283206.7304
        43.7504         29.0004
    753968.83647    606523.97746  22690782.9614                   22690783.9384
        42.5004         38.0004
    665961.84848    537542.10548  21261886.1024                   21261884.9574
        50.2504         50.5004
   1656223.71546   1281111.97743  24357441.2734                   24357444.5044
        37.5004         22.0004
   1236882.89147    970758.96545  23035675.3914                   23035674.4144
        42.7504         30.0004
   1408912.94546   1076971.00845  24197080.4304                   24197082.0904
        38.2504         30.5004
   1357843.69147   1062512.24646  22773315.5164                   22773317.1564
        44.5004         41.0004
   -620960.19547   -408921.82044  23465523.0864                   23465523.4694
        42.7504         26.7504
    489505.70348    406795.57848  20540336.8984                   20540335.3164
        50.7504         53.0004
 25  8  7 19 41  0.0000000  0  9G02G08G10G18G23G24G27G28G32
   -649895.05547   -458688.09045  23249538.4304                   23249534.5434
        44.2504         30.0004
    684672.78147    552526.97346  22677596.4694                   22677597.8204
        43.0004         38.2504
    586926.48448    475956.08248  21246846.1724                   21246844.9614
        50.0004         50.5004
   1665155.77045   1288071.68843  24359141.3054                   24359144.2974
        35.0004         20.2504
   1206555.77346    947127.35944  23029904.6724                   23029903.4454
        41.7504         29.5004
   1388585.34846   1061131.28145  24193212.2664                   24193213.4104
        39.0004         30.7504
   1339246.14147   1048020.53946  22769776.6024                   22769777.8014
        44.0004         41.5004
   -814527.87547   -559753.60244  23428688.5784                   23428688.7814
        42.7504         27.5004
    397163.31648    334840.46548  20522764.9144                   20522763.3204
        51.0004         53.0004
 25  8  7 19 41 30.0000000  0  9G02G08G10G18G23G24G27G28G32
   -826822.08247   -596553.23045  23215870.2344                   23215866.7504
        44.5004         31.5004
    615712.48447    498791.59846  22664473.6804                   22664475.1524
        43.5004         39.2504
    507890.31348    414369.43448  21231806.0864                   21231804.6134
        50.2504         50.5004
   1674110.68045   1295049.18443  24360844.7344                   24360848.7854
        35.5004         19.5004
   1176170.15647    923450.16845  23024122.7814                   23024120.8404
        42.5004         30.0004
   1368565.06646   1045531.01645  24189402.5314                   24189403.7344
        39.0004         30.0004
   1320788.53547   1033637.87147  22766264.5234                   22766265.8324
        44.0004         42.2504
  -1008122.50047   -710606.36344  23391847.7274                   23391848.6914
        42.2504         26.7504
    305109.13748    263109.93448  20505247.3984                   20505246.1294
        51.5004         53.0004
 25  8  7 19 42  0.0000000  0  9G02G08G10G18G23G24G27G28G32
  -1003711.71547   -734389.23845  23182209.3284                   23182205.2854
        44.7504         31.2504
    547102.03947    445328.83246  22651417.9694                   22651419.4144
        43.7504         39.0004
    428869.25048    352794.55548  21216768.5784                   21216767.3204
        49.7504         50.5004
   1683102.46945   1302055.42243  24362556.7274                   24362560.6334
        35.2504         20.0004
   1145741.89147    899739.74644  23018332.4454                   23018330.7624
        42.7504         29.7504
   1348865.16846   1030180.40644  24185653.7664                   24185655.0084
        38.5004         29.7504
   1302483.60547   1019374.18447  22762780.6724                   22762783.1214
        44.5004         42.0004
  -1201725.32447   -861465.52744  23355006.8914                   23355007.2704
        43.2504         27.7504
    213357.77748    191615.36348  20487787.6174                   20487785.7074
        52.0004         53.0004
 25  8  7 19 42 30.0000000  0  9G02G08G10G18G23G24G27G28G32
  -1180547.58647   -872183.34045  23148558.2194                   23148555.0394
        43.7504         31.7504
    478853.96547    392148.43446  22638430.5164                   22638431.9024
        43.0004         39.0004
    349877.71548    291242.68448  21201737.5864                   21201735.7464
        49.7504         50.5004
   1692143.50446   1309100.01243  24364277.7664                   24364281.0434
        36.5004         19.5004
   1115285.17247    876007.14844  23012536.8524                   23012535.3204
        43.0004         28.0004
   1329497.63346   1015088.76244  24181967.9144                   24181969.5944
        37.7504         28.5004
   1284342.53947   1005238.16847  22759328.9224                   22759331.3134
        43.5004         42.5004
  -1395319.03947  -1012317.58244  23318166.8524                   23318167.3134
        42.7504         28.5004
    121922.32048    120366.95748  20470388.0394                   20470386.6334
        52.0004         53.0004
 25  8  7 19 43  0.0000000  0  9G02G08G10G18G23G24G27G28G32
  -1357318.25447  -1009926.64545  23114919.9064                   23114916.1604
        44.0004         30.5004
    410976.05547    339256.48446  22625513.8984                   22625515.7154
        43.5004         39.2504
    270925.27048    229721.27348  21186713.3364                   21186711.7464
        50.0004         50.5004
   1701241.60946   1316189.14843  24366009.0004                   24366012.3484
        37.0004         20.7504
   1084809.62147    852259.87144  23006737.0554                   23006736.3754
        42.5004         29.0004
   1310469.38746   1000261.52044  24178347.0634                   24178348.6414
        38.0004         27.5004
   1266371.69147    991234.78547  22755909.7274                   22755911.2934
        43.5004         42.0004
  -1588891.19947  -1163152.82444  23281331.0084                   23281331.4184
        43.0004         27.2504
     30811.11348     49371.21548  20453050.3204                   20453048.5904
        51.5004         53.0004
 25  8  7 19 43 30.0000000  0  9G02G08G10G18G23G24G27G28G32
  -1534007.17647  -1147606.24245  23081297.3444                   23081293.2584
        44.0004         31.2504
    343480.85547    286662.74646  22612670.4304                   22612671.7814
        43.5004         39.5004
    192026.39148    168241.59848  21171699.0784                   21171697.7384
        50.0004         50.5004
   1710409.19946   1323332.37543  24367752.8134                   24367757.4774
        37.2504         19.7504
   1054329.54347    828509.04744  23000937.5554                   23000936.3794
        43.0004         29.5004
   1291792.11746    985707.74644  24174792.9384                   24174794.3364
        38.0004         27.0004
   1248582.21147    977372.72347  22752523.8834                   22752526.1024
        43.5004         42.0004
  -1782424.57047  -1313957.87544  23244502.7664                   23244502.7854
        43.0004         27.7504
    -59962.76248    -21361.67648  20435776.7974                   20435774.8404
        51.0004         53.0004
 25  8  7 19 44  0.0000000  0  9G02G08G10G18G23G24G27G28G32
  -1710600.39847  -1285211.28145  23047692.5394                   23047688.6644
        43.2504         31.7504
    276378.71147    234375.28146  22599901.3594                   22599902.3714
        43.5004         40.7504
    113193.43048    106813.30148  21156697.4224                   21156696.2974
        50.7504         50.5004
   1719656.69346   1330537.88543  24369513.8364                   24369517.2114
        38.0004         20.2504
   1023857.14547    804764.22744  22995138.4774                   22995137.5904
        43.0004         29.5004
   1273475.67246    971435.15244  24171307.6484                   24171309.1954
        39.0004         28.2504
   1230983.28147    963659.14146  22749175.2814                   22749177.2114
        43.5004         41.2504
  -1975903.86747  -1464720.77344  23207684.7584                   23207684.5594
        42.5004         27.2504
   -150388.30148    -91823.13348  20418569.2664                   20418567.4414
        51.2504         53.0004
 25  8  7 19 44 30.0000000  0 10G02G08G10G18G23G24G27G28G32G31
  -1887087.22747  -1422733.43045  23014108.3444                   23014104.4304
        43.5004         31.2504
    209676.66447    182399.59046  22587208.6954                   22587209.8984
        43.5004         40.0004
     34435.24648     45443.25848  21141710.6564                   21141709.0314
        50.7504         50.5004
   1728990.94146   1337810.95743  24371290.3284                   24371293.8554
        39.0004         19.2504
    993401.13347    781032.18844  22989343.0864                   22989341.8634
        43.0004         28.2504
   1255526.06646    957448.40244  24167891.7114                   24167893.2814
        38.5004         29.0004
   1213580.47347    950098.37946  22745863.9454                   22745865.7934
        42.0004         40.7504
  -2169317.41447  -1615432.45344  23170879.0314                   23170879.5514
        42.0004         27.5004
   -240457.99648   -162007.32048  20401429.4144                   20401427.8134
        51.0004         53.0004
   1236007.47355   1016250.41853  25115998.6414                   25116006.0274
        33.7504         20.2504
 25  8  7 19 45  0.0000000  0 10G02G08G10G18G23G24G27G28G32G31
  -2063458.81247  -1560165.75445  22980545.9614                   22980541.8794
        43.0004         31.2504
    143379.55947    130739.43046  22574592.4694                   22574594.1644
        43.0004         40.2504
    -44241.29748    -15863.16048  21126739.2664                   21126737.8554
        49.5004         50.5004
   1738416.83246   1345155.49243  24373084.3134                   24373087.8554
        39.0004         19.2504
    962968.36347    757318.24244  22983551.9144                   22983550.8984
        42.5004         27.5004
   1237947.62146    943750.87144  24164547.7034                   24164548.4414
        39.2504         28.0004
   1196377.34447    936693.21546  22742590.2194                   22742591.9734
        42.5004         40.2504
  -2362655.48446  -1766085.32444  23134087.8754                   23134088.0784
        41.2504         27.7504
   -330166.33648   -231909.92248  20384358.7424                   20384356.6334
        51.0004         53.0004
   1030272.06645    855937.57843  25076847.4304                   25076855.6804
        35.5004         22.5004
 25  8  7 19 45 30.0000000  0 10G02G08G10G18G23G24G27G28G32G31
   -664283.40247   -469899.13745  23246799.9064                   23246795.9844
        42.7504         31.5004
   1652911.56647   1306998.05546  22861846.3134                   22861848.4964
        43.0004         40.2504
   1452590.40648   1150499.18848  21411576.3984                   21411575.3404
        50.2504         50.5004
   3323356.09046   2580172.78543  24674688.1724                   24674692.1994
        38.5004         19.2504
   2507983.61347   1961226.11744  23277558.6884                   23277557.7894
        42.7504         27.5004
   2796162.07446   2157943.93444  24461065.5164                   24461066.5044
        39.7504         29.0004
   2754795.19147   2151044.65646  23039147.5554                   23039149.2234
        43.5004         40.5004
   -980484.85547   -689069.08644  23397106.3364                   23397106.0514
        42.0004         28.5004
   1155912.15248    926073.31348  20667149.9454                   20667147.8984
        51.2504         53.0004
   2399751.43846   1923064.65644  25337450.8204                   25337458.8404
        36.5004         24.7504
 25  8  7 19 46  0.0000000  0 10G02G08G10G18G23G24G27G28G32G31
   -840402.46147   -607134.70745  23213285.6094                   23213281.5234
        42.7504         32.0004
   1587434.57847   1255976.93846  22849386.6954                   22849388.7074
        43.0004         40.5004
   1374093.43448   1089332.69148  21396639.2194                   21396637.8204
        50.0004         50.5004
   3332975.62146   2587668.18443  24676519.4534                   24676523.4614
        38.5004         19.7504
   2477613.03947   1937560.64844  23271779.6884                   23271778.2194
        42.5004         28.5004
   2779333.83646   2144830.97744  24457863.0634                   24457864.0664
        38.0004         27.2504
   2737997.86347   2137955.72346  23035950.9774                   23035952.7464
        42.2504         40.5004
  -1173647.19147   -839585.01644  23360348.4614                   23360348.4734
        42.2504         28.5004
   1066938.46548    856743.15648  20650218.9694                   20650216.8674
        50.5004         53.0004
   2193602.76645   1762429.75443  25298221.9534                   25298229.8284
        35.5004         23.5004
 25  8  7 19 46 30.0000000  0 10G02G08G10G18G23G24G27G28G32G31
  -1016374.77047   -744255.93745  23179799.0314                   23179795.2154
        43.2504         30.7504
   1522382.64147   1205287.03946  22837008.0704                   22837010.0124
        43.5004         39.7504
   1295704.23448   1028250.18048  21381722.2194                   21381720.8284
        50.5004         50.2504
   3342706.97746   2595250.71943  24678371.5004                   24678375.5394
        39.2504         19.2504
   2447291.38747   1913933.30544  23266009.6174                   23266008.0124
        42.5004         28.0004
   2762894.60246   2132021.14144  24454734.8834                   24454736.1564
        39.0004         28.7504
   2721416.50447   2125035.07046  23032795.9534                   23032797.6604
        43.0004         40.0004
  -1366699.43047   -990015.16444  23323612.4224                   23323611.7234
        42.5004         26.2504
    978347.98448    787711.60948  20633360.7344                   20633358.7814
        50.7504         53.0004
   1987268.96145   1601650.61343  25258957.7974                   25258964.6884
        35.7504         21.2504
 25  8  7 19 47  0.0000000  0 10G02G08G10G18G23G24G27G28G32G31
  -1192185.37947   -881251.17245  23146343.3444                   23146339.2734
        43.7504         31.0004
   1457766.50447   1154936.71146  22824712.3444                   22824713.8834
        42.5004         39.2504
   1217435.67248    967261.66448  21366828.3674                   21366826.8014
        49.7504         50.5004
   3352560.93846   2602928.82443  24680246.1334                   24680251.1844
        39.0004         18.5004
   2417031.40247   1890354.01044  23260251.3444                   23260250.2734
        42.0004         27.7504
   2746854.39846   2119522.23844  24451682.7734                   24451683.6524
        37.0004         28.2504
   2705060.65647   2112290.14146  23029683.3524                   23029685.1724
        43.2504         41.0004
  -1559625.93447  -1140347.35544  23286899.3914                   23286898.5824
        43.0004         28.5004
    890152.10548    718987.54348  20616577.4064                   20616575.6644
        50.5004         53.0004
   1780765.17646   1440739.13343  25219660.9774                   25219667.6684
        37.2504         22.0004
 25  8  7 19 47 30.0000000  0 10G02G08G10G18G23G24G27G28G32G31
  -1367822.42247  -1018111.15245  23112921.0084                   23112916.8204
        43.5004         30.7504
   1393593.99646   1104932.06646  22812500.4924                   22812502.2274
        41.5004         39.5004
   1139297.64148    906374.85948  21351958.7974                   21351957.6254
        49.7504         50.5004
   3362545.38346   2610708.58643  24682146.8364                   24682151.3444
        39.2504         19.2504
   2386842.76247   1866830.29344  23254506.8834                   23254505.6024
        42.5004         28.5004
   2731220.41446   2107339.87544  24448707.1804                   24448708.8444
        37.7504         29.2504
   2688936.89847   2099726.04746  23026615.6174                   23026617.5474
        42.7504         40.7504
  -1752413.89847  -1290571.58644  23250213.2584                   23250212.6024
        43.0004         28.0004
    802359.26248    650577.53148  20599871.0084                   20599868.9694
        50.5004         53.0004
   1574103.28946   1279704.44943  25180333.8364                   25180340.7304
        38.2504         21.7504
 25  8  7 19 48  0.0000000  0 10G02G08G10G18G23G24G27G28G32G31
  -1543281.87547  -1154832.75045  23079532.1724                   23079527.8094
        43.5004         32.0004
   1329865.31346   1055273.26246  22800373.3444                   22800375.1954
        41.5004         38.5004
   1061292.37148    845591.50848  21337115.1484                   21337113.7234
        50.2504         50.5004
   3372660.48846   2618590.16043  24684072.3364                   24684076.4024
        39.0004         19.5004
   2356727.66446   1843363.89844  23248775.6334                   23248774.8444
        41.5004         26.7504
   2715992.00846   2095473.56344  24445809.3914                   24445810.7624
        37.7504         27.0004
   2673044.17247   2087341.97746  23023591.1484                   23023593.0204
        43.0004         40.7504
  -1945058.28147  -1440683.94144  23213553.6644                   23213553.1454
        43.5004         27.5004
    714970.20748    582482.16048  20583241.6644                   20583239.6724
        50.0004         53.0004
   1367287.40246   1118549.62944  25140977.8984                   25140984.7304
        39.7504         24.5004
 25  8  7 19 48 30.0000000  0 10G02G08G10G18G23G24G27G28G32G31
  -1718556.19947  -1291410.10245  23046178.3594                   23046174.3984
        44.2504         32.5004
   1266583.96946   1005963.03946  22788331.3364                   22788332.8634
        41.2504         38.2504
    983425.68048    784916.14148  21322297.7584                   21322296.4494
        50.0004         50.2504
   3382910.09046   2626576.53543  24686022.2734                   24686026.8674
        39.0004         19.2504
   2326691.66446   1819959.12544  23243060.3524                   23243059.4964
        41.0004         27.0004
   2701172.22346   2083925.65244  24442989.6174                   24442990.8554
        37.2504         28.5004
   2657384.90247   2075139.80146  23020611.3134                   23020613.3404
        42.2504         40.0004
  -2137550.51647  -1590677.75444  23176923.3134                   23176923.2544
        42.5004         28.0004
    627989.23448    514704.77748  20566689.5474                   20566687.6094
        50.5004         53.0004
   1160326.25046    957281.77244  25101593.4774                   25101600.5164
        38.7504         26.5004
 25  8  7 19 49  0.0000000  0 10G02G08G10G18G23G24G27G28G32G31
  -1893642.24647  -1427840.75045  23012860.4064                   23012856.6484
        44.5004         32.5004
   1203749.15247    957000.76246  22776374.1334                   22776376.1174
        42.0004         38.0004
    905698.80548    724349.71548  21307506.7664                   21307505.3444
        50.7504         50.2504
   3393293.19946   2634666.90243  24687998.5784                   24688003.3794
        38.7504         20.2504
   2296735.94547   1796616.92644  23237359.8134                   23237358.8244
        42.0004         26.0004
   2686759.42646   2072694.87544  24440247.4774                   24440247.9614
        37.7504         26.5004
   2641957.00847   2063117.91446  23017675.4774                   23017677.7814
        42.5004         40.2504
  -2329886.53547  -1740549.83244  23140322.6804                   23140322.6134
        42.7504         27.5004
    541416.04748    447245.15648  20550215.2734                   20550213.5554
        51.5004         53.0004
    953223.21146    795903.31644  25062183.3284                   25062189.8484
        38.5004         27.0004
 25  8  7 19 49 30.0000000  0 10G02G08G10G18G23G24G27G28G32G31
  -2068530.93747  -1564117.60945  22979580.2194                   22979576.3874
        45.0004         32.0004
   1141365.85246    908390.30546  22764503.2584                   22764505.0824
        41.5004         38.7504
    828118.97348    663897.86348  21292743.7424                   21292742.3674
        50.0004         50.2504
   3403815.12146   2642865.45743  24690001.0944                   24690005.6884
        37.5004         20.0004
   2266867.46146   1773342.68844  23231676.5004                   23231675.1024
        41.0004         26.5004
   2672757.93846   2061784.58644  24437582.2894                   24437583.8484
        37.2504         28.5004
   2626764.31347   2051279.30546  23014785.0004                   23014786.8874
        42.7504         40.0004
  -2522056.31247  -1890292.37944  23103753.1724                   23103753.4104
        42.5004         29.2504
    455256.31648    380107.70348  20533819.4614                   20533817.7774
        51.2504         53.0004
    745987.52746    634421.52344  25022747.2974                   25022753.7624
        39.5004         28.0004
 25  8  7 19 50  0.0000000  0 10G02G08G10G18G23G24G27G28G32G31
  -2243216.15647  -1700235.91445  22946338.9224                   22946334.5314
        45.0004         32.5004
   1079436.18847    860133.34046  22752718.4224                   22752719.7934
        43.0004         38.5004
    750690.43448    603563.90248  21278009.5634                   21278008.7234
        49.5004         50.2504
   3414478.00046   2651173.83243  24692030.8594                   24692035.6524
        37.7504         20.0004
   2237090.39146   1750139.66044  23226009.4534                   23226008.7274
        40.5004         24.5004
   2659169.21546   2051195.95344  24434996.4534                   24434998.2234
        37.7504         27.5004
   2611807.75447   2039624.69546  23011938.9844                   23011941.0594
        43.0004         40.5004
  -2714052.75047  -2039899.86344  23067218.1254                   23067218.1024
        42.7504         29.5004
    369512.82048    313294.59048  20517503.0164                   20517501.2974
        50.5004         53.0004
    538625.84846    472841.53145  24983286.4774                   24983293.3284
        39.0004         30.7504
 25  8  7 19 50 30.0000000  0 10G02G08G10G18G23G24G27G28G32G31
  -2417694.32047  -1836192.89845  22913136.3834                   22913132.2304
        45.0004         32.5004
   1017959.64847    812229.48846  22741020.1414                   22741021.5164
        43.5004         38.2504
    673414.96948    543349.22748  21263304.7974                   21263303.1644
        49.5004         50.2504
   3425281.36745   2659591.68843  24694086.3134                   24694091.3754
        35.5004         20.2504
   2207406.30946   1727009.11344  23220360.7814                   23220360.0044
        41.0004         25.2504
   2645992.05146   2040928.00844  24432489.1484                   24432490.7504
        37.0004         28.5004
   2597085.74647   2028152.86746  23009137.2974                   23009139.4774
        44.2504         40.5004
  -2905871.30547  -2189368.73444  23030715.9304                   23030715.9454
        42.7504         29.0004
    284185.68048    246805.90648  20501265.8134                   20501264.1374
        51.7504         53.0004
    331142.25046    311166.53145  24943804.0004                   24943810.0594
        38.5004         30.7504
 25  8  7 19 51  0.0000000  0 10G02G08G10G18G23G24G27G28G32G31
  -2591957.91847  -1971982.67645  22879975.1414                   22879971.0704
        46.0004         32.0004
    956939.66047    764681.36746  22729408.5474                   22729409.8204
        43.5004         38.5004
    596298.18048    483258.18848  21248629.6564                   21248628.6884
        50.0004         50.2504
   3436228.91045   2668121.79743  24696170.9144                   24696175.3554
        34.0004         19.0004
   2177820.67246   1703955.27344  23214731.4534                   23214730.0044
        41.5004         24.5004
   2633229.29346   2030982.96144  24430060.8284                   24430061.8984
        37.2504         28.0004
   2582600.54747   2016865.57446  23006381.4694                   23006383.0204
        44.5004         40.0004
  -3097503.59847  -2338692.47744  22994249.3524                   22994248.8054
        43.0004         27.5004
    199278.95348    180644.80948  20485108.7504                   20485106.6024
        51.2504         53.0004
    123544.62146    149402.68045  24904298.8524                   24904305.2734
        38.2504         30.5004
 25  8  7 19 51 30.0000000  0 10G02G08G10G18G23G24G27G28G32G31
  -2766004.13747  -2107603.06645  22846855.5164                   22846850.8554
        46.0004         31.5004
    896374.97347    717488.03946  22717883.2584                   22717884.7344
        43.7504         38.7504
    519341.19548    423291.68048  21233985.4614                   21233983.8524
        50.5004         50.2504
   3447319.54745   2676763.46543  24698281.5234                   24698286.1844
        33.7504         19.0004
   2148334.38346   1680978.82844  23209120.0004                   23209119.3324
        41.5004         25.0004
   2620878.89546   2021359.21944  24427710.8134                   24427712.0514
        37.7504         29.2504
   2568349.82847   2005760.98446  23003669.2974                   23003671.6684
        44.0004         39.7504
  -3288945.73447  -2487868.03944  22957820.1564                   22957818.8834
        43.5004         28.5004
    114792.11748    114810.91448  20469031.3754                   20469029.4924
        51.0004         53.0004
    -84163.76246    -12447.49645  24864773.0784                   24864778.8014
        37.0004         30.5004
 25  8  7 19 52  0.0000000  0 10G02G08G10G18G23G24G27G28G32G31
  -2939828.87547  -2243050.88345  22813777.7974                   22813773.3134
        45.5004         33.0004
    836265.67647    670649.56646  22706445.1254                   22706446.4384
        43.7504         39.0004
    442546.30548    363451.46948  21219372.0394                   21219370.8324
        49.7504         50.0004
   3458553.50045   2685516.82443  24700419.4924                   24700423.8524
        35.0004         18.5004
   2118949.60546   1658081.51644  23203529.3444                   23203527.6564
        41.5004         26.0004
   2608940.45346   2012056.50444  24425438.5944                   24425440.5554
        37.0004         29.0004
   2554332.56647   1994838.32446  23001001.8054                   23001003.6024
        42.7504         39.5004
  -3480192.58247  -2636891.43444  22921426.5314                   22921425.8014
        43.2504         29.5004
     30725.87948     49304.74648  20453034.1414                   20453031.9614
        51.7504         53.0004
   -291978.19946   -174380.35544  24825226.9774                   24825232.4064
        37.0004         29.5004
 25  8  7 19 52 30.0000000  0 10G02G08G10G18G23G24G27G28G32G31
  -3113428.38347  -2378323.18445  22780742.4384                   22780738.5274
        46.0004         32.0004
    776611.02747    624165.34846  22695093.3754                   22695094.8094
        44.2504         38.2504
    365915.16448    303738.85948  21204789.5234                   21204787.8834
        50.0004         50.0004
   3469930.23845   2694381.41443  24702584.2274                   24702589.9414
        33.2504         19.2504
   2089667.77046   1635264.41844  23197957.3204                   23197955.8094
        41.5004         25.5004
   2597412.55946   2003073.68444  24423245.0704                   24423246.7664
        36.5004         28.0004
   2540546.97747   1984096.18046  22998378.5554                   22998380.9384
        43.0004         38.7504
  -3671239.78547  -2785759.27044  22885071.0864                   22885070.5824
        43.5004         29.7504
    -52919.75448    -15873.67648  20437116.7114                   20437115.2034
        52.0004         52.7504
   -499894.92646   -336392.93745  24785661.1484                   24785667.2974
        36.7504         30.0004
 25  8  7 19 53  0.0000000  0 10G02G08G10G18G23G24G27G28G32G31
  -3286797.72347  -2513416.12945  22747751.8834                   22747747.2624
        46.0004         32.7504
    717412.11347    578036.25446  22683827.9304                   22683829.7624
        43.5004         38.0004
    289451.14148    244156.46948  21190238.6724                   21190237.5784
        50.5004         50.0004
   3481451.02345   2703358.22343  24704776.8364                   24704782.3284
        33.5004         19.0004
   2060492.04747   1612529.97744  23192404.8754                   23192403.8134
        42.0004         24.5004
   2586295.58246   1994411.05144  24421129.7194                   24421130.8554
        36.2504         28.5004
   2526993.08647   1973534.56346  22995799.9924                   22995801.8674
        42.0004         38.0004
  -3862081.15647  -2934466.71944  22848755.2974                   22848754.6724
        44.0004         29.7504
   -136143.09448    -80723.03148  20421280.1174                   20421278.2234
        51.0004         52.7504
   -707907.92246   -498480.52744  24746077.5004                   24746082.9844
        36.5004         28.0004
 25  8  7 19 53 30.0000000  0 10G02G08G10G18G23G24G27G28G32G31
  -1884505.28547  -1420720.68745  23014599.4534                   23014594.3204
        45.7504         32.5004
   2234092.35947   1759864.93846  22972442.7584                   22972444.3554
        43.7504         38.2504
   1788580.63748   1412309.28548  21475513.9304                   21475512.0354
        50.2504         50.0004
   5068537.02745   3940048.21143  25006789.3674                   25006794.8244
        33.7504         20.2504
   3606847.09447   2817481.85944  23486666.7894                   23486665.7584
        42.0004         25.0004
   4151010.84045   3213669.63744  24718885.1094                   24718886.7854
        35.2504         27.5004
   4089091.67246   3190754.09046  23293057.5164                   23293059.3554
        41.7504         38.5004
  -2477283.78547  -1855403.72744  23112273.3364                   23112272.9694
        43.7504         29.7504
   1356480.84048   1082360.54748  20705317.0784                   20705315.0274
        51.2504         52.7504
    659415.62945    566966.82444  25006268.2974                   25006275.4734
        35.2504         28.2504
 25  8  7 19 54  0.0000000  0 11G02G08G10G18G23G24G27G28G32G31G01
  -2057400.25847  -1555444.00445  22981698.6884                   22981694.0634
        45.5004         32.7504
   2175806.05547   1714446.94946  22961351.0944                   22961352.9574
        43.7504         38.0004
   1712459.13348   1352993.79348  21461028.1254                   21461027.1134
        49.7504         49.7504
   5080347.61745   3949250.88343  25009038.2664                   25009042.7384
        35.5004         19.5004
   3577891.38746   2794918.84044  23481156.7504                   23481155.3874
        41.5004         26.5004
   4140715.15245   3205646.98844  24716926.1024                   24716927.3404
        34.5004         27.7504
   4075999.12547   3180551.94546  23290566.0234                   23290567.9844
        42.0004         38.7504
  -2667696.98447  -2003777.54745  23076038.7344                   23076038.4694
        43.7504         30.5004
   1274105.43048   1018171.91848  20689641.1174                   20689639.6684
        51.7504         52.7504
    451224.75045    404740.61344  24966651.6334                   24966657.8484
        35.0004         27.5004
   4393007.75456   3469868.65653  25234056.6024                   25234059.0514
        39.0004         22.2504
 25  8  7 19 54 30.0000000  0 11G02G08G10G18G23G24G27G28G32G31G01
  -2230058.28147  -1689982.67245  22948842.0864                   22948837.5394
        45.7504         32.7504
   2117969.48847   1669379.41846  22950345.2664                   22950347.2464
        43.0004         37.5004
   1636505.87948   1293809.40648  21446575.2114                   21446573.6724
        49.7504         50.0004
   5092296.92245   3958561.58643  25011311.8674                   25011317.2234
        35.0004         20.2504
   3549042.39547   2772439.02044  23475666.6174                   23475665.9494
        42.0004         27.2504
   4130822.66045   3197938.51644  24715043.3204                   24715045.2034
        33.5004         26.5004
   4063129.18447   3170523.26646  23288116.8134                   23288119.3914
        42.0004         39.2504
  -2857894.93747  -2151983.63745  23039845.0634                   23039844.6644
        43.7504         30.2504
   1192148.46148    954309.34048  20674045.1414                   20674043.7274
        50.5004         52.7504
    242945.48845    242445.51244  24927017.6414                   24927023.3014
        34.0004         28.0004
   4193057.44946   3314063.30143  25196007.9844                   25196009.9064
        39.5004         22.5004
 25  8  7 19 55  0.0000000  0 11G02G08G10G18G23G24G27G28G32G31G01
  -2402475.44947  -1824333.66845  22916032.6334                   22916028.1414
        45.5004         32.5004
   2060582.09847   1624661.89546  22939424.9144                   22939426.9104
        42.0004         37.7504
   1560722.74248   1234757.58648  21432153.9614                   21432152.8364
        49.7504         50.0004
   5104384.52046   3967980.09443  25013612.4844                   25013617.8524
        37.5004         22.0004
   3520301.68446   2750043.52344  23470197.3054                   23470197.3914
        41.2504         26.5004
   4121332.00445   3190543.14544  24713237.3984                   24713239.2544
        33.2504         26.5004
   4050480.13747   3160666.71146  23285710.1484                   23285712.1374
        42.0004         40.0004
  -3047873.03947  -2300018.42644  23003693.5164                   23003693.0944
        43.5004         29.5004
   1110610.01648    890772.88348  20658529.1024                   20658527.4734
        51.0004         52.7504
     34581.90245     80084.68444  24887367.2194                   24887372.4924
        35.0004         27.7504
   3993112.01646   3158261.76243  25157958.9304                   25157960.9144
        39.5004         23.2504
 25  8  7 19 55 30.0000000  0 11G02G08G10G18G23G24G27G28G32G31G01
  -2574650.43747  -1958495.95745  22883268.6644                   22883263.9964
        45.5004         32.5004
   2003641.91846   1580292.81646  22928589.6334                   22928591.8484
        41.7504         38.5004
   1485110.30548   1175838.77048  21417765.2664                   21417764.1484
        50.0004         50.0004
   5116608.76646   3977505.05543  25015938.5554                   25015944.4694
        38.0004         22.5004
   3491669.66847   2727732.74644  23464749.2734                   23464748.6294
        42.0004         26.5004
   4112240.87545   3183459.09444  24711507.3594                   24711509.1914
        33.5004         25.7504
   4038049.22747   3150980.12946  23283344.4774                   23283347.2304
        42.5004         40.0004
  -3237628.11347  -2447879.42244  22967583.8914                   22967583.0124
        43.0004         29.2504
   1029488.91848    827561.63748  20643092.4304                   20643090.5164
        51.5004         52.7504
   -173863.23445    -82339.71944  24847699.9844                   24847706.3094
        35.5004         26.0004
   3793173.69346   3002465.74243  25119912.2034                   25119913.8914
        38.0004         22.0004
 25  8  7 19 56  0.0000000  0 11G02G08G10G18G23G24G27G28G32G31G01
  -2746577.17647  -2092464.79745  22850552.1804                   22850547.7814
        44.5004         32.7504
   1947149.80947   1536272.89846  22917839.1334                   22917841.4694
        42.0004         38.0004
   1409671.78948   1117055.48848  21403410.1254                   21403408.6254
        50.5004         50.0004
   5128970.81646   3987137.42643  25018291.4924                   25018297.0664
        37.5004         22.0004
   3463149.46547   2705509.09044  23459321.9844                   23459321.5474
        42.0004         27.5004
   4103549.44945   3176686.49244  24709853.7584                   24709855.4924
        34.2504         27.7504
   4025836.24647   3141463.37946  23281020.4924                   23281023.3014
        43.0004         40.0004
  -3427153.98847  -2595561.82845  22931518.7274                   22931518.0664
        43.0004         30.0004
    948786.77348    764676.84848  20627735.1724                   20627733.3444
        51.5004         52.7504
   -382383.86346   -244822.96944  24808020.5234                   24808026.3714
        36.2504         26.7504
   3593247.16446   2846678.96943  25081866.9694                   25081869.3284
        37.5004         21.7504
 25  8  7 19 56 30.0000000  0 11G02G08G10G18G23G24G27G28G32G31G01
  -2918249.92647  -2226235.73045  22817883.7504                   22817879.3134
        45.2504         33.0004
   1891107.28547   1492603.30146  22907174.7664                   22907177.0744
        42.5004         38.0004
   1334411.20748   1058410.85548  21389088.3754                   21389086.9884
        49.5004         50.0004
   5141472.45346   3996878.54743  25020670.8364                   25020676.2114
        38.2504         21.7504
   3434744.77347   2683375.44944  23453917.4064                   23453916.4344
        42.5004         29.0004
   4095258.64845   3170226.09444  24708275.7584                   24708277.5314
        34.5004         27.7504
   4013841.77047   3132116.89546  23278738.6094                   23278740.6884
        43.0004         40.0004
  -3616443.98847  -2743060.44144  22895497.4144                   22895497.2814
        43.7504         29.0004
    868505.77048    702120.21948  20612458.1484                   20612456.3674
        51.0004         52.7504
   -590974.05946   -407360.47744  24768326.8054                   24768332.1804
        36.2504         26.0004
   3393337.89545   2690905.63743  25043824.7974                   25043827.7344
        35.0004         22.2504
 25  8  7 19 57  0.0000000  0 11G02G08G10G18G23G24G27G28G32G31G01
  -3089665.37947  -2359806.16045  22785264.7034                   22785260.2154
        45.0004         33.0004
   1835513.46547   1449283.34446  22896596.3054                   22896598.2344
        43.2504         38.0004
   1259330.24248    999906.18848  21374800.8284                   21374799.4804
        49.5004         50.0004
   5154113.07846   4006727.97743  25023076.8284                   25023082.6414
        39.0004         22.5004
   3406457.06347   2661332.95744  23448534.3674                   23448533.6684
        42.5004         29.0004
   4087366.98445   3164076.70744  24706774.6174                   24706775.8284
        35.0004         28.7504
   4002064.00447   3122939.27346  23276497.2504                   23276499.5004
        42.5004         39.0004
  -3805493.79747  -2890371.87545  22859522.6884                   22859522.2734
        43.7504         30.2504
    788645.78548    639891.65248  20597261.3674                   20597259.6954
        51.0004         52.7504
   -799629.79746   -569949.05144  24728621.0554                   24728625.6024
        36.0004         26.7504
   3193448.93845   2535148.12543  25005787.6254                   25005790.1414
        33.7504         19.5004
 25  8  7 19 57 30.0000000  0 11G02G08G10G18G23G24G27G28G32G31G01
  -3260815.94947  -2493170.19945  22752695.7114                   22752691.3134
        44.0004         33.0004
   1780371.89547   1406315.78946  22886102.9224                   22886104.9654
        44.5004         38.2504
   1184434.89848    941546.14848  21360548.8674                   21360547.4924
        50.2504         50.0004
   5166896.50846   4016688.67243  25025509.6724                   25025515.6604
        39.5004         21.5004
   3378292.13347   2639386.11744  23443174.5314                   23443173.9694
        43.0004         28.2504
   4079877.59845   3158240.77344  24705348.0704                   24705350.8794
        34.2504         28.0004
   3990505.52746   3113932.52746  23274298.1024                   23274299.9534
        41.7504         38.0004
  -3994294.58247  -3037489.26244  22823595.0634                   22823594.3094
        43.0004         29.2504
    709211.11748    577994.50448  20582145.4224                   20582143.8164
        50.2504         52.7504
  -1008342.62546   -732582.10544  24688903.6564                   24688909.1764
        36.5004         26.7504
   2993587.82455   2379412.35253  24967755.8284                   24967758.2154
        34.0004         19.0004
 25  8  7 19 58  0.0000000  0 11G02G08G10G18G23G24G27G28G32G31G01
  -3431697.45747  -2626324.57445  22720177.7894                   22720173.2384
        45.0004         33.7504
   1725682.11747   1363700.28946  22875696.4454                   22875698.0044
        43.7504         38.2504
   1109727.26648    883332.38348  21346332.4064                   21346331.0664
        49.2504         49.7504
   5179822.59446   4026760.50843  25027969.6094                   25027975.1884
        39.0004         20.2504
   3350251.83247   2617536.43044  23437839.4694                   23437838.1214
        43.0004         27.7504
   4072789.27045   3152717.35944  24704000.5004                   24704001.6484
        35.7504         28.5004
   3979164.94146   3105095.56646  23272139.4614                   23272142.1254
        41.0004         37.2504
  -4182841.57447  -3184408.88345  22787715.8204                   22787715.0554
        43.0004         30.5004
    630201.99248    516428.94548  20567110.8984                   20567108.8834
        50.5004         52.7504
  -1217108.23046   -895256.28944  24649176.9384                   24649181.0944
        38.0004         28.0004
   2793758.21545   2223701.09043  24929729.6644                   24929731.7384
        35.0004         20.2504
 25  8  7 19 58 30.0000000  0 11G02G08G10G18G23G24G27G28G32G31G01
  -3602309.20747  -2759268.76245  22687711.4144                   22687706.9184
        43.7504         33.0004
   1671440.63347   1321434.12146  22865374.3524                   22865376.0164
        44.7504         39.0004
   1035206.46948    825264.20348  21332151.6644                   21332150.0704
        49.7504         49.5004
   5192888.23046   4036941.05943  25030456.6804                   25030462.1804
        38.7504         20.5004
   3322335.09447   2595783.01644  23432526.6024                   23432526.1524
        43.0004         27.7504
   4066098.13346   3147503.43844  24702726.6884                   24702728.5744
        36.0004         28.2504
   3968037.89546   3096424.99245  23270021.9454                   23270024.4344
        40.5004         35.7504
  -4371133.01647  -3331129.37945  22751885.0704                   22751884.1294
        43.5004         30.2504
    551615.77348    455192.92648  20552156.1564                   20552154.5354
        50.5004         52.7504
  -1425925.03146  -1057970.38344  24609440.3524                   24609444.9264
        38.5004         27.7504
   2593960.92645   2068014.97343  24891709.6484                   24891711.4884
        35.0004         19.5004
 25  8  7 19 59  0.0000000  0 11G02G08G10G18G23G24G27G28G32G31G01
  -3772646.65247  -2891999.19945  22655297.1024                   22655292.8324
        44.2504         33.5004
   1617647.48447   1279517.29346  22855137.9774                   22855139.6884
        43.7504         38.2504
    960875.05948    767343.60248  21318006.9144                   21318005.6994
        49.5004         49.7504
   5206093.76246   4047230.64143  25032969.2734                   25032975.5634
        37.7504         19.0004
   3294544.19947   2574127.66044  23427238.5704                   23427237.6524
        43.5004         27.5004
   4059803.53946   3142598.51644  24701528.7584                   24701530.7424
        37.0004         29.7504
   3957123.56346   3087920.14846  23267945.2504                   23267948.0554
        39.7504         36.5004
  -4559163.52047  -3477646.54745  22716104.0234                   22716103.1954
        43.5004         30.0004
    473453.16848    394286.99648  20537282.2114                   20537280.4884
        51.2504         52.7504
  -1634788.02046  -1220720.48044  24569694.8444                   24569699.3954
        39.5004         29.2504
   2394199.89845   1912357.12543  24853696.1644                   24853697.3874
        35.2504         19.7504
 25  8  7 19 59 30.0000000  0 11G02G08G10G18G23G24G27G28G32G31G01
  -3942708.46547  -3024514.84445  22622935.6644                   22622930.9614
        44.0004         33.7504
   1564299.84447   1237947.62546  22844986.8524                   22844987.9414
        44.5004         37.5004
    886732.86748    709570.44148  21303897.9694                   21303896.6764
        50.0004         50.0004
   5219436.71946   4057627.32842  25035508.2114                   25035515.2854
        36.7504         16.2504
   3266878.76647   2552570.09844  23421974.0314                   23421973.0474
        43.7504         28.5004
   4053902.23846   3138000.06645  24700406.2034                   24700407.7584
        36.7504         30.5004
   3946418.21146   3079578.14846  23265908.7274                   23265910.9024
        41.2504         37.2504
  -4746930.70347  -3623958.53145  22680373.3054                   22680372.0004
        43.0004         30.2504
    395712.16448    333709.59048  20522488.7894                   20522487.1644
        50.7504         53.0004
  -1843695.17646  -1383505.01245  24529940.4064                   24529945.1604
        40.2504         30.7504
   2194476.35545   1756728.48443  24815689.5784                   24815691.2074
        34.2504         19.2504
 25  8  7 20  0  0.0000000  0 11G02G08G10G18G23G24G27G28G32G31G01
  -4112489.38747  -3156811.62145  22590626.9844                   22590622.6684
        45.2504         33.5004
   1511398.30147   1196725.57046  22834919.6884                   22834921.2894
        44.2504         38.0004
    812783.03148    651947.15648  21289826.1884                   21289824.9264
        48.2504         50.0004
   5232918.06646   4068131.89542  25038074.5634                   25038081.4924
        37.0004         16.2504
   3239341.71547   2531112.53544  23416734.1094                   23416733.4264
        43.7504         26.0004
   4048394.29746   3133708.13344  24699357.4924                   24699360.0944
        37.5004         29.7504
   3935921.51646   3071398.73846  23263911.5314                   23263913.6094
        41.7504         38.7504
  -4934428.59447  -3770060.67245  22644692.9454                   22644692.2384
        43.5004         31.0004
    318394.11748    273461.76248  20507775.8364                   20507773.9654
        49.7504         52.7504
  -2052640.95346  -1546319.63345  24490179.9144                   24490183.3914
        40.5004         30.5004
   1994795.07445   1601132.75443  24777692.1484                   24777693.0594
        35.0004         19.0004
 25  8  7 20  0 30.0000000  0 11G02G08G10G18G23G24G27G28G32G31G01
  -4281987.90247  -3288888.35545  22558372.5234                   22558368.0704
        44.7504         33.5004
   1458940.10247   1155848.97746  22824937.1804                   22824938.8284
        43.2504         37.2504
    739025.52748    594473.73848  21275790.3364                   21275789.2894
        50.2504         49.7504
   5246535.38346   4078742.32442  25040665.7814                   25040674.5664
        37.7504         15.5004
   3211932.64547   2509754.70344  23411518.5004                   23411517.2814
        43.2504         28.2504
   4043276.38746   3129720.12545  24698384.2894                   24698386.0984
        38.2504         30.0004
   3925630.07047   3063379.28146  23261953.1804                   23261955.7624
        42.0004         39.7504
  -5121654.71947  -3915951.05145  22609065.2194                   22609064.2034
        43.5004         31.0004
    241496.98848    213541.90648  20493142.4384                   20493140.9024
        50.7504         53.0004
  -2261623.09846  -1709162.60244  24450411.5784                   24450415.6254
        41.0004         29.7504
   1795157.33645   1445570.96542  24739700.4454                   24739703.3094
        33.0004         16.7504
 25  8  7 20  1  0.0000000  0 11G02G08G10G18G23G24G27G28G32G31G01
  -4451199.73447  -3420741.69145  22526172.4224                   22526168.3914
        44.5004         34.5004
   1406925.10947   1115317.73446  22815039.0944                   22815040.7154
        43.2504         37.0004
    665462.89148    537152.17648  21261791.8834                   21261790.4384
        49.5004         50.0004
   5260288.97346   4089459.00442  25043283.4844                   25043291.2544
        38.0004         16.2504
   3184653.89147   2488498.42644  23406326.5004                   23406326.2624
        42.5004         26.5004
   4038548.02746   3126035.68044  24697484.0634                   24697486.1254
        38.0004         29.2504
   3915542.83247   3055518.95746  23260033.5634                   23260036.8164
        43.2504         40.5004
  -5308603.78947  -4061625.53945  22573489.4844                   22573488.7774
        43.0004         30.5004
    165021.48848    153950.61348  20478589.6334                   20478588.2464
        51.2504         52.7504
  -2470636.72346  -1872030.09044  24410637.2814                   24410641.1724
        40.7504         28.5004
   1595567.42245   1290046.46142  24701721.1644                   24701723.2544
        32.7504         17.7504
 25  8  7 20  1 30.0000000  0 11G02G08G10G18G23G24G27G28G32G31G01
  -4620125.89547  -3552372.41845  22494026.9694                   22494023.0704
        45.0004         34.7504
   1355347.67247   1075127.43846  22805224.0704                   22805225.9144
        42.7504         37.2504
    592092.07048    479980.07448  21247829.7504                   21247828.7704
        48.0004         49.7504
   5274173.55945   4100277.66042  25045927.1804                   25045933.6884
        35.7504         17.2504
   3157502.21147   2467341.15644  23401160.4844                   23401160.3714
        42.5004         27.2504
   4034202.99646   3122649.93044  24696657.7274                   24696659.1054
        38.5004         28.0004
   3905653.26647   3047812.64146  23258151.6954                   23258154.7814
        43.0004         40.5004
  -5495276.19147  -4207084.43745  22537966.7274                   22537966.0434
        44.0004         31.0004
     88962.75048     94684.05548  20464116.2034                   20464114.4184
        49.5004         53.0004
  -2679682.54746  -2034922.68444  24370856.7974                   24370861.0234
        40.5004         28.7504
   1396023.98045   1134558.19943  24663748.6174                   24663749.7734
        35.7504         19.5004
 25  8  7 20  2  0.0000000  0 11G02G08G10G18G23G24G27G28G32G31G01
  -3213332.91447  -2456170.06245  22761731.2274                   22761726.5744
        45.2504         34.5004
   2879633.08247   2262882.21946  23095286.0314                   23095287.9064
        42.7504         37.0004
   2094341.87147   1650564.30948  21533698.1884                   21533697.1914
        47.5004         49.7504
   6863612.75045   5338801.29342  25348386.8364                   25348394.4024
        34.2504         15.5004
   4705904.58247   3673888.35944  23695811.6954                   23695811.1724
        42.2504         28.0004
   5605664.42246   4347165.33244  24995696.5634                   24995698.0634
        38.0004         26.2504
   5471384.50047   4267862.78546  23556100.9774                   23556104.2114
        42.5004         40.5004
  -4106236.72347  -3124715.91845  22802292.0704                   22802291.5204
        43.5004         31.5004
   1588747.64548   1263347.60248  20749515.8364                   20749513.8874
        50.0004         53.0004
  -1313324.64546   -970227.98044  24630865.6644                   24630870.1914
        39.7504         27.0004
   2771961.34446   2206717.26643  24925581.6024                   24925582.3874
        37.7504         19.5004
 25  8  7 20  2 30.0000000  0 11G02G08G10G18G23G24G27G28G32G31G01
  -3381668.57447  -2587340.66445  22729697.9144                   22729692.7464
        45.7504         34.2504
   2828936.90647   2223378.61746  23085638.7034                   23085640.8754
        42.2504         36.7504
   2021369.04748   1593702.33648  21519812.2034                   21519811.1724
        49.7504         49.7504
   6877766.70345   5349829.93442  25351080.7114                   25351088.1564
        34.5004         16.2504
   4679020.55146   3652939.63344  23690696.2894                   23690695.9104
        41.5004         26.5004
   5602090.59046   4344380.50444  24995016.7584                   24995018.0704
        38.5004         27.0004
   5461894.12547   4260467.50446  23554295.3834                   23554298.0394
        42.5004         40.0004
  -4292333.52047  -3269726.28945  22766879.3204                   22766878.6844
        43.7504         31.0004
   1513530.89148   1204737.13748  20735202.5944                   20735200.6804
        51.7504         53.0004
  -1522413.18046  -1133153.86744  24591077.4534                   24591081.3834
        39.2504         26.5004
   2572529.49646   2051315.92243  24887630.8284                   24887631.8364
        39.5004         22.5004
 25  8  7 20  3  0.0000000  0 11G02G08G10G18G23G24G27G28G32G31G01
  -3549705.04747  -2718278.14145  22697721.0554                   22697716.7544
        45.5004         34.5004
   2778678.54747   2184216.16046  23076075.5864                   23076077.1134
        42.0004         36.7504
   1948596.43448   1536996.37948  21505963.9384                   21505962.7424
        50.0004         49.5004
   6892053.00845   5360961.65242  25353799.3284                   25353807.9694
        31.7504         12.5004
   4652271.09446   3632095.77744  23685606.0394                   23685605.2734
        41.0004         25.7504
   5598898.77746   4341893.35244  24994409.3284                   24994411.1254
        38.5004         25.5004
   5452599.39547   4253224.67246  23552525.9384                   23552529.4614
        42.0004         39.5004
  -4478137.30947  -3414508.36745  22731521.8134                   22731520.7624
        43.2504         31.2504
   1438733.54748   1146453.49248  20720969.1804                   20720967.4064
        52.0004         52.7504
  -1731518.41846  -1296092.75044  24551285.4844                   24551289.6994
        38.2504         26.7504
   2373157.02746   1895960.81343  24849691.3054                   24849692.6764
        39.5004         22.2504
 25  8  7 20  3 30.0000000  0 10G02G08G10G23G24G27G28G32G31G01
  -3717440.03147  -2848980.68745  22665802.4694                   22665797.8754
        45.5004         34.7504
   2728855.77046   2145393.12146  23066594.3674                   23066596.7034
        41.7504         37.0004
   1876024.63748   1480446.89848  21492153.8054                   21492152.8794
        49.5004         49.5004
   4625656.69946   3611357.18844  23680540.9844                   23680540.5944
        40.5004         25.7504
   5596086.40546   4339701.88444  24993874.8284                   24993875.8984
        38.0004         26.0004
   5443497.36346   4246131.98846  23550794.3364                   23550797.5004
        40.0004         39.2504
  -4663644.83247  -3559059.57045  22696221.2344                   22696220.0704
        43.7504         31.7504
   1364354.23448   1088495.59048  20706815.2814                   20706813.3324
        51.0004         52.7504
  -1940637.12946  -1459042.10544  24511490.7194                   24511495.0824
        37.2504         26.5004
   2173846.13746   1740653.70343  24811763.3834                   24811764.9844
        41.0004         22.5004
 25  8  7 20  4  0.0000000  0 10G02G08G10G23G24G27G28G32G31G01
  -3884870.37947  -2979445.84845  22633941.6804                   22633936.7894
        46.0004         34.5004
   2679467.27047   2106908.46946  23057195.9144                   23057198.3444
        42.7504         38.0004
   1803655.05948   1424054.98848  21478382.7584                   21478381.6454
        50.0004         49.5004
   4599178.32046   3590724.55544  23675502.7194                   23675502.7664
        39.5004         24.2504
   5593651.63746   4337804.68043  24993410.8284                   24993412.4844
        37.7504         22.2504
   5434585.96546   4239187.85546  23549098.2194                   23549101.7424
        40.7504         37.2504
  -4848852.09447  -3703376.81245  22660976.9384                   22660975.6254
        43.5004         31.2504
   1290392.39548   1030862.97348  20692740.6884                   20692739.0634
        51.5004         52.7504
  -2149765.65646  -1621999.11744  24471695.7664                   24471698.8914
        38.7504         29.0004
   1974599.70746   1585396.86743  24773847.7274                   24773849.4184
        40.2504         21.0004
 25  8  7 20  4 30.0000000  0 10G02G08G10G23G24G27G28G32G31G01
  -4051990.08647  -3109668.96545  22602139.8134                   22602134.9414
        46.5004         34.7504
   2630514.31347   2068763.19946  23047880.5704                   23047883.1374
        43.2504         38.5004
   1731491.75448   1367823.80548  21464650.3524                   21464649.2344
        50.0004         49.5004
   4572839.82046   3570200.90643  23670490.7974                   23670490.4924
        40.5004         22.7504
   5591595.38746   4336202.41843  24993019.5234                   24993020.9344
        37.5004         21.5004
   5425865.72346   4232392.68446  23547439.4304                   23547442.4654
        40.5004         37.0004
  -5033752.38747  -3847454.86745  22625791.7034                   22625790.8484
        44.5004         31.5004
   1216850.14148    973557.31648  20678746.2894                   20678744.1724
        51.5004         53.0004
  -2358897.77746  -1784958.91844  24431899.5634                   24431902.2934
        38.5004         29.2504
   1775423.44946   1430194.67243  24735946.0084                   24735946.8634
        40.5004         18.2504
 25  8  7 20  5  0.0000000  0  9G02G08G10G23G27G28G32G31G01
  -4218789.94147  -3239642.84045  22570398.6484                   22570393.9534
        46.2504         34.7504
   2582001.97347   2030961.27346  23038649.2424                   23038651.6214
        43.0004         39.0004
   1659542.65248   1311759.55148  21450959.1174                   21450957.9574
        49.5004         49.5004
   4546648.82846   3549792.21544  23665507.0474                   23665506.8444
        39.7504         24.2504
   5417341.07446   4225749.93846  23545817.1484                   23545820.4414
        41.5004         37.7504
  -5218335.20347  -3991285.53145  22590666.9614                   22590665.5124
        43.7504         31.5004
   1143733.44148    916583.26248  20664832.5164                   20664830.5784
        51.0004         52.7504
  -2568022.84446  -1947913.20745  24392103.3754                   24392107.0704
        39.7504         30.7504
   1576326.86346   1275054.53942  24698058.2194                   24698059.8284
        39.7504         17.2504
 25  8  7 20  5 30.0000000  0  9G02G08G10G23G27G28G32G31G01
  -4385268.32447  -3369366.21545  22538718.9614                   22538714.7194
        46.0004         34.7504
   2533927.12947   1993500.25446  23029501.2664                   23029503.6954
        43.5004         39.7504
   1587807.37148   1255861.87148  21437308.4614                   21437307.3134
        49.7504         49.5004
   4520604.69946   3529497.96143  23660551.1564                   23660550.5634
        40.5004         22.5004
   5409008.09046   4219256.51246  23544231.3674                   23544234.5944
        41.7504         37.2504
  -5402598.25047  -4134867.02345  22555602.1954                   22555601.2114
        44.5004         31.5004
   1071039.93048    859938.96548  20650999.2664                   20650997.4774
        50.7504         52.7504
  -2777138.96546  -2110860.55145  24352309.6564                   24352313.3674
        38.2504         31.2504
   1377311.14846   1119977.43842  24660187.1254                   24660187.9614
        39.5004         16.7504
 25  8  7 20  6  0.0000000  0  9G02G08G10G23G27G28G32G31G01
  -4551423.48847  -3498837.73045  22507100.8914                   22507096.0204
        45.2504         34.7504
   2486286.87547   1956377.87946  23020435.5704                   23020437.9964
        43.5004         40.0004
   1516285.98048   1200130.89148  21423698.3134                   21423697.2274
        49.5004         49.5004
   4494707.02046   3509317.82443  23655622.5474                   23655622.7814
        40.5004         22.5004
   5400863.33646   4212909.80546  23542682.1804                   23542684.8164
        41.0004         37.2504
  -5586539.03547  -4278197.41045  22520600.0474                   22520598.6484
        44.0004         31.5004
    998767.54348    803622.81348  20637246.3364                   20637244.2114
        50.0004         52.7504
  -2986243.91046  -2273799.16845  24312517.0394                   24312521.5594
        37.0004         30.0004
   1178377.84446    964964.59042  24622331.5084                   24622332.3594
        40.7504         17.7504
 25  8  7 20  6 30.0000000  0  9G02G08G10G23G27G28G32G31G01
  -4717246.95747  -3628050.78545  22475545.2584                   22475540.8524
        45.5004         34.5004
   2439085.31347   1919597.35246  23011453.5004                   23011455.6214
        43.5004         39.5004
   1444985.30548   1144571.89548  21410130.2584                   21410129.1414
        49.7504         49.2504
   4468962.55546   3489257.07443  23650724.5084                   23650724.1564
        40.0004         22.2504
   5392910.15647   4206712.36346  23541169.4694                   23541171.9654
        42.0004         38.2504
  -5770147.98047  -4421269.22345  22485659.5314                   22485658.5554
        44.0004         31.7504
    926921.30548    747638.73048  20623574.3914                   20623572.6564
        51.2504         52.5004
  -3195328.30946  -2436721.75044  24272730.4694                   24272733.4774
        36.2504         28.7504
    979535.43046    810022.54743  24584492.6804                   24584493.9884
        40.0004         19.2504
 25  8  7 20  7  0.0000000  0  9G02G08G10G23G27G28G32G31G01
  -4882738.75447  -3757005.38745  22444053.2504                   22444048.7114
        46.0004         35.0004
   2392317.67247   1883154.92646  23002553.9924                   23002556.2584
        43.7504         38.2504
   1373903.55148   1089183.47748  21396603.8284                   21396602.6914
        49.7504         49.0004
   4443369.02746   3469313.95343  23645853.6564                   23645853.3444
        40.2504         22.5004
   5385143.16447   4200659.98446  23539690.9774                   23539693.8524
        42.2504         38.0004
  -5953424.39547  -4564081.91845  22450783.5314                   22450782.7274
        43.5004         32.0004
    855497.22348    691983.59448  20609982.8674                   20609980.7664
        51.0004         52.5004
  -3404391.10245  -2599627.46944  24232946.2814                   24232950.5274
        35.0004         27.7504
    780783.80946    655151.28543  24546671.2504                   24546672.3524
        41.0004         21.5004
 25  8  7 20  7 30.0000000  0  9G02G08G10G23G27G28G32G31G01
  -5047900.78547  -3885703.03145  22412624.0234                   22412619.1294
        45.5004         34.5004
   2345977.24647   1847045.40246  22993735.8524                   22993737.9064
        43.5004         38.0004
   1303036.86748   1033962.66848  21383118.4304                   21383117.3794
        49.7504         49.0004
   4417922.30946   3449485.21943  23641011.0394                   23641011.4694
        39.7504         21.5004
   5377555.00446   4194746.94946  23538247.0704                   23538250.2384
        41.2504         38.5004
  -6136369.59847  -4706636.53545  22415970.1024                   22415968.8874
        43.7504         32.5004
    784489.48848    636652.88348  20596470.7344                   20596468.5704
        51.5004         52.5004
  -3613434.50846  -2762518.08644  24193167.2194                   24193170.0824
        37.7504         28.0004
    582120.44146    500348.76643  24508867.1254                   24508868.0394
        40.2504         21.5004
 25  8  7 20  8  0.0000000  0  9G02G08G10G23G27G28G32G31G01
  -5212731.21547  -4014142.28545  22381257.9384                   22381252.9454
        46.0004         34.2504
   2300061.56647   1811266.85246  22984998.5704                   22985000.6374
        43.0004         37.7504
   1232385.60948    978909.70748  21369673.7344                   21369672.8164
        49.2504         49.2504
   4392622.50046   3429770.95343  23636197.1484                   23636196.7074
        39.7504         20.2504
   5370142.57846   4188970.85546  23536836.9144                   23536839.7344
        40.5004         37.2504
  -6318980.53947  -4848930.67645  22381220.8914                   22381219.2194
        44.2504         31.7504
    713896.44948    581645.30948  20583037.1334                   20583035.3834
        50.5004         52.5004
  -3822455.27346  -2925391.13345  24153392.3524                   24153394.7584
        39.5004         32.0004
    383547.65246    345616.87943  24471080.0234                   24471081.6994
        39.7504         21.7504
 25  8  7 20  8 30.0000000  0  9G02G08G10G23G27G28G32G31G01
  -5377232.55947  -4142325.10945  22349953.8364                   22349949.6994
        46.0004         34.5004
   2254563.51647   1775813.72346  22976339.8834                   22976342.3594
        42.7504         36.7504
   1161945.64148    924021.38748  21356269.4454                   21356268.2624
        49.5004         49.2504
   4367465.16846   3410167.72743  23631409.8364                   23631409.7234
        39.5004         20.7504
   5362898.21546   4183325.71946  23535457.9144                   23535461.4574
        39.7504         37.2504
  -6501258.85947  -4990965.64545  22346533.8834                   22346532.8984
        44.2504         31.5004
    643711.91448    526956.06348  20569681.2814                   20569679.3914
        51.2504         52.5004
  -4031455.25046  -3088247.94945  24113620.2194                   24113623.0274
        40.5004         33.0004
    185062.75446    190953.48443  24433309.2504                   24433309.9884
        39.7504         20.2504
 25  8  7 20  9  0.0000000  0  9G02G08G10G23G27G28G32G31G01
  -5541400.79747  -4270248.37545  22318714.2344                   22318709.0744
        46.2504         34.5004
   2209482.43847   1740685.50446  22967762.0554                   22967764.1914
        42.5004         36.0004
   1091719.14848    869299.41048  21342906.0864                   21342904.9224
        49.5004         49.2504
   4342452.19546   3390676.95743  23626650.1724                   23626649.5164
        39.0004         20.5004
   5355820.60946   4177810.49646  23534110.7344                   23534114.8714
        38.2504         36.5004
  -6683199.82847  -5132737.72345  22311911.6954                   22311910.0434
        44.7504         31.5004
    573935.99648    472585.20748  20556403.5234                   20556401.7854
        50.7504         52.5004
  -4240429.73046  -3251084.91045  24073853.1174                   24073856.2274
        41.2504         33.7504
    -13330.47746     36361.47743  24395555.6484                   24395557.1884
        38.2504         20.0004
 25  8  7 20  9 30.0000000  0  9G02G08G10G23G27G28G32G31G01
  -5705233.11747  -4397909.87945  22287537.5234                   22287533.0124
        45.7504         34.5004
   2164816.43446   1705880.72345  22959261.7734                   22959264.6804
        41.0004         35.0004
   1021707.31348    814744.69948  21329583.2114                   21329581.9494
        49.0004         49.0004
   4317584.35946   3371299.31343  23621917.8834                   23621917.7504
        40.0004         21.5004
   5348907.37146   4172423.35245  23532795.1564                   23532799.4534
        37.5004         35.0004
  -6864799.72747  -5274244.05145  22277354.2734                   22277353.1644
        44.5004         32.5004
    504567.78548    418532.05548  20543203.4384                   20543201.7034
        50.7504         52.5004
  -4449375.12946  -3413899.21145  24034091.9534                   24034095.1954
        40.7504         34.2504
   -211629.18046   -118156.84443  24357820.3524                   24357822.8674
        37.5004         19.2504
 25  8  7 20 10  0.0000000  0  9G02G08G10G23G27G28G32G31G01
  -4293302.69147  -3297704.30545  22556219.1024                   22556214.3054
        45.0004         34.5004
   3695983.75846   2898998.01245  23250634.0944                   23250636.0514
        41.2504         34.2504
   2527332.07448   1987958.77048  21616093.9224                   21616093.0474
        49.2504         49.0004
   5868281.81346   4579634.86743  23917006.1564                   23917005.8954
        39.7504         21.5004
   6917574.84046   5394761.42645  23831303.5634                   23831307.4884
        39.2504         35.2504
  -5470630.35947  -4187878.21945  22542655.5864                   22542654.2304
        44.7504         32.5004
   2011027.17648   1592396.50448  20829872.9454                   20829871.1524
        50.5004         52.5004
  -3082862.62546  -2349083.94945  24294130.3914                   24294133.7074
        39.5004         33.7504
   1165594.41846    955004.53143  24619897.6954                   24619899.4384
        38.0004         20.0004
 25  8  7 20 10 30.0000000  0  9G02G08G10G23G27G28G32G31G01
  -4456458.35247  -3424838.55145  22525171.4304                   22525167.0784
        46.0004         34.7504
   3652138.93046   2864833.11345  23242290.2664                   23242292.5354
        40.7504         35.0004
   2457749.32848   1933738.41048  21602853.1884                   21602851.9924
        49.0004         49.0004
   5843703.09046   4560482.50443  23912329.2734                   23912328.6764
        40.7504         21.2504
   6910979.57846   5389622.07045  23830048.2584                   23830052.1954
        38.2504         35.5004
  -5651540.77347  -4328847.28145  22508229.2274                   22508227.9614
        44.5004         33.0004
   1942467.98048   1538973.75848  20816826.6174                   20816824.8324
        50.0004         52.5004
  -3291743.22346  -2511847.71545  24254381.3204                   24254384.4884
        40.0004         34.0004
    967489.34046    800637.04743  24582200.3914                   24582200.9264
        38.7504         21.5004
 25  8  7 20 11  0.0000000  0  9G02G08G10G23G27G28G32G31G01
  -4619272.27747  -3551706.50045  22494188.9844                   22494183.9384
        46.2504         35.2504
   3608701.19146   2830985.42645  23234024.6094                   23234026.7814
        41.0004         35.0004
   2388382.11348   1879686.02048  21589652.8674                   21589651.6414
        48.7504         49.0004
   5819269.33646   4541443.06643  23907679.7114                   23907679.4414
        41.2504         22.0004
   6904538.89546   5384603.17245  23828823.3674                   23828826.8324
        39.0004         35.0004
  -5832101.73047  -4469544.03545  22473869.7344                   22473868.1644
        45.2504         33.0004
   1874311.12948   1485864.51648  20803856.8984                   20803855.0124
        50.5004         52.5004
  -3500586.67646  -2674582.54345  24214640.3054                   24214642.5634
        39.7504         33.0004
    769484.57046    646347.74643  24544520.9454                   24544521.9304
        39.0004         22.2504
 25  8  7 20 11 30.0000000  0  9G02G08G10G23G27G28G32G31G01
  -4781741.58247  -3678305.92245  22463272.3914                   22463267.3914
        45.5004         34.2504
   3565668.53546   2797453.37545  23225835.9774                   23225838.1844
        41.0004         35.2504
   2319231.39548   1825802.31648  21576493.9454                   21576492.5744
        48.0004         49.0004
   5794981.26247   4522517.19543  23903057.5394                   23903057.8014
        42.0004         23.2504
   6898250.38346   5379702.84845  23827626.7114                   23827630.1174
        40.0004         35.2504
  -6012309.64847  -4609965.69945  22439577.1254                   22439576.0204
        44.5004         32.5004
   1806555.51248   1433067.91048  20790963.4454                   20790961.4414
        50.0004         52.2504
  -3709389.64546  -2837285.85545  24174905.5394                   24174907.7274
        41.0004         32.0004
    571582.69946    492138.62143  24506861.0474                   24506862.5044
        38.2504         22.0004
 25  8  7 20 12  0.0000000  0  9G02G08G10G23G27G28G32G31G01
  -4943865.46147  -3804636.18445  22432421.2584                   22432416.5314
        46.0004         34.7504
   3523037.22746   2764234.06646  23217723.2344                   23217725.3554
        41.2504         36.5004
   2250296.51248   1772086.80148  21563376.3364                   21563375.0354
        48.7504         49.0004
   5770837.86747   4503704.06343  23898463.6094                   23898463.2034
        42.0004         23.2504
   6892109.79746   5374917.80545  23826458.2114                   23826461.5944
        40.7504         34.2504
  -6192162.80547  -4750110.91445  22405352.3054                   22405350.8714
        45.2504         32.2504
   1739198.34848   1380581.80148  20778145.6414                   20778143.7934
        51.0004         52.2504
  -3918150.22346  -2999956.15245  24135179.4064                   24135182.1914
        41.5004         33.2504
    373784.65646    338010.40243  24469220.8754                   24469222.4384
        36.7504         21.5004
 25  8  7 20 12 30.0000000  0  9G02G08G10G23G27G28G32G31G01
  -5105641.68047  -3930695.53945  22401635.7894                   22401631.1374
        46.0004         35.5004
   3480804.85247   2731325.61746  23209687.1024                   23209689.7504
        42.0004         37.0004
   2181578.09848   1718539.94548  21550299.5864                   21550298.2194
        48.7504         49.0004
   5746839.40647   4485003.82843  23893897.1024                   23893896.8754
        42.5004         22.7504
   6886114.26646   5370245.79745  23825317.6724                   23825320.9844
        40.5004         35.0004
  -6371657.98447  -4889977.19145  22371195.6174                   22371194.2194
        44.5004         33.0004
   1672238.15648   1328405.02348  20765403.8284                   20765402.0004
        49.7504         52.2504
  -4126865.14846  -3162590.88745  24095461.6254                   24095464.5784
        41.2504         32.5004
    176092.84446    183964.98843  24431601.4844                   24431603.4614
        37.7504         22.5004
 25  8  7 20 13  0.0000000  0  9G02G08G10G23G27G28G32G31G01
  -5267068.60247  -4056482.71946  22370917.5554                   22370912.6024
        45.7504         36.0004
   3438968.19147   2698725.52346  23201726.2114                   23201728.9264
        42.5004         38.0004
   2113075.94548   1665161.61748  21537263.9774                   21537262.8914
        48.2504         49.2504
   5722985.23447   4466416.04344  23889358.0164                   23889357.8524
        42.2504         24.2504
   6880260.09446   5365683.92645  23824204.2034                   23824207.5784
        40.2504         34.7504
  -6550793.00847  -5029562.82045  22337107.3204                   22337105.8404
        44.7504         32.2504
   1605672.56348   1276535.72748  20752736.5474                   20752734.3984
        49.7504         52.2504
  -4335532.51646  -3325188.57845  24055754.1724                   24055756.2934
        41.2504         31.7504
    -21491.35546     30003.39843  24394002.4304                   24394003.7894
        38.5004         22.0004
 25  8  7 20 13 30.0000000  0  9G02G08G10G23G27G28G32G31G01
  -5428143.49647  -4181995.59045  22340265.6954                   22340261.0944
        46.2504         35.0004
   3397525.51247   2666432.42646  23193839.5164                   23193843.0274
        42.5004         38.2504
   2044791.46547   1611952.90648  21524269.9304                   21524268.9804
        47.5004         49.0004
   5699276.47747   4447941.53944  23884846.6094                   23884846.6134
        43.0004         27.0004
   6874545.00846   5361230.42245  23823116.3674                   23823120.2974
        40.0004         34.7504
  -6729564.02047  -5168864.80945  22303087.7344                   22303086.6134
        44.7504         33.0004
   1539500.79348   1224973.28948  20740144.4614                   20740142.6844
        49.0004         52.0004
  -4544148.38746  -3487746.13344  24016055.7584                   24016057.2704
        41.2504         29.7504
   -218964.81246   -123871.90643  24356424.5554                   24356425.7664
        39.5004         22.2504
 25  8  7 20 14  0.0000000  0  9G02G08G10G23G27G28G32G31G01
  -5588864.92247  -4307233.03545  22309681.3594                   22309676.4734
        45.7504         35.5004
   3356473.26647   2634443.56346  23186027.7974                   23186030.4654
        43.0004         39.2504
   1976724.09447   1558913.37948  21511317.4534                   21511316.0554
        47.2504         49.0004
   5675712.19547   4429579.63744  23880362.8754                   23880362.4304
        43.5004         27.0004
   6868965.12946   5356882.27745  23822054.5084                   23822058.8444
        39.5004         34.7504
  -6907969.06247  -5307881.62145  22269138.2974                   22269137.0394
        44.7504         32.7504
   1473720.21148   1173715.67648  20727626.9694                   20727624.9224
        50.7504         52.2504
  -4752710.73046  -3650261.96944  23976367.0004                   23976369.2544
        39.5004         29.0004
   -416326.41046   -277660.03943  24318868.0394                   24318868.5864
        40.7504         22.7504
 25  8  7 20 14 30.0000000  0  9G02G08G10G23G27G28G32G31G01
  -5749226.45747  -4432190.05146  22279165.7894                   22279161.0824
        45.5004         36.0004
   3315813.13747   2602760.24646  23178290.5864                   23178293.3204
        42.2504         39.0004
   1908878.63347   1506046.76248  21498406.8984                   21498405.6334
        47.7504         49.0004
   5652296.85947   4411333.82044  23875906.7194                   23875906.7344
        43.5004         27.5004
   6863521.57046   5352640.35545  23821019.3914                   23821022.5594
        39.2504         35.5004
  -7086000.91847  -5446607.64545  22235260.2974                   22235258.4184
        44.0004         33.7504
   1408333.46548   1122764.93848  20715184.3054                   20715182.3834
        50.5004         52.2504
  -4961212.60546  -3812730.68744  23936689.4384                   23936692.2774
        39.5004         29.2504
   -613569.70746   -431356.01643  24281333.5554                   24281334.5084
        40.0004         22.5004
 25  8  7 20 15  0.0000000  0  9G02G08G10G23G27G28G32G31G01
  -5909227.37547  -4556866.05945  22248718.4384                   22248713.7504
        46.5004         35.5004
   3275541.38747   2571379.55146  23170627.5234                   23170629.7234
        42.2504         39.2504
   1841254.39847   1453352.53148  21485538.0474                   21485537.2384
        47.7504         49.0004
   5629029.39547   4393203.20744  23871479.0634                   23871478.9104
        42.5004         28.5004
   6858210.27846   5348501.44845  23820007.9614                   23820012.3204
        38.0004         35.5004
  -7263657.85547  -5585041.51645  22201453.0004                   22201451.4024
        44.7504         32.7504
   1343337.68048   1072118.85548  20702816.1564                   20702814.5314
        50.5004         52.2504
  -5169652.05546  -3975150.79745  23897025.0864                   23897027.7304
        39.5004         30.2504
   -810693.71146   -584959.01643  24243822.1254                   24243822.5824
        39.7504         23.0004
 25  8  7 20 15 30.0000000  0  9G02G08G10G23G27G28G32G31G01
  -6068869.85547  -4681262.77745  22218339.5394                   22218334.8954
        46.5004         35.5004
   3235651.14147   2540296.12946  23163036.2734                   23163039.4774
        42.0004         39.0004
   1773847.69147   1400827.80548  21472710.8054                   21472710.2854
        47.2504         49.0004
   5605905.68047   4375184.60244  23867078.5394                   23867079.3794
        42.5004         27.5004
   6853023.80946   5344459.83246  23819021.6644                   23819026.1524
        38.7504         36.2504
  -7440941.14847  -5723184.24245  22167717.0394                   22167715.9264
        45.5004         33.2504
   1278726.98848   1021772.83248  20690521.1414                   20690519.1374
        48.7504         52.2504
  -5378030.33246  -4137523.25844  23857372.0004                   23857373.8834
        39.5004         29.2504
  -1007700.46946   -738470.63744  24206332.4534                   24206333.7704
        40.0004         25.2504
 25  8  7 20 16  0.0000000  0  9G02G08G10G23G27G28G32G31G01
  -6228144.78947  -4805373.08246  22188030.6024                   22188025.6844
        45.7504         36.0004
   3196146.48846   2509513.16046  23155518.9454                   23155521.7624
        41.2504         38.5004
   1706665.70348   1348478.18048  21459926.6954                   21459925.4654
        48.2504         49.0004
   5582932.54347   4357283.32844  23862707.1484                   23862707.2894
        42.5004         26.7504
   6847966.06346   5340518.54746  23818058.8134                   23818063.5634
        38.2504         36.7504
  -7617841.12147  -5861028.28145  22134054.4614                   22134052.7854
        45.7504         33.5004
   1214506.50848    971730.87148  20678300.0864                   20678298.2814
        50.2504         52.2504
  -5586337.60246  -4299840.39544  23817732.4924                   23817734.0084
        39.5004         29.0004
  -1204580.94946   -891883.87543  24168867.8754                   24168868.6294
        41.2504         23.5004
 25  8  7 20 16 30.0000000  0  9G02G08G10G23G27G28G32G31G01
  -6387050.18447  -4929195.42646  22157791.9304                   22157787.1024
        46.0004         36.0004
   3157024.84446   2479028.64846  23148074.0004                   23148077.4494
        40.0004         37.5004
   1639708.98448   1296304.09448  21447185.5004                   21447183.9414
        48.7504         49.0004
   5560110.11347   4339499.48844  23858364.5474                   23858364.5354
        43.0004         27.7504
   6843033.97346   5336675.14546  23817121.0944                   23817125.0824
        39.7504         37.2504
  -7794354.86347  -5998571.36345  22100464.5634                   22100463.2074
        45.2504         33.0004
   1150674.50048    921991.60948  20666153.1804                   20666151.5704
        51.0004         52.2504
  -5794570.94546  -4462099.91044  23778106.4924                   23778108.5704
        38.5004         29.0004
  -1401333.06247  -1045197.05944  24131426.7344                   24131427.5314
        42.0004         25.7504
 25  8  7 20 17  0.0000000  0  9G02G08G10G23G27G28G32G31G01
  -6545583.35547  -5052727.73845  22127623.8754                   22127619.1294
        46.2504         35.5004
   3118284.09446   2448840.92646  23140702.1334                   23140704.9344
        40.0004         37.2504
   1572978.56347   1244306.35248  21434487.1414                   21434486.0124
        47.2504         48.7504
   5537439.06646   4321833.60544  23854050.3754                   23854050.8284
        41.5004         26.5004
   6838224.99646   5332927.69146  23816206.3134                   23816210.2344
        39.5004         39.0004
  -7970478.97747  -6135810.83245  22066949.3914                   22066947.5944
        45.2504         34.0004
   1087229.82448    872554.18448  20654080.6024                   20654078.6134
        51.0004         52.2504
  -6002726.98346  -4624299.18644  23738494.7814                   23738497.7814
        38.2504         29.2504
  -1597953.97347  -1198408.03944  24094010.9064                   24094011.8444
        42.0004         24.5004
 25  8  7 20 17 30.0000000  0  9G02G08G10G23G27G28G32G31G01
  -6703742.50847  -5175968.59846  22097527.0084                   22097522.4144
        45.7504         36.0004
   3079921.35246   2418947.75346  23133402.2584                   23133405.3054
        40.5004         36.7504
   1506474.69548   1192485.14148  21421832.0164                   21421830.7304
        48.0004         49.0004
   5514919.28147   4304285.56344  23849764.8444                   23849765.3554
        42.0004         25.2504
   6833535.97746   5329273.73046  23815313.8834                   23815318.1414
        40.0004         38.5004
  -8146210.80147  -6272744.62145  22033508.3444                   22033506.9534
        45.0004         34.0004
   1024170.55548    823417.07048  20642080.5314                   20642078.7624
        50.2504         52.2504
  -6210803.12546  -4786436.18445  23698900.0634                   23698902.3484
        38.5004         30.5004
  -1794441.74247  -1351515.29743  24056620.6094                   24056621.3954
        42.0004         23.5004
 25  8  7 20 18  0.0000000  0  9G02G08G10G23G27G28G32G31G01
  -6861528.54347  -5298918.71945  22067501.3284                   22067496.8634
        45.7504         35.5004
   3041930.75046   2389344.56346  23126173.0004                   23126176.1134
        39.5004         36.0004
   1440194.75047   1140838.41848  21409219.1254                   21409218.2814
        47.5004         48.7504
   5492547.70746   4286853.03144  23845507.5004                   23845508.3754
        41.0004         25.7504
   6828960.59846   5325708.27046  23814443.8054                   23814447.8524
        41.0004         40.0004
  -8321550.62147  -6409372.96145  22000142.2504                   22000140.7114
        46.2504         33.7504
    961491.78548    774576.44548  20630153.1884                   20630151.4734
        51.0004         52.2504
  -6418799.14546  -4948510.77745  23659320.0784                   23659321.1644
        40.2504         33.0004
  -1990797.35946  -1504519.55544  24019254.8594                   24019255.5784
        41.0004         24.0004
 25  8  7 20 18 30.0000000  0  9G02G08G10G23G27G28G32G31G01
  -5443511.34447  -4193970.20346  22337341.2274                   22337336.5234
        45.7504         36.0004
   4579734.02346   3587632.69545  23418806.9384                   23418809.6804
        40.5004         35.2504
   2949564.47347   2316970.65248  21696442.6884                   21696441.8874
        47.7504         48.7504
   7045748.39546   5497139.19944  24141071.8914                   24141072.8594
        40.0004         24.0004
   8399919.30946   6549831.76646  24113387.5004                   24113391.1764
        41.5004         39.5004
  -6921066.67247  -5318086.67245  22266645.3594                   22266643.6564
        45.5004         34.0004
   2474617.07848   1953635.09848  20918091.6334                   20918089.8714
        49.7504         52.0004
  -5051282.04746  -3882912.82045  23919549.2114                   23919551.0744
        40.2504         33.5004
   -611588.85246   -429811.52743  24281709.6254                   24281710.0944
        41.0004         22.7504
 25  8  7 20 19  0.0000000  0  9G02G08G10G23G27G28G32G31G01
  -5600542.77347  -4316332.31646  22307458.8674                   22307454.3284
        46.0004         36.2504
   4542482.25846   3558605.21946  23411718.2814                   23411721.2274
        41.2504         36.5004
   2883736.41447   2265676.03548  21683915.8204                   21683914.7814
        47.7504         48.7504
   7023676.12546   5479939.89843  24136872.4924                   24136872.6914
        39.7504         22.7504
   8395564.98446   6546438.59846  24112558.8204                   24112563.1174
        41.0004         38.5004
  -7095611.32847  -5454095.40645  22233430.4614                   22233429.0514
        46.0004         33.5004
   2412696.93448   1905385.62548  20906308.4774                   20906306.6804
        50.0004         52.0004
  -5259106.53146  -4044853.76245  23880001.6024                   23880003.0664
        39.7504         33.2504
   -807670.84046   -582602.59643  24244396.4304                   24244397.1414
        41.0004         22.5004
 25  8  7 20 19 30.0000000  0  9G02G08G10G23G27G28G32G31G01
  -5757192.47747  -4438396.98046  22277649.4924                   22277644.7584
        46.0004         36.0004
   4505597.10946   3529863.43446  23404699.7114                   23404702.1484
        40.5004         36.0004
   2818136.24248   2214559.00448  21671432.8754                   21671431.6134
        48.0004         48.7504
   7001754.82446   5462858.22743  24132700.8054                   24132701.2504
        38.5004         21.5004
   8391317.95746   6543129.02746  24111750.3594                   24111754.8984
        40.5004         37.0004
  -7269752.90247  -5589790.04745  22200292.7734                   22200291.0204
        46.0004         33.7504
   2351154.68048   1857430.58648  20894597.4454                   20894595.5164
        51.0004         52.5004
  -5466839.74246  -4206723.56645  23840470.4454                   23840472.4654
        39.7504         32.2504
  -1003611.35546   -735283.39843  24207110.0554                   24207110.4774
        41.5004         22.5004
 25  8  7 20 20  0.0000000  0  9G02G08G10G23G27G28G32G31G01
  -5913460.94947  -4560164.57846  22247912.8594                   22247907.9384
        46.5004         36.0004
   4469073.42646   3501403.30145  23397749.6804                   23397752.1914
        40.2504         35.2504
   2752762.12547   2163618.11348  21658992.4304                   21658991.2734
        47.7504         48.7504
   6979982.20746   5445892.41443  24128557.4454                   24128558.3324
        37.2504         21.5004
   8387172.66846   6539898.75846  24110961.8834                   24110965.6524
        40.7504         36.0004
  -7443490.97747  -5725170.27745  22167231.3134                   22167229.8874
        45.7504         34.0004
   2289986.20748   1809766.80948  20882957.2194                   20882955.5944
        49.2504         52.0004
  -5674480.81646  -4368521.58645  23800957.2424                   23800959.5354
        40.5004         34.2504
  -1199410.62147   -887854.14144  24169850.8364                   24169850.5984
        42.0004         24.0004
 25  8  7 20 20 30.0000000  0  9G02G08G10G23G27G28G32G31G01
  -6069341.83647  -4681630.15646  22218249.5314                   22218244.5474
        46.2504         36.0004
   4432912.39847   3473225.77045  23390868.5704                   23390871.0274
        42.2504         35.5004
   2687618.39548   2112856.74648  21646595.9224                   21646595.3244
        49.0004         48.5004
   6958362.25046   5429045.53943  24124443.5004                   24124444.0984
        37.0004         20.7504
   8383130.14546   6536748.54745  24110191.9844                   24110197.4414
        39.5004         34.7504
  -7616818.80547  -5860230.83645  22134247.9924                   22134246.1804
        45.5004         34.0004
   2229193.75048   1762396.04348  20871389.0474                   20871386.8554
        50.2504         52.2504
  -5882022.95346  -4530242.53145  23761464.0864                   23761465.2344
        40.7504         34.7504
  -1395062.52046  -1040310.09444  24132620.4924                   24132619.9804
        41.7504         24.2504
 25  8  7 20 21  0.0000000  0  9G02G08G10G23G27G28G32G31G01
  -6224834.38347  -4802793.14146  22188659.9144                   22188655.0514
        46.5004         36.0004
   4397110.36347   3445327.96146  23384055.6174                   23384058.5704
        42.0004         36.5004
   2622704.64848   2062274.58648  21634243.3984                   21634242.0634
        49.0004         48.5004
   6936894.10946   5412316.96143  24120357.6644                   24120358.7544
        36.7504         20.2504
   8379186.36746   6533675.28545  24109442.4454                   24109446.8794
        38.7504         34.0004
  -7789734.52047  -5994970.27745  22101343.2974                   22101341.3834
        46.5004         34.0004
   2168774.56348   1715316.12148  20859891.5704                   20859890.0124
        50.2504         52.0004
  -6089463.98046  -4691884.69945  23721989.2584                   23721991.2704
        40.2504         35.2504
  -1590565.69546  -1192650.12943  24095416.1484                   24095416.8634
        40.7504         21.5004
 25  8  7 20 21 30.0000000  0  9G02G08G10G23G27G28G32G31G01
  -6379932.90647  -4923649.09446  22159146.0234                   22159140.7664
        46.5004         36.0004
   4361667.99247   3417710.41846  23377311.4774                   23377314.0044
        42.0004         36.2504
   2558024.83648   2011874.71948  21621935.2974                   21621933.7154
        49.0004         48.5004
   6915581.23046   5395709.40243  24116302.7894                   24116303.6374
        38.2504         21.2504
   8375341.75446   6530679.27045  24108710.5864                   24108715.8754
        38.5004         34.0004
  -7962231.94547  -6129383.77345  22068518.3204                   22068516.1604
        45.7504         34.2504
   2108730.30948   1668528.35548  20848465.5554                   20848463.9454
        51.0004         52.0004
  -6296797.56246  -4853443.12945  23682534.6414                   23682536.1174
        39.7504         35.2504
  -1785914.52346  -1344869.90243  24058242.1414                   24058242.8984
        40.0004         22.0004
 25  8  7 20 22  0.0000000  0  9G02G08G10G23G27G28G32G31G01
  -6534636.46947  -5044197.27746  22129707.0554                   22129701.9264
        46.7504         36.2504
   4326581.60947   3390370.26646  23370634.4064                   23370637.7034
        42.7504         37.0004
   2493578.47348   1961656.75048  21609671.4924                   21609670.3794
        49.2504         48.2504
   6894422.79746   5379222.15243  24112276.4454                   24112277.2974
        37.5004         21.7504
   8371592.46146   6527757.53145  24107998.1414                   24108002.3794
        37.7504         33.5004
  -8134309.18747  -6263469.85545  22035772.7894                   22035770.8834
        46.2504         34.0004
   2049058.44548   1622030.78948  20837110.6254                   20837108.9774
        50.5004         52.0004
  -6504021.69946  -5014916.29345  23643100.7734                   23643102.9224
        40.5004         35.5004
  -1981107.63346  -1496968.32843  24021098.3594                   24021099.0234
        40.0004         21.5004
 25  8  7 20 22 30.0000000  0  9G02G08G10G23G27G28G32G31G01
  -6688945.72747  -5164438.21946  22100342.3984                   22100337.7734
        47.0004         36.0004
   4291845.69546   3363303.20346  23364024.6724                   23364027.9144
        41.7504         38.0004
   2429363.41048   1911619.02048  21597451.7274                   21597450.2854
        48.7504         48.2504
   6873416.17246   5362853.24643  24108279.4694                   24108279.6844
        39.7504         21.5004
   8367932.74646   6524905.57945  24107301.2194                   24107306.2384
        38.2504         33.0004
  -8305966.20347  -6397228.49645  22003107.3204                   22003105.4534
        46.5004         34.5004
   1989754.43848   1575819.87948  20825825.0864                   20825823.7234
        50.5004         52.2504
  -6711135.97546  -5176303.86045  23603688.5554                   23603689.8554
        41.5004         35.7504
  -2176145.44546  -1648945.74643  23983983.7194                   23983984.3984
        40.0004         21.7504
 25  8  7 20 23  0.0000000  0  9G02G08G10G23G27G28G32G31G01
  -6842855.78547  -5284368.09446  22071054.3364                   22071049.4454
        47.0004         36.2504
   4257460.57447   3336509.46146  23357481.8674                   23357484.9024
        42.0004         37.7504
   2365383.15248   1861764.25048  21585276.6094                   21585275.5784
        49.0004         48.2504
   6852564.45746   5346605.02343  24104311.4774                   24104312.3094
        39.2504         22.5004
   8364362.55946   6522123.39545  24106622.1564                   24106627.0664
        38.2504         33.0004
  -8477197.18447  -6530655.15645  21970523.1804                   21970521.3524
        46.7504         34.0004
   1930819.51248   1529896.52348  20814610.5004                   20814608.9414
        51.2504         51.7504
  -6918134.44146  -5337601.21145  23564297.9774                   23564299.6994
        41.2504         35.5004
  -2371022.65246  -1800798.02743  23946899.9534                   23946900.4884
        40.5004         22.2504
 25  8  7 20 23 30.0000000  0  9G02G08G10G23G27G28G32G31G01
  -6996367.89547  -5403987.87946  22041841.8834                   22041836.7624
        46.7504         36.5004
   4223419.97747   3309984.18846  23351003.5004                   23351006.8094
        42.2504         37.2504
   2301634.73448   1812090.14148  21573145.8524                   21573144.6844
        48.5004         48.5004
   6831864.13746   5330474.78543  24100372.0944                   24100373.0904
        40.5004         22.7504
   8360875.68846   6519406.12945  24105958.4224                   24105963.2304
        37.7504         33.0004
  -8648002.79347  -6663750.35945  21938019.4384                   21938018.0824
        46.0004         34.2504
   1872248.60948   1484256.86348  20803464.5394                   20803462.3674
        50.7504         52.0004
  -7125017.27046  -5498808.44546  23524928.9694                   23524930.3634
        41.2504         36.0004
  -2565740.42246  -1952526.04743  23909846.7344                   23909846.4734
        40.7504         22.5004
 25  8  7 20 24  0.0000000  0  9G02G08G10G23G27G28G32G31G01
  -7149477.23847  -5523293.81646  22012706.3524                   22012701.1024
        45.2504         36.0004
   4189723.86346   3283727.35246  23344591.4774                   23344595.2814
        41.0004         36.5004
   2238121.42648   1762599.22748  21561059.5864                   21561058.7504
        48.5004         48.0004
   6811318.09846   5314464.73043  24096462.7664                   24096464.0084
        40.7504         22.7504
   8357471.68246   6516753.42945  24105311.3444                   24105316.4454
        38.0004         33.0004
  -8818377.59047  -6796509.86345  21905598.2974                   21905596.7154
        46.0004         34.7504
   1814042.55948   1438901.49248  20792388.5004                   20792386.5744
        51.5004         51.7504
  -7331778.95546  -5659921.28146  23485583.4144                   23485584.7504
        41.7504         36.2504
  -2760293.81246  -2104125.98043  23872824.4384                   23872823.9414
        40.2504         21.5004
 25  8  7 20 24 30.0000000  0  9G02G08G10G23G27G28G32G31G01
  -7302184.92247  -5642286.78546  21983646.7974                   21983641.9734
        46.2504         36.2504
   4156366.37946   3257734.37546  23338243.5314                   23338247.8754
        40.5004         36.5004
   2174840.64148   1713289.50848  21549017.9304                   21549016.6644
        48.7504         48.2504
   6790923.32446   5298572.55143  24092581.8284                   24092582.8554
        40.7504         22.0004
   8354144.51646   6514160.59445  24104678.9144                   24104683.2464
        38.7504         34.2504
  -8988321.88747  -6928933.91845  21873259.2194                   21873257.1884
        46.2504         33.5004
   1756196.57848   1393826.68448  20781380.7424                   20781378.9804
        51.2504         52.0004
  -7538419.57846  -5820939.76245  23446260.7664                   23446262.1604
        41.0004         35.0004
  -2954683.51246  -2255598.36743  23835832.9454                   23835832.9144
        40.7504         22.5004
 25  8  7 20 25  0.0000000  0  9G02G08G10G23G27G28G32G31G01
  -7454485.32847  -5760962.38746  21954665.1564                   21954660.2274
        45.5004         36.5004
   4123348.53146   3232006.02946  23331961.0394                   23331964.5164
        39.7504         36.7504
   2111796.70748   1664164.34048  21537020.8754                   21537019.7544
        48.2504         48.2504
   6770683.71146   5282801.27343  24088729.8444                   24088731.7704
        40.0004         22.7504
   8350895.07846   6511628.32445  24104059.8054                   24104065.0234
        39.5004         34.5004
  -9157829.19147  -7061017.46145  21841003.0164                   21841000.8674
        46.0004         33.5004
   1698712.69148   1349034.03548  20770442.0704                   20770440.3714
        50.5004         51.7504
  -7744932.18746  -5981858.50445  23406962.6334                   23406964.0514
        41.5004         34.7504
  -3148903.39846  -2406938.43443  23798873.7504                   23798874.0514
        40.0004         22.0004
 25  8  7 20 25 30.0000000  0  9G02G08G10G23G27G28G32G31G01
  -7606377.22347  -5879319.67246  21925761.0394                   21925756.4804
        45.7504         37.0004
   4090666.41446   3206539.31346  23325742.0784                   23325745.7704
        40.0004         36.0004
   2048989.09848   1615223.31648  21525068.8914                   21525067.9574
        48.5004         48.2504
   6750598.17246   5267150.04743  24084908.3674                   24084909.5784
        40.0004         22.5004
   8347719.35246   6509153.52045  24103455.7894                   24103461.1484
        39.2504         33.7504
  -9326897.63747  -7192759.03145  21808830.5084                   21808828.6524
        46.5004         34.0004
   1641588.10948   1304521.35948  20759571.5394                   20759569.5474
        51.0004         52.0004
  -7951314.62546  -6142675.80545  23367689.1564                   23367690.1484
        41.7504         34.7504
  -3342952.25046  -2558145.22743  23761947.5314                   23761947.8984
        40.7504         22.7504
 25  8  7 20 26  0.0000000  0  9G02G08G10G23G27G28G32G31G01
  -7757861.00047  -5997358.94946  21896934.7344                   21896929.4064
        44.7504         36.7504
   4058314.97346   3181330.25845  23319586.2894                   23319589.3754
        39.2504         34.2504
   1986416.05948   1566465.07448  21513161.4304                   21513160.7854
        48.5004         48.2504
   6730664.61346   5251617.24643  24081115.0864                   24081116.3484
        39.7504         22.0004
   8344612.11346   6506732.06345  24102864.7894                   24102870.1054
        39.0004         33.2504
  -9495527.16047  -7324158.58245  21776741.3674                   21776739.1174
        46.5004         34.7504
   1584818.81648   1260285.54748  20748768.5234                   20748766.6764
        51.0004         52.0004
  -8157566.30147  -6303391.23045  23328441.0314                   23328442.0434
        42.7504         35.0004
  -3536829.98046  -2709218.64544  23725053.8674                   23725053.8874
        40.7504         24.2504
 25  8  7 20 26 30.0000000  0  9G02G08G10G23G27G28G32G31G01
  -7908933.68447  -6115077.87946  21868185.9384                   21868181.1994
        46.2504         36.0004
   4026292.51646   3156377.54745  23313492.3134                   23313495.6334
        39.2504         35.5004
   1924079.27048   1517890.93047  21501299.4144                   21501298.4384
        48.5004         47.7504
   6710884.10946   5236203.75843  24077351.2034                   24077352.5124
        38.2504         21.5004
   8341571.58246   6504362.58245  24102286.5634                   24102291.2154
        38.5004         32.2504
  -9663713.75847  -7455213.00445  21744736.1024                   21744734.1454
        46.5004         34.7504
   1528404.18848   1216326.09448  20738033.1644                   20738031.2624
        51.0004         52.2504
  -8363682.95746  -6464001.43045  23289217.9844                   23289219.1054
        41.5004         35.0004
  -3730533.22346  -2860156.10243  23688192.9694                   23688193.3554
        41.0004         23.0004
 25  8  7 20 27  0.0000000  0  9G02G08G10G23G27G28G32G31G01
  -6484167.61747  -5004870.52746  22139310.1174                   22139305.3324
        46.2504         36.0004
   5570018.02746   4359280.38745  23607253.6564                   23607256.8914
        40.0004         34.2504
   3437401.91848   2697103.35948  21789275.1334                   21789274.0164
        48.0004         48.0004
   8266678.14146   6448510.62543  24373409.5704                   24373410.3834
        38.5004         21.5004
   9914015.58246   7729643.40245  24401512.2344                   24401517.2424
        38.2504         32.0004
  -8256028.46147  -6358315.30145  22012609.5314                   22012607.5204
        46.5004         34.7504
   3047764.92648   2400243.52748  21027158.0004                   21027156.1684
        51.5004         52.0004
  -6994234.01246  -5396898.15245  23549815.4774                   23549816.5474
        41.2504         35.0004
  -2348632.37546  -1783350.11344  23951159.7894                   23951159.9264
        41.2504         25.2504
 25  8  7 20 27 30.0000000  0  9G02G08G10G23G27G28G32G31G01
  -6634409.64847  -5121942.20746  22110720.3914                   22110715.0554
        46.5004         36.2504
   5538647.59846   4334835.77745  23601284.4064                   23601287.6024
        40.7504         34.7504
   3375541.54347   2648900.45348  21777503.7034                   21777502.5084
        47.2504         48.0004
   8247206.40646   6433337.69143  24369704.2114                   24369705.3244
        39.0004         20.2504
   9911102.03146   7727372.86745  24400957.6804                   24400962.9304
        37.0004         30.5004
  -8423318.67647  -6488671.23445  21980775.2504                   21980773.4964
        45.5004         35.0004
   2992056.66848   2356834.47748  21016557.2114                   21016555.3554
        51.7504         52.0004
  -7200068.94146  -5557288.79745  23510646.7034                   23510647.2704
        41.5004         34.5004
  -2541976.98446  -1934008.12944  23914367.6884                   23914367.2814
        41.0004         26.2504
 25  8  7 20 28  0.0000000  0  9G02G08G10G23G27G28G32G31G01
  -6784233.09847  -5238687.72346  22082209.8754                   22082204.8524
        46.7504         37.0004
   5507598.96146   4310641.92045  23595376.3754                   23595379.0784
        40.7504         35.7504
   3313920.25448   2600883.83648  21765777.6024                   21765776.1644
        48.2504         48.0004
   8227889.22746   6418285.21043  24366028.0394                   24366029.2464
        39.0004         20.2504
   9908247.76646   7725148.52044  24400415.3674                   24400420.0234
        36.7504         29.2504
  -8590156.62147  -6618674.76245  21949026.9774                   21949025.2344
        46.0004         34.5004
   2936699.14148   2313698.74248  21006022.8444                   21006021.2504
        51.2504         52.0004
  -7405758.23046  -5717565.95345  23471504.2894                   23471505.6454
        40.5004         34.7504
  -2735138.69146  -2084523.64144  23877609.6254                   23877610.1914
        41.2504         27.5004
 25  8  7 20 28 30.0000000  0  9G02G08G10G23G27G28G32G31G01
  -6933639.37947  -5355108.16046  22053778.8134                   22053773.7154
        46.5004         36.5004
   5476866.28146   4286694.25845  23589527.3594                   23589530.9494
        41.0004         35.0004
   3252535.49247   2553051.52347  21754096.4924                   21754095.1174
        47.5004         47.7504
   8208723.61746   6403350.82043  24362381.1174                   24362382.4144
        38.5004         19.7504
   9905446.64846   7722965.60244  24399882.4454                   24399887.3794
        37.5004         28.7504
  -8756542.72747  -6748326.20345  21917364.4304                   21917363.0864
        45.7504         34.7504
   2881687.33248   2270832.37548  20995554.8444                   20995552.6134
        50.7504         52.0004
  -7611301.94946  -5877729.69945  23432390.7194                   23432391.5704
        41.5004         33.2504
  -2928118.24246  -2234897.18744  23840887.0394                   23840887.2304
        40.7504         25.5004
 25  8  7 20 29  0.0000000  0  9G02G08G10G23G27G28G32G31G01
  -7082625.51247  -5471201.21546  22025427.4304                   22025422.2894
        45.5004         36.5004
   5446447.62547   4262991.26645  23583739.3834                   23583742.5554
        42.0004         34.5004
   3191388.84447   2505404.75447  21742460.6954                   21742459.5904
        46.5004         47.5004
   8189710.56346   6388535.30943  24358763.0784                   24358764.1174
        38.5004         19.2504
   9902696.81346   7720822.65245  24399359.3984                   24399363.9414
        38.0004         30.7504
  -8922473.34447  -6877622.71945  21885789.1174                   21885787.4184
        46.0004         34.5004
   2827020.64848   2228234.95348  20985151.7274                   20985150.2344
        51.0004         52.0004
  -7816695.89546  -6037776.73445  23393304.9614                   23393306.0824
        40.2504         33.0004
  -3120912.25047  -2385126.17244  23804199.7424                   23804199.4734
        42.2504         24.7504
 25  8  7 20 29 30.0000000  0  9G02G08G10G23G27G28G32G31G01
  -7231186.83647  -5586963.24246  21997157.4384                   21997152.1254
        46.0004         37.0004
   5416342.86747   4239532.89545  23578011.2194                   23578013.8714
        42.0004         34.5004
   3130483.38347   2457945.92247  21730870.4534                   21730869.5704
        47.0004         47.5004
   8170852.66046   6373840.70743  24355174.5084                   24355175.7544
        38.7504         19.2504
   9899998.00446   7718719.44545  24398846.2344                   24398850.6524
        38.5004         30.5004
  -9087943.20747  -7006560.20345  21854301.1254                   21854299.2704
        45.5004         34.5004
   2772699.84848   2185907.03548  20974815.1484                   20974813.3794
        51.0004         51.7504
  -8021934.72746  -6197702.89845  23354249.3754                   23354250.1764
        41.0004         33.5004
  -3313515.73847  -2535206.69544  23767548.7344                   23767548.0274
        42.7504         27.5004
 25  8  7 20 30  0.0000000  0  9G02G08G10G23G27G28G32G31G01
  -7379323.99247  -5702394.76246  21968967.6024                   21968962.3014
        46.0004         37.0004
   5386546.60546   4216314.93045  23572340.8914                   23572343.8984
        40.7504         33.7504
   3069817.03947   2410673.41047  21719326.6024                   21719325.1994
        47.7504         47.5004
   8152147.39846   6359265.03143  24351615.5084                   24351616.7664
        39.0004         19.0004
   9897344.61746   7716651.62945  24398341.0004                   24398346.2304
        38.2504         31.5004
  -9252952.34447  -7135138.67645  21822900.9774                   21822899.1844
        45.7504         34.5004
   2718720.55948   2143845.22748  20964542.8524                   20964541.4574
        51.0004         51.5004
  -8227017.71946  -6357507.60545  23315223.2194                   23315224.0314
        41.2504         34.2504
  -3505928.90647  -2685138.91844  23730933.5944                   23730933.2974
        42.0004         28.0004
 25  8  7 20 30 30.0000000  0  9G02G08G10G23G27G28G32G31G01
  -7527038.05547  -5817496.60246  21940858.7504                   21940853.1724
        45.2504         36.7504
   5357052.80146   4193332.59845  23566728.7974                   23566731.7074
        40.0004         33.5004
   3009387.43047   2363585.37947  21707826.9144                   21707825.9224
        47.0004         47.5004
   8133591.84446   6344806.06643  24348084.4774                   24348085.6844
        40.5004         18.2504
   9894730.93846   7714614.75445  24397844.0554                   24397849.7934
        39.0004         32.5004
  -9417501.08647  -7263358.40645  21791588.5784                   21791586.1054
        46.0004         35.5004
   2665078.09448   2102045.89148  20954335.2344                   20954333.1644
        50.2504         51.7504
  -8431944.67246  -6517190.71545  23276227.2344                   23276227.6994
        40.5004         34.0004
  -3698152.32047  -2834923.28544  23694354.0944                   23694353.9024
        42.0004         26.7504
 25  8  7 20 31  0.0000000  0  9G02G08G10G23G27G28G32G31G01
  -7674322.31247  -5932263.51646  21912831.3594                   21912826.5314
        46.0004         36.7504
   5327863.64146   4170587.68445  23561174.0004                   23561177.4574
        39.7504         33.0004
   2949199.91847   2316685.99247  21696373.6644                   21696372.9144
        47.7504         47.7504
   8115190.82846   6330467.48043  24344582.9924                   24344584.3134
        41.2504         19.2504
   9892158.77346   7712610.24645  24397355.3054                   24397360.1764
        39.5004         33.5004
  -9581581.98047  -7391213.58245  21760364.7344                   21760362.5314
        46.7504         35.2504
   2611775.51248   2060511.39148  20944192.3444                   20944190.2194
        50.7504         51.7504
  -8636707.53946  -6676745.96545  23237261.6254                   23237262.1024
        40.5004         34.5004
  -3890178.78946  -2984554.18044  23657812.7114                   23657812.3094
        41.0004         26.0004
 25  8  7 20 31 30.0000000  0  9G02G08G10G23G27G28G32G31G01
  -7821175.56647  -6046694.59046  21884885.8524                   21884880.9064
        46.0004         36.7504
   5298975.41846   4148077.20745  23555676.9454                   23555680.4104
        40.5004         32.7504
   2889254.36747   2269975.14547  21684966.6024                   21684965.1214
        47.0004         47.5004
   8096943.71146   6316248.80143  24341110.8364                   24341111.9454
        40.7504         20.5004
   9889624.64846   7710635.35945  24396872.9224                   24396877.9614
        41.0004         34.0004
  -9745193.17247  -7518702.75845  21729230.5634                   21729228.3244
        47.0004         35.7504
   2558810.35948   2019239.81648  20934113.3364                   20934111.7544
        50.5004         51.5004
  -8841304.21146  -6836171.72745  23198328.1094                   23198328.3484
        41.0004         34.7504
  -4082006.53546  -3134030.21944  23621308.8204                   23621309.0514
        40.7504         26.0004
 25  8  7 20 32  0.0000000  0  9G02G08G10G23G27G28G32G31G01
  -7967595.94547  -6160788.35546  21857023.4694                   21857018.1844
        45.7504         36.7504
   5270385.01246   4125798.87545  23550236.4534                   23550239.7934
        39.2504         33.0004
   2829550.85547   2223452.89547  21673605.1954                   21673604.2114
        47.7504         47.2504
   8078850.17646   6302149.81343  24337667.9924                   24337668.7734
        40.5004         19.5004
   9887125.20746   7708687.50045  24396397.3914                   24396403.5984
        40.0004         34.5004
  -9908332.48847  -7645824.24245  21698186.2274                   21698184.2424
        46.5004         35.0004
   2506180.43848   1978229.47748  20924098.3364                   20924096.7504
        50.5004         52.0004
  -9045732.08646  -6995465.96145  23159426.8524                   23159427.0594
        41.2504         35.7504
  -4273633.64846  -3283349.93744  23584843.2034                   23584843.2664
        41.5004         27.0004
 25  8  7 20 32 30.0000000  0  9G02G08G10G23G27G28G32G31G01
  -8113585.25047  -6274546.21146  21829242.1254                   21829236.5664
        46.7504         36.5004
   5242086.08646   4103747.63345  23544851.2734                   23544855.0704
        39.5004         33.0004
   2770086.56648   2177117.04747  21662289.4844                   21662288.7664
        48.2504         47.5004
   8060906.87547   6288167.91043  24334254.0944                   24334254.6484
        42.0004         21.0004
   9884654.37146   7706761.93445  24395927.8444                   24395933.0784
        41.0004         35.2504
 -10071000.79347  -7772578.69545  21667231.7424                   21667229.4734
        47.2504         34.7504
   2453880.59448   1937476.32048  20914145.5234                   20914143.8324
        50.7504         52.0004
  -9249991.08246  -7154628.58245  23120557.0704                   23120557.7384
        41.5004         35.5004
  -4465061.06646  -3432514.05144  23548415.5634                   23548415.5514
        41.2504         25.5004
 25  8  7 20 33  0.0000000  0  9G02G08G10G23G27G28G32G31G01
  -8259140.90247  -6387966.16846  21801543.6564                   21801539.0084
        46.5004         36.7504
   5214076.69546   4081921.99245  23539521.8134                   23539525.1644
        38.0004         32.2504
   2710862.97747   2130968.77347  21651019.9454                   21651019.0904
        47.5004         47.2504
   8043114.68847   6274303.73843  24330868.0634                   24330869.6174
        42.0004         22.7504
   9882210.03946   7704857.00445  24395462.5944                   24395468.2894
        40.0004         35.5004
 -10233194.52347  -7898963.35945  21636366.7734                   21636364.8284
        46.7504         35.5004
   2401910.02748   1896979.75448  20904255.9614                   20904254.6604
        50.5004         52.0004
  -9454077.07446  -7313656.40646  23081720.4924                   23081720.9694
        41.5004         36.5004
  -4656285.36346  -3581519.87544  23512026.8054                   23512027.2114
        40.0004         25.7504
 25  8  7 20 33 30.0000000  0  9G02G08G10G23G27G28G32G31G01
  -8404259.60947  -6501045.65246  21773928.5704                   21773923.1844
        46.2504         36.7504
   5186355.06646   4060320.57445  23534246.1024                   23534250.3164
        38.2504         32.7504
   2651881.74648   2085009.33247  21639796.0864                   21639795.2814
        48.0004         47.2504
   8025474.75446   6260558.19143  24327511.6954                   24327512.7114
        40.5004         22.7504
   9879790.58246   7702971.44546  24395002.5704                   24395008.3164
        41.2504         36.7504
 -10394910.07447  -8024975.41446  21605593.3284                   21605591.4574
        46.7504         36.0004
   2350268.06348   1856739.23848  20894428.7894                   20894427.3164
        50.0004         51.7504
  -9657985.93046  -7472546.19946  23042917.9224                   23042918.2344
        41.2504         36.5004
  -4847303.05146  -3730364.71144  23475677.0004                   23475677.4654
        41.7504         25.5004
 25  8  7 20 34  0.0000000  0  9G02G08G10G23G27G28G32G31G01
  -8548936.73847  -6613781.05546  21746397.5554                   21746392.3094
        46.2504         36.7504
   5158921.23046   4038943.38345  23529026.1334                   23529030.0944
        38.5004         33.2504
   2593146.32447   2039241.43847  21628619.4304                   21628618.1054
        47.5004         47.5004
   8007990.00846   6246933.55943  24324184.1414                   24324185.1484
        40.7504         22.2504
   9877396.00446   7701105.28946  24394547.1024                   24394552.2774
        41.2504         36.5004
 -10556142.03947  -8150610.65245  21574911.8834                   21574909.7814
        46.2504         35.7504
   2298955.90248   1816755.71548  20884664.6094                   20884663.0234
        50.5004         51.7504
  -9861711.87146  -7631293.47346  23004150.1884                   23004150.3204
        41.5004         37.0004
  -5038108.80546  -3879044.43444  23439368.2274                   23439368.2734
        41.7504         26.0004
 25  8  7 20 34 30.0000000  0  9G02G08G10G23G27G28G32G31G01
  -8693174.57847  -6726174.15246  21718949.4774                   21718944.8634
        46.5004         36.5004
   5131767.88346   4017784.75445  23523858.8594                   23523863.1214
        37.7504         33.0004
   2534652.84048   1993662.06647  21617488.0234                   21617487.1134
        48.2504         47.2504
   7990656.00846   6233426.41443  24320884.6884                   24320886.7934
        40.2504         21.5004
   9875019.10546   7699252.87946  24394094.4774                   24394100.6914
        40.5004         36.5004
 -10716892.33647  -8275870.56646  21544322.0784                   21544320.1024
        46.0004         36.0004
   2247967.29748   1777024.30148  20874961.7114                   20874960.0514
        50.7504         51.7504
 -10065256.15647  -7789899.22746  22965417.3674                   22965416.9144
        43.0004         36.7504
  -5228704.60546  -4027560.56644  23403098.8444                   23403098.9774
        41.2504         24.5004
 25  8  7 20 35  0.0000000  0  9G02G08G10G23G27G28G32G31G01
  -7261547.85247  -5610620.82846  21991379.4064                   21991374.3954
        47.0004         37.2504
   6680311.76646   5224442.15645  23818537.6804                   23818541.3714
        39.0004         34.5004
   4051822.42648   3175872.09847  21906195.7734                   21906195.2624
        48.2504         47.2504
   9548892.11346   7447636.21143  24617407.8364                   24617409.6644
        39.2504         21.0004
  11448075.69946   8925010.99246  24693437.7424                   24693443.5204
        40.0004         36.0004
  -9301734.40647  -7173150.04346  21813617.6174                   21813615.1604
        46.5004         36.0004
   3772720.91848   2965144.00848  21165112.8134                   21165111.0514
        51.0004         52.0004
  -8693189.90647  -6720756.48046  23226511.9694                   23226512.3054
        42.2504         37.2504
  -3843662.97746  -2948307.24243  23666663.8914                   23666662.8674
        41.0004         22.7504
 25  8  7 20 35 30.0000000  0  9G02G08G10G23G27G28G32G31G01
  -7404898.23847  -5722322.39846  21964100.8054                   21964095.5784
        46.7504         36.7504
   6653714.14546   5203716.59445  23813475.8594                   23813480.2734
        39.2504         34.5004
   3993817.73448   3130673.62547  21895158.1024                   21895157.1884
        48.7504         47.2504
   9531863.14146   7434366.73043  24614167.4304                   24614169.9024
        37.0004         20.2504
  11445728.90646   8923182.05145  24692991.2894                   24692997.4384
        39.0004         34.7504
  -9461510.51647  -7297650.84845  21783213.2584                   21783211.1174
        46.5004         35.7504
   3722377.50448   2925915.34848  21155532.8914                   21155531.3834
        50.0004         51.7504
  -8896357.53947  -6879068.70346  23187850.7034                   23187850.9104
        43.2504         37.7504
  -4033828.12146  -3096487.77344  23630476.3134                   23630475.7624
        41.7504         26.2504
 25  8  7 20 36  0.0000000  0  9G02G08G10G23G27G28G32G31G01
  -7547806.66047  -5833679.58646  21936906.1724                   21936901.0354
        46.5004         37.2504
   6627385.71546   5183200.77745  23808465.7664                   23808469.8284
        39.7504         35.5004
   3936054.04348   3085662.92647  21884165.9924                   21884165.1564
        49.0004         47.2504
   9514982.43446   7421212.79343  24610956.6484                   24610957.1884
        36.5004         20.2504
  11443388.64546   8921358.16445  24692545.7664                   24692552.6604
        37.7504         34.7504
  -9620800.07047  -7421772.51646  21752901.1024                   21752899.4924
        46.7504         36.0004
   3672349.85548   2886932.73848  21146012.7424                   21146011.0744
        50.2504         51.5004
  -9099336.69147  -7037234.07046  23149224.6174                   23149224.4024
        43.0004         37.5004
  -4223778.48046  -3244500.93044  23594330.0784                   23594329.3054
        41.0004         25.0004
 25  8  7 20 36 30.0000000  0  9G02G08G10G23G27G28G32G31G01
  -7690267.26247  -5944687.82046  21909796.8914                   21909792.0044
        45.7504         37.0004
   6601327.27046   5162895.34845  23803507.0784                   23803511.1644
        40.0004         35.0004
   3878535.51248   3040843.27047  21873220.4144                   21873219.4264
        48.2504         47.2504
   9498253.55945   7408177.15643  24607772.3984                   24607774.0044
        35.5004         19.7504
  11441055.85946   8919540.16845  24692101.8054                   24692108.5664
        38.0004         33.0004
  -9779597.06247  -7545510.37146  21722683.3204                   21722680.9694
        47.0004         36.5004
   3622639.78148   2848197.59848  21136553.4774                   21136551.5084
        50.5004         51.7504
  -9302120.37547  -7195247.12946  23110635.8914                   23110636.2384
        42.5004         37.2504
  -4413508.00446  -3392342.02344  23558225.5164                   23558225.2234
        41.5004         25.5004
 25  8  7 20 37  0.0000000  0  9G02G08G10G23G27G28G32G31G01
  -7832279.08247  -6055346.35946  21882772.8594                   21882767.8834
        46.2504         37.0004
   6575535.30146   5142797.52045  23798599.4384                   23798603.3914
        40.0004         35.0004
   3821262.07448   2996214.59447  21862322.0164                   21862321.0784
        48.5004         47.0004
   9481675.92245   7395259.37943  24604618.5784                   24604619.7384
        34.2504         19.7504
  11438727.07445   8917725.25045  24691659.4534                   24691665.5124
        35.5004         30.2504
  -9937899.56647  -7668862.91446  21692559.2734                   21692556.8914
        46.2504         36.2504
   3573244.95348   2809708.10948  21127154.0234                   21127152.3444
        50.2504         51.7504
  -9504706.23047  -7353106.03546  23072085.1254                   23072085.2814
        42.0004         37.5004
  -4603014.80146  -3540009.57444  23522163.7034                   23522162.9024
        41.7504         25.0004
 25  8  7 20 37 30.0000000  0  9G02G08G10G23G27G28G32G31G01
  -7973843.37547  -6165656.16846  21855833.8134                   21855828.6994
        46.7504         37.0004
   6550004.05146   5122902.91845  23793741.8364                   23793745.2974
        41.2504         35.5004
   3764231.34848   2951775.03947  21851469.4774                   21851468.2114
        49.0004         47.0004
   9465246.62945   7382457.16843  24601492.4224                   24601493.0864
        33.7504         18.5004
  11436396.60545   8915909.00844  24691215.2034                   24691222.6844
        33.0004         28.0004
 -10095708.12947  -7791830.56645  21662529.0704                   21662527.0314
        46.7504         35.5004
   3524160.66448   2771460.58248  21117813.5634                   21117811.8794
        50.2504         51.7504
  -9707093.94947  -7510810.55146  23033571.9454                   23033571.7304
        42.5004         37.0004
  -4792299.32047  -3687503.92244  23486143.9844                   23486143.1254
        42.2504         26.0004
 25  8  7 20 38  0.0000000  0  9G02G08G10G23G27G28G32G31G01
  -8114958.04347  -6275615.62546  21828980.6724                   21828975.3094
        47.0004         37.2504
   6524730.93846   5103209.43446  23788932.0784                   23788936.0594
        41.2504         36.0004
   3707444.33248   2907525.39147  21840662.9304                   21840662.0234
        48.5004         47.0004
   9448966.04745   7369770.82043  24598393.9774                   24598395.3444
        33.5004         18.2504
  11434062.06345   8914089.55144  24690773.4454                   24690778.8244
        33.0004         26.5004
 -10253019.93447  -7914411.13746  21632593.6724                   21632591.6134
        46.5004         36.2504
   3475385.60548   2733454.03148  21108531.8754                   21108529.8634
        50.5004         51.7504
  -9909279.69947  -7668357.68046  22995097.3444                   22995097.0164
        42.5004         37.5004
  -4981358.67247  -3834822.79744  23450166.5944                   23450166.2114
        42.2504         25.5004
 25  8  7 20 38 30.0000000  0  9G02G08G10G23G27G28G32G31G01
  -8255619.28947  -6385221.77746  21802213.7114                   21802208.3874
        46.2504         37.7504
   6499714.27047   5083715.75846  23784171.5474                   23784175.8674
        42.2504         36.2504
   3650902.80548   2863467.02047  21829903.4924                   21829902.4924
        49.0004         47.0004
   9432835.52345   7357201.37543  24595324.7344                   24595326.1914
        34.0004         18.5004
  11431721.91455   8912265.73054  24690326.7504                   24690333.4184
        33.5004         27.7504
 -10409831.29747  -8036601.77046  21602753.5084                   21602751.4614
        46.7504         37.0004
   3426919.25048   2695688.02048  21099309.1644                   21099307.1484
        50.2504         51.5004
 -10111259.31247  -7825744.19546  22956661.4454                   22956661.2274
        42.5004         37.0004
  -5170189.09446  -3981963.29744  23414233.2664                   23414232.8444
        41.7504         25.5004
 25  8  7 20 39  0.0000000  0  9G02G08G10G23G27G28G32G31G01
  -8395827.94947  -6494475.26646  21775533.1884                   21775527.8244
        46.2504         37.7504
   6474949.12946   5064418.07846  23779459.2974                   23779463.5234
        41.0004         36.0004
   3594605.22348   2819598.74247  21819190.6094                   21819189.3594
        48.7504         47.0004
   9416852.91845   7344747.21943  24592283.2504                   24592284.4804
        33.7504         19.5004
  11429371.35945   8910433.82844  24689879.7114                   24689886.7274
        34.0004         27.2504
 -10566141.95347  -8158402.23446  21573008.5394                   21573006.1724
        45.7504         36.0004
   3378757.81348   2658159.61348  21090144.3364                   21090142.4224
        50.5004         51.5004
 -10313031.64546  -7982969.20346  22918264.8834                   22918265.0864
        41.2504         36.7504
  -5358790.21947  -4128925.13344  23378343.9614                   23378343.3404
        42.2504         27.0004
 25  8  7 20 39 30.0000000  0  9G02G08G10G23G27G28G32G31G01
  -8535576.98847  -6603370.60246  21748939.3204                   21748934.4774
        47.0004         37.2504
   6450437.50046   5045317.95745  23774794.7584                   23774798.6954
        41.5004         35.0004
   3538557.04348   2775924.80147  21808525.0944                   21808523.8554
        48.0004         47.0004
   9401023.13745   7332412.18043  24589270.6094                   24589272.6644
        34.2504         19.0004
  11427012.46945   8908595.44544  24689431.0474                   24689437.6764
        35.5004         28.2504
 -10721944.63347  -8279806.85945  21543360.2424                   21543358.0274
        46.0004         35.5004
   3330904.36348   2620871.19948  21081037.9614                   21081036.3324
        50.0004         51.5004
 -10514588.70746  -8140026.46546  22879909.8914                   22879910.0044
        41.5004         37.0004
  -5547154.63346  -4275702.49244  23342499.4534                   23342498.9304
        41.7504         26.7504
 25  8  7 20 40  0.0000000  0  9G02G08G10G23G27G28G32G31G01
  -8674868.30947  -6711909.26646  21722432.9304                   21722427.8874
        47.5004         37.5004
   6426173.20746   5026410.56645  23770177.6254                   23770181.4844
        40.7504         34.7504
   3482755.49248   2732443.04747  21797906.1094                   21797905.2034
        48.5004         47.0004
   9385342.80945   7320193.58643  24586286.6804                   24586289.2934
        32.0004         18.2504
  11424639.16845   8906745.85244  24688979.0234                   24688986.4884
        35.5004         28.5004
 -10877240.30947  -8400816.41846  21513808.0704                   21513806.1454
        46.0004         36.5004
   3283353.90248   2583818.88348  21071989.5314                   21071988.1644
        50.7504         51.5004
 -10715930.62947  -8296916.08646  22841595.4454                   22841595.7464
        42.2504         37.7504
  -5735283.06247  -4422295.97744  23306699.6724                   23306699.4064
        42.2504         27.2504
 25  8  7 20 40 30.0000000  0  9G02G08G10G23G27G28G32G31G01
  -8813700.59447  -6820090.23846  21696014.2274                   21696009.3594
        46.5004         37.5004
   6402152.66046   5007693.11345  23765607.0164                   23765610.8444
        41.2504         35.0004
   3427200.52748   2689153.42247  21787334.7114                   21787333.6174
        49.0004         46.7504
   9369811.37145   7308090.99243  24583332.5314                   24583333.6884
        35.2504         19.5004
  11422248.23846   8904882.50044  24688525.5314                   24688531.5864
        37.2504         28.5004
 -11032027.25847  -8521429.56646  21484353.6954                   21484350.9304
        45.5004         36.0004
   3236104.03948   2547000.79348  21062998.1174                   21062996.4104
        50.0004         51.5004
 -10917054.83647  -8453636.06646  22803323.2814                   22803322.5554
        42.5004         37.7504
  -5923173.67647  -4568704.12944  23270945.3364                   23270944.3834
        43.5004         27.7504
 25  8  7 20 41  0.0000000  0  9G02G08G10G23G27G28G32G31G01
  -8952075.72347  -6927914.99246  21669682.6564                   21669677.1804
        46.5004         37.5004
   6378369.60246   4989160.70745  23761081.3834                   23761085.0864
        41.0004         35.0004
   3371889.34848   2646053.77347  21776809.2344                   21776808.2344
        48.7504         46.7504
   9354425.37145   7296101.74643  24580403.5554                   24580406.1484
        34.7504         21.2504
  11419833.44146   8903000.59444  24688065.8284                   24688072.2274
        38.0004         28.2504
 -11186306.45747  -8641647.06646  21454995.0394                   21454992.8914
        45.7504         36.5004
   3189149.78148   2510413.05548  21054062.9694                   21054061.4774
        50.0004         51.2504
 -11117961.48847  -8610186.51646  22765091.3674                   22765091.0314
        42.5004         37.2504
  -6110827.31247  -4714927.63744  23235236.1644                   23235235.1724
        42.5004         28.2504
 25  8  7 20 41 30.0000000  0  9G02G08G10G23G27G28G32G31G01
  -9089988.35247  -7035379.35946  21643438.4924                   21643432.9144
        46.5004         37.7504
   6354824.44946   4970813.69545  23756600.4924                   23756604.9964
        40.7504         35.0004
   3316825.87148   2603147.15247  21766331.2274                   21766330.1454
        48.2504         46.7504
   9339188.11345   7284228.42643  24577504.4614                   24577506.6254
        35.5004         20.2504
  11417395.43446   8901100.61344  24687601.8594                   24687608.4144
        39.2504         27.5004
 -11340072.37147  -8761464.60246  21425734.7114                   21425732.2624
        46.5004         36.5004
   3142492.55948   2474056.76648  21045184.3984                   21045182.8284
        50.7504         51.5004
 -11318643.91447  -8766562.25046  22726902.5234                   22726902.5984
        42.5004         37.0004
  -6298238.12947  -4860961.91844  23199572.3444                   23199572.1334
        42.5004         28.0004
 25  8  7 20 42  0.0000000  0  9G02G08G10G23G27G28G32G31G01
  -9227438.73047  -7142483.52346  21617282.5394                   21617277.4224
        47.5004         37.2504
   6331512.22746   4952648.17245  23752163.9384                   23752169.1524
        40.0004         34.5004
   3262008.57047   2560432.32847  21755899.3914                   21755898.5554
        47.5004         46.7504
   9324097.54346   7272469.36743  24574633.0634                   24574634.5824
        36.7504         21.7504
  11414929.47346   8899178.86344  24687133.2034                   24687139.1644
        39.7504         27.5004
 -11493324.66847  -8880881.93046  21396571.2894                   21396568.8524
        46.2504         36.0004
   3096128.69148   2437929.06648  21036361.8444                   21036360.1334
        50.5004         51.2504
 -11519100.93047  -8922762.35546  22688757.1484                   22688756.4694
        43.0004         38.0004
  -6485405.59047  -5006806.59444  23163955.3674                   23163955.1454
        43.0004         28.5004
 25  8  7 20 42 30.0000000  0  9G02G08G10G23G27G28G32G31G01
  -9364424.61747  -7249225.75846  21591215.0004                   21591209.8444
        47.5004         38.0004
   6308430.66846   4934662.38745  23747772.0864                   23747776.7384
        40.5004         34.5004
   3207438.53948   2517910.19147  21745515.2894                   21745514.4264
        48.2504         46.7504
   9309154.32846   7260825.14543  24571789.7114                   24571791.6134
        38.0004         22.0004
  11412433.39546   8897233.63744  24686658.3984                   24686664.7774
        40.5004         28.5004
 -11646060.57047  -8999896.85246  21367506.7894                   21367504.4534
        46.5004         36.2504
   3050057.04348   2402029.07448  21027594.5234                   21027592.9964
        50.7504         51.2504
 -11719329.09847  -9078784.12946  22650654.9304                   22650654.6724
        43.5004         38.2504
  -6672326.68047  -5152459.27744  23128385.7424                   23128384.8754
        42.7504         28.5004
 25  8  7 20 43  0.0000000  0  9G02G08G10G23G27G28G32G31G01
  -9500944.30147  -7355604.70746  21565235.8444                   21565231.0704
        47.0004         38.0004
   6285577.05546   4916854.23045  23743423.6884                   23743428.3634
        39.0004         34.5004
   3153116.56648   2475581.31347  21735178.2974                   21735177.2384
        48.2504         46.7504
   9294358.52346   7249295.82443  24568973.3054                   24568975.6644
        37.7504         20.7504
  11409904.80146   8895263.04744  24686177.0474                   24686184.3874
        39.2504         28.7504
 -11798277.50847  -9118507.39546  21338540.8444                   21338538.1484
        46.5004         36.2504
   3004276.07448   2366355.58248  21018882.9224                   21018881.7464
        51.0004         51.2504
 -11919325.04347  -9234624.95346  22612597.0234                   22612595.8054
        43.7504         37.5004
  -6858998.51247  -5297917.73844  23092863.4454                   23092862.8204
        42.5004         27.5004
 25  8  7 20 43 30.0000000  0  9G02G08G10G23G27G28G32G31G01
  -8061569.52748  -6234013.95346  21839140.0004                   21839134.7544
        48.0004         37.7504
   7838370.92646   6126823.32845  24038909.8984                   24038914.9614
        40.5004         35.2504
   4674466.86348   3661049.07047  22024681.6724                   22024680.5164
        48.5004         46.7504
  10855132.39146   8465483.07843  24865979.5084                   24865981.4694
        38.7504         21.5004
  12982762.75446  10120866.38344  24985482.1804                   24985488.9384
        39.2504         28.2504
 -10374546.52747  -8009106.57046  21609467.5944                   21609465.3244
        46.2504         36.0004
   4534207.34848   3558509.81648  21310018.9844                   21310017.3134
        50.7504         51.0004
 -10543656.98847  -8162675.65646  22874377.9224                   22874376.9774
        44.5004         38.5004
  -5469990.60547  -4215573.80944  23357182.8054                   23357181.6454
        42.7504         28.7504
 25  8  7 20 44  0.0000000  0  9G02G08G10G23G27G28G32G31G01
  -8197149.37548  -6339660.57446  21813340.0704                   21813334.6994
        48.0004         37.2504
   7815966.21146   6109364.94945  24034647.1724                   24034651.7504
        40.5004         34.5004
   4620644.55148   3619109.55947  22014439.6804                   22014438.8594
        48.7504         46.7504
  10840633.12946   8454184.82843  24863220.6954                   24863221.9414
        41.0004         22.0004
  12980162.74646  10118840.11744  24984987.9924                   24984994.4304
        40.0004         28.7504
 -10525717.18047  -8126901.82046  21580700.4224                   21580697.9654
        46.2504         36.5004
   4489004.44548   3523286.77048  21301417.2894                   21301415.4924
        51.0004         51.0004
 -10743176.81247  -8318145.49646  22836410.3834                   22836409.2074
        44.5004         38.0004
  -5656154.58247  -4360636.55144  23321756.6414                   23321755.7154
        42.2504         28.0004
 25  8  7 20 44 30.0000000  0  9G02G08G10G23G27G28G32G31G01
  -8332259.37947  -6444941.07446  21787629.4384                   21787624.3634
        47.5004         37.7504
   7793779.21946   6092076.22345  24030425.7814                   24030429.5634
        40.5004         35.5004
   4567070.56348   3577363.55947  22004245.0634                   22004244.1024
        48.5004         46.7504
  10826279.76246   8443000.19543  24860489.3674                   24860491.5904
        41.0004         23.0004
  12977520.62146  10116781.02745  24984485.0084                   24984491.6374
        39.0004         30.0004
 -10676363.71947  -8244288.67246  21552033.7504                   21552031.1374
        45.7504         36.5004
   4444085.55948   3488285.03148  21292869.5634                   21292868.0664
        50.5004         51.0004
 -10942456.28547  -8473428.03546  22798488.2664                   22798487.3954
        43.7504         38.2504
  -5842063.22347  -4505500.32844  23286379.1644                   23286378.0514
        43.0004         28.7504
 25  8  7 20 45  0.0000000  0  9G02G08G10G23G27G28G32G31G01
  -8466893.73847  -6549850.93746  21762009.4534                   21762003.7584
        47.5004         38.0004
   7771810.78146   6074957.81345  24026245.1174                   24026249.6804
        40.5004         34.5004
   4513749.16848   3535814.37947  21994098.3674                   21994097.5704
        49.2504         46.7504
  10812075.96546   8431932.11343  24857786.3754                   24857788.8554
        41.0004         22.5004
  12974837.51246  10114689.99244  24983974.9844                   24983982.1174
        39.0004         29.7504
 -10826480.14147  -8361262.44546  21523467.1644                   21523464.7464
        45.5004         36.7504
   4399452.82048   3453506.26648  21284376.1334                   21284374.5204
        51.0004         50.7504
 -11141488.24647  -8628517.70346  22760613.6414                   22760613.0004
        45.0004         38.0004
  -6027710.10947  -4650160.14544  23251051.4534                   23251050.9384
        42.2504         28.5004
 25  8  7 20 45 30.0000000  0  9G02G08G10G23G27G28G32G31G01
  -8601050.19147  -6654388.41846  21736479.8754                   21736474.8954
        47.5004         37.5004
   7750058.83246   6058008.08645  24022105.5394                   24022110.4844
        39.7504         34.7504
   4460681.75848   3494463.11347  21983999.9694                   21983998.9964
        48.2504         46.5004
  10798022.57047   8420981.27743  24855111.6414                   24855114.3164
        42.0004         22.0004
  12972111.64846  10112565.66845  24983457.1954                   24983463.7114
        38.5004         30.0004
 -10976063.49247  -8477820.84446  21495002.3754                   21494999.8094
        46.5004         36.5004
   4355105.29748   3418949.74248  21275937.0004                   21275935.6134
        51.2504         50.7504
 -11340268.75047  -8783411.44146  22722787.2504                   22722786.1024
        45.0004         38.5004
  -6213091.94546  -4794613.40644  23215774.7274                   23215774.2074
        41.7504         29.2504
 25  8  7 20 46  0.0000000  0  9G02G08G10G23G27G28G32G31G01
  -8734730.90647  -6758555.18446  21711041.5004                   21711036.1174
        47.5004         38.0004
   7728516.73046   6041221.88345  24018006.1954                   24018011.1604
        40.0004         34.7504
   4407865.10947   3453307.24247  21973949.0314                   21973948.3634
        47.7504         46.5004
  10784115.71946   8410144.59843  24852466.4454                   24852468.1134
        40.0004         20.2504
  12969336.57046  10110402.97745  24982928.3134                   24982935.7624
        38.2504         30.5004
 -11125115.37947  -8593965.10246  21466638.9304                   21466636.3134
        46.0004         36.5004
   4311037.51648   3384611.19548  21267551.1024                   21267549.5824
        50.7504         50.7504
 -11538798.27047  -8938109.60946  22685007.8284                   22685006.8914
        45.2504         38.7504
  -6398209.84447  -4938861.02344  23180548.1954                   23180546.9964
        42.5004         28.7504
 25  8  7 20 46 30.0000000  0  9G02G08G10G23G27G28G32G31G01
  -8867930.90647  -6862347.35946  21685694.1094                   21685689.0944
        47.0004         37.7504
   7707184.62946   6024599.29345  24013947.6884                   24013952.1484
        39.7504         33.7504
   4355302.98048   3412349.69947  21963946.7974                   21963946.3134
        48.2504         46.2504
  10770358.64146   8399424.58243  24849848.1884                   24849850.1644
        41.0004         20.5004
  12966512.85246  10108202.38745  24982391.6954                   24982399.0594
        38.2504         31.5004
 -11273630.45747  -8709691.07046  21438377.4924                   21438374.7464
        47.5004         36.5004
   4267250.96948   3350491.79748  21259219.1414                   21259217.5554
        50.7504         50.7504
 -11737070.60547  -9092607.36346  22647277.7344                   22647276.6024
        44.0004         38.5004
  -6583058.12147  -5082898.54744  23145372.2664                   23145371.5274
        43.0004         29.7504
 25  8  7 20 47  0.0000000  0  9G02G08G10G23G27G28G32G31G01
  -9000646.31647  -6965761.93746  21660439.4064                   21660433.8164
        47.2504         37.5004
   7686062.12946   6008140.04345  24009927.7814                   24009932.5784
        39.7504         34.0004
   4302998.37148   3371592.82047  21953993.7664                   21953992.8874
        48.2504         46.2504
  10756753.66046   8388823.11343  24847259.1564                   24847261.7704
        39.5004         18.5004
  12963640.29746  10105963.73445  24981845.2034                   24981852.8954
        37.5004         30.0004
 -11421604.20347  -8824995.22346  21410218.9224                   21410216.0204
        46.5004         36.2504
   4223746.38748   3316592.11348  21250940.2814                   21250938.6094
        50.0004         50.5004
 -11935079.96547  -9246900.22746  22609597.5554                   22609596.8404
        44.5004         39.0004
  -6767631.73847  -5226722.05144  23110248.9384                   23110248.2234
        42.0004         29.2504
 25  8  7 20 47 30.0000000  0 10G02G08G10G03G23G27G28G32G31G01
  -9132878.77747  -7068800.19546  21635276.6884                   21635270.9574
        47.5004         37.5004
   7665142.97746   5991839.25445  24005947.4304                   24005951.9964
        39.0004         34.5004
   4250948.49648   3331034.43447  21944089.1884                   21944088.0274
        48.5004         46.0004
  13883090.47356  10859481.52754  24858846.6954                   24858851.5824
        36.0004         26.0004
  10743297.41046   8378337.58643  24844699.3284                   24844701.7704
        40.5004         18.2504
  12960712.89546  10103682.32845  24981288.4924                   24981295.7114
        38.2504         31.5004
 -11569037.79747  -8939878.47746  21382162.8134                   21382160.7234
        46.5004         36.5004
   4180518.75448   3282908.23048  21242714.4694                   21242712.7194
        50.7504         50.5004
 -12132826.79347  -9400988.50846  22571967.7584                   22571967.0634
        44.5004         39.0004
  -6951931.46947  -5370332.14544  23075177.5084                   23075176.9574
        42.0004         27.2504
 25  8  7 20 48  0.0000000  0 10G02G08G10G03G23G27G28G32G31G01
  -9264633.90647  -7171466.50846  21610204.2344                   21610199.1954
        46.7504         37.5004
   7644416.94946   5975688.95345  24002003.3914                   24002008.2584
        38.7504         33.2504
   4199146.65248   3290669.32047  21934231.2814                   21934230.7584
        48.5004         45.7504
  13705606.69945  10721182.60244  24825072.6254                   24825077.1914
        35.7504         26.5004
  10729982.54346   8367962.13743  24842165.4064                   24842167.9494
        39.5004         19.2504
  12957720.85946  10101350.57045  24980718.5394                   24980726.6914
        37.2504         30.0004
 -11715936.39847  -9054344.85546  21354209.0234                   21354206.5594
        46.5004         37.2504
   4137559.15648   3249433.21548  21234539.4304                   21234537.3634
        50.0004         50.5004
 -12330314.87147  -9554875.17246  22534386.7734                   22534385.7854
        44.7504         39.7504
  -7135961.96546  -5513732.44944  23040157.7894                   23040156.9924
        41.5004         28.5004
 25  8  7 20 48 30.0000000  0 10G02G08G10G03G23G27G28G32G31G01
  -9395911.71147  -7273760.86746  21585223.1724                   21585217.4844
        46.5004         38.0004
   7623879.59446   5959685.65645  23998094.2344                   23998100.2974
        39.0004         32.5004
   4147591.78547   3250496.66447  21924421.2274                   21924420.3554
        47.2504         45.7504
  13528110.59446  10582874.09444  24791296.4774                   24791300.7544
        37.0004         26.0004
  10716807.45346   8357695.61742  24839658.6884                   24839661.3674
        38.0004         16.7504
  12954659.92646  10098965.13745  24980137.0944                   24980144.6374
        37.0004         30.7504
 -11862299.53847  -9168393.98646  21326357.6094                   21326354.6884
        47.0004         36.5004
   4094864.28148   3216164.46548  21226414.9144                   21226413.4574
        50.0004         50.5004
 -12527542.34047  -9708558.77046  22496855.6484                   22496854.5234
        44.5004         39.7504
  -7319722.21547  -5656922.16044  23005189.2734                   23005188.7664
        42.0004         28.7504
 25  8  7 20 49  0.0000000  0 10G02G08G10G03G23G27G28G32G31G01
  -9526705.76647  -7375678.28946  21560333.6174                   21560328.2624
        45.7504         37.5004
   7603533.00446   5943830.98845  23994223.5944                   23994228.5634
        38.5004         32.0004
   4096289.55548   3210520.86347  21914658.3594                   21914657.9534
        48.0004         46.0004
  13350607.45746  10444560.08244  24757517.4454                   24757522.8404
        36.5004         26.0004
  10703777.03146   8347541.93842  24837179.2894                   24837181.5554
        40.0004         16.7504
  12951532.54745  10096527.90644  24979541.8594                   24979549.4384
        35.5004         29.2504
 -12008120.19947  -9282020.40646  21298608.5784                   21298605.6994
        46.2504         36.5004
   4052437.47748   3183104.61348  21218341.1414                   21218339.8754
        49.7504         50.5004
 -12724501.18447  -9862033.05146  22459375.5864                   22459374.1024
        44.5004         39.5004
  -7503204.59447  -5799895.36345  22970273.9694                   22970272.9304
        42.5004         30.0004
 25  8  7 20 49 30.0000000  0 10G02G08G10G03G23G27G28G32G31G01
  -9657014.80947  -7477217.78146  21535536.8674                   21535531.6334
        46.5004         38.2504
   7583373.79146   5928122.33545  23990387.4774                   23990392.7854
        38.0004         30.5004
   4045239.85547   3170741.84047  21904943.9774                   21904943.1994
        47.2504         45.5004
  13173097.04745  10306240.42644  24723738.7034                   24723743.4534
        35.2504         24.2504
  10690890.64846   8337500.40642  24834727.3134                   24834730.0004
        38.2504         15.5004
  12948335.58645  10094036.48844  24978933.2424                   24978941.5514
        35.7504         28.2504
 -12153396.81247  -9395222.90246  21270963.3674                   21270960.6454
        46.0004         36.5004
   4010276.49248   3150251.88348  21210318.0944                   21210316.9144
        50.0004         50.5004
 -12921189.04747 -10015296.17646  22421946.7194                   22421945.5984
        44.2504         40.0004
  -7686407.06247  -5942650.44944  22935411.7034                   22935410.7704
        42.5004         28.7504
 25  8  7 20 50  0.0000000  0 10G02G08G10G03G23G27G28G32G31G01
  -9786834.32847  -7578375.82446  21510832.7114                   21510827.2384
        47.0004         38.0004
   7563401.97746   5912559.71144  23986586.5784                   23986592.1884
        37.7504         29.5004
   3994446.29748   3131162.42247  21895278.4774                   21895277.9614
        48.0004         45.5004
  12995582.82846  10167917.80144  24689958.0784                   24689963.5354
        36.2504         25.5004
  10678151.35245   8327573.41842  24832303.1884                   24832306.6414
        35.5004         16.7504
  12945069.55945  10091491.23444  24978312.5084                   24978320.2384
        35.0004         28.0004
 -12298124.39847  -9507997.57446  21243422.1484                   21243419.6994
        47.0004         36.7504
   3968382.71948   3117607.36748  21202346.5004                   21202344.4844
        50.2504         50.5004
 -13117599.48047 -10168343.11746  22384571.1024                   22384570.2034
        44.0004         39.0004
  -7869323.96547  -6085183.01244  22900603.4064                   22900602.6454
        43.2504         28.7504
 25  8  7 20 50 30.0000000  0 10G02G08G10G03G23G27G28G32G31G01
  -9916159.81247  -7679148.89546  21486222.9534                   21486217.9924
        46.5004         38.0004
   7543617.61046   5897143.15544  23982822.0474                   23982827.6804
        38.2504         29.0004
   3943912.41447   3091785.34047  21885662.1094                   21885661.3284
        47.5004         45.5004
  12818067.97346  10029594.70344  24656178.7734                   24656183.7194
        36.7504         27.0004
  10665561.93846   8317763.37142  24829906.8204                   24829911.9414
        36.5004         15.5004
  12941734.89145  10088892.48444  24977678.3674                   24977686.6914
        34.2504         29.7504
 -12442297.93047  -9620340.52746  21215986.8204                   21215984.4184
        46.5004         37.0004
   3926757.41848   3085172.05148  21194425.5084                   21194423.0944
        49.7504         50.5004
 -13313726.50047 -10321169.22346  22347249.3984                   22347247.9694
        44.5004         39.5004
  -8051949.77047  -6227488.74644  22865850.6644                   22865850.0664
        42.7504         29.2504
 25  8  7 20 51  0.0000000  0  9G02G08G10G03G27G28G32G31G01
 -10044986.45747  -7779533.27746  21461708.0554                   21461702.7274
        46.7504         38.2504
   7524021.12946   5881872.99644  23979093.4614                   23979098.7114
        38.0004         28.7504
   3893641.96947   3052613.54347  21876096.0634                   21876095.2774
        47.5004         45.5004
  12640556.05946   9891273.89544  24622399.1254                   24622404.3874
        37.5004         28.2504
  12938332.05545  10086240.58244  24977030.9304                   24977039.2934
        35.2504         29.7504
 -12585912.23447  -9732247.71146  21188657.8134                   21188655.5164
        46.5004         36.5004
   3885402.17248   3052947.16848  21186555.6724                   21186554.0394
        49.7504         50.5004
 -13509563.48447 -10473769.34446  22309982.1954                   22309981.4304
        45.2504         40.5004
  -8234278.63347  -6369563.11344  22831155.1564                   22831154.0594
        43.5004         29.7504
 25  8  7 20 51 30.0000000  0  9G02G08G10G03G27G28G32G31G01
 -10173317.60247  -7879531.55946  21437287.2734                   21437282.0514
        46.7504         38.2504
   7504604.60946   5866743.03544  23975398.6884                   23975403.7894
        37.5004         28.5004
   3843630.62547   3013643.64147  21866579.3914                   21866578.4924
        47.5004         45.5004
  12463042.61346   9752951.87144  24588619.6484                   24588623.5824
        37.2504         27.5004
  12934853.66844  10083529.72343  24976369.4304                   24976377.7664
        26.7504         21.7504
 -12728970.23047  -9843721.41446  21161434.9924                   21161432.6374
        46.2504         37.0004
   3844310.40248   3020927.58648  21178736.2734                   21178734.7234
        50.5004         50.5004
 -13705111.96547 -10626144.63746  22272770.5164                   22272769.3954
        45.0004         40.2504
  -8416312.85547  -6511407.88744  22796514.8754                   22796513.7894
        43.7504         29.0004
 25  8  7 20 52  0.0000000  0  9G02G08G10G03G27G28G32G31G01
  -8725718.12147  -6751531.94146  21712756.3594                   21712751.0514
        47.0004         38.5004
   9060795.47746   7079359.10544  24271531.4454                   24271536.9344
        37.0004         27.5004
   5369310.16447   4202484.82047  22156906.2664                   22156905.5664
        47.0004         45.5004
  13860963.43046  10842240.94544  24854635.4224                   24854639.6024
        38.2504         29.2504
  14506727.32845  11308366.14545  25275487.3674                   25275495.5944
        35.0004         30.0004
 -11296035.64847  -8727148.94946  21434113.2504                   21434110.8554
        46.2504         37.2504
   5378911.46948   4216720.61348  21470761.1174                   21470759.2274
        49.7504         50.5004
 -12324932.73447  -9550680.16046  22535410.0944                   22535408.8524
        45.5004         39.7504
  -7022614.17647  -5425408.82845  23061727.1884                   23061725.6884
        43.7504         30.0004
 25  8  7 20 52 30.0000000  0  9G02G08G10G03G27G28G32G31G01
  -8853036.26247  -6850740.86746  21688528.5084                   21688523.2934
        47.2504         37.5004
   9041748.29746   7064516.96144  24267907.8674                   24267912.2074
        37.0004         25.7504
   5319836.64547   4163934.00047  22147491.8914                   22147491.0234
        47.5004         45.2504
  13683465.94146  10703931.36344  24820858.3444                   24820862.8834
        36.5004         28.0004
  14503108.68845  11305546.14844  25274798.2274                   25274807.0864
        34.5004         29.7504
 -11437957.24647  -8837737.15646  21407106.2974                   21407103.7274
        46.7504         37.0004
   5338359.75448   4185121.86348  21463043.9614                   21463043.0314
        50.5004         50.2504
 -12519877.10947  -9702584.74246  22498313.0004                   22498311.6954
        45.5004         39.2504
  -7204033.28147  -5566774.27744  23027203.9144                   23027202.9924
        43.5004         29.5004
 25  8  7 20 53  0.0000000  0  9G02G08G10G03G27G28G32G31G01
  -8979840.69147  -6949549.50446  21664398.4614                   21664393.1684
        47.5004         38.2504
   9022886.14146   7049818.99644  24264318.3594                   24264323.5204
        37.7504         27.5004
   5270637.54747   4125597.02347  22138129.4304                   22138128.9144
        47.0004         45.2504
  13505981.69546  10565632.10545  24787083.5474                   24787088.8984
        36.7504         31.0004
  14499420.65245  11302672.06344  25274096.8134                   25274105.6094
        35.0004         29.0004
 -11579303.03147  -8947876.66846  21380209.4454                   21380206.6764
        46.2504         37.5004
   5298080.28948   4153735.24648  21455379.3984                   21455377.8444
        49.2504         50.2504
 -12714509.59447  -9854246.26646  22461275.6254                   22461274.7584
        45.7504         40.5004
  -7385136.16447  -5707893.33644  22992741.1644                   22992740.2664
        43.7504         29.2504
 25  8  7 20 53 30.0000000  0  9G02G08G10G03G27G28G32G31G01
  -9106137.77747  -7047962.80146  21640364.6254                   21640359.1334
        47.7504         38.0004
   9004198.25846   7035256.82444  24260763.0704                   24260767.1024
        38.5004         24.5004
   5221705.62147   4087468.23047  22128818.3834                   22128817.4924
        47.0004         45.5004
  13328503.21946  10427337.33245  24753310.5554                   24753315.7814
        37.2504         30.0004
  14495652.97345  11299735.86344  25273379.8134                   25273389.0554
        33.0004         25.5004
 -11720079.01647  -9057572.18746  21353420.1484                   21353417.4574
        47.0004         37.0004
   5258063.61348   4122553.41048  21447764.6884                   21447763.0084
        50.0004         50.2504
 -12908835.11347 -10005668.59846  22424297.1254                   22424295.8594
        45.2504         40.5004
  -7565928.03947  -5848770.04745  22958337.9384                   22958336.2234
        43.7504         30.2504
 25  8  7 20 54  0.0000000  0  9G02G08G10G03G27G28G32G31G01
  -9231928.39847  -7145981.45746  21616427.8134                   21616422.3714
        47.7504         38.0004
   8985679.52346   7020826.51244  24257238.5944                   24257243.3244
        38.7504         28.0004
   5173039.09447   4049546.23847  22119557.4224                   22119556.5274
        47.5004         45.2504
  13151028.71946  10289045.66844  24719538.2664                   24719542.6334
        36.2504         28.7504
  14491800.77745  11296733.85244  25272646.8284                   25272656.1644
        34.0004         27.2504
 -11860285.59047  -9166824.01646  21326739.7734                   21326737.3404
        47.2504         37.5004
   5218305.80948   4091573.28148  21440198.8054                   21440197.0744
        50.5004         50.2504
 -13102852.57847 -10156850.88746  22387376.2814                   22387375.0164
        44.5004         40.5004
  -7746408.56247  -5989404.14844  22923993.0554                   22923992.1684
        43.5004         29.5004
 25  8  7 20 54 30.0000000  0  9G02G08G10G03G27G28G32G31G01
  -9357211.21947  -7243604.41446  21592587.0554                   21592581.8134
        46.7504         38.5004
   8967327.15246   7006525.78544  24253746.2504                   24253751.7734
        39.2504         29.2504
   5124638.67647   4011831.59847  22110347.1884                   22110346.5354
        47.2504         45.2504
  12973558.60245  10150757.39144  24685766.8914                   24685771.1884
        35.5004         29.0004
  14487862.03945  11293664.46144  25271898.1334                   25271906.9534
        35.5004         29.2504
 -11999920.72747  -9275630.56646  21300168.0944                   21300165.7344
        47.0004         37.0004
   5178805.39148   4060793.72348  21432682.1644                   21432680.7274
        50.2504         50.2504
 -13296558.72747 -10307790.60546  22350515.3984                   22350513.8524
        45.0004         40.0004
  -7926574.99647  -6129793.50045  22889708.8054                   22889707.2774
        43.7504         30.5004
 25  8  7 20 55  0.0000000  0  9G02G08G10G03G27G28G32G31G01
  -9481986.05947  -7340831.55946  21568843.3674                   21568837.7464
        47.2504         38.5004
   8949136.83246   6992351.30144  24250284.8524                   24250290.1524
        40.0004         29.5004
   5076503.46547   3974323.61347  22101187.3984                   22101186.8204
        47.5004         45.2504
  12796091.89145  10012471.78144  24651995.6024                   24651999.8524
        34.7504         27.5004
  14483832.49246  11290524.32444  25271131.3524                   25271140.1094
        36.0004         26.5004
 -12138984.01247  -9383991.50846  21273705.4144                   21273702.4884
        47.5004         36.7504
   5139559.32448   4030212.35548  21425214.1254                   21425212.4104
        50.7504         50.0004
 -13489952.00847 -10458486.52346  22313713.0704                   22313711.9804
        46.2504         40.5004
  -8106426.02747  -6269937.07844  22855483.7584                   22855482.7114
        43.2504         29.7504
 25  8  7 20 55 30.0000000  0  9G02G08G10G03G27G28G32G31G01
  -9606253.60247  -7437663.39546  21545196.0084                   21545190.9304
        46.5004         37.5004
   8931103.46946   6978299.14545  24246853.8524                   24246859.2194
        40.5004         31.5004
   5028631.78148   3937020.97747  22092077.4304                   22092076.6484
        48.5004         45.2504
  12618626.85545   9874187.46944  24618224.4694                   24618229.6994
        33.0004         26.5004
  14479707.50846  11287309.76244  25270347.1414                   25270355.5314
        36.0004         28.7504
 -12277475.91847  -9491907.22746  21247350.9304                   21247348.2854
        47.0004         37.0004
   5100563.76248   3999826.18848  21417793.1564                   21417791.8364
        50.2504         50.0004
 -13683031.22347 -10608937.73046  22276971.7274                   22276970.2854
        46.0004         40.5004
  -8285961.41047  -6409834.69545  22821319.5864                   22821318.2704
        43.5004         30.2504
 25  8  7 20 56  0.0000000  0  9G02G08G10G03G27G28G32G31G01
  -9730011.79347  -7534098.33646  21521645.6954                   21521640.1764
        47.7504         38.2504
   8913225.07046   6964367.75445  24243451.7034                   24243456.9024
        40.7504         31.0004
   4981025.12147   3899924.85247  22083018.1954                   22083017.6484
        47.5004         45.0004
  12441164.90645   9735905.56344  24584455.9534                   24584459.8164
        33.0004         27.7504
  14475485.60546  11284019.64144  25269544.1804                   25269551.7584
        37.0004         27.0004
 -12415393.68047  -9599375.55946  21221106.2274                   21221103.4024
        47.5004         37.5004
   5061818.00448   3969634.66848  21410420.2424                   21410418.8014
        50.5004         50.0004
 -13875792.28947 -10759141.02046  22240290.6094                   22240288.7304
        45.5004         40.7504
  -8465177.38747  -6549483.43445  22787215.8754                   22787214.7234
        44.0004         31.0004
 25  8  7 20 56 30.0000000  0  9G02G08G10G03G27G28G32G31G01
  -9853261.35547  -7630136.95346  21498191.6954                   21498186.6054
        47.0004         38.5004
   8895496.38346   6950552.99645  24240078.1954                   24240083.6764
        41.0004         31.5004
   4933681.57448   3863033.75047  22074009.0314                   22074008.1454
        48.0004         45.0004
  12263703.91845   9597624.43044  24550685.3284                   24550689.8484
        31.5004         25.7504
  14471162.02046  11280650.32044  25268720.7424                   25268729.6484
        36.0004         26.7504
 -12552737.94147  -9706397.01646  21194970.2664                   21194967.4144
        47.5004         37.0004
   5023318.05148   3939634.69948  21403093.5084                   21403092.5084
        50.2504         50.0004
 -14068234.49247 -10909095.85246  22203669.9454                   22203668.2664
        45.5004         41.0004
  -8644073.87947  -6688883.22344  22753172.5394                   22753171.6174
        43.0004         29.7504
 25  8  7 20 57  0.0000000  0  9G02G08G10G03G27G28G32G31G01
  -9976000.56247  -7725777.87946  21474835.6094                   21474830.0124
        47.0004         37.7504
   8877915.08246   6936853.07445  24236732.9534                   24236738.3674
        40.5004         33.5004
   4886602.29348   3826348.56347  22065050.2814                   22065049.8714
        48.0004         45.0004
  12086245.21145   9459345.10944  24516914.6334                   24516920.3874
        32.5004         27.5004
  14466734.77345  11277200.25444  25267878.9144                   25267887.5274
        34.5004         26.5004
 -12689506.34047  -9812969.73446  21168944.2114                   21168941.2584
        47.5004         37.5004
   4985062.92648   3909825.50448  21395814.3834                   21395812.9064
        50.2504         50.0004
 -14260353.87547 -11058799.12946  22167110.6094                   22167108.8674
        45.5004         40.7504
  -8822647.63347  -6828031.51244  22719191.5314                   22719189.7974
        42.5004         29.7504
 25  8  7 20 57 30.0000000  0  9G02G08G10G03G27G28G32G31G01
 -10098229.47748  -7821021.18446  21451576.2584                   21451570.6684
        48.0004         38.2504
   8860476.93046   6923264.70345  24233414.9774                   24233420.3674
        40.5004         34.0004
   4839786.36747   3789868.58647  22056141.4534                   22056140.7704
        47.5004         45.0004
  11908787.53545   9321066.57844  24483146.5084                   24483151.1414
        33.2504         26.7504
  14462200.13345  11273666.46144  25267016.2344                   25267025.4844
        35.2504         26.7504
 -12825698.54747  -9919093.48446  21143027.6564                   21143024.8554
        46.5004         37.0004
   4947049.51648   3880204.63348  21388580.6254                   21388579.0004
        50.0004         50.0004
 -14452148.81247 -11208249.58646  22130612.9534                   22130611.5234
        45.5004         40.7504
  -9000897.39847  -6966927.34845  22685271.4844                   22685269.9024
        44.2504         30.5004
 25  8  7 20 58  0.0000000  0  9G02G08G10G03G27G28G32G31G01
 -10219943.59847  -7915863.33646  21428415.1024                   21428409.4224
        47.5004         38.5004
   8843181.75446   6909787.73045  24230123.5164                   24230129.1294
        41.0004         34.2504
   4793237.11748   3753596.40647  22047283.5164                   22047282.9574
        48.2504         45.0004
  11731334.09845   9182791.33644  24449378.2814                   24449382.8874
        34.5004         27.7504
  14457558.72745  11270049.55544  25266131.8834                   25266142.4454
        35.2504         26.5004
 -12961310.16847 -10024764.82846  21117221.7504                   21117218.6174
        46.2504         37.2504
   4909279.15648   3850773.18848  21381393.1334                   21381391.6604
        49.7504         49.5004
 -14643612.93047 -11357442.27046  22094178.2504                   22094177.0084
        44.5004         41.2504
  -9178817.77047  -7105566.52045  22651414.4064                   22651413.4304
        43.2504         31.0004
 25  8  7 20 58 30.0000000  0  9G02G08G10G03G27G28G32G31G01
 -10341143.17648  -8010304.54746  21405351.0864                   21405345.6454
        48.0004         38.5004
   8826025.70746   6896419.16445  24226858.6804                   24226864.5084
        41.0004         34.7504
   4746954.01247   3717531.61347  22038476.2194                   22038475.6174
        47.2504         45.2504
  11553884.47745   9044519.05144  24415610.4224                   24415614.7464
        35.7504         29.5004
  14452806.60246  11266346.33644  25265229.1724                   25265238.0394
        36.0004         26.5004
 -13096340.55547 -10129983.25446  21091525.9304                   21091523.3054
        46.5004         37.5004
   4871749.02748   3821528.90648  21374251.5394                   21374249.8524
        49.5004         49.7504
 -14834744.77747 -11506376.04346  22057807.0704                   22057805.6804
        45.0004         41.0004
  -9356407.19947  -7243947.80545  22617620.0704                   22617618.7504
        44.0004         32.0004
 25  8  7 20 59  0.0000000  0  9G02G08G10G03G27G28G32G31G01
 -10461829.89847  -8104346.13346  21382385.0554                   21382379.5434
        46.5004         37.5004
   8809002.68846   6883154.25845  24223619.9614                   24223625.6954
        40.0004         34.7504
   4700934.38747   3681672.12147  22029719.1174                   22029718.2854
        47.2504         45.2504
  11376435.84846   8906247.54345  24381843.7504                   24381847.3714
        36.2504         30.2504
  14447938.37545  11262552.66444  25264302.6414                   25264311.9104
        35.5004         25.2504
 -13230791.16847 -10234749.91046  21065940.9144                   21065938.0164
        46.5004         37.5004
   4834454.48848   3792468.22348  21367154.3364                   21367152.6914
        49.5004         49.5004
 -15025544.03547 -11655050.65246  22021499.4304                   22021497.5434
        45.2504         41.2504
  -9533666.18447  -7382071.61345  22583888.6334                   22583887.3524
        44.0004         30.5004
 25  8  7 20 59 30.0000000  0  9G02G08G10G03G27G28G32G31G01
 -10581999.69947  -8197984.91846  21359517.6954                   21359512.5984
        47.0004         38.0004
   8792112.57446   6869992.91445  24220406.2034                   24220411.3244
        40.5004         34.7504
   4655181.50047   3646020.48447  22021012.4144                   22021011.7934
        47.5004         45.0004
  11198991.57046   8767979.40245  24348076.7584                   24348081.1454
        37.5004         30.7504
  14442954.34445  11258668.70744  25263355.0084                   25263363.8954
        35.5004         28.0004
 -13364657.68447 -10339061.43446  21040467.1484                   21040463.8404
        46.0004         37.5004
   4797396.64548   3763591.96548  21360102.6484                   21360101.0394
        49.7504         49.5004
 -15216004.58647 -11803461.33646  21985255.6334                   21985254.0204
        44.7504         41.0004
  -9710589.35947  -7519933.73445  22550221.3524                   22550219.9494
        44.5004         31.0004
 25  8  7 21  0  0.0000000  0  9G02G08G10G03G27G28G32G31G01
 -10701650.93747  -8291219.63746  21336748.7034                   21336743.1764
        47.0004         38.0004
   8775352.92246   6856933.22745  24217216.6644                   24217222.5984
        40.7504         34.2504
   4609696.30547   3610577.43847  22012357.0704                   22012356.5124
        47.0004         45.2504
  11021552.59446   8629715.38745  24314311.2194                   24314315.2704
        38.5004         31.0004
  14437852.48045  11254692.95344  25262383.8914                   25262393.3164
        35.5004         27.0004
 -13497938.02047 -10442916.18746  21015104.7274                   21015101.4144
        46.0004         37.5004
   4760574.39548   3734899.30148  21353095.6484                   21353093.8404
        49.5004         49.7504
 -15406123.09447 -11951605.48846  21949076.8914                   21949075.1604
        45.5004         41.2504
  -9887173.64147  -7657531.78945  22516618.3524                   22516616.6884
        43.5004         31.7504
 25  8  7 21  0 30.0000000  0  9G02G08G10G03G27G28G32G31G01
 -10820782.82047  -8384049.66046  21314078.6804                   21314073.4614
        47.0004         38.2504
   8758720.43046   6843972.60245  24214052.0004                   24214057.8164
        40.0004         33.5004
   4564478.89547   3575343.04747  22003752.7734                   22003752.0124
        47.5004         45.0004
  10844118.73946   8491455.36645  24280546.2344                   24280550.9064
        38.7504         30.0004
  14432630.04346  11250623.21144  25261390.1804                   25261399.5824
        37.5004         26.7504
 -13630631.02047 -10546313.28146  20989853.5164                   20989850.9574
        46.2504         37.5004
   4723985.69148   3706388.60548  21346133.0084                   21346131.2814
        49.5004         49.5004
 -15595896.81247 -12099480.97346  21912964.5314                   21912962.6724
        45.2504         41.0004
 -10063416.87547  -7794864.09045  22483080.4844                   22483078.9304
        43.7504         30.5004
 25  8  7 21  1  0.0000000  0  9G02G08G10G03G27G28G32G31G01
  -9363970.07047  -7248870.87146  21591301.0084                   21591295.4574
        46.5004         38.2504
  10317632.77746   8058709.25845  24510703.7194                   24510709.3794
        39.5004         33.5004
   6094951.19147   4767918.82047  22294991.4224                   22294991.2464
        47.5004         44.7504
  12242116.70346   9580804.54344  24546576.7974                   24546580.9734
        40.2504         29.7504
  16002704.87946  12474057.86744  25560165.9534                   25560175.6254
        37.2504         28.5004
 -12187310.73047  -9421648.07046  21264508.7194                   21264505.8594
        46.5004         37.2504
   6263050.18048   4905659.61748  21639007.2194                   21639005.7704
        49.0004         49.5004
 -14209896.09447 -11019480.28546  22176711.6884                   22176709.5004
        45.0004         41.0004
  -8663890.53147  -6704324.00445  22749401.5554                   22749400.1334
        42.5004         31.0004
 25  8  7 21  1 30.0000000  0  9G02G08G10G03G27G28G32G31G01
  -9482060.03147  -7340889.00446  21568828.7894                   21568823.8134
        47.5004         38.5004
  10301245.26646   8045939.50845  24507584.8834                   24507591.0434
        39.5004         32.7504
   6050270.00847   4733102.27347  22286489.2344                   22286488.8754
        46.2504         45.0004
  12064694.09846   9442553.27044  24512813.6094                   24512817.7424
        40.2504         28.5004
  15997233.55146  12469794.18444  25559125.2194                   25559134.8834
        36.7504         29.0004
 -12318825.19947  -9524126.82846  21239482.1804                   21239479.3404
        46.5004         37.5004
   6226923.11748   4877508.64148  21632132.6024                   21632130.8794
        49.2504         49.5004
 -14398971.41047 -11166811.57046  22140731.7424                   22140729.6764
        45.0004         41.5004
  -8839444.50447  -6841119.21545  22715994.6884                   22715992.9574
        43.5004         31.2504
 25  8  7 21  2  0.0000000  0  9G02G08G10G03G27G28G32G31G01
  -9599625.27747  -7432498.27046  21546457.2734                   21546451.5234
        47.5004         38.0004
  10284977.83646   8033263.33645  24504489.3134                   24504495.9064
        38.7504         31.7504
   6005859.62147   4698496.73847  22278038.3984                   22278037.7544
        47.7504         44.7504
  11887279.90646   9304308.54744  24479052.7274                   24479056.5044
        41.5004         27.0004
  15991636.14846  12465432.27744  25558059.6804                   25558069.7274
        36.0004         28.2504
 -12449746.10247  -9626143.06646  21214568.7114                   21214565.5984
        46.2504         37.0004
   6191026.50448   4849537.24248  21625301.7504                   21625299.8204
        49.2504         49.2504
 -14587690.89847 -11313865.58646  22104819.6804                   22104817.9184
        45.0004         41.5004
  -9014647.87547  -6977641.23445  22682653.7274                   22682653.0164
        44.2504         32.5004
 25  8  7 21  2 30.0000000  0  9G02G08G10G03G27G28G32G31G01
  -9716667.81647  -7523700.23046  21524184.7424                   21524179.6484
        47.0004         38.7504
  10268824.64546   8020676.19945  24501415.6024                   24501422.1884
        38.2504         32.0004
   5961717.46147   4664100.21547  22269638.4224                   22269637.9224
        47.2504         45.2504
  11709871.49646   9166068.33244  24445293.6884                   24445296.8054
        40.5004         24.5004
  15985907.23845  12460967.89544  25556969.9224                   25556979.5234
        35.7504         26.5004
 -12580075.14547  -9727698.11346  21189768.0704                   21189764.7774
        47.0004         37.5004
   6155355.65648   4821741.75848  21618513.8284                   21618512.0474
        48.7504         49.5004
 -14776054.42647 -11460642.22347  22068974.4384                   22068972.8284
        45.2504         42.0004
  -9189501.23047  -7113890.52045  22649380.6024                   22649379.2584
        44.7504         32.0004
 25  8  7 21  3  0.0000000  0  9G02G08G10G03G27G28G32G31G01
  -9833183.57847  -7614491.71946  21502013.0944                   21502007.1054
        47.5004         38.2504
  10252785.64846   8008178.03145  24498363.2034                   24498370.2974
        37.5004         31.2504
   5917846.84447   4629915.27347  22261290.0864                   22261289.7274
        47.2504         44.7504
  11532472.16046   9027835.14544  24411535.4534                   24411538.7664
        40.5004         24.2504
  15980047.41445  12456401.50444  25555854.5164                   25555865.5904
        34.7504         26.7504
 -12709807.92247  -9828788.54746  21165080.2814                   21165077.4574
        46.0004         37.5004
   6119911.84048   4794123.18448  21611769.0314                   21611767.5594
        49.2504         49.2504
 -14964056.00447 -11607136.82846  22033199.1644                   22033197.3594
        44.5004         41.5004
  -9363999.03547  -7249862.74645  22616174.9454                   22616173.2894
        44.5004         31.7504
 25  8  7 21  3 30.0000000  0  9G02G08G10G03G27G28G32G31G01
  -9949174.24248  -7704874.04746  21479940.1804                   21479934.5164
        48.0004         38.5004
  10236855.05946   7995764.34844  24495332.2664                   24495338.8754
        37.5004         29.5004
   5874245.37147   4595940.07047  22252993.1804                   22252992.6374
        47.2504         44.7504
  11355079.66446   8889607.33644  24377778.5944                   24377782.0824
        39.7504         26.2504
  15974051.34845  12451728.91044  25554714.0164                   25554724.3014
        35.7504         28.7504
 -12838945.90247  -9929415.49246  21140506.7194                   21140503.6914
        46.7504         37.2504
   6084690.70748   4766678.13348  21605066.6724                   21605065.0004
        48.2504         49.2504
 -15151695.50447 -11753349.28947  21997492.8524                   21997490.5664
        44.5004         42.0004
  -9538141.58647  -7385558.15245  22583036.1804                   22583035.1524
        44.2504         32.0004
 25  8  7 21  4  0.0000000  0  9G02G08G10G03G27G28G32G31G01
 -10064639.04347  -7794846.60246  21457967.8754                   21457962.6414
        47.2504         38.7504
  10221029.66046   7983432.60544  24492321.3524                   24492327.5904
        36.5004         29.2504
   5830913.19547   4562174.69147  22244746.9064                   22244746.8594
        47.0004         44.5004
  11177694.19946   8751385.01644  24344023.5634                   24344026.6684
        39.2504         26.0004
  15967916.43845  12446948.16444  25553547.5004                   25553556.8364
        35.2504         28.5004
 -12967487.98847 -10029578.11346  21116045.4224                   21116042.8364
        46.2504         38.0004
   6049690.35248   4739405.11348  21598406.2504                   21598404.8554
        49.7504         49.2504
 -15338970.09447 -11899277.41047  21961855.1174                   21961853.2274
        45.0004         42.0004
  -9711926.59447  -7520974.96945  22549966.2664                   22549965.2234
        44.7504         33.0004
 25  8  7 21  4 30.0000000  0  9G02G08G10G03G27G28G32G31G01
 -10179574.62147  -7884406.78546  21436096.6724                   21436091.1914
        47.5004         39.0004
  10205309.04346   7971182.52344  24489329.8284                   24489336.2304
        36.5004         28.2504
   5787853.12948   4528621.34447  22236553.0474                   22236552.8324
        48.0004         44.5004
  11000318.56346   8613170.35744  24310269.3914                   24310273.7074
        38.5004         28.5004
  15961642.75845  12442059.25444  25552353.5704                   25552363.7814
        35.0004         28.0004
 -13095430.37947 -10129273.43746  21091698.8204                   21091695.8984
        46.2504         38.0004
   6014911.57848   4712304.74248  21591788.2504                   21591786.5004
        49.2504         49.0004
 -15525874.22347 -12044916.85547  21926288.7814                   21926286.6764
        45.5004         42.0004
  -9885349.03947  -7656109.26245  22516965.0394                   22516963.4964
        45.0004         32.5004
 25  8  7 21  5  0.0000000  0  9G02G08G10G03G27G28G32G31G01
 -10293982.48847  -7973555.75846  21414325.4614                   21414320.1684
        47.5004         38.7504
  10189687.64145   7959009.75044  24486357.3444                   24486364.3164
        35.7504         28.0004
   5745063.03948   4495278.37147  22228410.2734                   22228410.3594
        48.5004         44.5004
  10822950.85246   8474961.91444  24276517.4304                   24276521.8834
        37.5004         29.5004
  15955225.30146  12437058.31644  25551132.8364                   25551143.2234
        37.0004         29.0004
 -13222774.41847 -10228502.51646  21067465.9924                   21067462.9884
        45.5004         38.0004
   5980350.19947   4685373.77748  21585211.3524                   21585209.6914
        47.5004         49.0004
 -15712407.35547 -12190267.21147  21890792.1644                   21890790.2664
        45.0004         42.0004
 -10058409.00047  -7790961.12145  22484032.7114                   22484031.0394
        44.7504         31.7504
 25  8  7 21  5 30.0000000  0  9G02G08G10G03G27G28G32G31G01
 -10407861.33647  -8062292.52046  21392655.0394                   21392649.6724
        47.7504         38.2504
  10174162.80946   7946912.21144  24483403.2034                   24483409.9414
        36.7504         28.0004
   5702543.50447   4462146.22747  22220319.3754                   22220318.5314
        47.5004         44.5004
  10645591.57046   8336760.03944  24242766.4614                   24242770.9694
        37.7504         28.7504
  15948662.03545  12431943.80144  25549883.4774                   25549894.1484
        35.5004         28.0004
 -13349518.53947 -10327264.12546  21043347.6174                   21043344.4654
        45.7504         38.0004
   5946004.85948   4658611.16048  21578675.5944                   21578674.1094
        48.2504         49.0004
 -15898566.35247 -12335326.03547  21855367.2034                   21855365.0904
        45.5004         42.2504
 -10231103.66447  -7925528.32045  22451169.5164                   22451168.5664
        44.5004         32.5004
 25  8  7 21  6  0.0000000  0  9G02G08G10G03G27G28G32G31G01
 -10521205.66048  -8150612.77046  21371086.1484                   21371080.9774
        48.5004         39.2504
  10158736.32046   7934891.33644  24480467.9224                   24480474.6764
        36.5004         28.2504
   5660299.54747   4429228.80947  22212280.5164                   22212280.2624
        47.5004         44.5004
  10468246.06646   8198568.91044  24209019.0394                   24209022.9454
        36.0004         28.2504
  15941955.24245  12426717.42644  25548607.6804                   25548617.9264
        35.2504         26.5004
 -13475656.82447 -10425553.66046  21019344.0944                   21019341.1214
        46.0004         37.7504
   5911878.64848   4632019.29348  21572181.4304                   21572180.0204
        48.7504         49.0004
 -16084343.66047 -12480087.44547  21820015.0864                   21820012.8054
        45.7504         42.2504
 -10403425.88347  -8059805.30545  22418378.3914                   22418376.4344
        45.0004         32.5004
 25  8  7 21  6 30.0000000  0  8G02G08G10G03G28G32G31G01
 -10634020.04748  -8238520.08646  21349618.4384                   21349613.0784
        48.2504         38.7504
  10143399.32046   7922940.18044  24477549.3284                   24477556.7154
        36.5004         28.5004
   5618325.80947   4396521.96147  22204293.4144                   22204292.6524
        47.7504         44.2504
  10290908.96946   8060384.34444  24175272.6804                   24175276.7504
        36.0004         28.5004
 -13601193.89547 -10523374.70746  20995455.4304                   20995452.1724
        45.7504         37.5004
   5877964.12948   4605592.37948  21565728.1254                   21565726.5204
        48.7504         49.0004
 -16269741.84847 -12624553.43447  21784734.3444                   21784732.7624
        45.7504         42.5004
 -10575378.89547  -8193794.59045  22385656.8834                   22385654.8554
        45.7504         33.0004
 25  8  7 21  7  0.0000000  0  8G02G08G10G03G28G32G31G01
 -10746297.12548  -8326008.70746  21328252.8984                   21328247.2034
        48.5004         38.5004
  10128155.73446   7911061.78144  24474648.6334                   24474655.9574
        37.0004         28.7504
   5576629.35947   4364031.16847  22196358.6484                   22196358.3324
        46.5004         44.5004
  10113587.55545   7922212.02344  24141529.2344                   24141533.3754
        35.7504         28.7504
 -13726121.72747 -10620721.03546  20971682.3204                   20971679.1524
        46.2504         38.2504
   5844266.49648   4579334.46148  21559315.7034                   21559313.7074
        49.0004         49.0004
 -16454751.10247 -12768716.36347  21749528.5394                   21749526.4774
        46.0004         42.5004
 -10746953.40647  -8327488.96145  22353006.9064                   22353005.2974
        45.7504         32.5004
 25  8  7 21  7 30.0000000  0  8G02G08G10G03G28G32G31G01
 -10858030.31648  -8413073.52346  21306990.8284                   21306985.0274
        48.0004         38.7504
  10113008.03146   7899258.10544  24471766.3444                   24471773.8554
        37.0004         27.5004
   5535215.91847   4331760.91447  22188477.9144                   22188477.6214
        47.2504         44.0004
   9936287.73046   7784056.52745  24107790.1254                   24107794.0204
        36.7504         30.0004
 -13850433.82847 -10717587.57046  20948026.3054                   20948023.2194
        46.5004         37.5004
   5810789.48448   4553248.45748  21552944.9844                   21552943.2894
        49.0004         49.0004
 -16639363.18047 -12912569.80947  21714397.9304                   21714395.7624
        45.7504         42.5004
 -10918141.55547  -8460882.25445  22320430.8914                   22320428.9304
        45.0004         32.2504
 25  8  7 21  8  0.0000000  0  8G02G08G10G03G28G32G31G01
 -10969217.12148  -8499712.59446  21285832.4224                   21285827.0984
        48.5004         38.2504
  10097954.83246   7887528.07444  24468902.2504                   24468909.4024
        36.7504         28.0004
   5494087.45347   4299712.70747  22180651.7344                   22180651.2734
        46.7504         44.0004
   9759011.53546   7645919.43445  24074055.6254                   24074059.1684
        36.5004         30.5004
 -13974127.51247 -10813972.22746  20924487.9844                   20924485.1764
        46.0004         37.7504
   5777533.10548   4527334.37548  21546616.7194                   21546615.0394
        48.2504         48.7504
 -16823573.65247 -13056110.30947  21679343.6724                   21679341.7624
        45.5004         43.0004
 -11088939.25447  -8593971.30545  22287928.7664                   22287927.2854
        46.0004         32.2504
 25  8  7 21  8 30.0000000  0  8G02G08G10G03G28G32G31G01
 -11079857.34448  -8585925.74246  21264778.3754                   21264772.5864
        48.0004         38.5004
  10082992.52746   7875868.92244  24466055.1884                   24466062.4654
        37.0004         28.0004
   5453243.50047   4267886.21147  22172879.1644                   22172878.5824
        47.2504         44.0004
   9581758.63346   7507800.47745  24040325.5944                   24040329.1954
        38.0004         31.5004
 -14097202.41047 -10909874.71146  20901067.3834                   20901064.3244
        45.2504         37.5004
   5744494.96548   4501590.34848  21540329.9844                   21540328.3094
        48.7504         48.7504
 -17007380.09047 -13199335.97747  21644366.5634                   21644364.2424
        46.0004         43.0004
 -11259344.75447  -8726754.75045  22255501.7734                   22255500.2304
        44.5004         31.7504
 25  8  7 21  9  0.0000000  0  9G02G08G10G03G25G28G32G31G01
 -11189955.97747  -8671716.88746  21243827.2734                   21243821.6844
        47.7504         39.0004
  10068112.55146   7864273.91844  24463223.9694                   24463230.8054
        38.2504         27.5004
   5412678.84047   4236277.33647  22165159.9454                   22165159.5274
        47.2504         43.7504
   9404524.07846   7369695.81345  24006598.5704                   24006602.4144
        37.7504         31.2504
  17106834.44556  13362544.96154  24677072.2734                   24677074.4064
        38.7504         24.5004
 -14219662.98047 -11005298.49646  20877764.1954                   20877760.8364
        45.7504         37.7504
   5711667.97748   4476010.85548  21534082.8054                   21534081.1334
        49.5004         48.5004
 -17190785.15647 -13342248.89547  21609465.8914                   21609463.6684
        46.2504         43.2504
 -11429361.18747  -8859235.01645  22223149.1804                   22223147.4614
        45.0004         31.2504
 25  8  7 21  9 30.0000000  0  9G02G08G10G03G25G28G32G31G01
  -9724096.03148  -7529488.35246  21522771.0234                   21522765.5044
        48.0004         39.2504
  11628725.05946   9080335.35544  24760198.6254                   24760205.7774
        39.0004         29.5004
   6947807.71947   5432481.61347  22457285.2034                   22457284.6884
        46.5004         43.5004
  10802726.88746   8459204.66845  24272667.8524                   24272671.3954
        38.0004         32.2504
  18546323.20746  14484224.57843  24950997.5864                   24950999.9534
        38.5004         22.7504
 -12766091.51647  -9872645.37546  21154369.6724                   21154366.3444
        45.0004         37.7504
   7254464.18048   5678189.68848  21827667.2344                   21827666.0044
        49.7504         48.5004
 -15798367.25847 -12257247.80147  21874433.8054                   21874431.6134
        45.2504         43.0004
 -10023567.71947  -7763811.46545  22490662.2504                   22490660.9844
        45.5004         32.0004
 25  8  7 21 10  0.0000000  0  9G02G08G10G03G25G28G32G31G01
  -9833128.97347  -7614449.09046  21502022.6024                   21502017.3634
        47.5004         38.5004
  11613981.00046   9068846.23044  24757393.7344                   24757400.6884
        38.0004         27.2504
   6907782.66847   5401293.21547  22449668.8754                   22449668.5554
        46.2504         43.2504
  10625510.64146   8321114.25445  24238944.0944                   24238947.6294
        38.2504         31.7504
  18410774.13346  14378601.97743  24925203.3834                   24925205.9654
        37.7504         22.5004
 -12887340.20347  -9967124.84046  21131296.9304                   21131293.7774
        45.7504         37.7504
   7222034.77048   5652919.99648  21821496.3914                   21821495.1914
        49.0004         48.5004
 -15980980.70347 -12399543.86347  21839683.5864                   21839681.2854
        46.0004         43.0004
 -10192818.34447  -7895695.01245  22458455.1024                   22458452.7624
        45.0004         31.7504
 25  8  7 21 10 30.0000000  0  9G02G08G10G03G25G28G32G31G01
  -9941634.40647  -7698998.76246  21481374.8594                   21481369.5784
        47.0004         38.2504
  11599293.89546   9057401.48044  24754598.8914                   24754606.1994
        39.0004         28.2504
   6868021.26247   5370310.26247  22442102.6094                   22442102.5204
        46.2504         43.5004
  10448297.71946   8183026.42645  24205222.1174                   24205225.3134
        36.5004         31.0004
  18275610.39146  14273279.62943  24899482.3204                   24899484.5204
        36.5004         23.0004
 -13007988.09047 -10061136.14146  21108338.4064                   21108335.2344
        45.0004         38.0004
   7189795.14148   5627798.18848  21815361.0944                   21815359.6294
        48.5004         48.5004
 -16163200.66447 -12541533.31247  21805007.9774                   21805005.7974
        46.2504         43.0004
 -10361689.02747  -8027282.48845  22426320.2114                   22426318.1374
        45.5004         32.2504
 25  8  7 21 11  0.0000000  0  9G02G08G10G03G25G28G32G31G01
 -10049604.89848  -7783131.60946  21460828.9844                   21460823.3954
        48.2504         38.5004
  11584667.61346   9046004.16845  24751815.6724                   24751823.1294
        38.7504         30.0004
   6828530.45747   5339538.16047  22434587.7344                   22434587.1214
        46.2504         43.0004
  10271095.28545   8044946.78944  24171500.7344                   24171504.3754
        35.2504         29.2504
  18140841.17246  14168264.69944  24873836.8134                   24873839.3364
        37.5004         24.5004
 -13128027.53147 -10154673.33646  21085495.3834                   21085491.9304
        45.0004         38.5004
   7157750.35548   5602828.19948  21809263.1174                   21809261.6954
        48.2504         48.5004
 -16345017.47747 -12683208.62147  21770409.5234                   21770407.1954
        46.5004         43.0004
 -10530170.64547  -8158566.80545  22394259.3674                   22394256.8204
        45.0004         31.7504
 25  8  7 21 11 30.0000000  0  9G02G08G10G03G25G28G32G31G01
 -10157036.15248  -7866844.26246  21440385.4924                   21440379.7734
        48.0004         38.2504
  11570102.69146   9034654.64144  24749044.2664                   24749051.4694
        37.5004         29.7504
   6789314.11347   5308979.91847  22427125.4774                   22427124.6844
        47.0004         43.2504
  10093907.41045   7906878.49644  24137782.8524                   24137786.3014
        33.7504         28.2504
  18006472.55946  14063561.93044  24848267.1414                   24848269.7464
        37.7504         24.5004
 -13247453.99647 -10247732.88346  21062769.1484                   21062766.1914
        44.5004         38.7504
   7125902.42248   5578011.60548  21803203.1414                   21803201.7114
        48.5004         48.5004
 -16526424.66047 -12824564.73847  21735888.7894                   21735886.2854
        45.5004         43.0004
 -10698257.12147  -8289543.21945  22362272.7504                   22362271.5944
        45.5004         32.7504
 25  8  7 21 12  0.0000000  0  9G02G08G10G03G25G28G32G31G01
 -10263925.60248  -7950134.73846  21420044.9774                   21420039.8834
        48.0004         38.2504
  11555597.90246   9023351.94544  24746284.2194                   24746291.4224
        38.2504         29.5004
   6750374.27347   5278637.14547  22419715.1884                   22419715.0434
        45.7504         42.7504
   9916736.50845   7768823.44544  24104068.8364                   24104072.2274
        34.0004         27.0004
  17872508.93046  13959174.72744  24822774.5314                   24822776.7814
        37.7504         25.5004
 -13366264.77347 -10340312.67646  21040160.0234                   21040157.2304
        45.7504         38.0004
   7094251.59848   5553348.60248  21797180.0234                   21797178.5394
        48.5004         48.2504
 -16707417.44147 -12965597.95747  21701446.7274                   21701444.4384
        46.5004         43.0004
 -10865944.23047  -8420208.43745  22330363.3364                   22330361.3954
        45.2504         32.5004
 25  8  7 21 12 30.0000000  0  9G02G08G10G03G25G28G32G31G01
 -10370270.80948  -8033001.12946  21399808.3834                   21399802.5594
        48.5004         39.2504
  11541152.16046   9012095.22744  24743535.5164                   24743542.8244
        38.2504         27.7504
   6711713.07847   5248511.48447  22412358.3204                   22412357.8094
        47.0004         42.7504
   9739584.88745   7630783.41444  24070357.2734                   24070360.9384
        35.5004         29.2504
  17738954.43046  13855106.32044  24797360.1414                   24797362.2154
        38.2504         25.0004
 -13484457.23047 -10432410.65246  21017669.1804                   21017666.1524
        45.0004         38.0004
   7062798.04748   5528839.32448  21791194.6024                   21791192.9924
        49.2504         48.2504
 -16887991.44147 -13106304.85247  21667084.7894                   21667082.3594
        45.0004         43.2504
 -11033227.68047  -8550559.11745  22298530.1094                   22298528.1484
        45.5004         33.0004
 25  8  7 21 13  0.0000000  0  9G02G08G10G03G25G28G32G31G01
 -10476066.67648  -8115439.46946  21379675.7814                   21379670.4344
        48.0004         38.5004
  11526767.05946   9000885.84844  24740798.4454                   24740805.7074
        38.5004         29.0004
   6673334.91847   5218606.37947  22405055.0554                   22405054.7814
        46.0004         42.7504
   9562457.30546   7492762.10545  24036651.3594                   24036655.0004
        36.7504         31.2504
  17605815.93846  13751362.11344  24772024.8364                   24772026.3634
        37.0004         25.5004
 -13602026.22747 -10524022.81646  20995296.5784                   20995293.2854
        45.0004         38.5004
   7031544.43848   5504485.84048  21785247.6334                   21785245.5394
        49.0004         48.0004
 -17068139.35247 -13246679.73447  21632803.5554                   21632800.8244
        46.0004         43.5004
 -11200100.91447  -8680590.14145  22266775.0704                   22266773.5314
        45.2504         33.0004
 25  8  7 21 13 30.0000000  0  9G02G08G10G03G25G28G32G31G01
 -10581321.62148  -8197456.31246  21359646.5004                   21359640.8674
        48.0004         39.0004
  11512430.55146   8989714.29344  24738070.9384                   24738077.7664
        39.5004         28.7504
   6635231.39547   5188915.27347  22397804.3594                   22397804.1294
        46.2504         42.2504
   9385345.62546   7354753.15245  24002947.8594                   24002951.4964
        37.5004         33.5004
  17473087.07046  13647937.08644  24746767.8984                   24746769.1174
        37.7504         28.2504
 -13718979.73047 -10615155.39146  20973040.6174                   20973037.8164
        46.0004         38.2504
   7000480.48848   5480280.14848  21779335.9694                   21779334.7074
        48.7504         48.0004
 -17247867.07847 -13386727.19947  21598602.4694                   21598599.8054
        45.0004         43.2504
 -11366570.24247  -8810306.42645  22235097.2664                   22235095.0004
        45.0004         33.0004
 25  8  7 21 14  0.0000000  0  9G02G08G10G03G25G28G32G31G01
 -10686029.04748  -8279046.51646  21339721.1254                   21339715.6954
        48.0004         38.7504
  11498145.80946   8978583.03944  24735352.2194                   24735359.5164
        39.2504         27.7504
   6597408.62547   5159442.94147  22390606.6884                   22390606.4104
        46.0004         42.2504
   9208256.31646   7216761.62945  23969248.7344                   23969252.2584
        38.5004         35.5004
  17340776.16446  13544837.75444  24721589.5784                   24721591.5084
        38.5004         29.0004
 -13835310.99247 -10705803.08246  20950903.6564                   20950900.5904
        46.5004         38.0004
   6969610.55948   5456225.64548  21773461.4844                   21773460.2584
        48.7504         48.0004
 -17427165.80147 -13526440.38747  21564482.8984                   21564480.4964
        45.0004         43.5004
 -11532627.20347  -8939701.39845  22203498.0394                   22203495.4614
        45.0004         33.0004
 25  8  7 21 14 30.0000000  0  9G02G08G10G03G25G28G32G31G01
 -10790189.00447  -8360210.12146  21319900.1414                   21319894.5664
        47.7504         38.5004
  11483909.40746   8967489.51244  24732643.1884                   24732651.2234
        39.0004         29.2504
   6559866.21947   5130189.06647  22383462.7894                   22383462.5084
        46.2504         42.2504
   9031189.41446   7078787.54946  23935554.1804                   23935557.5904
        39.7504         36.5004
  17208885.03546  13442065.51244  24696491.0394                   24696493.4614
        38.0004         27.5004
 -13951019.87947 -10795965.81246  20928885.1644                   20928881.7344
        46.0004         38.5004
   6938932.45748   5432320.61348  21767623.9384                   21767622.5164
        49.0004         48.0004
 -17606033.54347 -13665817.73847  21530446.0554                   21530443.4494
        46.5004         43.2504
 -11698270.12147  -9068773.71545  22171976.7664                   22171974.9844
        45.0004         32.2504
 25  8  7 21 15  0.0000000  0  9G02G08G10G03G25G28G32G31G01
 -10893794.55147  -8440941.71946  21300185.0004                   21300179.6804
        47.7504         39.2504
  11469724.37946   8956435.98844  24729944.2584                   24729951.5944
        38.7504         27.5004
   6522610.61747   5101158.67247  22376373.6484                   22376373.3014
        46.2504         42.2504
   8854151.49646   6940836.06346  23901865.0474                   23901868.0594
        39.7504         36.5004
  17077422.34446  13339627.12944  24671474.9774                   24671476.6414
        37.7504         27.5004
 -14066099.41047 -10885638.14546  20906985.7974                   20906982.7894
        46.7504         38.7504
   6908450.80948   5408568.66047  21761823.3134                   21761822.0394
        48.2504         47.7504
 -17784461.16047 -13804852.14547  21496491.7584                   21496488.6334
        46.0004         43.5004
 -11863490.40647  -9197516.71945  22140535.9774                   22140534.3364
        45.5004         33.2504
 25  8  7 21 15 30.0000000  0  9G02G08G10G03G25G28G32G31G01
 -10996850.09848  -8521244.74646  21280573.9924                   21280568.3204
        48.5004         38.5004
  11455582.97346   8945416.43844  24727253.8444                   24727260.8404
        38.5004         28.5004
   6485637.01647   5072348.01647  22369337.5164                   22369337.6334
        46.5004         42.0004
   8677138.27346   6802903.81646  23868180.3204                   23868182.8984
        39.7504         36.5004
  16946385.39146  13237520.48444  24646539.2664                   24646540.9144
        37.5004         28.5004
 -14180553.94947 -10974823.46146  20885206.2734                   20885203.2664
        46.5004         38.5004
   6878159.07448   5384964.70347  21756059.2974                   21756057.5394
        48.0004         47.7504
 -17962450.60947 -13943545.12947  21462621.5164                   21462618.6094
        45.7504         43.5004
 -12028290.66047  -9325932.42645  22109175.6564                   22109173.6214
        45.5004         33.5004
 25  8  7 21 16  0.0000000  0  9G02G08G10G03G25G28G32G31G01
 -11099352.17648  -8601116.50446  21261068.3594                   21261063.0944
        48.5004         38.2504
  11441485.31346   8934430.96944  24724571.2894                   24724578.7274
        38.5004         29.5004
   6448948.68847   5043759.65647  22362356.2894                   22362355.9844
        45.7504         42.2504
   8500153.33246   6664993.61345  23834501.3834                   23834504.0864
        39.0004         34.5004
  16815779.64546  13135749.85244  24621685.5944                   24621687.2234
        37.5004         26.7504
 -14294379.69547 -11063518.81246  20863546.0234                   20863542.3874
        46.5004         38.0004
   6848058.73447   5361509.87947  21750331.3984                   21750329.9884
        47.7504         47.7504
 -18139996.00847 -14081892.10547  21428835.7814                   21428832.9264
        45.7504         43.5004
 -12192665.41447  -9454016.57845  22077896.2734                   22077894.4774
        45.7504         34.0004
 25  8  7 21 16 30.0000000  0  9G02G08G10G03G25G28G32G31G01
 -11201301.78948  -8680557.77346  21241668.0084                   21241662.9574
        48.0004         38.5004
  11427426.94146   8923476.12144  24721895.9144                   24721903.7584
        37.7504         29.0004
   6412544.36347   5015392.59447  22355428.8204                   22355428.7344
        46.5004         42.2504
   8323195.75446   6527104.72345  23800827.1254                   23800830.1804
        39.0004         33.0004
  16685606.00046  13034315.93844  24596914.4844                   24596916.4264
        37.0004         26.5004
 -14407577.49647 -11151724.86746  20842004.5944                   20842002.0554
        47.2504         38.0004
   6818146.80948   5338201.86747  21744638.9064                   21744637.4924
        49.0004         47.7504
 -18317096.33247 -14219892.27047  21395134.3834                   21395131.8054
        46.0004         43.5004
 -12356613.76247  -9581768.45745  22046697.7584                   22046695.7814
        45.7504         33.5004
 25  8  7 21 17  0.0000000  0  9G02G08G10G03G25G28G32G31G01
 -11302697.71147  -8759567.58646  21222373.3834                   21222367.8954
        47.7504         38.5004
  11413405.67646   8912550.18444  24719228.8834                   24719236.4454
        38.2504         28.0004
   6376424.85947   4987247.46547  22348555.6884                   22348555.3364
        46.0004         42.5004
   8146266.84846   6389238.19945  23767158.1334                   23767161.6054
        37.0004         31.7504
  16555867.48446  12933221.06644  24572225.9454                   24572227.8554
        37.5004         28.0004
 -14520146.09847 -11239440.62546  20820583.8054                   20820580.5944
        46.7504         38.0004
   6788422.37148   5315039.95747  21738982.5784                   21738981.4964
        48.0004         47.7504
 -18493748.30147 -14357543.07847  21361518.6724                   21361515.6024
        46.2504         44.0004
 -12520132.75047  -9709185.76645  22015581.3284                   22015579.3554
        46.2504         34.2504
 25  8  7 21 17 30.0000000  0  9G02G08G10G03G25G28G32G31G01
 -11403541.89547  -8838147.47746  21203183.4304                   21203177.9224
        47.7504         39.2504
  11399416.09846   8901648.91844  24716565.7274                   24716574.3634
        38.2504         28.5004
   6340587.88347   4959322.48447  22341736.2034                   22341735.8714
        46.2504         42.5004
   7969364.69946   6251392.50845  23733494.9774                   23733498.0274
        37.5004         30.2504
  16426563.79746  12832465.03144  24547620.4694                   24547622.1174
        38.5004         28.5004
 -14632087.39847 -11326667.59046  20799281.9064                   20799278.9694
        47.5004         37.7504
   6758881.38747   5292020.99647  21733361.2504                   21733359.8714
        47.7504         47.5004
 -18669951.60947 -14494844.28147  21327988.0084                   21327985.4534
        46.5004         44.0004
 -12683222.46547  -9836268.59045  21984546.0704                   21984544.0634
        45.5004         33.7504
 25  8  7 21 18  0.0000000  0  9G02G08G10G03G25G28G32G31G01
  -9928408.38747  -7688692.80146  21483891.6804                   21483886.4884
        47.5004         39.2504
  12960878.02746  10118372.23044  25013702.3754                   25013710.4104
        37.2504         28.2504
   7880456.98447   6159220.41847  22634763.1884                   22634763.3484
        46.5004         42.2504
   9367918.11746   7341174.49245  23999630.8134                   23999633.0044
        38.5004         31.2504
  17873123.80946  13959654.72344  24822891.3674                   24822893.3674
        37.0004         28.5004
 -13167974.87547 -10185800.66046  21077893.4534                   21077890.0784
        46.7504         38.5004
   8304945.51648   6496746.27747  22027567.5004                   22027565.9264
        48.0004         47.5004
 -17270275.24247 -13404187.30547  21594337.6884                   21594335.1644
        46.5004         44.2504
 -11270452.93447  -8735409.13345  22253387.0864                   22253385.3754
        45.7504         34.2504
 25  8  7 21 18 30.0000000  0  9G02G08G10G03G25G28G32G31G01
 -10028145.98448  -7766410.41046  21464912.2894                   21464907.1764
        48.2504         38.5004
  12946944.85946  10107514.84844  25011051.3134                   25011060.1374
        37.0004         27.5004
   7845187.40247   6131737.56347  22628052.0784                   22628051.7894
        45.7504         42.2504
   9191073.23046   7203373.39845  23965978.2034                   23965980.9884
        40.5004         32.2504
  17744698.77046  13859583.33244  24798452.7504                   24798454.4414
        36.5004         26.7504
 -13278657.93447 -10272047.18046  21056830.9924                   21056827.9494
        47.2504         38.2504
   8275768.75448   6474011.12147  22022015.5554                   22022014.1214
        49.0004         47.5004
 -17445570.63347 -13540781.03947  21560979.7664                   21560977.3674
        47.0004         44.2504
 -11432675.23047  -8861816.04745  22222517.3364                   22222515.1914
        46.5004         34.5004
 25  8  7 21 19  0.0000000  0  9G02G08G10G03G25G28G32G31G01
 -10127330.37147  -7843696.95746  21446037.9924                   21446032.6564
        47.5004         38.5004
  12933035.26646  10096675.98444  25008404.4064                   25008412.5434
        37.7504         28.5004
   7810201.19147   6104475.51247  22621394.5944                   22621394.3204
        46.5004         42.7504
   9014257.32446   7065594.87145  23932330.8834                   23932333.7704
        40.0004         32.7504
  17616715.81346  13759856.42644  24774098.2424                   24774100.2154
        36.0004         28.0004
 -13388711.74647 -10357803.37546  21035888.4534                   21035885.0784
        47.0004         38.2504
   8246771.12948   6451415.55547  22016497.3914                   22016495.9694
        48.0004         47.2504
 -17620408.85547 -13677018.54347  21527709.2814                   21527706.5314
        46.5004         44.2504
 -11594460.95347  -8987882.78545  22191730.7814                   22191728.6214
        46.0004         34.5004
 25  8  7 21 19 30.0000000  0  9G02G08G10G03G25G28G32G31G01
 -10225959.91047  -7920551.14846  21427269.8284                   21427263.7154
        47.0004         39.0004
  12919147.14846  10085853.76644  25005762.1414                   25005770.6604
        36.5004         27.2504
   7775499.64847   6077435.28147  22614791.1254                   22614791.0044
        46.0004         42.5004
   8837472.16046   6927840.31645  23898689.9384                   23898692.7814
        39.7504         32.0004
  17489178.43045  13660476.72344  24749828.6484                   24749830.1764
        35.2504         27.0004
 -13498134.61347 -10443067.93446  21015066.0004                   21015063.1174
        47.5004         38.0004
   8217952.32448   6428959.32847  22011013.3204                   22011011.4804
        48.2504         47.2504
 -17794786.15247 -13812896.88747  21494526.2034                   21494523.4964
        46.7504         44.5004
 -11755806.60547  -9113606.59845  22161027.0634                   22161024.9694
        45.7504         34.5004
 25  8  7 21 20  0.0000000  0  9G02G08G10G03G25G28G32G31G01
 -10324033.50047  -7996972.14146  21408606.6884                   21408601.2774
        47.0004         38.7504
  12905278.37546  10075046.60544  25003122.7344                   25003131.5904
        36.0004         25.5004
   7741083.62547   6050617.53547  22608242.0864                   22608241.9224
        45.7504         42.5004
   8660719.07446   6790110.77045  23865055.1024                   23865057.7894
        38.7504         33.0004
  17362089.48446  13561446.44144  24725644.1414                   24725646.0314
        36.0004         27.0004
 -13606925.37947 -10527839.93746  20994363.5554                   20994360.6564
        47.5004         38.5004
   8189311.59048   6406641.86747  22005563.0704                   22005561.7304
        48.0004         47.2504
 -17968698.89147 -13948413.23447  21461431.9064                   21461429.3594
        47.0004         44.7504
 -11916709.13747  -9238985.13745  22130408.4064                   22130406.3984
        46.0004         34.0004
 25  8  7 21 20 30.0000000  0 10G02G08G10G03G25G04G28G32G31G01
 -10421554.37547  -8072962.44146  21390049.1564                   21390043.7194
        47.7504         39.2504
  12891422.79745  10064249.73444  25000487.0944                   25000494.9184
        35.7504         26.2504
   7706949.89547   6024019.75847  22601746.2584                   22601746.3444
        46.0004         42.2504
   8483995.29746   6652404.06345  23831425.4694                   23831427.9844
        37.7504         32.0004
  17235448.03146  13462764.87144  24701545.6564                   24701547.2464
        37.0004         28.0004
  20188985.94555  15773863.52053  25167371.9614                   25167379.6524
        35.0004         18.2504
 -13715086.98448 -10612121.68746  20973781.0864                   20973778.0314
        48.0004         38.7504
   8160844.02047   6384459.33247  22000146.1564                   22000144.5514
        47.5004         47.0004
 -18142147.66848 -14083568.06247  21428425.8284                   21428422.6644
        48.0004         44.7504
 -12077169.66847  -9364019.24645  22099873.9534                   22099871.4804
        46.0004         34.0004
 25  8  7 21 21  0.0000000  0 10G02G08G10G03G25G04G28G32G31G01
 -10518524.57448  -8148523.64146  21371596.3444                   21371590.7424
        48.0004         38.7504
  12877574.83645  10053458.81344  24997851.9064                   24997860.1684
        34.7504         25.0004
   7673095.85247   5997639.91847  22595304.1564                   22595303.9654
        45.5004         42.0004
   8307298.73046   6514718.59445  23797800.5864                   23797803.4264
        36.2504         30.0004
  17109253.33646  13364431.38344  24677531.4304                   24677533.3324
        37.0004         28.7504
  20012931.89845  15636678.65643  25133869.9454                   25133877.9304
        35.0004         18.2504
 -13822621.71947 -10695914.96946  20953317.8364                   20953314.7504
        47.2504         38.2504
   8132545.41048   6362408.44547  21994760.9774                   21994759.2934
        48.0004         47.2504
 -18315132.37548 -14218361.26247  21395507.9534                   21395504.9224
        48.0004         45.0004
 -12237188.59047  -9488709.26645  22069423.3524                   22069421.2074
        46.5004         34.5004
 25  8  7 21 21 30.0000000  0 10G02G08G10G03G25G04G28G32G31G01
 -10614946.57048  -8223657.67246  21353248.0164                   21353242.3484
        48.0004         39.0004
  12863729.32045  10042669.78944  24995216.9064                   24995225.7194
        35.5004         24.0004
   7639519.40647   5971476.38746  22588914.5634                   22588914.7584
        45.5004         41.7504
   8130627.83245   6377053.13744  23764181.1414                   23764183.8984
        35.0004         27.7504
  16983505.46946  13266446.05144  24653601.6564                   24653603.8754
        36.7504         29.2504
  19837028.67245  15499611.33242  25100398.1644                   25100404.9224
        34.5004         16.7504
 -13929531.41447 -10779221.19946  20932973.8594                   20932970.6564
        47.2504         38.5004
   8104412.00848   6340486.30147  21989407.5084                   21989405.8164
        48.0004         47.2504
 -18487653.03548 -14352792.86747  21362677.8204                   21362674.9144
        48.0004         45.0004
 -12396765.84847  -9613055.12545  22039056.5004                   22039054.7584
        46.2504         34.5004
 25  8  7 21 22  0.0000000  0 10G02G08G10G03G25G04G28G32G31G01
 -10710820.16447  -8298364.37146  21335003.7274                   21334998.5234
        47.0004         38.7504
  12849883.00045  10031880.12144  24992582.6254                   24992591.4024
        35.2504         25.7504
   7606220.29747   5945528.96146  22582578.5554                   22582578.0004
        45.0004         41.7504
   7953983.01246   6239408.02044  23730566.6334                   23730569.5634
        37.0004         28.7504
  16858206.21546  13168810.30944  24629758.5784                   24629760.6484
        36.0004         28.5004
  19661276.20345  15362661.51642  25066952.5944                   25066959.6994
        33.5004         17.7504
 -14035816.14147 -10862040.44146  20912748.6334                   20912744.9384
        47.5004         38.7504
   8076441.92248   6318691.41447  21984084.7974                   21984083.1644
        48.5004         47.0004
 -18659707.08648 -14486860.88747  21329937.2894                   21329934.0044
        48.2504         45.2504
 -12555899.52047  -9737055.33245  22008774.3524                   22008771.9924
        46.5004         34.2504
 25  8  7 21 22 30.0000000  0 10G02G08G10G03G25G04G28G32G31G01
 -10806140.70747  -8372640.13346  21316865.0704                   21316859.4064
        47.5004         39.0004
  12836037.19946  10021090.85944  24989948.9064                   24989957.1884
        36.5004         25.0004
   7573202.80947   5919800.96946  22576295.2504                   22576294.8674
        45.5004         41.5004
   7777369.03946   6101786.89844  23696958.6254                   23696960.9104
        38.0004         27.5004
  16733361.88345  13071529.04744  24606001.1094                   24606002.8594
        35.5004         27.0004
  19485679.00045  15225832.62143  25033537.8834                   25033544.5234
        35.7504         18.2504
 -14141471.37948 -10944369.17646  20892643.0004                   20892639.5274
        48.0004         38.5004
   8048637.89848   6297025.92247  21978793.9614                   21978792.5784
        48.0004         47.0004
 -18831287.78948 -14620560.05547  21297286.2734                   21297283.2304
        48.0004         45.0004
 -12714583.16047  -9860704.87945  21978577.9454                   21978575.8204
        46.2504         33.5004
 25  8  7 21 23  0.0000000  0 10G02G08G10G03G25G04G28G32G31G01
 -10900909.64548  -8446486.06646  21298830.9924                   21298825.5234
        48.2504         39.2504
  12822187.77045  10010298.76644  24987313.4304                   24987321.8754
        35.5004         26.0004
   7540465.63347   5894291.41446  22570065.8364                   22570065.5124
        44.5004         41.5004
   7600785.17646   5964189.18444  23663355.3914                   23663357.5124
        38.7504         27.5004
  16608973.21545  12974602.84044  24582330.4384                   24582332.7384
        35.7504         27.7504
  19310236.17245  15089124.03142  25000151.5784                   25000158.7934
        34.5004         16.7504
 -14246498.22347 -11026208.25046  20872656.9844                   20872653.7814
        47.2504         38.7504
   8020997.03548   6275487.57447  21973534.1024                   21973532.5904
        48.7504         47.0004
 -19002394.11348 -14753889.57447  21264725.3204                   21264722.8834
        48.5004         45.0004
 -12872815.94547  -9984003.10245  21948467.3444                   21948465.1564
        46.2504         34.5004
 25  8  7 21 23 30.0000000  0 10G02G08G10G03G25G04G28G32G31G01
 -10995116.48447  -8519894.00446  21280903.9304                   21280898.4964
        46.0004         39.0004
  12808341.99245   9999509.52344  24984677.6334                   24984687.0864
        35.5004         25.5004
   7508019.19947   5869008.40246  22563891.2734                   22563891.4844
        45.0004         41.5004
   7424242.43046   5826623.48444  23629761.1254                   23629762.5514
        38.5004         28.5004
  16485052.77745  12878041.47344  24558749.4304                   24558751.4964
        35.5004         28.0004
  19134958.27745  14952543.96943  24966798.3134                   24966804.6914
        35.0004         18.2504
 -14350886.10248 -11107549.43046  20852792.7584                   20852789.6254
        48.0004         39.0004
   7993528.15248   6254083.23447  21968306.9694                   21968305.7774
        48.5004         47.0004
 -19173013.13748 -14886839.38347  21232258.0634                   21232255.4454
        48.5004         45.0004
 -13030585.25047 -10106940.17245  21918444.6724                   21918442.2894
        45.2504         34.5004
 25  8  7 21 24  0.0000000  0 10G02G08G10G03G25G04G28G32G31G01
 -11088760.55547  -8592863.42646  21263084.0474                   21263078.6844
        47.2504         38.2504
  12794497.32846   9988721.14844  24982045.0084                   24982053.1764
        36.0004         24.2504
   7475863.76647   5843952.15246  22557772.3754                   22557772.6374
        44.7504         41.7504
   7247741.71546   5689090.58645  23596173.3204                   23596175.6914
        37.7504         30.0004
  16361602.81645  12781846.73044  24535257.5704                   24535259.7464
        34.5004         28.2504
  18959845.93445  14816092.90643  24933474.7584                   24933482.1294
        34.5004         18.2504
 -14454634.57047 -11188392.36346  20833049.7734                   20833046.5784
        47.7504         38.5004
   7966230.02048   6232811.94147  21963112.0314                   21963110.9144
        48.0004         47.0004
 -19343141.74248 -15019407.04347  21199883.5864                   21199880.8404
        48.0004         45.0004
 -13187888.67247 -10229514.22345  21888510.7814                   21888508.3714
        46.0004         34.0004
 25  8  7 21 24 30.0000000  0 10G02G08G10G03G25G04G28G32G31G01
 -11181843.68747  -8665395.75046  21245370.8674                   21245365.5164
        47.0004         39.5004
  12780649.16045   9977930.00444  24979409.5944                   24979418.5314
        35.5004         25.5004
   7443997.68447   5819121.35946  22551708.6174                   22551708.3284
        44.2504         41.2504
   7071281.93446   5551589.58244  23562593.6804                   23562596.6254
        36.5004         29.5004
  16238623.67245  12686018.84844  24511855.5004                   24511857.7194
        34.0004         27.7504
  18784897.65645  14679769.66442  24900182.6884                   24900190.5164
        34.5004         16.2504
 -14557745.16847 -11268738.25846  20813428.6334                   20813425.5124
        47.2504         38.5004
   7939099.39148   6211671.18047  21957949.6174                   21957947.9884
        48.2504         47.0004
 -19512779.30948 -15151592.06647  21167602.9384                   21167599.9384
        48.5004         45.0004
 -13344725.71147 -10351724.85545  21858665.7424                   21858663.7894
        46.2504         34.2504
 25  8  7 21 25  0.0000000  0 10G02G08G10G03G25G04G28G32G31G01
 -11274363.14847  -8737488.84446  21227765.2504                   21227759.8244
        47.2504         38.2504
  12766797.14845   9967135.89543  24976773.5944                   24976782.5314
        33.0004         23.7504
   7412423.52047   5794518.03546  22545700.5554                   22545700.5274
        44.5004         41.2504
   6894866.32845   5414123.04345  23529022.9064                   23529025.8054
        35.2504         30.2504
  16116119.91445  12590561.39144  24488543.5944                   24488545.8094
        34.5004         27.5004
  18610116.59845  14543576.75442  24866923.4774                   24866930.7194
        33.7504         16.7504
 -14660215.13747 -11348584.95746  20793929.3674                   20793926.0944
        47.0004         39.0004
   7912137.38747   6190661.80947  21952818.9384                   21952817.4224
        47.7504         47.0004
 -19681920.80148 -15283390.54347  21135415.8984                   21135412.8524
        48.2504         45.2504
 -13501091.60247 -10473568.35245  21828910.3754                   21828907.9774
        46.2504         34.7504
 25  8  7 21 25 30.0000000  0 10G02G08G10G03G25G04G28G32G31G01
 -11366318.62147  -8809142.47746  21210266.7274                   21210261.1214
        47.5004         38.7504
  12752938.76245   9956336.75844  24974137.2734                   24974146.1094
        35.5004         24.5004
   7381141.57847   5770142.41846  22539747.5784                   22539747.3554
        44.5004         41.0004
   6718495.81646   5276691.63345  23495460.9454                   23495463.6564
        36.7504         32.7504
  15994093.88345  12495476.21944  24465323.0314                   24465325.5434
        35.0004         27.7504
  18435503.18445  14407514.48442  24833695.2424                   24833703.0164
        33.0004         15.5004
 -14762044.15247 -11427932.21546  20774551.7114                   20774548.3874
        47.5004         38.0004
   7885342.71948   6169782.82847  21947720.0394                   21947718.4104
        48.2504         47.0004
 -19850563.29747 -15414800.19147  21103324.1484                   21103321.0744
        47.7504         45.0004
 -13656983.99247 -10595042.88345  21799244.6414                   21799242.2274
        46.2504         34.2504
 25  8  7 21 26  0.0000000  0 10G02G08G10G03G25G04G28G32G31G01
 -11457711.58247  -8880357.78946  21192875.1094                   21192869.9804
        47.5004         38.7504
  12739069.25445   9945529.02744  24971497.9304                   24971507.4414
        35.0004         26.7504
   7350150.12147   5745993.15646  22533850.1254                   22533850.1764
        44.5004         41.0004
   6542169.48046   5139294.63745  23461906.7734                   23461909.2544
        37.2504         33.2504
  15872545.87145  12400763.49644  24442193.3914                   24442195.7814
        35.0004         28.5004
  18261055.93845  14271581.71542  24800498.4384                   24800506.6804
        32.2504         14.7504
 -14863233.84047 -11506781.29746  20755296.1094                   20755292.6724
        47.5004         38.0004
   7858712.21548   6149031.77047  21942652.1954                   21942650.6414
        48.2504         47.0004
 -20018706.31648 -15545820.64147  21071328.0164                   21071324.6844
        48.2504         45.2504
 -13812402.37947 -10716148.07445  21769669.6414                   21769667.5394
        45.7504         34.0004
 25  8  7 21 26 30.0000000  0 10G02G08G10G03G25G04G28G32G31G01
 -11548540.89847  -8951133.88746  21175590.9534                   21175585.6414
        47.2504         39.0004
  12725187.06646   9934711.41044  24968856.7274                   24968865.5204
        36.5004         25.5004
   7319450.39147   5722071.20746  22528008.2504                   22528008.5474
        43.0004         41.0004
   6365889.21546   5001933.52045  23428361.7114                   23428364.3754
        40.0004         35.0004
  15751478.98445  12306425.71144  24419154.7734                   24419156.8554
        34.5004         28.0004
  18086776.53145  14135779.76242  24767334.3834                   24767341.7624
        34.0004         16.2504
 -14963782.88347 -11585131.17646  20736162.1484                   20736158.8874
        47.5004         38.5004
   7832245.68047   6128408.47747  21937616.0004                   21937614.5274
        47.5004         47.0004
 -20186345.93748 -15676448.83247  21039426.9384                   21039423.6994
        48.7504         45.2504
 -13967343.36347 -10836881.24645  21740185.0704                   21740182.9454
        45.7504         34.0004
 25  8  7 21 27  0.0000000  0 10G02G08G10G03G25G04G28G32G31G01
 -10063385.94547  -7793870.30946  21458206.6024                   21458201.3794
        47.7504         39.2504
  14286707.64546  11151480.36744  25266003.3674                   25266013.3484
        36.7504         26.5004
   8864461.15647   6925975.62146  22822014.1254                   22822013.7424
        43.5004         40.7504
   7765079.34846   6092211.66445  23694618.7344                   23694621.0744
        39.7504         34.2504
  17206317.08645  13440065.82444  24696001.4224                   24696003.4144
        34.5004         27.0004
  19488088.66845  15227711.48842  25033995.0944                   25034002.5394
        32.7504         15.5004
 -13488270.14547 -10435380.97346  21016942.7504                   21016939.3674
        47.2504         38.5004
   9381360.24247   7335510.71547  22232402.5634                   22232401.4384
        47.0004         46.7504
 -18778056.55147 -14579080.38747  21307415.2894                   21307412.4924
        47.7504         45.2504
 -12546381.91847  -9729638.52045  22010585.4924                   22010582.9694
        46.0004         34.2504
 25  8  7 21 27 30.0000000  0 10G02G08G10G03G25G04G28G32G31G01
 -10153091.58247  -7863770.82046  21441136.2504                   21441130.6914
        47.0004         39.0004
  14272788.31346  11140633.78544  25263355.1724                   25263365.1374
        36.0004         27.0004
   8834341.54347   6902505.71146  22816282.4614                   22816282.7934
        43.0004         40.7504
   7588889.96146   5954921.33245  23661091.0394                   23661092.6564
        39.5004         33.5004
  17086215.21945  13346480.00044  24673147.5004                   24673148.8554
        35.0004         28.0004
  19314142.14545  15092168.94942  25000893.8284                   25000901.1484
        34.0004         16.2504
 -13587541.16447 -10512734.99246  20998052.2584                   20998048.8444
        47.5004         38.5004
   9355213.81348   7315136.85247  22227427.2034                   22227425.8554
        48.0004         46.7504
 -18944685.44548 -14708921.00447  21275707.3364                   21275703.8134
        48.2504         45.2504
 -12700365.07847  -9849625.34445  21981283.4694                   21981281.1374
        46.2504         34.7504
 25  8  7 21 28  0.0000000  0 10G02G08G10G03G25G04G28G32G31G01
 -10242236.58247  -7933234.46946  21424172.2504                   21424167.1054
        46.2504         39.2504
  14258844.83245  11129768.42644  25260702.2814                   25260711.8164
        35.0004         28.0004
   8804510.80147   6879260.89546  22810606.3674                   22810606.1564
        43.0004         40.5004
   7412745.84846   5817666.29345  23627571.0234                   23627573.4654
        38.5004         32.5004
  16966597.50445  13253271.40644  24650384.2424                   24650386.0004
        35.2504         27.7504
  19140361.35545  14956755.52742  24967824.7424                   24967832.3954
        33.5004         16.7504
 -13686174.32448 -10589591.97746  20979282.9924                   20979279.6334
        48.2504         38.5004
   9329224.06347   7294885.07847  22222481.6884                   22222480.0234
        46.7504         46.7504
 -19110806.69148 -14838366.04747  21244095.0164                   21244091.3284
        48.5004         45.2504
 -12853867.35247  -9969237.45745  21952073.1484                   21952070.5864
        46.2504         34.7504
 25  8  7 21 28 30.0000000  0 10G02G08G10G03G25G04G28G32G31G01
 -10330818.61747  -8002259.44546  21407316.1254                   21407310.7034
        46.5004         39.0004
  14244876.74246  11118883.84444  25258045.3594                   25258054.2344
        37.2504         28.2504
   8774971.06347   6856242.82846  22804984.5084                   22804985.0904
        44.0004         40.2504
   7236650.00846   5680448.86745  23594061.7194                   23594063.6054
        38.2504         33.0004
  16847468.11745  13160443.34444  24627714.3204                   24627716.7664
        33.7504         26.5004
  18966748.64145  14821473.07842  24934787.4924                   24934794.0864
        34.2504         16.2504
 -13784167.52747 -10665950.29746  20960635.7344                   20960632.3874
        47.7504         38.7504
   9303391.75847   7274755.98847  22217565.8754                   22217564.2854
        47.0004         46.5004
 -19276415.45348 -14967411.75047  21212580.6334                   21212577.0824
        48.2504         45.5004
 -13006884.39847 -10088471.46945  21922954.6024                   21922952.2544
        45.5004         35.0004
 25  8  7 21 29  0.0000000  0 10G02G08G10G03G25G04G28G32G31G01
 -10418834.48847  -8070843.25846  21390567.1564                   21390561.9064
        46.2504         39.0004
  14230884.38745  11107980.38344  25255381.1254                   25255391.9804
        35.5004         28.0004
   8745725.57447   6833454.05546  22799419.6094                   22799419.6954
        42.7504         40.0004
   7060606.35546   5543272.12945  23560561.8754                   23560563.7704
        39.0004         35.7504
  16728832.14545  13067999.75844  24605139.1724                   24605140.8204
        33.5004         28.0004
  18793307.69945  14686324.50842  24901782.6564                   24901789.3244
        34.5004         16.7504
 -13881517.54348 -10741807.43046  20942110.2814                   20942107.0354
        48.0004         38.7504
   9277718.68047   7254750.97347  22212680.4454                   22212679.0984
        47.5004         46.5004
 -19441506.15648 -15096053.77347  21181164.7974                   21181161.6294
        48.5004         45.2504
 -13159410.88347 -10207323.22745  21893929.5864                   21893927.1094
        46.2504         34.5004
 25  8  7 21 29 30.0000000  0 10G02G08G10G03G25G04G28G32G31G01
 -10506290.57047  -8138990.87946  21373924.7664                   21373919.5394
        46.7504         39.2504
  14216858.88346  11097051.07444  25252713.1724                   25252723.0164
        36.5004         27.2504
   8716768.30147   6810889.86746  22793909.4144                   22793909.5784
        42.7504         40.2504
   6884609.63746   5406131.96146  23527070.8284                   23527072.7584
        40.2504         36.7504
  16610685.38745  12975937.39144  24582656.0944                   24582658.3014
        33.5004         27.5004
  18620032.66445  14551305.18442  24868809.8444                   24868816.3794
        34.7504         17.7504
 -13978230.55947 -10817168.19546  20923706.1954                   20923702.9264
        46.5004         38.0004
   9252197.34447   7234864.19147  22207823.5704                   22207822.3134
        47.2504         46.2504
 -19606082.64148 -15224295.10947  21149846.9064                   21149843.5984
        48.7504         45.5004
 -13311450.73847 -10325795.79345  21864997.3444                   21864995.0164
        45.7504         34.7504
 25  8  7 21 30  0.0000000  0 10G02G08G10G03G25G04G28G32G31G01
 -10593182.59047  -8206698.96946  21357389.6954                   21357384.3524
        47.0004         39.2504
  14202801.53146  11086097.01244  25250038.3834                   25250048.2194
        37.0004         28.0004
   8688103.29747   6788553.41846  22788454.6954                   22788455.1174
        42.5004         40.0004
   6708664.85946   5269032.25846  23493589.7274                   23493591.3674
        41.0004         37.0004
  16493034.04345  12884261.05144  24560268.9304                   24560270.0004
        34.5004         27.2504
  18446927.79745  14416418.50842  24835868.0784                   24835875.2664
        34.5004         16.2504
 -14074302.43448 -10892029.37146  20905424.6564                   20905421.2424
        48.0004         39.2504
   9226830.56347   7215097.84847  22202996.8284                   22202995.1484
        46.7504         46.2504
 -19770138.12548 -15352130.47347  21118628.0554                   21118624.5514
        48.7504         45.7504
 -13462997.69947 -10443884.28145  21836158.7584                   21836156.4414
        45.7504         35.5004
 25  8  7 21 30 30.0000000  0 10G02G08G10G03G25G04G28G32G31G01
 -10679510.80548  -8273967.73046  21340961.9384                   21340957.1094
        48.0004         38.7504
  14188709.47746  11075115.85944  25247357.5164                   25247367.0704
        37.2504         28.2504
   8659730.40647   6766444.57846  22783055.4064                   22783055.6334
        43.5004         40.2504
   6532772.56646   5131973.44946  23460117.9774                   23460120.1294
        41.0004         37.7504
  16375879.70345  12792971.98844  24537974.4534                   24537976.1454
        33.5004         26.7504
  18273993.40645  14281664.57842  24802959.5234                   24802966.5124
        33.5004         17.2504
 -14169733.50047 -10966391.21946  20887264.6174                   20887261.4654
        47.2504         38.5004
   9201616.75847   7195450.71147  22198198.4224                   22198196.7624
        47.7504         46.0004
 -19933670.38748 -15479558.12947  21087508.8364                   21087505.6414
        48.7504         45.7504
 -13614049.88747 -10561587.23045  21807414.4384                   21807412.1884
        45.2504         35.0004
 25  8  7 21 31  0.0000000  0 10G02G08G10G03G25G04G28G32G31G01
 -10765276.81247  -8340798.40646  21324641.1334                   21324635.7624
        46.7504         39.5004
  14174578.37546  11064104.29344  25244668.6414                   25244678.2074
        37.0004         27.7504
   8631648.09047   6744562.16846  22777711.7974                   22777711.8134
        43.5004         40.0004
   6356931.97746   4994954.92246  23426656.4144                   23426658.9694
        40.0004         36.0004
  16259222.75045  12702070.55944  24515774.7504                   24515777.5514
        32.7504         25.5004
  18101228.12545  14147042.53942  24770083.3594                   24770090.0124
        34.5004         17.2504
 -14264525.44947 -11040255.04346  20869225.9694                   20869223.0944
        47.5004         38.2504
   9176552.96547   7175920.46547  22193429.1024                   22193427.7504
        47.7504         46.0004
 -20096678.64148 -15606577.46947  21056489.3204                   21056486.1134
        48.5004         45.7504
 -13764606.73847 -10678904.20745  21778764.5164                   21778761.7274
        45.0004         35.0004
 25  8  7 21 31 30.0000000  0 10G02G08G10G03G25G04G28G32G31G01
 -10850481.95748  -8407192.05146  21308427.3594                   21308421.9884
        48.0004         38.5004
  14160404.52046  11053059.44944  25241971.8054                   25241981.3594
        36.0004         27.7504
   8603855.34447   6722905.40246  22772423.3364                   22772423.0204
        43.2504         40.0004
   6181143.05946   4857976.68045  23393204.9844                   23393206.7934
        39.2504         34.2504
  16143064.00845  12611557.33244  24493671.1254                   24493672.7424
        32.7504         25.2504
  17928631.30545  14012551.70342  24737239.1254                   24737246.1134
        34.5004         16.7504
 -14358679.36747 -11113621.70346  20851309.3524                   20851305.9104
        46.0004         38.2504
   9151636.92647   7156505.35547  22188687.8134                   22188686.4104
        47.5004         46.0004
 -20259161.46948 -15733187.39147  21025569.8914                   21025566.3714
        49.0004         46.0004
 -13914667.13347 -10795834.33245  21750208.7974                   21750206.2504
        46.0004         35.2504
 25  8  7 21 32  0.0000000  0 10G02G08G10G03G25G04G28G32G31G01
 -10935123.32447  -8473146.37946  21292320.8134                   21292315.1684
        47.5004         39.0004
  14146188.16446  11041981.43044  25239267.3284                   25239276.6294
        38.0004         28.0004
   8576355.12947   6701476.57846  22767189.8984                   22767190.3754
        43.2504         39.5004
   6005409.67246   4721041.69945  23359763.7664                   23359765.5824
        38.7504         33.0004
  16027408.39145  12521436.16444  24471662.7274                   24471664.2114
        32.0004         26.5004
  17756206.16845  13878194.60542  24704427.6564                   24704433.8714
        34.0004         16.7504
 -14452192.41447 -11186488.98446  20833514.5084                   20833511.2234
        47.5004         38.5004
   9126870.29748   7137206.65647  22183975.0634                   22183973.5784
        48.5004         45.7504
 -20421113.63348 -15859383.80547  20994751.8594                   20994748.4964
        48.7504         46.0004
 -14064225.91847 -10912373.59845  21721748.7584                   21721746.2424
        45.7504         35.5004
 25  8  7 21 32 30.0000000  0 10G02G08G10G03G25G04G28G32G31G01
 -11019203.20748  -8538663.19946  21276320.6254                   21276315.1994
        48.0004         39.0004
  14131924.29746  11030866.47344  25236551.7504                   25236562.6564
        37.5004         28.2504
   8549145.15247   6680273.91046  22762011.8524                   22762012.5314
        43.7504         40.5004
   5829730.29346   4584148.79745  23326332.5554                   23326334.6884
        39.0004         33.2504
  15912255.45345  12431706.66444  24449749.8834                   24449750.8364
        32.2504         25.2504
  17583950.99245  13743970.07843  24671648.0474                   24671654.5004
        35.5004         18.2504
 -14545067.06247 -11258858.81246  20815840.8594                   20815837.3164
        46.5004         38.7504
   9102249.42247   7118021.53547  22179289.7504                   22179288.3204
        47.5004         45.7504
 -20582535.04748 -15985166.65247  20964033.7274                   20964030.4534
        49.0004         46.0004
 -14213283.37147 -11028522.22345  21693383.8054                   21693381.5554
        45.5004         35.0004
 25  8  7 21 33  0.0000000  0 10G02G08G10G03G25G04G28G32G31G01
 -11102721.00447  -8603742.02346  21260427.9694                   21260422.6414
        47.0004         39.7504
  14117610.99646  11019713.03944  25233827.4384                   25233839.4064
        37.5004         29.5004
   8522226.15247   6659297.98846  22756889.4614                   22756890.1094
        43.0004         40.0004
   5654106.66846   4447299.33645  23292913.5634                   23292914.9774
        39.0004         34.5004
  15797607.52345  12342370.70344  24427932.7504                   24427933.8324
        33.2504         26.5004
  17411866.47745  13609878.41042  24638901.3524                   24638908.1054
        35.0004         16.7504
 -14637302.83247 -11330730.81646  20798289.0004                   20798285.6054
        46.5004         39.0004
   9077773.76247   7098949.56347  22174632.5164                   22174630.6094
        46.5004         45.5004
 -20743422.63348 -16110533.53147  20933417.9064                   20933414.2704
        49.0004         46.0004
 -14361836.64547 -11144277.97745  21665115.0784                   21665113.0044
        45.2504         35.0004
 25  8  7 21 33 30.0000000  0 10G02G08G10G03G25G04G28G32G31G01
 -11185678.48847  -8668384.24246  21244641.6484                   21244635.9454
        47.7504         39.0004
  14103244.32846  11008517.85244  25231095.9924                   25231105.5784
        39.7504         28.5004
   8495596.86747   6638547.81646  22751822.2664                   22751822.7504
        43.5004         40.2504
   5478538.48846   4310493.07446  23259503.8524                   23259505.0514
        39.5004         36.0004
  15683465.48445  12253428.93044  24406212.1254                   24406213.9534
        33.2504         27.0004
  17239951.70746  13475919.03943  24606187.7734                   24606193.0664
        36.5004         19.2504
 -14728901.07847 -11402106.05146  20780857.8444                   20780854.9924
        46.2504         38.7504
   9053440.84047   7079988.82447  22170001.6564                   22170000.2504
        46.5004         45.5004
 -20903775.09848 -16235483.43047  20902903.7424                   20902900.3134
        49.0004         46.2504
 -14509884.83647 -11259640.16045  21636942.2664                   21636939.8164
        44.5004         35.0004
 25  8  7 21 34  0.0000000  0 10G02G08G10G03G25G04G28G32G31G01
 -11268069.66047  -8732585.17646  21228963.0084                   21228957.7194
        47.5004         39.0004
  14088827.53546  10997283.82444  25228350.6644                   25228362.5204
        37.2504         29.0004
   8469263.24647   6618028.02746  22746811.2814                   22746811.6254
        44.2504         40.5004
   5303032.40646   4173735.22345  23226105.8054                   23226107.1724
        39.5004         35.5004
  15569836.97345  12164887.34844  24384589.2974                   24384590.7344
        33.7504         26.5004
  17068212.97346  13342096.80143  24573505.6414                   24573512.0944
        37.5004         18.2504
 -14819856.17247 -11472980.12946  20763550.1254                   20763546.7934
        46.0004         38.5004
   9029255.22747   7061142.86347  22165399.7814                   22165397.9734
        46.5004         45.2504
 -21063584.32848 -16360010.02747  20872493.0864                   20872489.5554
        49.0004         46.5004
 -14657419.96147 -11374602.55145  21608867.3914                   21608864.7584
        45.0004         35.0004
 25  8  7 21 34 30.0000000  0 10G02G08G10G03G25G04G28G32G31G01
 -11349898.34447  -8796347.80146  21213392.1024                   21213386.6214
        47.2504         39.0004
  14074354.32846  10986005.65645  25225597.4614                   25225608.3364
        38.7504         30.5004
   8443221.55147   6597735.70746  22741855.8834                   22741856.3204
        44.5004         40.2504
   5127585.85946   4037023.77045  23192719.3754                   23192720.4654
        39.0004         34.5004
  15456719.98045  12076744.30144  24363063.4844                   24363065.5274
        33.5004         25.7504
  16896646.77346  13208408.98843  24540858.6954                   24540863.8874
        38.2504         20.0004
 -14910172.03147 -11543356.09846  20746363.6884                   20746360.3094
        47.5004         38.7504
   9005212.03947   7042407.87947  22160824.4454                   22160822.9224
        47.0004         45.2504
 -21222851.69148 -16484114.39547  20842185.5234                   20842182.0124
        48.7504         46.5004
 -14804443.68447 -11489166.43745  21580889.8134                   21580887.2274
        45.2504         35.2504
 25  8  7 21 35  0.0000000  0 10G02G08G10G03G25G04G28G32G31G01
 -11431162.78947  -8859670.76646  21197927.7274                   21197922.0784
        47.2504         39.0004
  14059823.82446  10974682.93444  25222833.3754                   25222844.0274
        37.7504         26.7504
   8417473.72347   6577672.36746  22736955.9614                   22736956.4494
        44.2504         39.7504
   4952201.73446   3900360.97345  23159344.0704                   23159345.9454
        38.7504         34.0004
  15344118.30145  11989002.80944  24341636.2664                   24341637.8244
        34.2504         26.7504
  16725255.55546  13074857.53143  24508242.7974                   24508249.3554
        38.0004         19.5004
 -14999846.98047 -11613232.66046  20729298.8204                   20729295.3874
        46.0004         38.7504
   8981312.00047   7023784.43847  22156275.9614                   22156275.0634
        46.2504         44.7504
 -21381572.74648 -16607793.07047  20811981.6954                   20811978.5474
        48.7504         46.5004
 -14950951.95747 -11603328.68445  21553009.7814                   21553007.6524
        45.0004         35.2504
 25  8  7 21 35 30.0000000  0  9G02G10G03G25G04G28G32G31G01
 -11511870.45347  -8922559.86746  21182569.3524                   21182564.3484
        47.5004         38.7504
   8392012.58647   6557832.43446  22732111.3284                   22732111.7504
        45.0004         40.0004
   4776873.73046   3763741.87545  23125980.5084                   23125982.0634
        39.7504         33.5004
  15232026.59445  11901658.67644  24320305.6954                   24320306.9694
        35.5004         26.7504
  16554032.30146  12941436.96543  24475660.3914                   24475666.6374
        37.7504         20.0004
 -15088888.51647 -11682615.65646  20712355.0004                   20712351.5514
        46.7504         38.5004
   8957546.66847   7005265.96147  22151754.1334                   22151752.4654
        47.2504         45.0004
 -21539752.53548 -16731049.98447  20781881.2894                   20781877.5434
        49.0004         46.5004
 -15096949.91047 -11717093.27345  21525227.5314                   21525225.0314
        45.0004         35.0004
 25  8  7 21 36  0.0000000  0  9G02G10G03G25G04G28G32G31G01
 -10016596.57448  -7757411.39846  21467110.6564                   21467105.2384
        48.5004         39.5004
   9942261.52047   7765818.52046  23027113.7894                   23027114.3754
        44.0004         39.7504
   6177031.34846   4854773.89845  23392421.7274                   23392422.9264
        40.0004         33.5004
  16695872.73445  13042318.07844  24598866.4844                   24598867.9384
        34.7504         28.2504
  17958405.61346  14035753.96943  24742903.7664                   24742910.0004
        37.5004         18.2504
 -13601871.41447 -10523901.01246  20995325.0474                   20995321.7464
        46.2504         38.5004
  10509338.12947   8214454.08647  22447049.8674                   22447048.3594
        46.0004         44.7504
 -20121961.08648 -15626277.35547  21051678.2034                   21051674.5124
        48.7504         46.7504
 -13667008.05547 -10602852.81245  21797336.4064                   21797333.8524
        45.0004         35.7504
 25  8  7 21 36 30.0000000  0  9G02G10G03G25G04G28G32G31G01
 -10096181.57848  -7819425.71146  21451966.2424                   21451960.8634
        48.0004         39.2504
   9917383.86347   7746433.23846  23022380.1414                   23022380.4024
        44.2504         39.5004
   6001828.84446   4718252.58245  23359081.6954                   23359083.1764
        40.0004         33.7504
  16584816.13745  12955780.53544  24577732.3914                   24577734.2854
        35.2504         28.0004
  17787529.44546  13902603.83643  24710387.1954                   24710393.5744
        36.7504         19.0004
 -13689636.84047 -10592289.63346  20978623.6804                   20978620.1564
        45.0004         39.2504
  10485848.75047   8196150.64147  22442580.2584                   22442578.4574
        47.0004         44.7504
 -20279041.46148 -15748677.57447  21021786.5474                   21021782.8014
        48.5004         46.7504
 -13811969.01647 -10715809.35945  21769751.0864                   21769748.8674
        44.5004         35.5004
 25  8  7 21 37  0.0000000  0  9G02G10G03G25G04G28G32G31G01
 -10175205.85547  -7881003.07446  21436928.4224                   21436922.9654
        47.5004         39.5004
   9892797.54347   7727274.96946  23017701.7034                   23017701.8914
        43.5004         39.7504
   5826690.19146   4581781.02745  23325753.5704                   23325755.2584
        40.0004         34.5004
  16474279.30945  12869648.00444  24556698.8134                   24556700.1334
        33.7504         28.2504
  17616826.78546  13769588.89143  24677903.4454                   24677909.5904
        37.5004         18.5004
 -13776765.16047 -10660181.81246  20962043.8444                   20962040.1174
        46.5004         39.5004
  10462495.14847   8177952.99647  22438136.3444                   22438134.7894
        46.5004         44.7504
 -20435568.95748 -15870646.98447  20992000.3364                   20991996.9104
        49.0004         47.0004
 -13956408.85247 -10828359.83646  21742265.2504                   21742262.4384
        45.5004         36.0004
 25  8  7 21 37 30.0000000  0  9G02G10G03G25G04G28G32G31G01
 -10253674.59848  -7942147.56246  21421996.1954                   21421990.6914
        48.2504         39.2504
   9868497.71547   7708339.93446  23013077.2894                   23013077.9774
        44.2504         39.5004
   5651611.69646   4445356.35945  23292437.3984                   23292438.6604
        39.5004         34.7504
  16364259.14545  12783918.04344  24535762.1954                   24535763.8674
        35.5004         27.7504
  17446293.31646  13636705.82442  24645451.5474                   24645457.4574
        36.2504         17.7504
 -13863261.55547 -10727581.59046  20945583.7664                   20945580.8674
        45.0004         39.2504
  10439271.37147   8159856.51647  22433716.7274                   22433715.1454
        47.7504         44.5004
 -20591546.30548 -15992187.70347  20962318.5864                   20962314.8914
        48.5004         46.7504
 -14100330.28947 -10940506.37146  21714877.8444                   21714875.6684
        45.0004         36.0004
 25  8  7 21 38  0.0000000  0 10G02G26G10G03G25G04G28G32G31G01
 -10331594.23048  -8002864.17246  21407168.4614                   21407163.2734
        48.5004         39.2504
  23312767.46955  18218419.47343  25202828.1724                   25202838.2544
        33.5004         18.5004
   9844478.30147   7689623.40246  23008506.5704                   23008507.1564
        43.7504         39.0004
   5476588.27046   4308974.59845  23259131.4774                   23259132.8554
        40.0004         34.7504
  16254751.41445  12698587.38344  24514923.5004                   24514925.7504
        35.0004         27.5004
  17275923.16046  13503950.00043  24613030.5634                   24613037.2034
        36.5004         19.2504
 -13949132.42247 -10794493.93446  20929243.2664                   20929239.6414
        45.7504         38.5004
  10416170.27347   8141855.62947  22429320.9064                   22429319.4654
        46.5004         44.7504
 -20746977.06648 -16113302.51247  20932740.8054                   20932737.4694
        49.0004         47.0004
 -14243737.37947 -11052252.11746  21687588.4694                   21687586.1764
        46.2504         36.0004
 25  8  7 21 38 30.0000000  0 10G02G26G10G03G25G04G28G32G31G01
 -10408960.30548  -8063149.44546  21392446.2814                   21392441.1054
        48.5004         39.0004
  23137594.95345  18081921.60943  25169493.9694                   25169503.4264
        34.2504         19.7504
   9820743.98447   7671129.03546  23003990.3834                   23003990.6844
        43.5004         39.0004
   5301625.70746   4172640.25845  23225837.0004                   23225838.0634
        40.0004         33.7504
  16145762.33245  12613660.85944  24494183.0394                   24494185.0984
        35.2504         26.7504
  17105721.34446  13371325.38343  24580643.4064                   24580648.5594
        37.7504         19.5004
 -14034373.51247 -10860915.55946  20913022.5474                   20913018.5434
        45.7504         38.5004
  10393195.32047   8123953.03947  22424948.7504                   22424947.5904
        46.5004         44.7504
 -20901854.59448 -16233986.22347  20903268.8524                   20903265.3094
        48.5004         47.0004
 -14386623.44147 -11163591.87145  21660398.1724                   21660395.6294
        45.7504         35.7504
 25  8  7 21 39  0.0000000  0 10G02G26G10G03G25G04G28G32G31G01
 -10485777.09448  -8123006.69946  21377828.4694                   21377823.1024
        48.5004         39.0004
  22962315.35545  17945340.28143  25136139.9844                   25136149.0084
        35.5004         21.7504
   9797290.85247   7652853.76246  22999527.2664                   22999528.1054
        43.5004         39.2504
   5126721.15246   4036351.09445  23192553.6414                   23192555.3484
        39.7504         34.2504
  16037289.80946  12529136.85544  24473542.1484                   24473543.5314
        36.5004         28.2504
  16935684.30546  13238829.16043  24548285.0944                   24548291.3014
        36.2504         20.7504
 -14118989.07847 -10926849.75446  20896920.6564                   20896917.2274
        45.0004         38.7504
  10370341.53547   8106144.86747  22420599.9844                   22420598.5944
        47.5004         44.7504
 -21056180.36348 -16354239.99647  20873901.6564                   20873898.1374
        48.7504         46.7504
 -14528990.25847 -11274527.02045  21633306.5704                   21633304.1254
        45.7504         35.5004
 25  8  7 21 39 30.0000000  0 10G02G26G10G03G25G04G28G32G31G01
 -10562043.37547  -8182434.98046  21363315.9144                   21363310.5434
        47.7504         39.5004
  22786932.75046  17808678.63743  25102765.1024                   25102774.0124
        36.5004         20.7504
   9774120.52747   7634798.86346  22995118.3364                   22995118.9454
        43.5004         38.7504
   4951877.38446   3900109.31645  23159282.0164                   23159283.1414
        40.2504         35.2504
  15929337.11746  12445017.90244  24452999.1804                   24453000.8484
        37.2504         27.7504
  16765813.96546  13106462.82443  24515959.8914                   24515966.0124
        36.5004         19.2504
 -14202977.95347 -10992295.61746  20880937.9774                   20880934.5474
        46.0004         39.0004
  10347609.42247   8088431.50447  22416274.1334                   22416272.6644
        47.5004         44.5004
 -21209950.72348 -16474060.99647  20844640.0394                   20844636.6254
        48.0004         47.0004
 -14670834.25047 -11385054.77345  21606314.4844                   21606311.8914
        45.5004         35.5004
 25  8  7 21 40  0.0000000  0 10G02G26G10G03G25G04G28G32G31G01
 -10637760.77048  -8241435.56646  21348906.9924                   21348901.5514
        48.5004         38.5004
  22611448.41046  17671937.71543  25069370.9454                   25069380.5944
        37.5004         21.5004
   9751231.74647   7616963.34046  22990762.5474                   22990763.2934
        43.2504         39.2504
   4777094.36346   3763914.87145  23126021.8524                   23126023.5204
        39.5004         35.0004
  15821904.64545  12361304.32044  24432555.9304                   24432557.2934
        35.7504         26.7504
  16596109.36746  12974225.66043  24483666.3754                   24483672.8094
        37.0004         18.2504
 -14286341.88347 -11057254.51646  20865074.7034                   20865071.1994
        45.7504         39.5004
  10324996.66047   8070811.14147  22411971.2974                   22411969.8244
        47.0004         44.5004
 -21363164.46148 -16593448.24647  20815484.1334                   20815480.6094
        48.0004         47.0004
 -14812154.67647 -11495174.55145  21579421.6724                   21579419.6764
        45.5004         35.5004
 25  8  7 21 40 30.0000000  0 10G02G26G10G03G25G04G28G32G31G01
 -10712926.43448  -8300006.23046  21334603.5474                   21334597.8634
        48.5004         39.0004
  22435867.93446  17535121.95344  25035959.2894                   25035968.5124
        37.0004         24.7504
   9728627.42247   7599349.48046  22986461.3834                   22986462.0004
        43.0004         39.2504
   4602376.05946   3627770.87546  23092773.7114                   23092775.1804
        39.5004         36.2504
  15714996.96545  12277999.69944  24412211.7504                   24412213.0084
        35.2504         28.5004
  16426573.85246  12842120.27343  24451404.3204                   24451410.3794
        36.7504         18.5004
 -14369078.29747 -11121724.43446  20849330.5864                   20849326.8714
        45.7504         38.7504
  10302505.16047   8053285.26647  22407691.0554                   22407689.8634
        47.2504         45.0004
 -21515816.77048 -16712398.02347  20786435.0944                   20786431.7274
        48.5004         47.0004
 -14952946.52047 -11604882.43445  21552630.1484                   21552627.6564
        45.2504         35.7504
 25  8  7 21 41  0.0000000  0 10G02G26G10G03G25G04G28G32G31G01
 -10787543.46548  -8358149.38346  21320404.3914                   21320398.7894
        49.0004         38.7504
  22260191.35546  17398231.30544  25002528.9064                   25002538.9264
        37.0004         24.0004
   9706305.07047   7581955.33246  22982213.8134                   22982214.1254
        42.7504         38.7504
   4427721.17246   3491676.27746  23059537.7194                   23059539.7154
        40.0004         36.0004
  15608613.22746  12195103.37544  24391966.9774                   24391968.6684
        36.5004         28.2504
  16257205.20746  12710144.90643  24419174.5944                   24419179.7464
        37.0004         18.5004
 -14451190.23447 -11185707.75046  20833705.0704                   20833701.7854
        46.5004         38.7504
  10280131.33247   8035851.09447  22403433.6024                   22403432.3594
        47.0004         45.0004
 -21667907.69948 -16830910.36747  20757493.4224                   20757490.0984
        48.2504         47.0004
 -15093210.32847 -11714178.85246  21525939.0164                   21525936.3204
        45.2504         36.0004
 25  8  7 21 41 30.0000000  0 10G02G26G10G03G25G04G28G32G31G01
 -10861614.90648  -8415867.40646  21306309.3054                   21306303.6844
        48.2504         38.7504
  22084418.53946  17261265.68444  24969080.3444                   24969090.6454
        37.5004         24.7504
   9684261.94947   7564778.76646  22978019.1414                   22978019.6484
        43.0004         38.7504
   4253128.18846   3355629.90646  23026314.5394                   23026315.4224
        40.5004         36.5004
  15502752.32045  12112614.44144  24371822.3984                   24371823.5164
        35.0004         27.7504
  16088000.93846  12578297.62143  24386976.2974                   24386981.3554
        36.2504         18.2504
 -14532680.87547 -11249206.93446  20818197.6564                   20818194.0664
        45.5004         39.0004
  10257871.43447   8018505.68447  22399197.9224                   22399196.6564
        46.5004         45.0004
 -21819437.88747 -16948985.77347  20728658.3834                   20728654.6174
        47.7504         47.2504
 -15232946.80147 -11823064.37946  21499347.6484                   21499344.9694
        46.0004         36.0004
 25  8  7 21 42  0.0000000  0 10G02G26G10G03G25G04G28G32G31G01
 -10935135.03948  -8473155.84446  21292318.6174                   21292313.0664
        48.5004         39.0004
  21908558.22746  17124231.88344  24935615.4614                   24935624.5594
        37.0004         26.2504
   9662504.11747   7547824.50446  22973878.6484                   22973879.4494
        42.5004         38.2504
   4078604.32446   3219637.37146  22993103.1564                   22993104.0004
        41.2504         36.2504
  15397421.87946  12030538.83244  24351778.2194                   24351780.3284
        36.0004         27.5004
  15918967.50046  12446583.46142  24354809.8284                   24354815.4144
        36.0004         17.2504
 -14613544.74647 -11312217.72346  20802810.1094                   20802806.2034
        46.0004         39.0004
  10235730.48847   8001252.98047  22394984.4924                   22394983.5784
        47.0004         44.7504
 -21970399.09447 -17066617.81247  20699930.9454                   20699927.6724
        47.7504         47.2504
 -15372147.96147 -11931532.77345  21472858.7814                   21472856.4384
        45.5004         35.7504
 25  8  7 21 42 30.0000000  0 10G02G26G10G03G25G04G28G32G31G01
 -11008105.76648  -8530016.17246  21278432.8674                   21278427.6174
        48.2504         39.0004
  21732611.76646  16987130.95744  24902133.7584                   24902143.0234
        38.0004         26.7504
   9641030.39147   7531091.62146  22969792.7814                   22969793.2894
        42.7504         38.0004
   3904149.66846   3083698.77346  22959904.7974                   22959906.6294
        41.0004         36.5004
  15292622.39145  11948876.95344  24331836.2274                   24331837.6134
        34.2504         27.0004
  15750104.09846  12315001.77042  24322675.9224                   24322681.4104
        36.2504         17.7504
 -14693783.48847 -11374741.39846  20787541.2034                   20787537.5514
        46.2504         38.7504
  10213706.33247   7984091.27347  22390792.9064                   22390792.0314
        47.0004         44.7504
 -22120790.25847 -17183805.66447  20671312.1884                   20671309.3554
        47.7504         47.2504
 -15510812.94947 -12039583.36345  21446471.6484                   21446468.9654
        45.7504         35.5004
 25  8  7 21 43  0.0000000  0 10G02G26G10G03G25G04G28G32G31G01
 -11080529.18448  -8586450.03146  21264651.0394                   21264645.4614
        48.5004         39.0004
  21556579.94146  16849963.47744  24868635.1414                   24868645.0634
        37.2504         26.7504
   9619838.84047   7514578.61346  22965759.9614                   22965760.4494
        43.5004         38.2504
   3729763.51646   2947813.55946  22926720.4694                   22926722.3134
        40.7504         36.5004
  15188353.41845  11867628.47344  24311994.5704                   24311996.2304
        35.0004         26.5004
  15581409.07046  12183551.32042  24290574.6954                   24290579.5944
        36.0004         17.7504
 -14773399.61747 -11436779.91446  20772390.3364                   20772386.7774
        46.2504         39.2504
  10191796.06347   7967018.30547  22386623.8754                   22386622.8954
        47.2504         44.7504
 -22270611.24247 -17300549.22747  20642802.3524                   20642798.7344
        47.7504         47.0004
 -15648941.74247 -12147216.15246  21420186.4844                   21420184.1454
        47.0004         36.0004
 25  8  7 21 43 30.0000000  0 10G02G26G10G03G25G04G28G32G31G01
 -11152403.71548  -8642456.18446  21250974.0004                   21250968.5004
        49.0004         38.7504
  21380467.35246  16712733.13744  24835121.6884                   24835131.5864
        37.5004         27.5004
   9598931.31347   7498286.91846  22961781.7734                   22961782.7194
        42.2504         38.0004
   3555449.02346   2811984.18846  22893549.9844                   22893550.8714
        41.0004         37.0004
  15084618.52045  11786796.13744  24292254.1254                   24292255.3444
        35.7504         26.2504
  15412884.64846  12052233.80943  24258505.6804                   24258510.5234
        36.5004         19.0004
 -14852391.77347 -11498332.22746  20757359.1254                   20757355.0234
        47.0004         38.7504
  10170000.56647   7950034.77347  22382476.6724                   22382475.4264
        47.5004         44.7504
 -22419858.01648 -17416845.34447  20614401.4064                   20614398.1174
        49.0004         47.2504
 -15786530.47747 -12254428.11345  21394004.2194                   21394001.6254
        46.5004         35.5004
 25  8  7 21 44  0.0000000  0 10G02G26G10G03G25G04G28G32G31G01
 -11223730.19148  -8698035.28546  21237401.0084                   21237395.9384
        48.7504         39.0004
  21204276.43446  16575441.71544  24801594.2974                   24801603.5824
        37.7504         29.5004
   9578307.71547   7482216.45746  22957856.7734                   22957857.8874
        42.2504         38.2504
   3381207.36346   2676211.56646  22860392.3134                   22860393.9024
        41.0004         37.2504
  14981418.98445  11706381.00044  24272616.5234                   24272616.9964
        35.5004         27.5004
  15244531.06645  11921049.38743  24226468.0554                   24226473.6644
        35.5004         18.2504
 -14930760.69947 -11559398.89546  20742445.3364                   20742441.7304
        46.5004         39.0004
  10148318.80947   7933139.86747  22378350.6724                   22378349.2664
        47.2504         44.5004
 -22568528.64547 -17532692.52347  20586110.8134                   20586106.5704
        47.7504         47.2504
 -15923577.34047 -12361217.84446  21367925.1024                   21367922.2034
        47.0004         36.2504
 25  8  7 21 44 30.0000000  0 10G02G26G10G03G25G04G28G32G31G01
 -11294511.77748  -8753189.80146  21223931.9144                   21223926.4304
        48.0004         39.0004
  21028007.26646  16438089.39544  24768049.8674                   24768060.6844
        36.7504         27.2504
   9557965.20746   7466365.03946  22953986.0704                   22953987.0044
        41.7504         38.0004
   3207037.03946   2540494.53146  22827249.4694                   22827250.1994
        41.2504         37.2504
  14878753.66845  11626382.11744  24253079.6644                   24253080.8284
        35.5004         27.5004
  15076345.86745  11789996.20743  24194463.8204                   24194468.8594
        35.0004         18.5004
 -15008509.76247 -11619982.55546  20727650.1884                   20727647.1484
        46.5004         38.2504
  10126747.02347   7916330.65647  22374245.7274                   22374244.9734
        47.0004         44.5004
 -22716623.60948 -17648091.13347  20557929.2424                   20557925.4534
        48.5004         47.2504
 -16060083.16847 -12467585.98846  21341948.6564                   21341946.2894
        46.5004         36.0004
 25  8  7 21 45  0.0000000  0 10G02G26G10G03G25G04G28G32G31G01
  -9789326.39148  -7580318.09446  21510358.9454                   21510353.4344
        48.0004         39.0004
  22427088.80546  17528283.02744  25034287.0004                   25034296.5234
        37.7504         26.5004
  11113324.93046   8678333.53546  23249961.2194                   23249961.9924
        41.5004         39.2504
   4608365.51246   3632438.89146  23093913.1254                   23093914.2194
        40.7504         36.7504
  16352047.89546  12774403.64144  24533437.7274                   24533439.1604
        36.2504         26.7504
  16483755.45345  12886679.22343  24462284.7734                   24462289.5124
        34.7504         18.2504
 -13510216.57047 -10452481.34046  21012766.0704                   21012762.4454
        47.2504         38.5004
  11680705.45747   9127207.32447  22669954.5554                   22669953.5634
        46.5004         44.2504
 -21288715.67248 -16535435.53947  20829651.0634                   20829647.0434
        48.2504         47.5004
 -14620621.05547 -11345927.16045  21615869.2894                   21615866.7464
        47.0004         35.5004
 25  8  7 21 45 30.0000000  0 10G02G26G10G03G25G04G28G32G31G01
  -9859013.74248  -7634619.96146  21497098.0704                   21497092.5314
        48.5004         38.7504
  22250677.20346  17390819.66444  25000717.3054                   25000725.8054
        38.0004         28.5004
  11093550.64147   8662924.88346  23246198.6954                   23246199.2074
        43.0004         38.5004
   4434347.77046   3496840.76646  23060798.1644                   23060799.4964
        40.7504         38.0004
  16250461.51645  12695245.45744  24514106.6484                   24514108.3594
        35.5004         27.5004
  16315914.18045  12755894.02043  24430345.2894                   24430350.1094
        34.5004         19.0004
 -13586721.73047 -10512095.73446  20998207.2974                   20998203.7664
        47.0004         38.5004
  11659356.94547   9110572.09047  22665891.5784                   22665890.2934
        47.0004         44.0004
 -21435647.54747 -16649927.84847  20801690.5704                   20801686.8444
        47.5004         47.2504
 -14756032.97347 -11451442.90246  21590101.1564                   21590098.6884
        46.7504         36.0004
 25  8  7 21 46  0.0000000  0 10G02G26G10G03G25G04G28G32G31G01
  -9928161.58248  -7688501.43046  21483939.4534                   21483934.2344
        48.5004         38.7504
  22074191.65246  17253298.66044  24967133.1484                   24967142.1524
        37.0004         29.0004
  11074053.62147   8647732.27746  23242488.4924                   23242489.3754
        43.0004         38.5004
   4260401.49246   3361298.31346  23027697.8674                   23027698.5904
        40.0004         38.0004
  16149410.00846  12616504.06644  24494877.0554                   24494878.3984
        36.0004         27.5004
  16148238.58645  12625237.95743  24398437.5234                   24398442.5394
        34.7504         19.2504
 -13662612.78548 -10571231.59846  20983765.5944                   20983762.2544
        48.0004         38.5004
  11638111.91447   9094017.48847  22661848.9844                   22661847.9964
        47.0004         43.7504
 -21582001.37547 -16763969.73447  20773840.4534                   20773836.6994
        47.7504         47.5004
 -14890901.86747 -11556535.51646  21564436.6954                   21564434.0664
        47.2504         36.5004
 25  8  7 21 46 30.0000000  0 10G02G26G10G03G25G04G28G32G31G01
  -9996766.45747  -7741959.80546  21470884.3054                   21470879.5124
        47.7504         38.7504
  21897638.69145  17115725.31344  24933534.7424                   24933545.2584
        35.5004         27.0004
  11054837.69947   8632758.71146  23238831.5474                   23238833.1094
        44.2504         39.0004
   4086531.82446   3225815.55546  22994610.9384                   22994612.2424
        40.7504         37.5004
  16048898.64146  12538183.53544  24475749.7734                   24475751.7034
        36.2504         27.2504
  15980732.59845  12494714.05943  24366561.8594                   24366567.3324
        35.5004         20.0004
 -13737886.53947 -10629886.44946  20969441.8134                   20969438.2624
        47.5004         39.0004
  11616973.24647   9077545.77047  22657826.1334                   22657825.3834
        46.5004         43.5004
 -21727771.45348 -16877556.74647  20746100.9304                   20746097.3484
        48.5004         47.5004
 -15025222.04747 -11661200.54745  21538876.3364                   21538873.5904
        47.0004         35.7504
 25  8  7 21 47  0.0000000  0 10G02G26G10G03G25G04G28G32G31G01
 -10064831.88348  -7794997.82846  21457932.0314                   21457926.4534
        48.7504         38.5004
  21721018.88346  16978099.59444  24899927.7584                   24899934.7624
        36.0004         29.7504
  11035900.10947   8618002.03146  23235228.0084                   23235229.4064
        44.0004         38.7504
   3912737.57846   3090391.57846  22961538.7424                   22961540.3054
        40.0004         37.5004
  15948926.33245  12460283.07844  24456726.3594                   24456727.7424
        35.5004         26.2504
  15813394.21146  12364320.71943  24334718.8444                   24334724.3204
        36.7504         20.5004
 -13812546.30148 -10688062.86346  20955234.7974                   20955231.0234
        48.5004         38.5004
  11595937.52047   9061154.26247  22653823.3914                   22653822.4224
        46.0004         43.5004
 -21872958.41848 -16990689.38747  20718472.4534                   20718469.3594
        48.0004         47.2504
 -15158994.22747 -11765438.57446  21513420.2274                   21513417.3954
        47.2504         36.2504
 25  8  7 21 47 30.0000000  0 10G02G26G10G03G25G04G28G32G31G01
 -10132358.85247  -7847616.28146  21445082.2584                   21445076.8594
        47.7504         39.0004
                                  24866304.8984                   24866313.3284
        37.2504         24.7504
  11017240.26647   8603461.77046  23231677.5164                   23231678.8164
        43.0004         39.0004
   3739019.48446   2955026.94546  22928481.5634                   22928482.2194
        41.2504         37.2504
  15849493.87945  12382803.28144  24437804.7814                   24437805.8834
        35.0004         27.0004
  15646223.16046  12234057.78543  24302907.5084                   24302911.7074
        36.5004         21.2504
 -13886593.41848 -10745761.89546  20941143.8134                   20941140.3134
        48.0004         38.2504
  11575003.22747   9044841.79747  22649839.6644                   22649838.6644
        45.5004         43.5004
 -22017560.74248 -17103366.46547  20690956.0944                   20690952.1764
        48.0004         47.5004
 -15292217.12147 -11869248.59045  21488068.7114                   21488065.9844
        47.5004         35.7504
 25  8  7 21 48  0.0000000  0 10G02G26G10G03G25G04G28G32G31G01
 -10199342.29748  -7899811.20746  21432335.6724                   21432330.2304
        48.2504         38.5004
  21367592.02345  16702702.70744  24832668.7974                   24832680.0204
        33.0004         28.0004
  10998863.59046   8589142.15646  23228180.2814                   23228181.4534
        41.5004         38.7504
   3565384.27446   2819726.89446  22895439.3914                   22895440.3404
        41.0004         37.7504
  15750608.05545  12305749.42244  24418987.6484                   24418988.5354
        35.0004         27.0004
  15479224.87946  12103929.49243  24271127.5784                   24271132.8014
        38.0004         22.2504
 -13960023.27347 -10802979.93746  20927170.7504                   20927166.8794
        47.5004         38.0004
  11554174.87947   9028611.89847  22645876.5944                   22645875.3404
        45.5004         43.5004
 -22161571.08647 -17215582.25847  20663551.9304                   20663547.7194
        47.7504         47.5004
 -15424883.58647 -11972625.03946  21462823.1804                   21462820.2074
        47.2504         36.0004
 25  8  7 21 48 30.0000000  0 10G02G26G10G03G25G04G28G32G31G01
 -10265790.57848  -7951589.12146  21419691.2344                   21419685.7424
        48.2504         38.5004
  21190788.79345  16564934.29344  24799025.0944                   24799034.4224
        32.5004         26.5004
  10980762.53947   8575037.31646  23224736.5784                   23224737.9804
        42.7504         39.2504
   3391825.95346   2684486.75446  22862412.2734                   22862413.7894
        41.2504         37.2504
  15652262.80146  12229116.81344  24400273.5394                   24400273.7384
        36.7504         26.7504
  15312392.42646  11973930.42243  24239380.8754                   24239385.2774
        38.5004         22.2504
 -14032843.98848 -10859723.34046  20913313.2034                   20913309.6054
        48.0004         39.0004
  11533444.28147   9012458.16047  22641931.1174                   22641930.3754
        45.0004         43.5004
 -22304994.86748 -17327340.99647  20636258.8524                   20636255.0784
        48.0004         47.5004
 -15556999.08247 -12075572.13746  21437682.3524                   21437679.8984
        47.0004         36.0004
