     2.11           OBSERVATION DATA    G (GPS)             RINEX VERSION / TYPE
teqc  2019Feb25     K Rivera            20250820 05:52:47UTCPGM / RUN BY / DATE
Linux 2.6.32-573.12.1.x86_64|x86_64|gcc -static|Linux 64|=+ COMMENT
teqc  2019Feb25                         20250820 05:40:11UTCCOMMENT
BIT 2 OF LLI FLAGS DATA COLLECTED UNDER A/S CONDITION       COMMENT
PNCL                                                        MARKER NAME
                                                            MARKER NUMBER
Gareth Funning, LiChUniversity of California, Riverside     OBSERVER / AGENCY
0220283712          TRIMBLE 5700        2.32                REC # / TYPE / VERS
60111214            TRM41249.00                             ANT # / TYPE
 -2389014.4079 -4610136.9733  3692598.0761                  APPROX POSITION XYZ
        1.1852        0.0000        0.0000                  ANTENNA: DELTA H/E/N
     1     1                                                WAVELENGTH FACT L1/2
     7    L1    L2    C1    P1    P2    S1    S2            # / TYPES OF OBSERV
    18                                                      LEAP SECONDS
 SNR is mapped to RINEX snr flag value [0-9]                COMMENT
  L1 & L2: min(max(int(snr_dBHz/6), 0), 9)                  COMMENT
  2025     8     7    18    39    0.0000000     GPS         TIME OF FIRST OBS
                                                            END OF HEADER
 25  8  7 18 39  0.0000000  0  4G23G27G10G18
    -49012.77057    -30613.23855  21620748.3984                   21620748.6254
        46.0004         34.5004
   -116782.73057    -76787.41457  21581509.5554                   21581511.6294
        47.0004         45.0004
   -124211.40658    -69594.78158  21096624.9454                   21096626.6604
        50.7504         49.5004
    -31950.82857    -20803.42255  22227746.8674                   22227748.0704
        45.7504         32.7504
 25  8  7 18 39 15.0000000  0  5G23G27G32G10G18
    -71281.35947    -47965.40645  21616510.6334                   21616511.0124
        45.0004         34.5004
   -154768.07047   -106386.37947  21574280.9924                   21574283.2624
        46.0004         43.2504
   -205835.62158   -142419.04357  21129104.3444                   21129106.5234
        49.5004         47.5004
   -174460.85248   -108750.23048  21087063.0864                   21087064.5354
        52.0004         50.7504
    -44446.44147    -30540.31645  22225369.1414                   22225370.0204
        45.2504         31.5004
 25  8  7 18 39 30.0000000  0  5G23G27G32G10G18
    -93644.98047    -65391.62545  21612255.3444                   21612255.3594
        47.2504         33.5004
   -192734.16847   -135970.40647  21567056.4304                   21567058.3674
        47.7504         44.0004
   -281642.19148   -201489.07848  21114678.5634                   21114680.8244
        49.5004         48.0004
   -224790.82448   -147968.36748  21077485.7114                   21077487.3834
        51.0004         49.5004
    -56984.15647    -40310.00445  22222983.1804                   22222984.0124
        45.5004         31.0004
 25  8  7 18 39 45.0000000  0  6G08G23G27G32G10G18
   -196959.03157   -143571.34455  22822893.9144                   22822898.8674
        42.5004         35.7504
   -116076.40647    -82870.68745  21607986.7034                   21607986.7194
        46.0004         33.7504
   -230653.98047   -165518.33647  21559840.6644                   21559842.3014
        47.0004         45.0004
   -357433.64148   -260547.32448  21100256.3134                   21100258.2074
        50.7504         48.7504
   -275174.08648   -187228.05948  21067897.6724                   21067899.5394
        49.7504         49.2504
    -69536.88747    -50091.39845  22220594.3754                   22220595.4144
        46.2504         32.5004
 25  8  7 18 40  0.0000000  0  6G08G23G27G32G10G18
   -264964.34446   -196562.43045  22809953.8134                   22809957.2034
        41.7504         34.2504
   -138563.27347   -100392.93445  21603707.4694                   21603707.7384
        45.2504         30.0004
   -268515.12947   -195020.54347  21552635.9534                   21552637.9654
        46.2504         44.5004
   -433197.37948   -319583.98847  21085838.7034                   21085840.9304
        50.7504         47.7504
   -325598.26248   -226519.64148  21058302.5084                   21058303.7894
        52.5004         50.0004
    -82092.16847    -59874.79345  22218205.3674                   22218206.4574
        46.2504         33.7504
 25  8  7 18 40 15.0000000  0  6G08G23G27G32G10G18
   -332919.77046   -249514.78146  22797021.7974                   22797025.3674
        41.2504         36.0004
   -161101.25847   -117955.00445  21599418.8594                   21599419.0204
        46.5004         33.0004
   -306313.52747   -224473.88347  21545443.7194                   21545445.5044
        47.0004         45.0004
   -508928.96148   -378595.59448  21071427.4224                   21071429.2974
        50.2504         48.5004
   -376059.06648   -265839.73448  21048700.3594                   21048701.5354
        50.5004         49.5004
    -94645.77747    -69656.84845  22215816.5634                   22215817.3284
        45.7504         30.7504
 25  8  7 18 40 30.0000000  0  6G08G23G27G32G10G18
   -400817.44547   -302422.04346  22784101.4224                   22784105.4614
        43.0004         36.7504
   -183682.60947   -135550.89545  21595121.3834                   21595121.8484
        46.0004         34.0004
   -344041.38347   -253872.24247  21538263.8204                   21538266.0164
        47.2504         44.5004
   -584620.39548   -437575.91048  21057023.6024                   21057025.5004
        51.2504         48.5004
   -426548.70748   -305182.32048  21039092.4064                   21039093.9534
        50.7504         49.2504
   -107189.91047    -79431.54345  22213429.5474                   22213430.5354
        46.0004         32.0004
 25  8  7 18 40 45.0000000  0  6G08G23G27G32G10G18
   -468653.19946   -355281.06645  22771192.9924                   22771196.6844
        41.2504         34.7504
   -206303.46147   -153177.53945  21590817.0084                   21590817.1884
        47.0004         34.5004
   -381694.99247   -283212.73446  21531098.5234                   21531100.3134
        45.0004         41.5004
   -660267.66048   -496521.83248  21042628.7894                   21042630.4264
        52.5004         50.7504
   -477063.39548   -344544.40647  21029479.4384                   21029480.9414
        49.7504         47.0004
   -119720.81647    -89195.90645  22211045.2584                   22211046.2854
        45.0004         32.0004
 25  8  7 18 41  0.0000000  0  6G08G23G27G32G10G18
   -536424.64847   -408089.96546  22758296.6094                   22758300.3284
        42.7504         36.5004
   -228961.53147   -170833.20345  21586505.2814                   21586505.5274
        46.5004         34.2504
   -419272.07447   -312493.62147  21523947.9454                   21523949.9694
        46.7504         44.7504
   -735868.30548   -555431.39148  21028242.2114                   21028244.2034
        51.5004         48.7504
   -527600.77348   -383924.20348  21019862.5314                   21019864.3014
        50.0004         49.2504
   -132236.16047    -98948.19945  22208663.3284                   22208664.7854
        45.2504         32.0004
 25  8  7 18 41 15.0000000  0  6G08G23G27G32G10G18
   -604127.85247   -460845.69945  22745413.0314                   22745416.1094
        42.0004         35.5004
   -251653.10547   -188514.96945  21582187.4224                   21582187.5744
        46.0004         33.7504
   -456769.05547   -341712.06647  21516812.7194                   21516814.6644
        47.0004         44.7504
   -811418.41048   -614301.58648  21013865.5554                   21013867.3284
        51.0004         49.0004
   -578157.17648   -423318.80548  21010242.0864                   21010243.7234
        50.2504         49.5004
   -144732.23447   -108685.44545  22206285.3674                   22206286.9804
        45.0004         31.5004
 25  8  7 18 41 30.0000000  0  6G08G23G27G32G10G18
   -671760.24247   -513546.25846  22732542.9224                   22732546.2114
        42.5004         36.2504
   -274375.82847   -206220.99245  21577863.0554                   21577863.2154
        46.5004         33.7504
   -494183.69147   -370866.36747  21509693.3674                   21509694.8594
        46.5004         44.7504
   -886915.44148   -673130.42648  20999498.6484                   20999500.9804
        51.0004         48.5004
   -628730.22348   -462726.37148  21000618.3524                   21000619.8794
        49.0004         49.7504
   -157206.76247   -118405.90245  22203911.7504                   22203913.0594
        45.5004         31.5004
 25  8  7 18 41 45.0000000  0  6G08G23G27G32G10G18
   -739320.03546   -566190.26646  22719686.4694                   22719689.7774
        41.5004         36.0004
   -297128.09847   -223950.05545  21573533.5474                   21573533.9224
        46.5004         33.0004
   -531514.41447   -399955.27047  21502589.1094                   21502591.4264
        45.5004         44.7504
   -962357.61348   -731916.51648  20985142.6254                   20985144.6134
        50.7504         48.7504
   -679318.32048   -502145.67248  20990991.9454                   20990993.2544
        49.2504         49.5004
   -169658.12547   -128108.31245  22201542.3284                   22201543.8134
        45.7504         31.2504
 25  8  7 18 42  0.0000000  0  6G08G23G27G32G10G18
   -806805.21946   -618776.10545  22706844.5394                   22706848.4344
        41.5004         35.5004
   -319908.08247   -241700.71145  21569198.8834                   21569199.4144
        45.5004         33.5004
   -568759.53547   -428977.46947  21495501.3914                   21495503.9964
        46.0004         44.7504
  -1037742.95348   -790658.32448  20970797.2974                   20970798.6884
        51.2504         49.0004
   -729919.68748   -541575.31248  20981362.6804                   20981364.0554
        50.5004         49.2504
   -182084.53547   -137791.27745  22199177.2424                   22199178.9454
        45.5004         31.5004
 25  8  7 18 42 15.0000000  0  6G08G23G27G32G10G18
   -874211.64147   -671300.59445  22694018.0314                   22694020.6644
        42.5004         35.5004
   -342711.80547   -259469.86345  21564859.5084                   21564859.7074
        45.0004         33.0004
   -605915.20347   -457929.96147  21488430.9224                   21488432.8364
        46.2504         45.0004
  -1113067.27348   -849352.57848  20956463.3834                   20956465.1954
        51.0004         48.7504
   -780530.27748   -581012.13748  20971731.8364                   20971733.6024
        50.7504         49.5004
   -194482.00847   -147451.69945  22196818.2344                   22196819.6564
        45.0004         30.5004
 25  8  7 18 42 30.0000000  0  6G08G23G27G32G10G18
   -941539.14546   -723763.57445  22681205.6724                   22681208.8674
        41.5004         35.5004
   -365539.32847   -277257.55545  21560515.1884                   21560515.5204
        46.0004         33.2504
   -642981.53547   -486812.84447  21481377.6414                   21481379.8284
        46.2504         44.7504
  -1188330.47748   -907999.21948  20942141.3754                   20942143.4804
        51.0004         48.7504
   -831150.22748   -620456.25448  20962099.0164                   20962100.4844
        50.2504         49.5004
   -206850.69147   -157089.68045  22194465.2974                   22194466.1604
        44.7504         30.7504
 25  8  7 18 42 45.0000000  0  6G08G23G27G32G10G18
  -1008785.44946   -776163.28945  22668409.3984                   22668412.7234
        41.0004         35.5004
   -388388.53547   -295062.14545  21556167.9534                   21556167.8954
        45.2504         33.0004
   -679956.53547   -515624.57047  21474341.7504                   21474343.5354
        45.5004         44.5004
  -1263530.29348   -966596.45748  20927831.3524                   20927833.1174
        51.2504         49.0004
   -881777.38348   -659905.98448  20952465.2894                   20952466.7424
        50.2504         49.5004
   -219188.47347   -166703.58245  22192116.8444                   22192118.4144
        44.5004         30.7504
 25  8  7 18 43  0.0000000  0  6G08G23G27G32G10G18
    499474.39546    399104.13745  22955421.7034                   22955424.8634
        41.5004         35.5004
   1164162.41047    914717.79345  21851607.7504                   21851608.2194
        45.2504         33.7504
    858582.46547    683236.96547  21767115.8524                   21767117.9774
        45.5004         44.7504
    236758.78948    202459.98048  21213326.7734                   21213328.6414
        51.2504         48.7504
    643011.91848    528241.52348  21242622.8284                   21242624.7074
        49.2504         49.5004
   1343925.79347   1051307.47345  22489567.7034                   22489568.9304
        45.0004         31.0004
 25  8  7 18 43 15.0000000  0  6G08G23G27G32G10G18
    432395.33246    346834.72345  22942656.6564                   22942659.9104
        41.7504         35.0004
   1141274.16047    896882.77045  21847252.5234                   21847252.5664
        45.0004         33.2504
    821794.17647    654570.73847  21760114.9844                   21760117.2304
        45.7504         44.7504
    161690.59048    143965.29748  21199041.8204                   21199043.6094
        51.0004         49.0004
    592374.64148    488783.90648  21232987.0314                   21232988.7624
        50.5004         49.5004
   1331654.09047   1041745.06645  22487232.5084                   22487233.6414
        45.0004         30.5004
 25  8  7 18 43 30.0000000  0  6G08G23G27G32G10G18
    365401.40646    294631.68045  22929908.2664                   22929911.7034
        41.0004         35.5004
   1118367.57447    879033.46545  21842893.9384                   21842893.8714
        46.5004         33.5004
    785100.23047    625978.03147  21753132.4454                   21753134.9344
        46.0004         44.5004
     86689.68048     85523.04748  21184769.7734                   21184771.4304
        51.2504         49.0004
    541733.48848    449323.26248  21223349.8524                   21223351.8554
        50.0004         49.5004
   1319416.58647   1032209.30544  22484903.9454                   22484905.2464
        44.5004         29.5004
 25  8  7 18 43 45.0000000  0  6G08G23G27G32G10G18
    298493.75846    242495.84445  22917176.3984                   22917179.3984
        41.7504         35.7504
   1095443.73047    861170.71945  21838531.6954                   21838531.4884
        44.5004         33.5004
    748501.64847    597459.61747  21746168.0944                   21746169.9264
        46.0004         44.5004
     11757.25448     27134.16048  21170510.4694                   21170512.3054
        51.2504         49.0004
    491089.52348    409860.43448  21213712.7734                   21213714.5594
        48.5004         49.5004
   1307214.30547   1022700.98045  22482581.7034                   22482583.7464
        44.0004         30.2504
 25  8  7 18 44  0.0000000  0  6G08G23G27G32G10G18
    231673.73446    190428.29746  22904460.5234                   22904463.9694
        41.5004         36.0004
   1072503.69147    843295.33645  21834166.2974                   21834165.8444
        44.5004         33.2504
    711999.33647    569016.23447  21739222.1724                   21739223.8914
        45.7504         44.7504
    -63105.46148    -31200.40248  21156264.5234                   21156265.9804
        51.2504         49.0004
    440443.82048    370396.24248  21204075.5864                   21204076.9804
        49.0004         49.7504
   1295048.27747   1013220.91845  22480267.0314                   22480267.9574
        43.7504         30.0004
 25  8  7 18 44 15.0000000  0  6G08G23G27G32G10G18
    164940.05546    138428.02046  22891761.6414                   22891765.4304
        41.5004         36.0004
   1049546.04747    825406.25045  21829797.6094                   21829797.2894
        45.7504         33.0004
    675591.81647    540646.71147  21732293.5394                   21732296.2624
        45.7504         44.5004
   -137899.66048    -89481.58648  21142031.6644                   21142033.4344
        51.2504         49.0004
    389794.93848    330929.58248  21194437.5554                   21194439.0984
        50.5004         49.5004
   1282917.09047   1003767.99244  22477958.4304                   22477959.3284
        44.5004         29.0004
 25  8  7 18 44 30.0000000  0  6G08G23G27G32G10G18
     98295.68446     86497.35946  22879079.8444                   22879083.5984
        41.2504         36.5004
   1026573.60247    807505.62545  21825425.7664                   21825425.6334
        45.5004         32.7504
    639281.73447    512353.10547  21725384.6954                   21725386.3094
        45.5004         44.7504
   -212622.44548   -147707.10948  21127812.3754                   21127813.8484
        51.5004         49.0004
    339145.67248    291462.62548  21184798.9064                   21184800.9414
        48.5004         49.5004
   1270823.44147    994344.32044  22475657.0394                   22475657.6724
        44.5004         29.0004
 25  8  7 18 44 45.0000000  0  6G08G23G27G32G10G18
     31742.64846     34637.85246  22866415.6954                   22866419.0004
        41.5004         37.2504
   1003588.17247    789594.88345  21821051.8674                   21821052.0474
        45.7504         33.0004
    603070.82047    484136.78147  21718493.3364                   21718495.8794
        46.0004         45.0004
   -287271.78548   -205875.41448  21113607.1254                   21113608.8834
        51.0004         49.0004
    288497.86348    251996.80148  21175161.0164                   21175162.6024
        50.5004         49.5004
   1258769.18847    984951.34844  22473363.3984                   22473364.5434
        44.0004         28.2504
 25  8  7 18 45  0.0000000  0  6G08G23G27G32G10G18
    -34718.79746    -17150.26246  22853768.0234                   22853771.9224
        41.0004         37.5004
    980589.93047    771674.14845  21816675.5474                   21816675.6994
        45.5004         33.0004
    566959.10947    455997.75847  21711621.6804                   21711623.6524
        46.2504         45.0004
   -361847.37548   -263986.24648  21099415.7114                   21099417.1844
        51.5004         49.2504
    237851.67248    212532.23048  21165523.3914                   21165525.0984
        51.0004         49.5004
   1246754.43847    975589.16044  22471076.8364                   22471077.9884
        44.0004         28.5004
 25  8  7 18 45 15.0000000  0  6G08G23G27G32G10G18
   -101088.25846    -68866.73446  22841138.1884                   22841141.7624
        41.5004         37.2504
    957578.95747    753743.51645  21812296.7424                   21812297.0744
        46.0004         33.0004
    530946.59847    427936.02747  21704768.9304                   21704771.3054
        46.0004         44.7504
   -436349.00048   -322039.44148  21085238.4534                   21085240.4774
        51.7504         49.2504
    187207.17648    173068.98048  21155886.1254                   21155887.7814
        48.5004         49.5004
   1234779.22747    966257.77744  22468798.1564                   22468799.6644
        44.5004         28.5004
 25  8  7 18 45 30.0000000  0  6G08G23G27G32G10G18
   -167364.84846   -120510.82846  22828525.9064                   22828530.1684
        40.2504         37.0004
    934556.05947    735803.57445  21807915.4454                   21807915.3134
        46.0004         33.5004
    495033.90647    399952.08247  21697934.7974                   21697937.2424
        46.2504         44.7504
   -510775.63748   -380034.21548  21071075.3674                   21071077.4924
        51.0004         49.5004
    136565.19148    133607.69548  21146249.3204                   21146250.6454
        50.5004         49.5004
   1222844.30547    956957.79744  22466527.0554                   22466528.4414
        44.0004         29.5004
 25  8  7 18 45 45.0000000  0  6G08G23G27G32G10G18
   -233546.48846   -172080.93446  22815932.0164                   22815935.9454
        41.5004         37.0004
    911523.18447    717855.86745  21803532.2194                   21803532.5314
        45.7504         33.0004
    459222.92647    372047.39147  21691120.6174                   21691122.9414
        45.7504         45.0004
   -585125.26248   -437968.96548  21056927.4304                   21056929.1844
        52.2504         49.2504
     85927.61348     94149.84448  21136613.2974                   21136614.7424
        49.7504         49.5004
   1210951.59047    947690.69544  22464264.1484                   22464265.1724
        44.5004         29.5004
 25  8  7 18 46  0.0000000  0  6G08G23G27G32G10G18
   -299634.19146   -223577.82846  22803356.1724                   22803359.9964
        41.0004         36.7504
    888479.12947    699899.44145  21799146.9614                   21799147.4184
        45.7504         33.0004
    423512.25847    344220.86747  21684324.9304                   21684327.1054
        47.0004         45.0004
   -659398.90248   -495844.51248  21042793.4924                   21042795.4384
        51.5004         49.5004
     35293.25048     54694.48848  21126978.0784                   21126979.5594
        49.2504         49.5004
   1199099.85247    938455.52744  22462009.0164                   22462010.0164
        43.7504         28.7504
 25  8  7 18 46 15.0000000  0  6G08G23G27G32G10G18
   -365627.25046   -275000.99246  22790798.4614                   22790801.8284
        41.5004         37.2504
    865424.45747    681934.73845  21794760.4694                   21794760.0744
        47.0004         33.0004
    387902.38347    316472.87947  21677548.6414                   21677550.7304
        47.0004         45.0004
   -733595.79748   -553660.25848  21028674.3834                   21028675.9574
        51.7504         49.5004
    -15337.29748     15242.11348  21117343.1414                   21117344.7274
        49.5004         49.2504
   1187289.61747    929252.70344  22459761.3524                   22459762.6954
        44.5004         28.7504
 25  8  7 18 46 30.0000000  0  6G08G23G27G32G10G18
   -431525.20347   -326350.04346  22778258.4384                   22778261.8204
        42.5004         37.5004
    842359.43047    663961.97345  21790371.2734                   21790371.5124
        45.7504         32.7504
    352393.40647    288803.51647  21670791.8054                   21670793.5394
        46.7504         44.7504
   -807715.62548   -611415.95348  21014569.8984                   21014571.6214
        52.0004         49.5004
    -65963.90648    -24207.19548  21107709.4384                   21107710.5904
        50.5004         49.5004
   1175521.05547    920082.35244  22457522.2034                   22457523.3094
        45.0004         28.5004
 25  8  7 18 46 45.0000000  0  6G08G23G27G32G10G18
   -497325.11346   -377622.68746  22765737.1564                   22765739.7504
        41.5004         37.2504
    819286.84447    645983.31345  21785980.6254                   21785980.4804
        46.0004         32.7504
    316988.00847    261214.85947  21664054.3444                   21664056.1914
        46.7504         45.2504
   -881755.35248   -669109.23048  21000480.6724                   21000482.3484
        51.2504         49.5004
   -116583.62548    -63651.13748  21098076.6484                   21098078.0594
        48.2504         49.5004
   1163797.00047    910946.67644  22455291.1414                   22455292.1994
        45.5004         29.7504
 25  8  7 18 47  0.0000000  0  6G08G23G27G32G10G18
   -563027.63746   -428819.46946  22753234.3594                   22753237.9144
        41.2504         36.7504
    796205.91847    627998.17245  21781588.6644                   21781588.3874
        46.0004         33.0004
    281685.28147    233706.21547  21657336.5164                   21657338.2424
        47.0004         44.5004
   -955715.67248   -726740.63348  20986406.3204                   20986408.0314
        51.5004         49.5004
   -167197.30948   -103090.36748  21088445.2424                   21088446.6414
        48.7504         49.2504
   1152116.57047    901844.99644  22453068.4144                   22453069.4734
        45.5004         29.2504
 25  8  7 18 47 15.0000000  0  7G08G23G27G32G10G18G28
   -628632.37947   -479940.02346  22740749.9844                   22740752.8364
        42.0004         36.2504
    773116.89847    610006.70345  21777194.7034                   21777194.9344
        45.7504         33.5004
    246485.30947    206277.61747  21650638.1334                   21650640.3874
        46.7504         44.5004
  -1029596.14548   -784309.82048  20972347.4144                   20972349.0124
        51.7504         49.5004
   -217804.74248   -142524.73448  21078814.8364                   21078816.2704
        49.7504         49.2504
   1140479.98447    892777.49244  22450854.3754                   22450854.8984
        45.2504         28.7504
   1120884.91456    978872.60553  25454386.2504                   25454396.9534
        41.5004         19.0004
 25  8  7 18 47 30.0000000  0  7G08G23G27G32G10G18G28
   -694137.00046   -530982.59845  22728284.3594                   22728288.1094
        41.2504         35.7504
    750021.87147    592010.55145  21772800.2584                   21772800.3594
        46.2504         32.7504
    211390.08247    178930.64847  21643959.4844                   21643961.6174
        46.2504         45.0004
  -1103394.57448   -841815.07448  20958303.9064                   20958305.7034
        52.2504         49.7504
   -268403.78148   -181952.55948  21069186.1174                   21069187.6374
        51.0004         49.5004
   1128889.26647    883745.71545  22448648.6484                   22448649.5984
        46.5004         30.0004
   1022995.04346    902595.00443  25435756.7814                   25435768.4414
        38.5004         19.5004
 25  8  7 18 47 45.0000000  0  8G08G23G27G32G24G10G18G28
   -759544.55546   -581949.50046  22715837.6564                   22715841.8484
        40.7504         36.0004
    726917.75447    574007.32045  21768403.3134                   21768403.5164
        46.2504         33.0004
    176396.39147    151662.80947  21637300.1484                   21637302.5824
        47.0004         44.7504
  -1177113.88348   -899258.67248  20944275.6564                   20944277.1054
        52.0004         49.5004
   1458910.29356   1154677.79354  23185766.0944                   23185769.5234
        36.7504         29.0004
   -318997.56248   -221376.29348  21059558.6024                   21059560.2384
        50.2504         49.5004
   1117341.30547    874747.27044  22446451.6254                   22446452.0274
        46.0004         29.0004
    925026.60246    856797.15253  25417115.7034                   25417124.0434
        39.5004         20.7504
 25  8  7 18 48  0.0000000  0  8G08G23G27G32G24G10G18G28
   -824850.84846   -632837.52046  22703410.6954                   22703413.9384
        41.5004         36.7504
    703808.52047    556000.11345  21764005.7114                   21764006.1334
        46.0004         33.0004
    141507.99247    124477.01247  21630661.4844                   21630663.7584
        46.2504         44.7504
  -1250750.00048   -956637.45348  20930263.2424                   20930264.9574
        52.0004         49.7504
   1417069.00846   1122074.19944  23177803.3754                   23177807.2664
        36.0004         27.7504
   -369582.09448   -260792.81648  21049932.7584                   21049934.1054
        49.2504         49.5004
   1105840.02747    865785.18044  22444262.7814                   22444263.6174
        46.0004         29.7504
    826983.762 6                  25398456.250
        36.250
 25  8  7 18 48 15.0000000  0  8G08G23G27G32G24G10G18G28
   -890059.46946   -683649.41446  22691002.0314                   22691004.6764
        41.2504         36.2504
    680690.53547    537986.06645  21759607.0474                   21759607.3054
        46.2504         33.5004
    106721.19947     97370.39147  21624041.8054                   21624043.8754
        46.5004         45.0004
  -1324306.37948  -1013954.09448  20916265.7664                   20916267.4534
        51.5004         49.7504
   1375342.15645   1089559.76244  23169863.3284                   23169866.6844
        35.5004         28.2504
   -420161.04348   -300204.98848  21040307.9144                   21040309.3634
        50.7504         49.5004
   1094381.69147    856856.55544  22442082.1254                   22442082.9344
        46.5004         29.2504
    728863.297 6                  25379784.570
        38.750
 25  8  7 18 48 30.0000000  0  8G08G23G27G32G24G10G18G28
   -955169.25046   -734384.32446  22678611.3914                   22678615.7734
        41.0004         36.7504
    657564.66847    519965.89845  21755206.1414                   21755206.2854
        46.2504         32.7504
     72036.68047     70343.45747  21617441.4774                   21617443.6884
        46.5004         44.7504
  -1397782.00848  -1071207.82448  20902283.9144                   20902285.6844
        51.2504         49.7504
   1333730.80546   1057135.35244  23161944.1564                   23161948.2034
        36.2504         27.7504
   -470733.50048   -339612.09848  21030684.2734                   21030685.9064
        50.5004         49.5004
   1082967.17247    847962.07445  22439909.9774                   22439911.0394
        46.0004         30.0004
    630666.63746    800697.04753  25361098.6484                   25361109.0784
        38.5004         21.2504
 25  8  7 18 48 45.0000000  0  8G08G23G27G32G24G10G18G28
  -1020178.50446   -785040.87546  22666240.9064                   22666244.5984
        41.7504         36.2504
    634432.59447    501940.88345  21750804.2664                   21750804.4494
        46.2504         32.7504
     37455.96147     43397.41047  21610861.1484                   21610863.2544
        46.0004         44.2504
  -1471175.12548  -1128397.24648  20888317.6174                   20888319.1214
        51.7504         49.7504
   1292236.65246   1024802.23044  23154048.6024                   23154052.1214
        37.0004         27.2504
   -521297.85548   -379012.89548  21021061.8674                   21021063.6214
        50.5004         49.5004
   1071598.03947    839102.97345  22437746.6564                   22437747.8134
        45.5004         30.0004
    532395.55556    724122.34852  25342397.1414                   25342409.1134
        36.0004         17.2504
 25  8  7 18 49  0.0000000  0  9G08G23G27G02G32G24G10G18G28
  -1085085.84446   -835618.01246  22653890.1644                   22653892.9964
        41.5004         36.7504
    611295.50047    483911.96145  21746401.4144                   21746401.6804
        46.7504         32.5004
      2980.10947     16533.08247  21604300.7814                   21604302.7734
        45.2504         44.2504
   -205689.66055    -91601.87553  24925410.4064                   24925412.2114
        35.0004         19.0004
  -1544484.37548  -1185521.32048  20874367.4924                   20874369.0944
        52.0004         49.7504
   1250860.87146    992561.36744  23146174.9694                   23146178.7114
        37.0004         29.2504
   -571852.87548   -418406.41848  21011442.1094                   21011443.3014
        49.0004         49.5004
   1060275.50047    830280.16044  22435591.9774                   22435592.9494
        45.0004         29.5004
    434051.82846    647491.03343  25323685.0474                   25323694.3404
        40.2504         19.2504
 25  8  7 18 49 15.0000000  0  9G08G23G27G02G32G24G10G18G28
  -1149889.11747   -886114.06246  22641558.2894                   22641560.9224
        43.0004         36.7504
    588155.41447    465880.70745  21741998.1254                   21741998.1024
        46.2504         32.7504
    -31389.04347    -10248.10947  21597760.5704                   21597762.6134
        45.5004         44.2504
   -300874.27745   -165771.62543  24907297.4614                   24907299.4774
        35.0004         19.0004
  -1617707.60948  -1242578.37548  20860433.3134                   20860434.9024
        51.0004         49.7504
   1209605.48046    960414.28144  23138323.9844                   23138327.9384
        37.5004         28.7504
   -622396.59848   -457791.14148  21001823.6804                   21001825.1644
        48.2504         49.5004
   1049001.47747    821495.16044  22433446.8834                   22433447.7624
        45.2504         29.5004
    335637.66846    570804.99243  25304956.8284                   25304968.2974
        39.2504         18.2504
 25  8  7 18 49 30.0000000  0  9G08G23G27G02G32G24G10G18G28
  -1214587.26647   -936528.20746  22629246.7734                   22629249.4224
        42.0004         37.5004
    565013.22347    447847.81645  21737593.9454                   21737594.3404
        46.5004         33.0004
    -65650.75047    -36945.57447  21591240.5784                   21591242.5394
        45.5004         44.0004
   -396090.30945   -239965.87142  24889178.1254                   24889181.1564
        35.0004         17.2504
  -1690843.80548  -1299567.60248  20846515.9694                   20846517.5864
        51.5004         49.7504
   1168471.50446    928361.84044  23130497.2664                   23130500.2544
        36.7504         28.5004
   -672928.11748   -497166.34848  20992207.7894                   20992209.3954
        50.0004         49.5004
   1037776.77747    812748.59445  22431310.7504                   22431311.7814
        45.5004         30.2504
    237154.121 6                  25286215.375
        36.250
 25  8  7 18 49 45.0000000  0  9G08G23G27G02G32G24G10G18G28
  -1279183.86746   -986863.21946  22616954.1804                   22616957.1604
        41.7504         37.7504
    541865.28547    429810.44545  21733189.6174                   21733189.5704
        46.5004         33.0004
    -99808.77347    -63562.24647  21584740.6024                   21584742.8524
        46.2504         44.2504
   -491341.18445   -314187.23442  24871052.2664                   24871054.7584
        35.5004         17.7504
  -1763896.47748  -1356491.75448  20832614.4924                   20832616.2034
        51.5004         49.7504
   1127455.27346    896401.13744  23122691.1724                   23122694.5824
        36.5004         27.2504
   -723451.05548   -536534.86748  20982593.6884                   20982595.2114
        50.0004         49.5004
   1026597.76247    804037.61345  22429183.4144                   22429184.6254
        45.7504         30.0004
    138598.148 6                  25267462.430
        40.500
 25  8  7 18 50  0.0000000  0  9G08G23G27G02G32G24G10G18G28
  -1343674.61747  -1037115.73846  22604682.3524                   22604685.3634
        42.7504         38.0004
    518715.69547    411771.78545  21728784.2974                   21728783.9264
        45.5004         33.0004
   -133859.16047    -90095.05547  21578261.0474                   21578263.5664
        45.7504         44.0004
   -586622.43745   -388432.29743  24852921.0394                   24852923.1764
        34.7504         19.0004
  -1836861.39148  -1413347.51648  20818729.8444                   20818731.4774
        51.7504         49.5004
   1086560.95746    864535.44944  23114909.9384                   23114912.8284
        37.5004         27.2504
   -773961.34448   -575893.53548  20972981.8754                   20972983.1724
        50.0004         49.5004
   1015468.48047    795365.39144  22427065.5234                   22427067.2934
        45.5004         29.7504
     39974.199 6                  25248693.313
        39.500
 25  8  7 18 50 15.0000000  0  9G08G23G27G02G32G24G10G18G28
  -1408059.52346  -1087285.80946  22592430.0234                   22592433.0634
        41.5004         38.0004
    495564.38347    393731.76645  21724378.6564                   21724378.6484
        46.2504         33.2504
   -167802.24247   -116544.23447  21571801.9064                   21571803.7544
        45.2504         44.5004
   -681934.01645   -462700.98442  24834783.6254                   24834786.8204
        35.5004         17.2504
  -1909738.53948  -1470134.89148  20804861.3284                   20804863.2464
        52.0004         49.7504
   1045788.53546    832764.71944  23107151.0554                   23107154.3134
        37.2504         28.0004
   -824459.08248   -615242.43048  20963372.8444                   20963373.7704
        49.7504         49.5004
   1004388.69147    786731.74645  22424956.9144                   22424958.6334
        45.7504         30.2504
    -58717.67246    445835.66453  25229912.0164                   25229924.1094
        38.5004         19.2504
 25  8  7 18 50 30.0000000  0  9G08G23G27G02G32G24G10G18G28
  -1472338.21946  -1137373.10246  22580197.7274                   22580201.3444
        41.5004         37.5004
    472411.53547    375690.56645  21719973.1884                   21719972.8674
        46.0004         32.7504
   -201637.87547   -142909.70347  21565363.2424                   21565365.3094
        45.5004         44.0004
   -777275.63745   -536993.10542  24816641.3674                   24816642.8244
        35.2504         17.7504
  -1982527.56648  -1526853.59848  20791010.3754                   20791011.9534
        51.5004         49.7504
   1005138.12946    801089.07044  23099415.9384                   23099419.1054
        37.5004         28.5004
   -874944.06648   -654581.37548  20953765.7274                   20953767.2814
        50.7504         49.5004
    993358.59447    778136.80145  22422858.3984                   22422859.4774
        44.2504         30.5004
   -157476.53946    368880.76642  25211120.3914                   25211131.1174
        40.5004         16.2504
 25  8  7 18 50 45.0000000  0  9G08G23G27G02G32G24G10G18G28
     38911.35546     40223.97746  22867779.5004                   22867782.5554
        41.5004         38.0004
   2024676.35947   1585247.57045  22015358.8364                   22015359.3714
        46.7504         33.2504
   1340053.67647   1058408.35547  21858737.5704                   21858739.5594
        45.7504         44.2504
    702777.10246    616294.78943  25098285.5234                   25098287.7814
        36.5004         18.5004
   -479805.79748   -355901.55948  21076968.9304                   21076970.0904
        51.0004         49.5004
   2540030.20346   1997108.85544  23391496.3984                   23391499.5594
        37.2504         28.5004
    650004.76248    533690.43448  21243953.2504                   21243954.9384
        50.7504         49.2504
   2557796.53947   1997179.29745  22720561.1174                   22720562.3834
        44.5004         30.0004
   1319121.73446   1519477.00842  25492104.3594                   25492118.1564
        36.0004         17.7504
 25  8  7 18 51  0.0000000  0  9G08G23G27G02G32G24G10G18G28
    -25154.92247     -9697.79746  22855587.4144                   22855590.6334
        42.0004         38.0004
   2001520.10547   1567203.70745  22010952.1884                   22010953.0824
        45.5004         32.5004
   1306432.03147   1032209.64147  21852339.2974                   21852341.9774
        46.0004         44.2504
    607376.16446    541956.49643  25080131.3674                   25080133.2934
        36.5004         18.5004
   -552418.53548   -412482.89848  21063151.1174                   21063152.4224
        51.5004         49.5004
   2499623.71946   1965623.28544  23383807.2734                   23383810.2854
        37.7504         28.5004
    599544.94548    494371.09848  21234351.3284                   21234352.7544
        51.0004         49.5004
   2546865.30147   1988661.39145  22718481.2194                   22718482.4024
        45.0004         30.5004
   1220228.99646   1442418.00442  25473287.5314                   25473300.2664
        37.7504         17.7504
 25  8  7 18 51 15.0000000  0  7G08G23G27G32G24G10G18
    -89112.87946    -59535.16046  22843416.6564                   22843420.9304
        41.2504         38.2504
   1978364.03947   1549159.98845  22006546.5784                   22006546.2464
        46.0004         33.5004
   1272918.99247   1006095.54347  21845962.0164                   21845964.5474
        47.0004         44.5004
   -624941.09848   -468993.97748  21049350.3204                   21049352.0904
        51.7504         49.7504
   2459341.09446   1934234.24644  23376141.1414                   23376144.1954
        37.0004         28.0004
    549099.55548    455063.00048  21224752.3754                   21224753.4964
        50.2504         49.5004
   2535985.28947   1980183.40645  22716410.7894                   22716411.8594
        44.5004         30.0004
 25  8  7 18 51 30.0000000  0  7G08G23G27G32G24G10G18
   -152961.66046   -109287.45346  22831266.7814                   22831270.2974
        41.2504         37.5004
   1955208.95347   1531117.04745  22002139.7664                   22002139.9844
        46.2504         33.0004
   1239515.23447    980066.61347  21839605.9064                   21839608.0664
        47.5004         44.7504
   -697372.54748   -525434.05548  21035567.2424                   21035569.1024
        51.5004         49.7504
   2419183.12946   1902942.32444  23368499.6094                   23368502.5354
        37.5004         29.2504
    498669.42248    415766.78948  21215155.3284                   21215156.5234
        50.7504         49.5004
   2525157.19947   1971745.87944  22714349.8204                   22714351.4414
        44.2504         29.5004
 25  8  7 18 51 45.0000000  0  7G08G23G27G32G24G10G18
   -216696.27746   -158950.77746  22819138.6484                   22819142.8714
        41.2504         37.5004
   1932059.70347   1513078.64845  21997734.5554                   21997735.0904
        45.2504         33.0004
   1206225.43047    954126.47747  21833270.8674                   21833273.3094
        47.0004         44.5004
   -769707.92248   -581799.26648  21021802.0944                   21021803.6884
        51.5004         49.7504
   2379154.73846   1871751.37144  23360882.4064                   23360886.4694
        37.5004         29.2504
    448259.35248    376486.21948  21205562.8204                   21205564.3284
        50.7504         49.5004
   2514385.86347   1963352.56644  22712300.4144                   22712301.9774
        43.5004         29.5004
 25  8  7 18 52  0.0000000  0  7G08G23G27G32G24G10G18
   -280309.07446   -208519.16446  22807033.2114                   22807036.8164
        41.7504         37.5004
   1908923.78547   1495050.63745  21993331.9844                   21993332.2194
        45.5004         32.7504
   1173056.91447    928280.84047  21826959.3594                   21826961.1454
        46.5004         44.2504
   -841939.57848   -638083.66448  21008057.0704                   21008058.5514
        51.7504         49.7504
   2339263.39146   1840667.19944  23353290.8754                   23353295.7384
        37.7504         28.5004
    397876.87148    337227.14148  21195974.9534                   21195976.6804
        50.5004         49.2504
   2503678.69547   1955009.27044  22710262.6254                   22710264.0164
        44.7504         29.2504
 25  8  7 18 52 15.0000000  0  7G08G23G27G32G24G10G18
   -343794.92646   -257988.65646  22794951.6804                   22794956.0434
        41.5004         37.0004
   1885806.20747   1477036.91445  21988933.3524                   21988933.6884
        46.5004         32.7504
   1140014.54347    902533.50047  21820671.2504                   21820673.9654
        47.0004         44.2504
   -914062.40248   -694283.25048  20994332.4064                   20994334.2544
        52.0004         50.0004
   2299514.19946   1809693.78544  23345727.1724                   23345731.8634
        37.7504         28.5004
    347526.99248    297993.46548  21186393.9694                   21186395.4734
        50.5004         49.5004
   2493040.65247   1946719.82845  22708238.4774                   22708240.5234
        43.5004         30.5004
 25  8  7 18 52 30.0000000  0  7G08G23G27G32G24G10G18
   -407151.20346   -307357.18746  22782896.2194                   22782899.4024
        41.0004         37.5004
   1862709.52047   1459039.46945  21984538.1024                   21984538.2424
        46.2504         32.5004
   1107100.62947    876886.26247  21814408.0394                   21814410.6724
        46.7504         44.5004
   -986073.79748   -750396.00848  20980629.1884                   20980630.7304
        51.5004         50.0004
   2259909.59846   1778833.04744  23338191.1804                   23338194.8984
        38.0004         28.5004
    297212.19948    258787.12948  21176819.5784                   21176820.8674
        50.5004         49.2504
   2482474.18047   1938486.14845  22706228.1174                   22706229.5984
        43.2504         30.2504
 25  8  7 18 52 45.0000000  0  7G08G23G27G32G24G10G18
   -470378.85246   -356625.46546  22770864.1884                   22770867.4964
        41.7504         37.2504
   1839632.64847   1441057.47345  21980146.4534                   21980146.9494
        46.0004         33.0004
   1074313.96947    851338.18047  21808168.6414                   21808171.1724
        46.0004         44.0004
  -1057974.62148   -806422.61348  20966947.0474                   20966948.5634
        52.0004         50.2504
   2220448.59046   1748084.22744  23330681.4614                   23330685.0744
        36.7504         28.2504
    246931.45748    219607.32448  21167251.3444                   21167252.8484
        50.2504         49.5004
   2471978.19147   1930307.40244  22704230.7034                   22704232.3244
        42.0004         29.5004
 25  8  7 18 53  0.0000000  0  7G08G23G27G32G24G10G18
   -533479.89547   -405795.11746  22758856.5554                   22758860.1844
        43.0004         37.0004
   1816573.41447   1423089.20345  21975758.4774                   21975758.7934
        46.0004         32.5004
   1041652.20747    825887.43047  21801953.7974                   21801956.2974
        47.7504         44.0004
  -1129767.02048   -862364.73048  20953285.1484                   20953287.0634
        51.5004         50.0004
   2181129.02046   1717445.60244  23323199.3524                   23323203.1994
        36.7504         29.2504
    196682.55948    180452.33248  21157689.2424                   21157690.8204
        50.0004         49.5004
   2461550.40247   1922181.78945  22702245.9454                   22702247.7664
        43.0004         30.2504
 25  8  7 18 53 15.0000000  0  7G08G23G27G32G24G10G18
   -596458.66847   -454869.47346  22746872.1564                   22746874.9774
        43.2504         37.0004
   1793527.44147   1405131.27345  21971372.6334                   21971373.4264
        46.5004         33.0004
   1009110.80147    800530.45347  21795761.5004                   21795763.7034
        47.0004         44.0004
  -1201455.20748   -918225.64148  20939643.6254                   20939645.1094
        51.5004         50.2504
   2141946.51646   1686913.77344  23315743.5784                   23315746.6294
        37.2504         28.0004
    146461.16848    141318.78148  21148132.4384                   21148133.5554
        50.5004         49.5004
   2451186.35247   1914105.84444  22700273.7424                   22700275.5514
        42.0004         29.0004
 25  8  7 18 53 30.0000000  0  7G08G23G27G32G24G10G18
   -659312.37947   -503846.40646  22734911.3444                   22734914.2814
        43.5004         37.2504
   1770497.33647   1387185.73045  21966990.3984                   21966990.5944
        46.2504         33.2504
    976692.17247    775269.14547  21789592.0394                   21789594.5204
        46.7504         44.5004
  -1273036.51248   -974003.27048  20926022.1094                   20926023.5204
        52.0004         50.2504
   2102903.62946   1656490.74644  23308313.6884                   23308317.8324
        37.0004         29.5004
     96269.84848    102208.65248  21138581.2194                   21138583.1054
        50.5004         49.5004
   2440888.57847   1906081.54745  22698314.1954                   22698316.0864
        43.0004         30.2504
 25  8  7 18 53 45.0000000  0  7G08G23G27G32G24G10G18
   -722042.29747   -552726.86346  22722974.5394                   22722977.6134
        43.2504         37.0004
   1747481.83647   1369251.54345  21962610.9774                   21962611.3834
        46.0004         33.5004
    944394.84047    750102.35947  21783445.9454                   21783448.8404
        47.0004         44.5004
  -1344512.08248  -1029698.50048  20912420.3984                   20912422.3054
        52.0004         50.0004
   2063999.21146   1626175.61344  23300909.6804                   23300914.3324
        37.2504         29.5004
     46107.30148     63120.96148  21129035.7274                   21129037.6804
        51.2504         49.5004
   2430655.71147   1898107.82845  22696366.7194                   22696368.7934
        42.5004         30.0004
 25  8  7 18 54  0.0000000  0  7G08G23G27G32G24G10G18
   -784650.61747   -601512.57046  22711060.8984                   22711063.6524
        44.7504         38.0004
   1724478.54347   1351326.88345  21958233.1644                   21958233.7774
        45.5004         33.2504
    912216.23447    725028.08247  21777322.9694                   21777325.5314
        47.5004         44.2504
  -1415884.18748  -1085313.11748  20898838.6954                   20898840.6484
        51.7504         50.2504
   2025230.66446   1595966.36344  23293533.0704                   23293536.8554
        36.7504         28.5004
     -4028.86348     24053.81648  21119495.1954                   21119496.9024
        50.7504         49.5004
   2420485.34447   1890182.81345  22694431.9694                   22694433.4454
        42.0004         30.0004
 25  8  7 18 54 15.0000000  0  7G08G23G27G32G24G10G18
   -847135.81247   -650202.32846  22699170.1564                   22699173.4104
        44.0004         37.2504
   1701488.91447   1333412.86745  21953858.6334                   21953858.9494
        46.0004         33.0004
    880157.65647    700047.34447  21771222.7034                   21771225.0004
        46.7504         44.5004
  -1487151.33248  -1140845.94148  20885277.2344                   20885278.8364
        51.5004         50.0004
   1986599.64846   1565864.25844  23286181.8674                   23286185.3834
        37.2504         28.2504
    -54137.17648    -14991.62548  21109959.9064                   21109961.5354
        51.7504         49.5004
   2410378.81647   1882307.52344  22692508.5394                   22692510.6524
        43.0004         28.7504
 25  8  7 18 54 30.0000000  0  7G08G23G27G32G24G10G18
   -909499.02047   -698797.03546  22687302.9534                   22687306.0204
        43.2504         37.5004
   1678511.66847   1315508.50045  21949486.3364                   21949486.3364
        46.5004         33.0004
    848217.62147    675158.96947  21765144.7894                   21765146.7194
        47.0004         44.0004
  -1558314.63348  -1196297.85248  20871735.4454                   20871736.6724
        51.5004         50.0004
   1948104.82046   1535868.28544  23278856.1564                   23278859.6764
        37.2504         28.7504
   -104218.91048    -54016.35248  21100429.6724                   21100431.3324
        51.0004         49.5004
   2400334.78947   1874480.96144  22690597.3054                   22690598.9924
        42.0004         29.2504
 25  8  7 18 54 45.0000000  0  7G08G23G27G32G24G10G18
   -971743.72347   -747299.39846  22675457.0004                   22675461.0904
        42.5004         37.0004
   1655543.30947   1297611.05945  21945115.5164                   21945115.5944
        46.0004         33.2504
    816392.40647    650360.07047  21759088.8134                   21759090.7074
        47.0004         44.2504
  -1629377.54748  -1251671.53948  20858212.3134                   20858214.0044
        51.0004         50.0004
   1909742.55146   1505975.62944  23271556.6024                   23271560.3524
        37.0004         29.5004
   -154277.64148    -93023.16048  21090903.8444                   21090905.2154
        51.5004         49.5004
   2390349.71546   1866700.30944  22688697.6484                   22688699.1454
        41.0004         29.2504
 25  8  7 18 55  0.0000000  0  7G08G23G27G32G24G10G18
  -1033869.81247   -795709.33646  22663635.3914                   22663639.1884
        42.7504         37.0004
   1632583.85547   1279720.55145  21940746.5784                   21940746.5204
        45.7504         32.7504
    784681.89547    625650.54347  21753054.1804                   21753056.2974
        47.7504         44.0004
  -1700339.91048  -1306966.87548  20844708.8754                   20844710.2814
        52.2504         50.0004
   1871513.01246   1476186.35244  23264281.5704                   23264285.0474
        39.0004         29.0004
   -204313.31648   -132011.99648  21081382.5164                   21081384.1214
        52.0004         49.5004
   2380423.46946   1858965.51244  22686808.6094                   22686810.3634
        41.0004         29.0004
 25  8  7 18 55 15.0000000  0  7G08G23G27G32G24G10G18
  -1095875.39147   -844025.36746  22651836.2664                   22651839.7624
        43.7504         37.0004
   1609635.02347   1261838.32045  21936379.4694                   21936379.3754
        46.2504         33.0004
    753087.60547    601031.58647  21747041.7814                   21747044.1054
        47.2504         44.0004
  -1771199.91848  -1362182.45348  20831224.3364                   20831225.6374
        52.7504         50.0004
   1833417.81646   1446501.80544  23257031.9614                   23257035.7814
        37.7504         29.5004
   -254324.23048   -170981.53948  21071865.5394                   21071867.4184
        51.2504         49.5004
   2370557.71147   1851277.84045  22684931.5474                   22684933.2464
        42.5004         30.0004
 25  8  7 18 55 30.0000000  0  7G08G23G27G32G24G10G18
  -1157761.82447   -892248.55946  22640059.2034                   22640063.3984
        42.2504         37.0004
   1586695.38747   1243963.25845  21932014.3364                   21932014.6804
        45.7504         32.5004
    721607.88747    576501.91047  21741051.3054                   21741054.0004
        47.0004         44.0004
  -1841958.91448  -1417319.32448  20817759.5864                   20817760.7584
        51.7504         50.0004
   1795455.53546   1416920.80144  23249808.5864                   23249811.4304
        38.5004         29.2504
   -304311.77048   -209932.87148  21062353.1564                   21062354.8914
        51.0004         49.5004
   2360750.90246   1843636.10244  22683064.7894                   22683067.1684
        41.2504         29.5004
 25  8  7 18 55 45.0000000  0  7G08G23G27G32G24G10G18
  -1219528.69947   -940378.59446  22628305.7344                   22628309.1724
        42.2504         36.7504
   1563765.28547   1226095.61745  21927650.5394                   21927651.0664
        46.0004         32.5004
    690242.91047    552061.62947  21735083.1414                   21735085.2974
        47.7504         44.0004
  -1912616.46548  -1472377.14148  20804313.7894                   20804315.1454
        51.7504         50.0004
   1757626.49646   1387443.60945  23242609.8754                   23242613.4104
        38.0004         30.0004
   -354275.67248   -248865.78148  21052845.2814                   21052846.7584
        51.5004         49.5004
   2351003.34446   1836040.55144  22681210.5314                   22681211.9344
        41.7504         29.5004
 25  8  7 18 56  0.0000000  0  7G08G23G27G32G24G10G18
  -1281178.18047   -988417.14846  22616573.9454                   22616577.7504
        43.5004         36.2504
   1540842.47347   1208233.66845  21923289.1644                   21923289.1724
        46.0004         32.5004
    658990.22748    527708.85947  21729136.1564                   21729138.2154
        48.0004         44.0004
  -1983174.70348  -1527357.57048  20790887.1334                   20790888.3284
        51.7504         50.0004
   1719928.51646   1358068.53944  23235435.5394                   23235439.2194
        38.2504         29.2504
   -404218.16448   -287782.00848  21043341.6564                   21043342.8834
        51.2504         49.2504
   2341312.66846   1828489.31344  22679366.7734                   22679368.3054
        41.7504         29.5004
 25  8  7 18 56 15.0000000  0  7G08G23G27G32G24G10G18
  -1342709.73847  -1036363.81246  22604864.9454                   22604868.9884
        43.7504         37.5004
   1517927.35547   1190377.69145  21918927.9694                   21918928.5824
        46.0004         32.5004
    627850.04347    503443.74247  21723210.3524                   21723212.5664
        47.2504         44.0004
  -2053633.15648  -1582260.26248  20777479.1414                   20777480.7384
        52.0004         50.0004
   1682361.83246   1328795.79344  23228287.5474                   23228291.1604
        38.5004         29.7504
   -454138.84848   -326681.24248  21033841.8284                   21033843.8554
        49.5004         49.2504
   2331679.25447   1820982.68444  22677533.7584                   22677535.6174
        42.0004         29.0004
 25  8  7 18 56 30.0000000  0  7G08G23G27G32G24G10G18
  -1404121.37147  -1084217.03546  22593179.0474                   22593182.9104
        43.0004         38.0004
   1495021.83647   1172529.21545  21914569.4614                   21914569.7504
        45.0004         33.5004
    596824.02747    479267.60247  21717305.9144                   21717308.6684
        47.2504         44.5004
  -2123989.87548  -1637083.66848  20764090.9614                   20764092.3164
        51.7504         50.2504
   1644928.44546   1299626.92645  23221164.5944                   23221166.6094
        38.7504         30.0004
   -504035.82848   -365562.01248  21024346.8834                   21024348.7034
        48.2504         49.2504
   2322104.84447   1813522.04344  22675711.5554                   22675712.7384
        42.5004         29.0004
 25  8  7 18 56 45.0000000  0  7G08G23G27G32G24G10G18
  -1465411.99247  -1131975.96546  22581515.5784                   22581519.3954
        43.0004         38.0004
   1472126.97747   1154689.05145  21910212.9534                   21910213.0784
        45.2504         32.2504
    565913.08648    455181.11747  21711424.0474                   21711426.3244
        48.0004         44.0004
  -2194243.64848  -1691826.85548  20750721.9924                   20750723.2584
        52.2504         50.0004
   1607629.32446   1270562.69945  23214066.2814                   23214068.8674
        38.7504         30.5004
   -553908.05148   -404423.48848  21014856.5234                   21014858.3914
        49.7504         49.2504
   2312590.48847   1806108.20344  22673901.1334                   22673902.7624
        43.0004         28.2504
 25  8  7 18 57  0.0000000  0  7G08G23G27G32G24G10G18
  -1526586.56647  -1179644.46546  22569874.8754                   22569878.1994
        44.0004         38.2504
   1449237.67647   1136853.20745  21905856.7664                   21905857.5474
        44.5004         32.0004
    535111.89147    431180.15247  21705562.7194                   21705565.4104
        46.7504         44.2504
  -2264399.50048  -1746493.73848  20737371.6564                   20737373.3054
        51.2504         50.2504
   1570459.39546   1241599.11345  23206992.7424                   23206995.7934
        37.7504         30.5004
   -603760.62148   -443269.64548  21005369.8834                   21005371.4384
        50.7504         49.0004
   2303130.93847   1798737.05544  22672101.3364                   22672101.8834
        42.7504         28.5004
 25  8  7 18 57 15.0000000  0  7G08G23G27G32G24G10G18
  -1587643.09047  -1227220.98046  22558256.5554                   22558260.0434
        44.0004         37.7504
   1426355.87147   1119023.20745  21901503.0004                   21901503.0704
        45.2504         32.5004
    504422.18047    407266.06347  21699722.9614                   21699725.0204
        46.7504         44.0004
  -2334455.43048  -1801082.75848  20724040.4924                   20724042.0634
        51.5004         50.2504
   1533420.48046   1212737.59045  23199945.3524                   23199947.8874
        38.5004         31.5004
   -653591.62548   -482099.00448  20995887.6174                   20995889.0394
        51.0004         49.2504
   2293728.06347   1791410.08244  22670311.5784                   22670313.4804
        42.5004         28.7504
 25  8  7 18 57 30.0000000  0  7G08G23G27G32G24G10G18
  -1648580.64547  -1274704.78946  22546660.2274                   22546663.5434
        44.5004         37.2504
   1403482.37547   1101199.67645  21897150.0004                   21897150.6254
        45.0004         32.5004
    473844.60247    383439.34847  21693903.6564                   21693906.5864
        47.5004         43.7504
  -2404410.47748  -1855593.18048  20710728.2974                   20710729.7664
        51.2504         50.2504
   1496513.44546   1183978.85245  23192921.4454                   23192925.1764
        38.7504         31.0004
   -703400.18448   -520910.86748  20986409.1484                   20986410.9804
        50.0004         49.0004
   2284382.60547   1784127.84444  22668533.1564                   22668535.2194
        42.2504         29.5004
 25  8  7 18 57 45.0000000  0  7G08G23G27G32G24G10G18
  -1709399.15247  -1322095.84846  22535086.8674                   22535089.8834
        43.7504         37.2504
   1380617.22347   1083382.63745  21892799.0084                   21892799.2114
        44.5004         32.5004
    443378.91847    359699.81647  21688106.7114                   21688108.8714
        47.7504         43.7504
  -2474264.60248  -1910024.94948  20697435.7974                   20697437.2664
        51.5004         50.5004
   1459738.32046   1155322.89845  23185924.1954                   23185926.5864
        38.5004         30.2504
   -753186.39548   -559705.32048  20976935.4454                   20976936.7544
        50.0004         49.2504
   2275094.48047   1776890.28544  22666765.7114                   22666767.9654
        42.2504         29.0004
 25  8  7 18 58  0.0000000  0  7G08G23G27G32G24G10G18
  -1770098.74247  -1369394.23446  22523536.0314                   22523539.5434
        43.5004         36.5004
   1357760.22747   1065571.96945  21888448.9924                   21888449.7704
        44.2504         32.2504
    413024.77047    336047.19147  21682330.6724                   21682333.0434
        47.5004         44.0004
  -2544017.91048  -1964378.16448  20684162.0784                   20684163.5044
        51.5004         50.2504
   1423094.75846   1126769.48845  23178950.0004                   23178953.6884
        38.7504         30.2504
   -802950.35548   -598482.42648  20967465.3914                   20967466.8284
        51.2504         49.2504
   2265863.43847   1769697.19144  22665008.7814                   22665011.0394
        42.5004         28.7504
 25  8  7 18 58 15.0000000  0  7G08G23G27G32G24G10G18
  -1830682.94147  -1416602.70746  22512006.7734                   22512009.4694
        42.7504         36.0004
   1334907.73047   1047764.80545  21884100.7034                   21884101.0704
        43.5004         31.7504
    382778.25047    312478.44547  21676574.7584                   21676577.1294
        47.0004         44.0004
  -2613673.91848  -2018655.56648  20670907.0784                   20670908.4344
        51.2504         50.5004
   1386579.23446   1098315.81645  23172001.5944                   23172004.9574
        39.5004         31.5004
   -852695.76248   -637245.08648  20957999.3914                   20958000.6374
        50.5004         49.2504
   2256685.67247   1762545.62144  22663262.9064                   22663265.0594
        42.5004         28.5004
 25  8  7 18 58 30.0000000  0  7G08G23G27G32G24G10G18
  -1891148.10247  -1463718.43746  22500500.8054                   22500504.1374
        43.5004         36.5004
   1312063.35247   1029963.95745  21879753.5084                   21879754.0984
        43.7504         31.7504
    352642.81647    288996.25447  21670839.9844                   21670842.6374
        46.7504         44.0004
  -2683229.00448  -2072854.31648  20657671.1804                   20657672.4884
        51.7504         50.5004
   1350195.16946   1069964.58445  23165077.6024                   23165081.7584
        38.2504         31.7504
   -902419.02348   -675990.48048  20948537.2584                   20948538.6454
        49.2504         49.2504
   2247564.78947   1755438.38344  22661527.3134                   22661529.2194
        43.0004         28.7504
 25  8  7 18 58 45.0000000  0  7G08G23G27G32G24G10G18
   -376069.98847   -283138.09045  22788810.3134                   22788813.5784
        42.2504         35.5004
   2864648.76247   2239770.75045  22175200.3834                   22175201.3164
        43.5004         31.2504
   1898040.39547   1493202.12547  21964919.4304                   21964921.7344
        47.5004         44.0004
  -1177258.29348   -899370.63348  20944247.7194                   20944249.2584
        51.7504         50.5004
   2889365.14146   2269317.77345  23457972.8284                   23457976.2384
        39.5004         32.0004
    623303.32448    512884.07048  21238872.5164                   21238873.8834
        48.7504         49.0004
   3813921.35547   2975975.90244  22959595.2194                   22959596.7734
        43.5004         28.2504
 25  8  7 18 59  0.0000000  0  7G08G23G27G32G24G10G18
   -436296.30947   -330067.69146  22777349.6564                   22777353.3594
        42.7504         36.2504
   2841821.16847   2221982.98445  22170856.8054                   22170857.2894
        43.7504         30.2504
   1868126.93447   1469892.90647  21959227.2504                   21959229.7704
        46.5004         43.7504
  -1246610.71148   -953411.47348  20931050.3834                   20931051.7464
        51.7504         50.5004
   2853244.49246   2241171.80545  23451098.6954                   23451102.6994
        38.7504         32.0004
    573624.91048    474173.61348  21229418.8754                   21229420.6094
        50.2504         49.0004
   3804914.39847   2968957.42644  22957880.7664                   22957883.2624
        43.2504         28.5004
 25  8  7 18 59 15.0000000  0  8G02G08G23G27G32G24G10G18
   4641822.11755   3670851.22753  24779309.5084                   24779310.7384
        34.7504         20.0004
   -496404.07847   -376904.92246  22765911.6884                   22765915.8134
        42.5004         36.5004
   2819001.00847   2204201.02045  22166514.7664                   22166515.2304
        43.5004         30.7504
   1838323.26247   1446669.23847  21953555.7734                   21953558.3524
        47.5004         44.0004
  -1315862.64848  -1007374.00448  20917872.2734                   20917873.9534
        51.5004         50.5004
   2817254.56646   2213127.68045  23444250.5864                   23444254.6094
        39.2504         31.5004
    523967.96948    435479.89548  21219969.3444                   21219971.1024
        49.0004         49.0004
   3795963.25447   2961982.45344  22956177.9144                   22956179.5084
        42.0004         27.7504
 25  8  7 18 59 30.0000000  0  8G02G08G23G27G32G24G10G18
   4545947.99646   3596144.19543  24761065.6804                   24761066.1094
        36.2504         19.2504
   -556391.33647   -423648.23046  22754496.5394                   22754500.2154
        42.5004         36.2504
   2796190.17647   2186426.32045  22162173.8594                   22162174.0744
        44.7504         32.0004
   1808630.93847   1423532.32447  21947905.6254                   21947908.0744
        47.5004         43.7504
  -1385012.13748  -1061256.71148  20904713.6254                   20904714.6174
        51.5004         50.5004
   2781397.22746   2185186.91045  23437426.3984                   23437430.1254
        39.0004         32.0004
    474334.34848    396804.34048  21210524.6884                   21210526.2774
        49.5004         49.2504
   3787069.79747   2955052.42244  22954485.6564                   22954487.2774
        43.0004         27.2504
 25  8  7 18 59 45.0000000  0  8G02G08G23G27G32G24G10G18
   4450060.05546   3521426.36343  24742818.0784                   24742819.1024
        38.2504         19.7504
   -616261.03547   -470299.95346  22743103.6884                   22743107.6374
        42.5004         36.2504
   2773385.57047   2168656.48445  22157834.4454                   22157834.6884
        44.2504         31.0004
   1779046.71147   1400479.65247  21942275.8754                   21942278.6414
        47.7504         44.0004
  -1454062.18448  -1115061.94148  20891573.7114                   20891575.1564
        51.0004         50.5004
   2745669.27746   2157346.95345  23430628.5704                   23430631.9804
        40.2504         33.5004
    424720.97748    358144.57048  21201083.7274                   21201085.1644
        50.7504         49.0004
   3778230.79347   2948164.81344  22952803.5234                   22952805.2734
        43.0004         27.0004
 25  8  7 19  0  0.0000000  0  8G02G08G23G27G32G24G10G18
   4354158.30146   3446697.77743  24724568.6094                   24724569.5204
        38.0004         19.5004
   -676013.32447   -516860.18046  22731732.9614                   22731737.4804
        43.0004         36.5004
   2750587.14147   2150891.45345  22153495.7584                   22153496.2584
        44.0004         31.2504
   1749570.26647   1377510.96547  21936666.6094                   21936669.5044
        47.5004         43.7504
  -1523012.83648  -1168789.70348  20878452.6254                   20878454.1094
        51.5004         50.5004
   2710070.55546   2129607.67645  23423853.9774                   23423858.3794
        38.2504         31.7504
    375127.75848    319500.50848  21191646.5704                   21191647.4104
        49.5004         49.0004
   3769446.07047   2941319.50044  22951132.0864                   22951133.4774
        43.2504         29.0004
 25  8  7 19  0 15.0000000  0  8G02G08G23G27G32G24G10G18
   4258241.37546   3371957.35243  24706316.0554                   24706317.0124
        37.5004         20.0004
   -735649.61747   -563330.00846  22720384.7584                   22720388.8404
        43.7504         37.2504
   2727793.25047   2133129.95345  22149158.2194                   22149158.8594
        43.7504         31.7504
   1720199.79747   1354624.85247  21931077.9224                   21931080.4574
        47.5004         43.7504
  -1591865.59048  -1222441.18748  20865350.3674                   20865352.2234
        51.0004         50.5004
   2674599.52746   2101967.89545  23417104.2664                   23417107.4454
        39.0004         32.0004
    325553.10248    280870.89848  21182212.4534                   21182213.8444
        49.5004         49.0004
   3760713.96947   2934515.21144  22949470.3914                   22949472.5474
        43.2504         28.5004
 25  8  7 19  0 30.0000000  0  8G02G08G23G27G32G24G10G18
   4162308.07846   3297204.18843  24688060.4924                   24688060.8244
        37.7504         18.5004
   -795171.37947   -609710.61346  22709058.3204                   22709062.0634
        44.0004         37.5004
   2705002.51247   2115370.91045  22144821.7424                   22144822.0984
        44.5004         31.7504
   1690933.64547   1331820.01647  21925508.3134                   21925510.9964
        47.7504         43.7504
  -1660621.82048  -1276017.46948  20852266.7034                   20852267.8954
        51.7504         50.5004
   2639254.65246   2074426.42645  23410378.6644                   23410381.8284
        39.7504         33.2504
    275995.53548    242254.60548  21172782.0864                   21172783.3284
        50.2504         49.0004
   3752032.89147   2927750.66444  22947818.0314                   22947820.1914
        43.0004         27.5004
 25  8  7 19  0 45.0000000  0  8G02G08G23G27G32G24G10G18
   4066357.80546   3222437.77343  24669801.8594                   24669801.9024
        39.2504         19.0004
   -854579.25447   -656002.46946  22697753.6804                   22697757.4734
        44.0004         37.7504
   2682214.10247   2097613.68845  22140484.9534                   22140485.5514
        44.0004         32.0004
   1661770.82047   1309095.70347  21919959.2344                   21919961.8914
        47.5004         43.5004
  -1729282.25848  -1329519.09848  20839200.9924                   20839202.3404
        51.7504         50.5004
   2604035.08246   2046982.60245  23403675.5704                   23403679.7114
        39.0004         33.5004
    226454.30948    203651.05148  21163354.7974                   21163356.2234
        49.2504         49.0004
   3743402.01647   2921025.23044  22946175.6484                   22946178.5704
        43.5004         27.7504
 25  8  7 19  1  0.0000000  0  8G02G08G23G27G32G24G10G18
   3970392.97746   3147659.95343  24651540.0234                   24651540.4344
        38.0004         19.7504
   -913871.19147   -702203.98046  22686470.1254                   22686474.8324
        43.7504         37.5004
   2659430.15247   2079859.93845  22136149.2274                   22136149.7584
        43.5004         31.2504
   1632713.09447   1286453.28147  21914429.6254                   21914432.7034
        47.5004         44.0004
  -1797844.73848  -1382944.39148  20826153.8834                   20826155.3794
        51.2504         50.5004
   2568942.81646   2019637.96145  23396998.4224                   23397002.4384
        39.5004         32.5004
    176931.47748    165061.83648  21153930.6884                   21153932.2624
        49.0004         49.2504
   3734823.26647   2914340.42244  22944543.4924                   22944545.5744
        43.0004         27.7504
 25  8  7 19  1 15.0000000  0  8G02G08G23G27G32G24G10G18
   3874413.03546   3072870.43842  24633275.2814                   24633276.1374
        37.0004         17.7504
   -973047.76647   -748315.59046  22675210.1644                   22675213.2344
        44.5004         38.0004
   2636649.91047   2062109.07845  22131814.4384                   22131814.9104
        44.0004         31.7504
   1603759.61347   1263892.09847  21908920.0394                   21908922.7274
        47.0004         44.2504
  -1866309.94948  -1436293.89548  20813125.4534                   20813127.2424
        51.5004         50.5004
   2533977.12146   1992391.96145  23390344.1024                   23390348.2934
        38.2504         32.2504
    127426.32048    126486.38748  21144510.6484                   21144511.8914
        49.5004         49.5004
   3726295.87147   2907695.62944  22942920.5944                   22942923.1604
        44.0004         27.2504
 25  8  7 19  1 30.0000000  0  8G02G08G23G27G32G24G10G18
   3778416.18046   2998067.73043  24615008.2344                   24615008.9884
        37.7504         20.0004
  -1032110.92247   -794338.84046  22663970.3834                   22663974.2304
        44.0004         37.0004
   2613871.39847   2044359.56645  22127480.3204                   22127480.4454
        43.7504         31.0004
   1574908.14147   1241410.39847  21903430.1094                   21903432.5664
        47.0004         44.0004
  -1934679.74648  -1489569.05148  20800114.9064                   20800116.2194
        51.0004         50.5004
   2499135.94946   1965242.97345  23383714.3834                   23383718.1644
        40.2504         32.5004
     77936.88348     87923.18448  21135092.7664                   21135094.2464
        48.5004         49.2504
   3717817.73447   2901089.21944  22941307.5784                   22941309.6454
        44.0004         28.0004
 25  8  7 19  1 45.0000000  0  8G02G08G23G27G32G24G10G18
   3682406.38746   2923254.98043  24596738.6484                   24596739.4884
        38.0004         21.5004
  -1091057.04347   -840270.89146  22652753.0474                   22652756.6764
        43.5004         37.0004
   2591098.26247   2026614.23045  22123146.7584                   22123146.6484
        44.0004         31.2504
   1546162.07047   1219010.82847  21897959.2814                   21897962.2274
        47.5004         43.5004
  -2002950.50448  -1542767.03148  20787123.7274                   20787125.4614
        51.5004         50.7504
   2464422.90746   1938193.85045  23377108.4454                   23377112.6644
        39.2504         33.0004
     28466.73448     49375.02048  21125679.0234                   21125680.5514
        48.5004         49.5004
   3709392.32847   2894523.89844  22939704.3364                   22939706.2704
        43.0004         28.5004
 25  8  7 19  2  0.0000000  0  8G02G08G23G27G32G24G10G18
   3586383.01246   2848431.64843  24578465.4774                   24578466.9144
        37.7504         20.5004
  -1149886.91847   -886112.35546  22641558.6884                   22641561.2814
        43.5004         37.0004
   2568329.65247   2008872.44145  22118813.6644                   22118814.2664
        44.2504         30.5004
   1517520.26247   1196692.50447  21892509.4534                   21892511.8244
        47.2504         43.7504
  -2071123.02348  -1595888.46948  20774150.7814                   20774152.3984
        51.2504         50.7504
   2429836.91046   1911243.71145  23370527.8134                   23370530.9224
        39.5004         33.0004
    -20984.99648     10841.19548  21116268.7034                   21116270.0634
        49.5004         49.2504
   3701018.75847   2887998.96944  22938111.3594                   22938112.6954
        43.2504         28.0004
 25  8  7 19  2 15.0000000  0  8G02G08G23G27G32G24G10G18
   3490347.70746   2773599.00443  24560191.3524                   24560191.5474
        38.2504         22.0004
  -1208598.95347   -931861.99646  22630386.0944                   22630388.5944
        44.0004         36.7504
   2545567.06647   1991135.32845  22114481.5784                   22114482.5904
        43.5004         31.0004
   1488984.06647   1174456.47747  21887079.2274                   21887082.1294
        47.5004         43.5004
  -2139195.69948  -1648932.10248  20761197.2424                   20761198.3284
        51.2504         50.7504
   2395379.54346   1884393.80945  23363969.8444                   23363973.8874
        37.7504         32.2504
    -70416.74248    -27677.05548  21106862.3524                   21106863.6334
        51.0004         49.2504
   3692698.38747   2881515.48844  22936527.8594                   22936529.7584
        43.5004         28.7504
 25  8  7 19  2 30.0000000  0  8G02G08G23G27G32G24G10G18
   3394297.84846   2698755.05143  24541912.9384                   24541913.7504
        36.7504         21.5004
  -1267196.09447   -977522.11746  22619235.8204                   22619238.7814
        44.0004         37.5004
   2522807.54747   1973400.61345  22110150.8594                   22110151.6254
        44.0004         30.7504
   1460550.23847   1152300.21947  21881668.5004                   21881671.3404
        47.5004         43.5004
  -2207171.46548  -1701900.22748  20748261.6954                   20748263.1374
        51.7504         50.7504
   2361047.75446   1857641.73845  23357437.0634                   23357441.1254
        40.0004         33.0004
   -119831.51648    -66182.07448  21097458.9384                   21097460.2624
        50.2504         49.2504
   3684428.15247   2875071.08244  22934954.2114                   22934955.6764
        42.2504         28.2504
 25  8  7 19  2 45.0000000  0  8G02G08G23G27G32G24G10G18
   3298234.33646   2623900.41443  24523633.1254                   24523633.9574
        37.0004         22.2504
  -1325677.47747  -1023092.03946  22608106.6884                   22608109.6414
        44.0004         37.5004
   2500051.90247   1955668.91445  22105820.4144                   22105821.4964
        44.0004         31.5004
   1432219.41047   1130224.21147  21876277.1174                   21876279.9494
        47.0004         43.5004
  -2275049.42648  -1754792.12948  20735345.0394                   20735346.4024
        51.7504         50.7504
   2326842.26646   1830988.10945  23350927.6724                   23350931.2704
        40.2504         33.2504
   -169228.44948   -104673.19148  21088059.0634                   21088060.4924
        51.2504         49.2504
   3676208.77747   2868666.30944  22933389.8054                   22933392.1214
        43.2504         27.5004
 25  8  7 19  3  0.0000000  0  8G02G08G23G27G32G24G10G18
   3202158.71546   2549036.39143  24505349.4774                   24505350.9384
        36.5004         22.0004
  -1384041.85247  -1068570.77046  22597000.3364                   22597003.2934
        43.5004         37.0004
   2477301.37947   1937941.21145  22101491.4144                   22101492.0314
        44.0004         30.7504
   1403992.49247   1108229.18047  21870905.4454                   21870908.3204
        47.0004         43.5004
  -2342828.34048  -1807606.85948  20722446.9924                   20722448.2934
        50.7504         50.5004
   2292764.24246   1804433.79745  23344442.8754                   23344446.8134
        39.0004         33.0004
   -218606.37148   -143149.49648  21078662.7114                   21078664.1724
        51.2504         49.2504
   3668041.36347   2862302.01644  22931836.0864                   22931838.1994
        43.5004         27.0004
 25  8  7 19  3 15.0000000  0  8G02G08G23G27G32G24G10G18
   3106070.77346   2474162.77343  24487064.9844                   24487065.7624
        37.5004         22.5004
  -1442289.47347  -1113958.53146  22585916.2194                   22585919.1764
        43.7504         37.7504
   2454555.58247   1920217.19145  22097163.2344                   22097163.4454
        43.7504         30.7504
   1375868.96147   1086314.70347  21865554.0314                   21865556.7304
        47.0004         43.5004
  -2410508.49648  -1860344.62548  20709567.7894                   20709569.2424
        51.0004         50.5004
   2258813.29746   1777978.48445  23337982.9924                   23337986.4844
        40.2504         33.2504
   -267965.59848   -181611.23448  21069269.7424                   21069271.1844
        51.2504         49.2504
   3659925.45347   2855977.85244  22930291.7274                   22930293.9454
        42.5004         28.0004
 25  8  7 19  3 30.0000000  0  8G02G08G23G27G32G24G10G18
   3009972.62146   2399281.16043  24468778.3594                   24468779.4064
        38.5004         23.2504
  -1500418.48447  -1159253.86746  22574854.5944                   22574857.7584
        44.5004         38.2504
   2431816.44547   1902498.36745  22092835.9304                   22092836.5554
        44.0004         30.5004
   1347850.35947   1064481.99247  21860222.2274                   21860224.8324
        47.5004         43.5004
  -2478087.99248  -1913003.96548  20696707.5944                   20696709.3134
        50.7504         50.5004
   2224991.18046   1751623.58245  23331547.1334                   23331549.9454
        41.0004         33.7504
   -317304.35248   -220057.02048  21059880.9304                   21059882.3284
        51.5004         49.5004
   3651862.76647   2849695.16844  22928757.1884                   22928759.6484
        42.7504         28.0004
 25  8  7 19  3 45.0000000  0  8G02G08G23G27G32G24G10G18
   2913862.94946   2324390.57443  24450489.5084                   24450489.3524
        39.0004         23.7504
  -1558430.50447  -1204458.03946  22563815.3524                   22563818.8484
        44.0004         37.7504
   2409082.32847   1884783.44945  22088509.8674                   22088510.6684
        43.7504         31.0004
   1319934.89547   1042729.64547  21854910.2974                   21854912.6764
        47.0004         43.7504
  -2545568.41448  -1965586.10248  20683866.5944                   20683868.1524
        51.0004         50.5004
   2191296.14846   1725367.69945  23325134.6414                   23325138.7854
        40.2504         34.0004
   -366624.23848   -258488.10248  21050495.5554                   21050497.2814
        51.5004         49.2504
   3643851.55147   2843452.59444  22927232.9304                   22927234.9844
        42.2504         27.0004
 25  8  7 19  4  0.0000000  0  8G02G08G23G27G32G24G10G18
   2817742.94546   2249491.93443  24432197.9694                   24432197.9844
        38.5004         22.5004
  -1616324.47347  -1249570.23046  22552798.1484                   22552801.8164
        44.0004         37.2504
   2386354.12947   1867073.14545  22084184.9774                   22084185.2584
        44.2504         30.5004
   1292123.20347   1021058.16447  21849618.2814                   21849620.6564
        47.2504         43.5004
  -2612948.74648  -2018090.24648  20671044.6484                   20671046.0124
        50.5004         50.5004
   2157729.10246   1699211.53545  23318747.3834                   23318751.3204
        39.0004         34.2504
   -415924.29348   -296903.73448  21041114.4064                   21041115.7664
        50.5004         49.5004
   3635892.70346   2837250.81644  22925718.2274                   22925720.5984
        41.7504         27.0004
 25  8  7 19  4 15.0000000  0  8G02G08G23G27G32G24G10G18
   2721614.24646   2174586.51643  24413905.2504                   24413905.6804
        38.2504         22.5004
  -1674099.00047  -1294589.34046  22541804.2034                   22541807.8524
        44.0004         37.2504
   2363633.37547   1849368.63345  22079861.0864                   22079861.5124
        44.2504         30.5004
   1264416.58247    999468.55947  21844345.3284                   21844348.3324
        47.0004         43.5004
  -2680227.48048  -2070515.23048  20658242.0554                   20658243.5004
        50.5004         50.5004
   2124291.46546   1673156.23445  23312383.7664                   23312388.2384
        39.0004         34.2504
   -465203.04348   -335302.77048  21031736.6804                   21031738.0594
        49.5004         49.2504
   3627987.56346   2831090.90244  22924214.2194                   22924216.6564
        41.5004         26.7504
 25  8  7 19  4 30.0000000  0  8G02G08G23G27G32G24G10G18
   2625475.02346   2099672.89143  24395610.3834                   24395610.8054
        38.7504         22.5004
  -1731756.00847  -1339516.88346  22530832.2584                   22530836.0204
        44.2504         37.0004
   2340917.97747   1831668.30145  22075538.1954                   22075539.1684
        43.5004         30.7504
   1236812.65247    977958.96547  21839093.1564                   21839095.3444
        47.0004         43.7504
  -2747406.67248  -2122862.64148  20645457.7894                   20645459.9494
        50.2504         50.5004
   2090980.98846   1647200.00045  23306045.1094                   23306048.9804
        39.5004         33.5004
   -514462.60948   -373686.85248  21022363.0784                   21022364.7504
        51.2504         49.2504
   3620133.88746   2824971.06344  22922720.0314                   22922721.4264
        41.2504         27.0004
 25  8  7 19  4 45.0000000  0  8G02G08G23G27G32G24G10G18
   2529325.95746   2024751.60943  24377313.4224                   24377314.0274
        37.2504         22.5004
  -1789295.07847  -1384352.52746  22519882.9694                   22519886.7584
        44.5004         38.0004
   2318208.40247   1813972.50845  22071217.0944                   22071217.5864
        44.2504         30.2504
   1209311.64148    956529.57047  21833859.5084                   21833862.1054
        48.0004         43.5004
  -2814485.78148  -2175132.06248  20632693.4774                   20632695.1134
        50.0004         50.5004
   2057798.09846   1621343.20345  23299730.3364                   23299734.5634
        39.2504         33.5004
   -563702.48048   -412055.59048  21012993.1884                   21012994.4024
        50.5004         49.2504
   3612332.12146   2818891.69944  22921234.7504                   22921237.5594
        40.5004         25.5004
 25  8  7 19  5  0.0000000  0  8G02G08G23G27G32G24G10G18
   2433166.63346   1949822.34443  24359015.6564                   24359015.5864
        37.5004         21.2504
  -1846716.87547  -1429096.79346  22508955.5704                   22508960.0664
        44.0004         37.7504
   2295503.95747   1796280.71145  22066896.9144                   22066897.2384
        44.2504         31.0004
   1181912.63747    935179.66447  21828645.9694                   21828648.2424
        47.0004         43.5004
  -2881465.48848  -2227324.03548  20619947.4774                   20619948.9264
        51.5004         50.5004
   2024742.01246   1595585.18445  23293440.4844                   23293444.8674
        39.2504         33.7504
   -612923.37948   -450409.53548  21003626.3284                   21003627.6334
        50.2504         49.2504
   3604581.37146   2812852.07044  22919760.4454                   22919762.6334
        41.2504         26.2504
 25  8  7 19  5 15.0000000  0  8G02G08G23G27G32G24G10G18
   2336999.09446   1874886.64843  24340714.3524                   24340714.8674
        36.0004         20.5004
  -1904019.40247  -1473748.12946  22498051.2114                   22498055.5594
        43.5004         37.7504
   2272806.59447   1778594.44145  22062577.8364                   22062578.1454
        44.0004         31.0004
   1154617.28547    913910.52747  21823451.5474                   21823454.4924
        47.2504         43.5004
  -2948343.77348  -2279436.97748  20607220.9694                   20607222.7894
        50.7504         50.7504
   1991814.61746   1569927.46945  23287173.8134                   23287178.2974
        37.5004         34.2504
   -662123.33648   -488747.17648  20994264.0944                   20994265.5124
        50.5004         49.0004
   3596883.51246   2806853.65244  22918295.6174                   22918297.7154
        40.5004         24.7504
 25  8  7 19  5 30.0000000  0  8G02G08G23G27G32G24G10G18
   2240821.30545   1799942.99643  24322412.2274                   24322413.5704
        35.7504         19.2504
  -1961205.00447  -1518308.34046  22487169.5704                   22487172.9964
        43.2504         37.7504
   2250113.89847   1760911.79745  22058259.2504                   22058259.8554
        44.2504         31.2504
   1127423.00447    892720.13747  21818276.7034                   21818279.1294
        46.5004         43.5004
  -3015123.00448  -2331472.72748  20594513.5164                   20594514.4614
        51.0004         50.7504
   1959013.38346   1544368.04745  23280933.7034                   23280936.4414
        39.7504         33.7504
   -711304.78948   -527070.38748  20984905.0084                   20984906.8284
        51.0004         49.2504
   3589236.01646   2800894.48044  22916840.3204                   22916842.5044
        40.0004         25.5004
 25  8  7 19  5 45.0000000  0  8G02G08G23G27G32G24G10G18
   2144634.29746   1724992.16843  24304109.2274                   24304109.8594
        36.0004         19.0004
  -2018272.75847  -1562776.72746  22476310.1094                   22476313.7274
        43.7504         37.5004
   2227426.88347   1743233.58645  22053942.1414                   22053942.6054
        43.5004         30.7504
   1100330.45347    871609.03147  21813120.9534                   21813124.1054
        47.0004         43.5004
  -3081802.20748  -2383430.53948  20581824.7344                   20581826.3594
        50.7504         50.7504
   1926339.18446   1518907.61745  23274714.9924                   23274718.6454
        39.2504         34.0004
   -760466.75048   -565378.41848  20975550.2274                   20975551.4344
        50.7504         49.0004
   3581639.72346   2794975.21944  22915394.7344                   22915397.4064
        40.0004         26.0004
 25  8  7 19  6  0.0000000  0  8G02G08G23G27G32G24G10G18
   2048439.70746   1650035.40643  24285803.4694                   24285804.2664
        36.5004         19.2504
  -2075221.49647  -1607152.37946  22465472.8674                   22465477.0124
        43.7504         37.7504
   2204746.62947   1725560.63745  22049626.1884                   22049626.6374
        43.7504         30.7504
   1073340.47347    850577.83247  21807985.0944                   21807987.9384
        47.7504         43.7504
  -3148380.18748  -2435309.47348  20569155.1954                   20569157.1884
        51.0004         50.7504
   1893793.05546   1493546.99645  23268521.3054                   23268525.1484
        40.2504         33.7504
   -809608.13348   -603670.40248  20966198.8444                   20966200.0004
        50.2504         49.0004
   3574095.56346   2789096.56344  22913958.9844                   22913961.5784
        40.5004         25.5004
 25  8  7 19  6 15.0000000  0  8G02G08G23G27G32G24G10G18
   1952236.60246   1575072.02043  24267496.8594                   24267497.6214
        37.0004         19.5004
  -2132052.11347  -1651435.98846  22454658.6414                   22454662.8554
        44.2504         38.0004
   2182072.20747   1707892.23845  22045311.3364                   22045312.0314
        43.2504         30.5004
   1046451.88747    829625.65647  21802868.5234                   21802871.0704
        46.5004         43.7504
  -3214857.90648  -2487110.28148  20556504.6724                   20556506.4534
        51.0004         50.5004
   1861373.94146   1468285.34445  23262352.9384                   23262356.2154
        40.2504         33.5004
   -858729.88348   -641947.09048  20956850.8984                   20956852.6644
        49.2504         49.2504
   3566602.58246   2783257.80144  22912533.0314                   22912535.7154
        40.5004         26.2504
 25  8  7 19  6 30.0000000  0  8G02G08G23G27G32G24G10G18
   3431451.17646   2727706.85243  24548982.0084                   24548982.4614
        37.5004         19.0004
   -613341.34447   -468025.00446  22743659.8914                   22743663.3524
        43.7504         38.5004
   3734824.64147   2917829.18445  22340790.4844                   22340791.1294
        43.5004         31.2504
   2595085.77747   2036353.32447  22097563.4844                   22097566.0864
        46.5004         43.5004
  -1705811.33248  -1311229.82848  20843666.9774                   20843668.9494
        50.2504         50.7504
   3404503.41046   2670723.87545  23556000.7504                   23556004.0434
        40.0004         32.5004
    667590.84048    547393.72748  21247300.2194                   21247301.2304
        51.0004         49.2504
   5134580.58646   4005058.77344  23210909.5474                   23210912.0514
        40.0004         26.2504
 25  8  7 19  6 45.0000000  0  8G02G08G23G27G32G24G10G18
   3335231.37946   2652730.44143  24530672.0634                   24530672.7734
        38.0004         21.0004
   -669936.22347   -512124.91846  22732890.6174                   22732893.7074
        44.7504         38.0004
   3712161.43447   2900169.51245  22336478.1414                   22336478.4454
        44.5004         32.0004
   2568398.79747   2015558.24247  22092485.4774                   22092487.8914
        46.7504         44.0004
  -1772088.82048  -1362874.62148  20831054.8984                   20831056.1764
        51.0004         50.7504
   3372337.60946   2645659.62545  23549879.0394                   23549883.1454
        39.0004         32.5004
    618507.95748    509147.32048  21237960.1644                   21237961.2934
        51.0004         49.2504
   5127189.07046   3999299.06644  23209503.3284                   23209505.8874
        40.0004         27.7504
 25  8  7 19  7  0.0000000  0  8G02G08G23G27G32G24G10G18
   3239004.60246   2577748.62143  24512360.7114                   24512360.8204
        37.5004         22.5004
   -726412.07447   -556132.09046  22722142.9384                   22722146.8834
        44.0004         38.0004
   3689504.95747   2882515.08245  22332166.2274                   22332166.8364
        43.2504         31.0004
   2541813.33247   1994842.25847  22087426.1884                   22087429.3054
        47.0004         43.2504
  -1838265.08248  -1414440.52348  20818461.9064                   20818463.3244
        50.5004         50.7504
   3340299.40246   2620694.74645  23543782.7734                   23543787.3914
        40.5004         34.0004
    569445.57848    470916.89548  21228623.7034                   21228625.3984
        50.0004         49.5004
   5119849.09846   3993579.53144  23208106.7504                   23208109.1994
        40.5004         27.7504
 25  8  7 19  7 15.0000000  0  8G02G08G23G27G32G24G10G18
   3142771.56646   2502761.91043  24494047.6484                   24494048.5824
        38.7504         21.5004
   -782768.53147   -600046.21946  22711418.8284                   22711422.5514
        44.5004         38.0004
   3666855.53147   2864866.15245  22327856.4614                   22327857.0784
        43.5004         31.0004
   2515329.43047   1974205.41447  22082386.5004                   22082389.3594
        46.5004         43.2504
  -1904339.68448  -1465927.21948  20805888.4844                   20805889.7814
        50.7504         51.0004
   3308388.99646   2595829.48845  23537709.8364                   23537714.0554
        40.0004         33.5004
    520404.01648    432702.68448  21219291.3524                   21219293.1414
        51.0004         49.2504
   5112561.07846   3987900.46144  23206719.7664                   23206722.6134
        40.2504         27.0004
 25  8  7 19  7 30.0000000  0  8G02G08G23G27G32G24G10G18
   3046529.86346   2427768.43443  24475733.6024                   24475734.3094
        38.5004         22.0004
   -839008.26647   -643869.39546  22700716.3364                   22700720.3554
        43.5004         38.0004
   3644210.56347   2847220.68445  22323546.9774                   22323547.5514
        44.2504         30.7504
   2488944.22347   1953645.48447  22077365.7114                   22077368.4344
        46.5004         42.7504
  -1970315.25048  -1517336.74248  20793333.3134                   20793335.0234
        50.0004         50.7504
   3276603.71146   2571061.71145  23531662.0554                   23531666.2854
        40.0004         33.5004
    471380.72348    394502.71548  21209962.7194                   21209964.3164
        49.2504         49.5004
   5105322.14846   3982259.65244  23205341.9384                   23205345.4064
        41.0004         27.2504
 25  8  7 19  7 45.0000000  0  8G02G08G23G27G32G24G10G18
   2950281.80146   2352770.00843  24457418.1414                   24457418.6374
        37.5004         22.5004
   -895129.06647   -687599.90246  22690036.6954                   22690041.0004
        44.0004         38.0004
   3621572.19547   2829580.37945  22319239.1724                   22319239.6914
        44.7504         30.2504
   2462659.58247   1933163.90647  22072363.8134                   22072366.6764
        46.5004         43.0004
  -2036189.62548  -1568667.41448  20780798.0784                   20780799.7344
        50.0004         51.0004
   3244945.59046   2546393.05945  23525637.1174                   23525641.5004
        40.0004         33.2504
    422377.80148    356318.60548  21200637.5554                   21200639.6764
        50.5004         49.5004
   5098134.32846   3976658.66844  23203974.5634                   23203977.2464
        40.2504         27.0004
 25  8  7 19  8  0.0000000  0  8G02G08G23G27G32G24G10G18
   2854027.44546   2277766.71143  24439101.3674                   24439102.1914
        39.0004         22.5004
   -951131.17247   -731237.90246  22679380.1954                   22679384.1644
        43.7504         38.0004
   3598940.21947   2811945.04345  22314932.6804                   22314933.6644
        44.2504         31.7504
   2436475.04747   1912760.33647  22067381.4774                   22067383.4384
        46.5004         43.2504
  -2101963.00848  -1619919.39148  20768281.8204                   20768283.3874
        49.7504         50.7504
   3213414.26646   2521823.19945  23519636.7734                   23519641.0554
        40.0004         32.5004
    373395.02748    318150.21148  21191316.8674                   21191318.8404
        48.5004         49.5004
   5090997.31646   3971097.27344  23202616.6564                   23202619.5594
        40.0004         26.7504
 25  8  7 19  8 15.0000000  0  8G02G08G23G27G32G24G10G18
   2757767.07846   2202758.68043  24420783.9144                   24420784.2814
        38.5004         22.5004
  -1007014.60247   -774783.44946  22668746.6414                   22668749.6174
        44.5004         38.5004
   3576314.60547   2794314.68045  22310627.3134                   22310628.1604
        44.5004         30.5004
   2410390.33647   1892434.54347  22062417.6564                   22062420.3914
        46.7504         43.0004
  -2167635.38348  -1671092.65648  20755784.8754                   20755786.3834
        49.7504         50.7504
   3182009.62946   2497352.03145  23513661.1024                   23513665.6334
        39.5004         33.0004
    324432.35948    279997.48448  21181999.4144                   21182001.1214
        50.5004         49.5004
   5083910.87146   3965575.28944  23201268.4304                   23201270.7894
        40.5004         27.5004
 25  8  7 19  8 30.0000000  0  8G02G08G23G27G32G24G10G18
   2661499.09846   2127744.74643  24402464.0704                   24402464.9574
        40.0004         22.0004
  -1062780.91047   -818237.73446  22658134.7194                   22658137.8364
        44.5004         38.5004
   3553693.80147   2776688.03945  22306322.3444                   22306323.0594
        44.5004         31.0004
   2384403.53547   1872185.05947  22057472.6094                   22057474.9614
        46.5004         43.2504
  -2233208.30548  -1722188.43448  20743306.9224                   20743307.8834
        50.0004         50.7504
   3150729.95746   2472978.27345  23507708.2894                   23507711.5434
        39.7504         33.0004
    275488.21548    241859.18448  21172685.4924                   21172687.0784
        49.5004         49.5004
   5076873.38746   3960091.44144  23199928.8524                   23199931.9614
        41.5004         28.0004
 25  8  7 19  8 45.0000000  0  8G02G08G23G27G32G24G10G18
   2565226.47746   2052727.18443  24384144.8284                   24384145.2034
        38.0004         22.5004
  -1118427.50847   -861598.73846  22647545.1564                   22647548.0704
        43.7504         38.0004
   3531080.41847   2759067.19145  22302019.3524                   22302019.9024
        44.5004         30.2504
   2358517.06647   1852013.74647  22052546.3754                   22052549.5514
        46.5004         43.0004
  -2298679.16448  -1773204.68448  20730848.0784                   20730849.3674
        49.7504         51.0004
   3119577.77346   2448703.83645  23501780.1884                   23501784.4804
        38.7504         34.0004
    226565.25848    203737.39848  21163376.2034                   21163377.3364
        49.5004         49.5004
   5069887.31346   3954647.66444  23198600.1564                   23198602.3634
        41.2504         28.2504
 25  8  7 19  9  0.0000000  0  8G02G08G23G27G32G24G10G18
   2468947.08246   1977704.34843  24365823.4454                   24365823.2384
        39.7504         21.5004
  -1173956.86747   -904868.38346  22636978.6414                   22636981.3134
        44.2504         38.0004
   3508471.93047   2741450.16445  22297717.3054                   22297718.0744
        44.5004         30.7504
   2332728.12547   1831918.43047  22047638.8524                   22047641.7774
        47.2504         43.2504
  -2364050.39848  -1824143.29748  20718408.4064                   20718409.7704
        50.0004         50.7504
   3088550.43446   2424526.67645  23495876.6804                   23495880.9144
        39.7504         33.5004
    177660.96148    165630.15248  21154069.9694                   21154071.4614
        49.5004         49.5004
   5062949.99646   3949241.87944  23197279.4304                   23197282.1254
        41.7504         28.7504
 25  8  7 19  9 15.0000000  0  8G02G08G23G27G32G24G10G18
   2372662.03146   1902677.06643  24347500.1954                   24347501.0124
        38.7504         20.7504
  -1229368.00847   -948045.91046  22626434.0084                   22626437.6094
        43.7504         37.7504
   3485869.34047   2723837.72745  22293416.2344                   22293416.7114
        44.0004         30.7504
   2307037.44547   1811899.68047  22042750.4774                   22042753.5514
        46.5004         43.0004
  -2429321.03548  -1875003.52348  20705987.8364                   20705989.6484
        50.0004         50.7504
   3057648.85246   2400447.53145  23489996.2274                   23489999.7034
        40.5004         32.7504
    128776.30948    127538.21548  21144767.1804                   21144768.6804
        50.7504         49.7504
   5056062.29746   3943874.76244  23195968.9454                   23195971.6564
        41.2504         28.5004
 25  8  7 19  9 30.0000000  0  8G02G08G23G27G32G24G10G18
   2276370.87546   1827645.08243  24329176.7194                   24329176.7344
        38.5004         20.2504
  -1284661.62547   -991131.85946  22615911.6334                   22615915.0394
        43.7504         38.2504
   3463272.02047   2706229.40245  22289115.9694                   22289116.7194
        43.7504         30.7504
   2281444.07047   1791956.75447  22037880.3134                   22037883.0594
        46.5004         43.5004
  -2494491.68048  -1925785.83248  20693586.0864                   20693587.3204
        50.0004         50.5004
   3026872.20746   2376465.72745  23484138.8444                   23484143.0784
        38.7504         33.0004
     79910.62148     89461.04748  21135468.3914                   21135469.9264
        50.2504         49.5004
   5049223.42246   3938545.66844  23194667.9614                   23194670.4104
        41.5004         29.2504
 25  8  7 19  9 45.0000000  0  8G02G08G23G27G32G24G10G18
   2180076.07446   1752610.22343  24310852.7974                   24310852.2734
        39.5004         21.2504
  -1339835.59047  -1034124.56646  22605412.2664                   22605415.8094
        43.7504         38.0004
   3440682.09447   2688626.82845  22284817.4144                   22284817.6954
        43.5004         30.0004
   2255949.86347   1772091.09847  22033028.9304                   22033031.5864
        46.2504         43.7504
  -2559560.27048  -1976488.62948  20681203.7504                   20681205.1564
        50.5004         50.7504
   2996222.51546   2352582.81745  23478307.5554                   23478311.5044
        40.2504         34.2504
     31066.00848     51400.31348  21126174.0864                   21126175.2274
        50.0004         49.5004
   5042435.40647   3933256.21944  23193376.1094                   23193378.8914
        42.5004         28.2504
 25  8  7 19 10  0.0000000  0  8G02G08G23G27G32G24G10G18
   2083775.23446   1677570.65643  24292527.1724                   24292526.9454
        39.0004         22.7504
  -1394892.53147  -1077026.09046  22594935.5394                   22594938.8554
        44.7504         37.5004
   3418096.87947   2671027.93045  22280519.7814                   22280520.0904
        44.2504         30.7504
   2230551.89547   1752300.43447  22028195.9144                   22028198.1174
        46.7504         43.0004
  -2624529.35248  -2027113.87548  20668840.6484                   20668841.7774
        49.2504         50.5004
   2965696.98846   2328796.68845  23472498.4144                   23472502.5084
        40.0004         34.0004
    -17760.14548     13353.95748  21116882.3834                   21116884.4184
        48.2504         49.5004
   5035695.41447   3928004.19944  23192093.9384                   23192096.3594
        42.2504         27.5004
 25  8  7 19 10 15.0000000  0  8G02G08G23G27G32G24G10G18
   1987470.22346   1602527.85943  24274201.0394                   24274200.5784
        39.0004         21.7504
  -1449830.70747  -1119835.06246  22584481.1564                   22584484.8284
        43.0004         37.5004
   3395518.21147   2653434.14145  22276222.9454                   22276223.5514
        45.0004         30.5004
   2205251.64847   1732585.92247  22023381.1174                   22023383.9264
        46.7504         43.0004
  -2689397.23448  -2077660.27048  20656496.8674                   20656498.1764
        49.7504         50.7504
   2935297.30146   2305108.60545  23466713.6724                   23466717.4304
        39.5004         33.5004
    -66566.05548    -24676.62948  21107594.9614                   21107596.5234
        48.7504         49.5004
   5029005.12147   3922790.89544  23190820.5004                   23190823.1174
        42.0004         28.5004
 25  8  7 19 10 30.0000000  0  8G02G08G23G27G32G24G10G18
   1891160.04346   1527481.00843  24255873.6804                   24255873.3674
        39.7504         21.5004
  -1504651.47747  -1162552.56246  22574049.1024                   22574052.8554
        43.7504         37.7504
   3372944.66847   2635844.32844  22271927.5634                   22271927.7894
        43.7504         29.7504
   2180047.49647   1712946.28147  22018585.1724                   22018588.3794
        46.7504         42.7504
  -2754165.18748  -2128128.79748  20644171.7274                   20644173.0554
        49.5004         50.7504
   2905021.89846   2281517.37945  23460952.4774                   23460956.5744
        39.2504         33.2504
   -115353.11348    -62692.51248  21098310.9924                   21098312.6724
        48.2504         49.5004
   5022363.00446   3917615.12144  23189557.1254                   23189559.3834
        41.5004         27.7504
 25  8  7 19 10 45.0000000  0  8G02G08G23G27G32G24G10G18
   1794845.46946   1452430.73443  24237546.0314                   24237546.1844
        39.7504         22.5004
  -1559354.20347  -1205178.06646  22563639.7734                   22563643.0744
        43.7504         38.0004
   3350376.92247   2618259.04345  22267633.0234                   22267633.8594
        43.7504         30.2504
   2154939.78947   1693381.79347  22013806.9064                   22013809.8284
        46.5004         42.7504
  -2818832.59448  -2178518.97348  20631866.1174                   20631867.5274
        49.7504         51.0004
   2874871.38346   2258023.44545  23455214.1954                   23455218.3094
        38.5004         32.0004
   -164120.65648   -100693.19548  21089030.8444                   21089032.7664
        48.2504         49.5004
   5015769.57447   3912477.28944  23188302.3984                   23188304.4184
        42.0004         28.0004
 25  8  7 19 11  0.0000000  0  8G02G08G23G27G32G24G10G18
   1698528.67646   1377378.74643  24219217.5634                   24219217.4964
        38.7504         23.2504
  -1613936.93047  -1247710.07846  22553252.5784                   22553256.5944
        44.7504         37.7504
   3327816.96147   2600679.81345  22263339.6644                   22263340.3834
        43.7504         30.0004
   2129930.26247   1673893.81647  22009048.1334                   22009051.0704
        46.5004         43.5004
  -2883397.48048  -2228829.26248  20619579.9224                   20619580.9774
        49.7504         51.0004
   2844847.52346   2234628.21545  23449501.5234                   23449505.4804
        39.7504         33.2504
   -212866.74248   -138677.15648  21079754.9614                   21079756.4024
        49.2504         49.5004
   5009226.71946   3907378.88344  23187057.9064                   23187059.7774
        41.5004         26.5004
 25  8  7 19 11 15.0000000  0  8G02G08G23G27G32G24G10G18
   1602207.66046   1302323.48843  24200887.5394                   24200888.2734
        39.5004         22.0004
  -1668401.98847  -1290150.39546  22542888.2664                   22542892.5314
        43.7504         37.5004
   3305262.49247   2583104.87545  22259047.6644                   22259048.7704
        44.2504         30.7504
   2105016.30947   1654480.30147  22004307.3914                   22004310.2114
        45.7504         43.0004
  -2947862.12548  -2279061.44548  20607312.5004                   20607314.0474
        50.7504         51.0004
   2814947.94946   2211329.83645  23443811.9694                   23443815.6844
        39.0004         32.7504
   -261593.63348   -176646.16848  21070482.4454                   21070484.3444
        50.0004         49.5004
   5002731.92246   3902317.89844  23185820.8204                   23185824.0474
        41.5004         26.5004
 25  8  7 19 11 30.0000000  0  8G02G08G23G27G32G24G10G18
   1505882.92246   1227265.29343  24182558.2114                   24182558.0514
        40.5004         22.0004
  -1722749.18447  -1332498.86346  22532546.1644                   22532550.6374
        43.0004         38.0004
   3282713.71947   2565534.37145  22254757.0474                   22254757.4064
        43.0004         30.5004
   2080197.83647   1635141.18847  21999584.3754                   21999586.8554
        46.5004         42.7504
  -3012226.33248  -2329215.36348  20595064.4924                   20595065.8324
        50.0004         51.0004
   2785172.70746   2188128.35245  23438145.6414                   23438149.7234
        37.7504         32.0004
   -310301.15648   -214600.07448  21061213.5474                   21061215.2894
        48.2504         49.5004
   4996285.30146   3897294.46944  23184594.0164                   23184597.5044
        41.2504         25.5004
 25  8  7 19 11 45.0000000  0  9G02G08G23G27G28G32G24G10G18
   1409553.90246   1152203.78543  24164227.1094                   24164227.0704
        39.5004         22.7504
  -1776979.20747  -1374756.03146  22522226.8524                   22522230.6454
        43.0004         37.7504
   3260170.01247   2547967.80544  22250467.1414                   22250467.6294
        44.0004         29.5004
   2055473.90647   1615875.75447  21994879.2894                   21994882.3754
        46.2504         42.7504
   6208884.01256   4879597.83653  24480007.8054                   24480014.2854
        39.0004         21.5004
  -3076490.72748  -2379291.51248  20582835.5004                   20582836.6884
        51.5004         51.2504
   2755520.96946   2165023.08245  23432503.1094                   23432507.6294
        38.0004         32.7504
   -358989.97748   -252539.42248  21051948.5234                   21051949.7464
        50.2504         49.5004
   4989886.02746   3892307.93044  23183376.4694                   23183379.5044
        41.5004         25.2504
 25  8  7 19 12  0.0000000  0  9G02G08G23G27G28G32G24G10G18
   1313222.74646   1077140.62543  24145895.6024                   24145895.7774
        41.0004         22.7504
  -1831090.28146  -1416920.52046  22511929.6954                   22511933.8634
        41.5004         37.7504
   3237633.11747   2530406.57045  22246178.4774                   22246179.2584
        43.5004         30.0004
   2030846.03147   1596685.15647  21990193.0784                   21990196.1294
        46.5004         42.2504
   6106399.55546   4799740.02343  24460505.6724                   24460512.7424
        38.7504         21.2504
  -3140653.57448  -2429288.52748  20570625.7194                   20570627.3484
        50.7504         51.2504
   2725994.41046   2142015.35545  23426884.7664                   23426888.7344
        39.2504         32.0004
   -407658.27748   -290462.77348  21042687.5474                   21042688.7034
        50.0004         49.5004
   4983535.75446   3887359.56644  23182168.7814                   23182171.3094
        40.7504         24.5004
 25  8  7 19 12 15.0000000  0  9G02G08G23G27G28G32G24G10G18
   1216888.99646   1002075.40243  24127563.2734                   24127563.5784
        40.0004         22.5004
  -1885083.05147  -1458992.82846  22501655.2194                   22501658.9454
        43.2504         37.5004
   3215102.43847   2512850.15645  22241891.3754                   22241892.4494
        44.0004         30.7504
   2006313.30547   1577568.70347  21985524.7344                   21985527.5704
        46.0004         42.7504
   6003886.30546   4719859.78143  24440997.3984                   24441004.3524
        39.5004         20.7504
  -3204715.45748  -2479206.86348  20558435.1174                   20558436.1954
        51.7504         51.2504
   2696592.26246   2119104.59845  23421289.1644                   23421293.0984
        38.0004         32.2504
   -456306.69948   -328370.63748  21033429.7584                   21033431.2814
        51.7504         49.5004
   4977233.67646   3882448.77044  23180969.5234                   23180972.3444
        41.2504         25.5004
 25  8  7 19 12 30.0000000  0  9G02G08G23G27G28G32G24G10G18
   1120547.80546    927004.36343  24109230.7584                   24109229.8554
        39.7504         22.0004
  -1938962.58647  -1500976.90246  22491402.5474                   22491406.0704
        42.7504         37.0004
   3192572.92247   2495294.66445  22237604.1884                   22237604.9804
        42.7504         31.0004
   1981870.32447   1558522.18447  21980873.2274                   21980876.3324
        45.2504         42.0004
   5901339.54346   4639953.37543  24421482.6804                   24421490.3914
        39.5004         19.7504
  -3268681.47748  -2529050.51648  20546262.6484                   20546264.3634
        51.5004         51.2504
   2667309.28146   2096286.64145  23415716.4384                   23415720.8094
        37.7504         32.2504
   -504940.29748   -366266.94148  21024174.7504                   21024176.6564
        51.5004         49.5004
   4970974.61346   3877571.49244  23179778.3524                   23179781.2894
        40.7504         26.5004
 25  8  7 19 12 45.0000000  0  9G02G08G23G27G28G32G24G10G18
   1024199.48846    851927.82443  24090896.0394                   24090895.7664
        39.5004         22.0004
  -1992728.93447  -1542872.77346  22481170.9304                   22481175.3094
        43.2504         38.0004
   3170044.59447   2477740.09045  22233316.7504                   22233317.2544
        43.0004         30.2504
   1957516.90247   1539545.44947  21976239.0864                   21976241.8954
        46.2504         42.5004
   5798759.66046   4560021.18443  24401963.4694                   24401970.8324
        39.5004         21.5004
  -3332551.54348  -2578819.38748  20534108.3914                   20534109.9264
        52.0004         51.2504
   2638145.39846   2073561.54745  23410167.1024                   23410171.2544
        37.5004         32.0004
   -553559.08648   -404151.72348  21014923.0394                   21014924.4884
        50.7504         49.5004
   4964758.51246   3872727.69144  23178595.2274                   23178598.3714
        40.7504         24.5004
 25  8  7 19 13  0.0000000  0  9G02G08G23G27G28G32G24G10G18
    927844.94546    776846.42644  24072560.5394                   24072561.2504
        38.7504         24.2504
  -2046381.54347  -1584680.02046  22470961.2114                   22470964.9494
        42.5004         37.5004
   3147518.03547   2460186.89544  22229030.2194                   22229031.2034
        42.5004         29.2504
   1933253.25847   1520638.66847  21971622.1024                   21971624.7774
        44.7504         42.5004
   5696147.55546   4480063.87943  24382437.0634                   24382443.9884
        40.0004         22.0004
  -3396325.16448  -2628513.10948  20521972.9064                   20521973.9534
        52.0004         51.2504
   2609100.96946   2050929.50845  23404640.3984                   23404644.0864
        37.5004         31.5004
   -602162.44948   -442024.46948  21005674.3754                   21005676.0434
        50.5004         49.5004
   4958585.73446   3867917.63343  23177420.5314                   23177423.9924
        40.5004         22.7504
 25  8  7 19 13 15.0000000  0  9G02G08G23G27G28G32G24G10G18
    831483.27346    701759.48843  24054223.1724                   24054223.9414
        38.5004         22.7504
  -2099921.38347  -1626399.39846  22460773.3134                   22460776.8554
        42.0004         37.2504
   3124992.25047   2442634.29745  22224743.6724                   22224744.5234
        43.2504         30.2504
   1909078.12147   1501800.86347  21967021.7584                   21967024.3244
        46.0004         42.5004
   5593502.66046   4400081.03143  24362904.7814                   24362910.9064
        41.0004         21.0004
  -3460003.27048  -2678132.40248  20509855.2034                   20509856.9024
        52.2504         51.2504
   2580174.98846   2028389.76245  23399135.4844                   23399140.5084
        36.0004         30.2504
   -650751.39148   -479885.98848  20996428.0004                   20996429.4264
        50.2504         49.5004
   4952455.11346   3863140.42643  23176254.2194                   23176257.1054
        40.5004         22.5004
 25  8  7 19 13 30.0000000  0  9G02G08G23G27G28G32G24G10G18
    735116.01246    626668.14543  24035884.7974                   24035885.5274
        38.5004         23.0004
  -2153347.27347  -1668029.98846  22450606.1804                   22450610.3364
        42.0004         37.2504
   3102468.50447   2425083.30544  22220457.3674                   22220458.5354
        43.0004         29.7504
   1884992.48447   1483032.79347  21962438.0944                   21962441.3674
        45.0004         42.7504
   5490826.56646   4320073.84843  24343364.8914                   24343371.8054
        40.0004         21.2504
  -3523584.70348  -2727676.36748  20497756.2974                   20497757.8404
        52.5004         51.2504
   2551368.43846   2005943.04745  23393654.2734                   23393658.8244
        37.0004         31.0004
   -699324.66848   -517735.29748  20987184.7424                   20987186.5944
        51.2504         49.5004
   4946367.81646   3858397.00043  23175095.5004                   23175098.8954
        40.2504         23.0004
 25  8  7 19 13 45.0000000  0  9G02G08G23G27G28G32G24G10G18
    638743.94146    551573.11343  24017545.7974                   24017546.7034
        37.7504         22.5004
  -2206658.68047  -1709571.34846  22440461.8204                   22440465.5394
        42.5004         38.0004
   3079947.39147   2407534.35544  22216172.2894                   22216173.3554
        42.0004         29.5004
   1860996.65647   1464334.69947  21957872.3444                   21957875.0904
        45.0004         42.5004
   5388120.16046   4240043.05943  24323820.8674                   24323827.6254
        40.0004         21.7504
  -3587068.83248  -2777144.50848  20485675.6254                   20485677.4614
        52.5004         51.0004
   2522681.75846   1983589.82045  23388194.7584                   23388199.2114
        36.0004         31.0004
   -747881.68048   -555571.92648  20977944.7114                   20977946.2544
        51.0004         49.5004
   4940324.32046   3853687.67644  23173946.0314                   23173948.6414
        41.0004         24.2504
 25  8  7 19 14  0.0000000  0  9G02G08G23G27G28G32G24G10G18
   2117793.18446   1704079.09843  24298998.6334                   24298999.9804
        37.5004         22.2504
   -684432.60547   -523421.18446  22730131.6724                   22730135.5554
        43.0004         37.5004
   4632849.83647   3617588.17244  22511679.7664                   22511680.6174
        43.2504         29.2504
   3412511.25847   2673307.07847  22253115.5234                   22253118.6024
        46.0004         42.7504
   6860810.18846   5387593.91043  24604063.6484                   24604071.1134
        40.2504         20.7504
  -2075031.94548  -1598933.93748  20773406.5704                   20773407.8404
        51.7504         51.0004
   4069536.19946   3188930.89545  23682552.1804                   23682556.7854
        38.0004         32.5004
    779000.22748    634206.17648  21268500.4614                   21268502.3874
        51.0004         49.5004
   6509744.18446   5076612.16843  23472596.4924                   23472599.3284
        41.0004         22.5004
 25  8  7 19 14 15.0000000  0  9G02G08G23G27G28G32G24G10G18
   2021411.64546   1628976.67243  24280659.0314                   24280659.3874
        37.0004         21.7504
   -737515.72747   -564784.66846  22720030.2114                   22720034.1684
        43.7504         37.2504
   4610333.33247   3600042.80144  22507394.4454                   22507395.8874
        43.5004         29.5004
   3388693.41447   2654747.68047  22248582.9614                   22248586.1804
        45.7504         42.2504
   6758043.80546   5307516.36743  24584508.3444                   24584515.1174
        40.5004         21.5004
  -2138322.10248  -1648250.93448  20761362.6174                   20761364.0594
        52.2504         51.0004
   4041088.25046   3166763.66445  23677139.4304                   23677142.1884
        38.2504         32.5004
    730475.11348    596394.39548  21259267.0084                   21259268.3954
        50.7504         49.5004
   6503787.08646   5071970.18443  23471463.8364                   23471465.6524
        40.5004         22.5004
 25  8  7 19 14 30.0000000  0  9G02G08G23G27G28G32G24G10G18
   1925026.77746   1553871.64143  24262316.2504                   24262317.6724
        38.0004         22.7504
   -790483.71147   -606058.44546  22709950.6174                   22709954.6174
        43.5004         37.7504
   4587820.24247   3582500.09844  22503110.7194                   22503111.5394
        43.0004         29.2504
   3364965.23447   2636258.15247  22244067.6254                   22244071.0044
        45.5004         42.5004
   6655248.98046   5227416.69143  24564946.5634                   24564953.2504
        39.5004         21.5004
  -2201514.21548  -1697491.53148  20749337.8444                   20749339.0044
        51.5004         51.0004
   4012760.46946   3144690.06345  23671748.1414                   23671752.1214
        37.5004         30.7504
    681966.98848    558595.85248  21250035.8524                   21250037.5354
        50.5004         49.5004
   6497873.97746   5067362.47743  23470338.5314                   23470340.8164
        41.2504         23.2504
 25  8  7 19 14 45.0000000  0  9G02G08G23G27G28G32G24G10G18
   1828641.94146   1478766.62144  24243976.5634                   24243976.6484
        40.5004         26.0004
   -843333.48447   -647240.11746  22699893.7974                   22699897.8954
        43.7504         38.5004
   4565313.62547   3564962.44145  22498827.3364                   22498829.0434
        43.5004         30.2504
   3341329.39847   2617840.57447  22239570.3134                   22239573.2704
        45.5004         42.7504
   6552429.21146   5147297.56343  24545380.4694                   24545387.3554
        39.2504         21.5004
  -2264605.27348  -1746653.39148  20737331.8204                   20737333.4024
        52.2504         50.7504
   3984555.78146   3122712.35544  23666380.1724                   23666385.1994
        37.0004         29.2504
    633478.96148    520812.96548  21240808.8984                   21240810.7774
        51.5004         49.5004
   6492007.87946   5062791.39144  23469221.7034                   23469224.5864
        41.2504         24.5004
 25  8  7 19 15  0.0000000  0  9G02G08G23G27G28G32G24G10G18
   1732255.05946   1403660.01644  24225634.4224                   24225634.3404
        39.7504         24.7504
   -896067.47347   -688331.53546  22689859.2114                   22689862.9104
        43.2504         37.7504
   4542811.16047   3547428.02044  22494545.8204                   22494546.7624
        42.2504         29.5004
   3317783.39547   2599492.99647  22235089.1804                   22235092.9064
        44.7504         42.2504
   6449582.50846   5067157.43043  24525809.7114                   24525816.5704
        39.2504         21.5004
  -2327597.54748  -1795738.27048  20725344.9534                   20725346.0394
        52.0004         51.0004
   3956471.80546   3100828.73845  23661036.4454                   23661040.4694
        37.0004         30.5004
    585008.75848    483043.97348  21231585.2974                   21231586.9774
        50.2504         49.2504
   6486186.23446   5058254.94544  23468114.0944                   23468116.8524
        41.0004         24.2504
 25  8  7 19 15 15.0000000  0  9G02G08G23G27G28G32G24G10G18
   1635867.12946   1328552.61344  24207292.3914                   24207292.2424
        40.0004         25.5004
   -948684.81247   -729332.09446  22679846.0314                   22679850.1054
        43.0004         37.5004
   4520313.67246   3529897.46945  22490264.6644                   22490265.6374
        41.7504         30.2504
   3294327.64847   2581215.74247  22230626.2734                   22230629.3954
        44.0004         42.5004
   6346710.11346   4986997.25043  24506233.8524                   24506240.2464
        39.5004         21.0004
  -2390490.28548  -1844745.59048  20713376.8444                   20713378.0164
        51.5004         50.7504
   3928509.04746   3079039.54745  23655714.9844                   23655719.5204
        38.0004         31.0004
    536557.07048    445289.40648  21222365.1644                   21222367.1134
        49.7504         49.2504
   6480409.76646   5053753.71144  23467015.1724                   23467017.9454
        41.0004         24.0004
 25  8  7 19 15 30.0000000  0  9G02G08G23G27G28G32G24G10G18
   1539476.29346   1253442.88344  24188949.6024                   24188950.2584
        40.2504         24.7504
  -1001187.85947   -770243.57846  22669855.4534                   22669858.5044
        44.0004         37.5004
   4497819.02047   3512369.13745  22485984.4454                   22485985.2274
        42.5004         30.2504
   3270959.77347   2563006.97347  22226179.3204                   22226182.8134
        44.5004         42.2504
   6243810.12146   4906815.62143  24486651.8984                   24486659.1914
        39.5004         21.5004
  -2453285.69148  -1893677.07048  20701427.0634                   20701428.3914
        50.5004         51.0004
   3900665.22346   3057343.03544  23650416.7894                   23650421.2424
        37.0004         29.7504
    488121.84848    407547.67248  21213148.1804                   21213150.0634
        50.0004         49.2504
   6474676.16846   5049285.89144  23465923.9614                   23465927.0984
        41.2504         25.7504
 25  8  7 19 15 45.0000000  0  9G02G08G23G27G28G32G24G10G18
   1443084.61746   1178332.54344  24170606.4304                   24170606.9184
        40.5004         24.0004
  -1053574.62947   -811064.45346  22659886.2504                   22659890.0664
        43.5004         37.0004
   4475329.05147   3494844.46544  22481704.9144                   22481705.0944
        43.2504         29.7504
   3247681.28947   2544867.84847  22221749.4924                   22221752.6054
        44.7504         42.0004
   6140884.88746   4826614.29343  24467066.3674                   24467072.6374
        40.2504         22.0004
  -2515981.83248  -1942531.19948  20689496.4614                   20689497.4104
        50.5004         51.0004
   3872942.03546   3035740.53145  23645141.5704                   23645145.7304
        36.7504         30.2504
    439704.89848    369820.17248  21203935.0554                   21203936.6174
        48.7504         49.2504
   6468987.10946   5044852.73044  23464841.9064                   23464844.4184
        41.5004         26.0004
 25  8  7 19 16  0.0000000  0  9G02G08G23G27G28G32G24G10G18
   1346691.77746   1103221.25844  24152264.1804                   24152263.6174
        38.5004         24.7504
  -1105845.85547   -851795.30146  22649939.4534                   22649943.3244
        42.7504         36.7504
   4452843.19947   3477322.97745  22477425.5164                   22477426.6684
        43.5004         30.0004
   3224491.32847   2526797.69947  22217336.5864                   22217339.7664
        45.0004         42.0004
   6037934.09846   4746393.03143  24447474.7274                   24447481.7974
        38.2504         21.7504
  -2578579.36748  -1991308.48848  20677584.6484                   20677586.2074
        50.5004         50.7504
   3845338.80946   3014231.50845  23639889.6564                   23639893.2304
        38.2504         32.5004
    391305.66048    332106.47348  21194724.9304                   21194726.6684
        49.5004         49.0004
   6463341.90246   5040453.76644  23463767.3204                   23463770.3634
        41.5004         25.0004
 25  8  7 19 16 15.0000000  0  9G02G08G23G27G28G32G24G10G18
   1250298.60546   1028109.75443  24133920.0164                   24133921.1844
        38.2504         22.7504
  -1158000.93447   -892435.64146  22640014.6484                   22640018.2854
        43.7504         37.0004
   4430362.05947   3459805.17245  22473147.3674                   22473148.3054
        44.0004         30.0004
   3201390.17647   2508796.75847  22212940.4454                   22212943.8674
        44.5004         42.0004
   5934958.76646   4666152.67243  24427880.0634                   24427885.7734
        39.5004         20.2504
  -2641077.70748  -2040008.48448  20665691.7344                   20665692.8754
        50.5004         51.0004
   3817855.83645   2992816.19144  23634658.6174                   23634663.4384
        35.5004         28.5004
    342924.73448    294407.04348  21185518.3754                   21185519.9064
        49.2504         49.2504
   6457740.93446   5036089.27744  23462701.3834                   23462704.6604
        41.2504         25.7504
 25  8  7 19 16 30.0000000  0  9G02G08G23G27G28G32G24G10G18
   1153909.03946    953001.04743  24115578.1334                   24115578.4964
        39.2504         22.5004
  -1210036.21547   -932982.64146  22630112.3134                   22630116.6294
        43.0004         37.0004
   4407889.34847   3442293.93444  22468871.8594                   22468872.1254
        43.5004         29.7504
   3178381.22747   2490867.66446  22208561.9694                   22208565.7194
        43.5004         41.7504
   5831962.97346   4585896.34443  24408279.6024                   24408286.4774
        38.7504         21.5004
  -2703473.16048  -2088628.30548  20653818.0784                   20653819.2624
        51.5004         51.0004
   3790496.77346   2971497.44945  23629453.3914                   23629457.0004
        37.5004         30.5004
    294565.83248    256724.77748  21176316.1414                   21176317.7274
        50.5004         49.2504
   6452187.78546   5031762.04744  23461644.8674                   23461648.3284
        40.7504         25.7504
 25  8  7 19 16 45.0000000  0  9G02G08G23G27G28G32G24G10G18
   1057518.50046    877891.58244  24097236.0004                   24097236.0664
        38.5004         24.5004
  -1261956.61347   -973440.10546  22620232.5474                   22620236.0514
        42.5004         36.2504
   4385420.29747   3424785.55145  22464595.6804                   22464596.5004
        43.5004         30.5004
   3155459.40247   2473006.45746  22204200.4144                   22204203.6414
        44.5004         41.5004
   5728942.30146   4505620.63743  24388676.1414                   24388681.9064
        39.0004         20.5004
  -2765770.52748  -2137171.70748  20641963.3204                   20641964.8164
        51.7504         51.0004
   3763256.61346   2950271.31344  23624269.7194                   23624273.4304
        37.7504         29.0004
    246224.17248    219055.95348  21167117.0004                   21167118.3594
        50.5004         49.2504
   6446677.52046   5027468.23044  23460596.2734                   23460599.6994
        41.2504         26.0004
 25  8  7 19 17  0.0000000  0  9G02G08G23G27G28G32G24G10G18
    961128.77746    802782.77344  24078893.5704                   24078893.9694
        39.2504         25.0004
  -1313760.80547  -1013807.02746  22610374.2504                   22610377.9844
        42.7504         36.7504
   4362956.23047   3407281.04344  22460320.8984                   22460322.0204
        44.5004         29.5004
   3132625.69147   2455213.91447  22199855.3054                   22199858.4064
        44.7504         42.0004
   5625898.35946   4425326.77743  24369066.8134                   24369073.1684
        38.5004         20.2504
  -2827968.57448  -2185637.71148  20630127.2424                   20630128.5554
        49.7504         51.0004
   3736136.48446   2929138.71945  23619108.2584                   23619112.8204
        37.7504         30.0004
    197901.05548    181401.55948  21157921.6644                   21157922.9804
        48.5004         49.5004
   6441211.25346   5023208.67744  23459556.3674                   23459559.4614
        40.5004         25.2504
 25  8  7 19 17 15.0000000  0  9G02G08G23G27G28G32G24G10G18
    864738.02346    727673.13744  24060550.5704                   24060551.1844
        39.7504         25.0004
  -1365450.68447  -1054084.88346  22600538.2424                   22600541.8134
        44.0004         37.2504
   4340495.32847   3389779.01644  22456047.0084                   22456047.8674
        43.5004         29.2504
   3109877.95747   2437488.35946  22195526.2344                   22195530.1174
        45.5004         41.5004
   5522829.77746   4345013.71943  24349454.1564                   24349459.7074
        39.0004         21.0004
  -2890069.10248  -2234027.72748  20618310.1484                   20618311.4964
        51.7504         51.0004
   3709134.40246   2908098.17245  23613970.1174                   23613973.4024
        38.0004         30.5004
    149594.70348    143760.24648  21148729.1954                   21148730.4494
        50.2504         49.5004
   6435787.03546   5018981.89844  23458524.4924                   23458527.5274
        41.5004         26.2504
 25  8  7 19 17 30.0000000  0  9G02G08G23G27G28G32G24G10G18
    768348.01246    652564.08644  24042208.8364                   24042208.5824
        40.2504         25.5004
  -1417024.64147  -1094272.39146  22590724.0164                   22590727.6414
        42.0004         37.5004
   4318039.21947   3372280.70344  22451773.8444                   22451775.2934
        44.5004         29.5004
   3087217.57047   2419830.86346  22191214.5234                   22191217.5594
        45.2504         41.7504
   5419738.54746   4264683.05943  24329836.0314                   24329842.1764
        39.0004         21.0004
  -2952070.50448  -2282340.49248  20606511.5634                   20606512.8054
        50.5004         51.2504
   3682251.83246   2887150.65644  23608853.4774                   23608859.1214
        37.7504         29.5004
    101306.71148    106133.22748  21139540.3524                   21139541.5434
        49.0004         49.5004
   6430406.44146   5014789.13344  23457500.4694                   23457503.4144
        41.5004         25.7504
 25  8  7 19 17 45.0000000  0  9G02G08G23G27G28G32G24G10G18
    671960.51246    577456.99244  24023866.3594                   24023866.7074
        39.7504         26.0004
  -1468481.35247  -1134368.54746  22580932.4774                   22580936.2304
        42.5004         37.0004
   4295589.32847   3354787.25045  22447501.6644                   22447502.2464
        44.5004         30.0004
   3064645.58647   2402242.26247  22186919.0704                   22186922.5514
        45.0004         42.0004
   5316626.44546   4184336.07043  24310214.1174                   24310219.9614
        39.2504         19.5004
  -3013971.37548  -2330574.93048  20594732.1954                   20594733.4654
        51.2504         51.0004
   3655489.98846   2866297.27344  23603761.7584                   23603765.3134
        37.2504         29.5004
     53038.52748     68521.65248  21130355.1954                   21130356.4184
        50.0004         49.2504
   6425070.58246   5010631.20744  23456485.3914                   23456488.6134
        41.0004         24.5004
 25  8  7 19 18  0.0000000  0  9G02G08G23G27G28G32G24G10G18
    575575.21546    502351.60944  24005525.2814                   24005524.9224
        41.2504         25.0004
  -1519821.49647  -1174373.89146  22571162.7034                   22571166.5744
        43.0004         37.5004
   4273145.03547   3337298.16444  22443230.0704                   22443231.1684
        44.0004         29.2504
   3042161.07847   2384721.82047  22182640.9924                   22182643.9654
        45.7504         42.2504
   5213493.23446   4103972.66843  24290588.8134                   24290594.3284
        39.5004         19.7504
  -3075772.44548  -2378731.60248  20582971.9534                   20582973.3874
        50.5004         51.0004
   3628848.10246   2845537.31645  23598691.8754                   23598696.4574
        37.7504         30.0004
      4789.50048     30924.99248  21121173.6174                   21121174.7974
        48.7504         49.2504
   6419778.77346   5006507.62944  23455478.4534                   23455481.5354
        40.5004         25.7504
 25  8  7 19 18 15.0000000  0  9G02G08G23G27G28G32G24G10G18
    479193.13746    427248.71944  23987184.4614                   23987183.3524
        41.2504         25.0004
  -1571044.53547  -1214287.96146  22561415.5864                   22561419.4414
        42.0004         37.2504
   4250707.01647   3319813.96545  22438960.7734                   22438961.6524
        44.5004         30.5004
   3019764.39847   2367269.81647  22178378.6954                   22178382.0514
        45.0004         42.0004
   5110339.86746   4023593.55943  24270959.6414                   24270964.8164
        38.7504         20.0004
  -3137473.05148  -2426809.99648  20571230.7034                   20571231.7814
        51.7504         51.0004
   3602326.63746   2824871.21544  23593646.6414                   23593648.9844
        36.7504         29.2504
    -43439.71148     -6656.21548  21111995.8754                   21111997.0044
        50.5004         49.2504
   6414531.38746   5002418.66444  23454479.3054                   23454483.2814
        40.5004         25.2504
 25  8  7 19 18 30.0000000  0  9G02G08G23G27G28G32G24G10G18
    382814.41446    352148.46944  23968844.1804                   23968843.8134
        40.7504         25.7504
  -1622150.42647  -1254110.75046  22551690.2274                   22551694.1844
        42.5004         37.2504
   4228275.30147   3302334.69144  22434692.0784                   22434692.7424
        44.5004         29.5004
   2997455.23047   2349886.00447  22174133.4454                   22174136.8834
        45.0004         42.0004
   5007166.85546   3943199.11743  24251326.1094                   24251331.5124
        39.0004         20.5004
  -3199073.16448  -2474810.07448  20559508.6644                   20559509.8524
        50.5004         51.0004
   3575925.42246   2804298.85544  23588621.0784                   23588624.7504
        36.0004         28.2504
    -91649.04348    -44221.93048  21102821.7814                   21102823.2814
        49.0004         49.2504
   6409328.35946   4998364.24244  23453489.3984                   23453493.1374
        40.2504         24.2504
 25  8  7 19 18 45.0000000  0  9G02G08G23G27G28G32G24G10G18
    286436.59846    277048.90244  23950503.3204                   23950503.0664
        40.0004         24.2504
  -1673141.81247  -1293844.32446  22541986.3054                   22541990.8524
        42.5004         37.0004
   4205847.34847   3284858.32445  22430424.1094                   22430425.3404
        44.5004         30.5004
   2975230.76647   2332568.18847  22169904.8204                   22169908.1134
        45.2504         42.5004
   4903971.89846   3862787.60943  24231687.3674                   24231693.9804
        38.0004         19.7504
  -3260575.39848  -2522733.88348  20547805.0784                   20547806.3834
        51.7504         51.0004
   3549641.72346   2783818.03944  23583618.7974                   23583623.8164
        37.0004         29.2504
   -139841.04748    -81774.15248  21093651.1414                   21093652.9964
        49.5004         49.2504
   6404166.96846   4994342.27244  23452507.6804                   23452510.9614
        39.0004         26.5004
 25  8  7 19 19  0.0000000  0  9G02G08G23G27G28G32G24G10G18
    190060.02346    201950.29343  23932163.6724                   23932162.9964
        39.5004         22.5004
  -1724018.80947  -1333488.75846  22532304.8754                   22532309.1334
        42.0004         37.2504
   4183423.14547   3267384.89844  22426156.7424                   22426157.8484
        44.5004         29.5004
   2953090.62547   2315316.08647  22165690.9224                   22165694.6954
        44.0004         42.5004
   4800755.45746   3782359.32043  24212047.0554                   24212051.9494
        38.2504         20.0004
  -3321979.77748  -2570581.44148  20536119.9774                   20536121.1604
        52.0004         51.0004
   3523475.32446   2763428.60244  23578639.3284                   23578645.1334
        36.7504         29.2504
   -188015.72748   -119312.87948  21084483.9224                   21084485.3834
        50.2504         49.0004
   6399047.12546   4990352.67644  23451533.0234                   23451536.5594
        39.7504         24.2504
 25  8  7 19 19 15.0000000  0  9G02G08G23G27G28G32G24G10G18
     93687.43046    126854.80543  23913824.1174                   23913823.7114
        39.5004         22.5004
  -1774778.93746  -1373042.11746  22522645.8524                   22522650.0784
        41.5004         37.0004
   4161005.18047   3249916.33244  22421891.5084                   22421891.5664
        44.5004         29.2504
   2931036.99247   2298131.38747  22161494.6094                   22161497.9264
        44.7504         42.5004
   4697520.32446   3701916.45743  24192401.7894                   24192407.1294
        38.2504         19.2504
  -3383283.89548  -2618350.88348  20524454.3984                   20524455.3554
        52.0004         51.0004
   3497428.54346   2743132.38745  23573683.6484                   23573688.0784
        38.0004         30.0004
   -236170.63748   -156836.18748  21075320.2894                   21075321.6764
        50.0004         49.0004
   6393971.04746   4986397.16844  23450567.8284                   23450571.0474
        39.7504         25.5004
 25  8  7 19 19 30.0000000  0  9G02G08G23G27G28G32G24G10G18
     -2681.19146     51762.40243  23895485.9844                   23895485.5004
        39.5004         21.7504
  -1825422.59447  -1412504.72746  22513008.6484                   22513012.7624
        42.2504         37.2504
   4138593.21547   3232452.43445  22417626.4844                   22417627.5274
        44.5004         30.0004
   2909069.31647   2281013.67247  22157314.3594                   22157317.7894
        44.5004         42.5004
   4594266.57446   3621459.11342  24172751.8914                   24172758.4184
        38.2504         17.2504
  -3444488.00048  -2666042.37948  20512807.5634                   20512808.8794
        51.2504         51.0004
   3471500.96546   2722929.10944  23568749.8524                   23568753.1954
        39.0004         29.7504
   -284305.97748   -194344.25048  21066160.5704                   21066162.3324
        49.7504         49.0004
   6388938.32446   4982475.48044  23449609.9224                   23449613.6454
        40.2504         24.0004
 25  8  7 19 19 45.0000000  0  9G02G08G23G27G28G32G24G10G18
    -99045.78146    -23326.85543  23877147.8444                   23877147.7304
        38.7504         20.7504
  -1875950.06247  -1451876.80146  22503394.1094                   22503397.4924
        43.2504         37.2504
   4116186.98847   3214993.01244  22413362.9384                   22413363.0594
        45.5004         29.7504
   2887187.00047   2263962.46947  22153150.1724                   22153153.8594
        45.5004         42.0004
   4490994.48046   3540987.47343  24153100.8444                   24153106.0864
        38.7504         20.0004
  -3505592.40248  -2713656.19148  20501180.0314                   20501180.6844
        52.0004         51.2504
   3445692.14546   2702818.27744  23563838.7034                   23563842.5004
        37.7504         28.0004
   -332422.02048   -231837.27348  21057003.9614                   21057005.6724
        50.2504         49.0004
   6383948.55946   4978587.21144  23448660.5084                   23448663.9574
        39.0004         24.2504
 25  8  7 19 20  0.0000000  0  9G02G08G23G27G28G32G24G10G18
   -195406.89846    -98413.40243  23858811.9924                   23858810.8914
        39.0004         20.5004
  -1926362.20747  -1491159.01646  22493800.2504                   22493804.4534
        43.5004         37.0004
   4093785.75047   3197537.47744  22409100.0164                   22409100.6134
        44.5004         29.7504
   2865388.92247   2246976.90246  22149002.3834                   22149005.8364
        45.0004         41.7504
   4387703.46546   3460501.08643  24133444.3284                   24133451.4534
        38.0004         18.5004
  -3566597.93748  -2761192.96548  20489570.9454                   20489572.0634
        52.7504         51.2504
   3420001.07846   2682799.26244  23558950.3674                   23558954.1524
        38.2504         29.5004
   -380519.51648   -269315.86348  21047851.7114                   21047853.1414
        50.7504         49.0004
   6379000.80546   4974731.71544  23447718.5704                   23447722.7704
        40.2504         24.5004
 25  8  7 19 20 15.0000000  0  9G02G08G23G27G28G32G24G10G18
   -291763.94146   -173496.75843  23840475.4304                   23840475.2584
        38.7504         21.5004
  -1976658.81247  -1530351.19146  22484229.8054                   22484233.7034
        43.2504         37.5004
   4071389.75047   3180086.02344  22404837.8834                   22404838.7774
        45.0004         29.2504
   2843675.09447   2230056.98446  22144870.5314                   22144873.9224
        44.7504         41.7504
   4284394.31346   3380000.57443  24113785.9454                   24113791.4454
        37.7504         19.2504
  -3627504.34048  -2808652.48848  20477980.7814                   20477981.9414
        52.5004         51.0004
   3394427.80546   2662872.00444  23554084.6024                   23554086.9104
        40.0004         28.0004
   -428598.24648   -306779.81248  21038702.5474                   21038703.9144
        50.0004         49.0004
   6374095.18046   4970909.03143  23446785.5394                   23446789.3324
        39.5004         22.5004
 25  8  7 19 20 30.0000000  0  9G02G08G23G27G28G32G24G10G18
   -388115.18046   -248575.59443  23822139.7274                   23822140.0274
        39.7504         22.7504
  -2026838.52747  -1569452.28946  22474680.7424                   22474684.7424
        43.0004         37.5004
   4049000.50847   3162639.83245  22400577.5164                   22400578.4884
        43.5004         30.0004
   2822046.64147   2213203.59846  22140754.7584                   22140757.8794
        43.7504         41.5004
   4181068.77746   3299487.26243  24094123.8054                   24094129.1524
        36.5004         18.2504
  -3688310.20348  -2856033.67648  20466410.0084                   20466410.9694
        52.5004         51.2504
   3368973.68846   2643037.61744  23549239.8134                   23549243.8284
        38.5004         29.5004
   -476656.65648   -344227.93048  21029557.5084                   21029558.6684
        51.2504         49.0004
   6369233.02346   4967120.21944  23445859.7734                   23445864.1484
        39.7504         25.0004
 25  8  7 19 20 45.0000000  0  9G02G08G23G27G28G32G24G10G18
   -484460.68746   -323649.96544  23803806.5314                   23803805.8164
        40.2504         25.0004
  -2076901.45347  -1608462.37546  22465154.3134                   22465158.2424
        42.5004         37.5004
   4026617.94947   3145198.84844  22396318.3834                   22396319.3014
        43.0004         29.7504
   2800503.15647   2196416.41846  22136655.2344                   22136658.3444
        43.5004         41.7504
   4077727.14546   3218961.43043  24074457.7504                   24074464.0314
        38.2504         19.5004
  -3749015.63348  -2903336.59848  20454858.0004                   20454859.3484
        51.5004         51.0004
   3343638.42646   2623295.82844  23544418.7114                   23544421.9304
        38.0004         27.0004
   -524694.85548   -381660.30148  21020416.2424                   21020417.7854
        49.5004         49.2504
   6364413.95746   4963364.99244  23444943.1484                   23444947.2544
        39.7504         24.7504
 25  8  7 19 21  0.0000000  0  9G02G08G23G27G28G32G24G10G18
   -580799.08646   -398718.81244  23785474.0084                   23785473.3954
        41.2504         25.0004
  -2126846.70347  -1647380.78146  22455649.7424                   22455653.4844
        44.2504         37.2504
   4004243.08247   3127763.85944  22392060.6174                   22392061.3914
        43.0004         29.7504
   2779045.34447   2179695.99646  22132571.8284                   22132574.8244
        43.7504         41.2504
   3974370.84846   3138424.18043  24054789.7734                   24054795.8984
        39.0004         19.0004
  -3809619.64848  -2950560.49648  20443325.3444                   20443326.2734
        52.2504         51.2504
   3318422.77046   2603647.22744  23539620.9534                   23539624.9494
        37.7504         29.7504
   -572711.79748   -419076.10548  21011278.9064                   21011280.6804
        51.0004         49.0004
   6359638.94146   4959644.09044  23444034.8134                   23444038.2194
        39.0004         24.5004
 25  8  7 19 21 15.0000000  0  9G02G08G23G27G28G32G24G10G18
   -677130.01646   -473781.82444  23767142.7974                   23767142.4384
        40.5004         25.0004
  -2176674.17247  -1686207.39546  22446168.3134                   22446171.4964
        42.5004         37.0004
   3981876.09447   3110335.00444  22387804.3914                   22387805.0234
        44.2504         29.0004
   2757673.03547   2163042.20746  22128504.5004                   22128508.3094
        43.7504         41.2504
   3871000.41446   3057875.87943  24035119.0474                   24035125.4844
        37.0004         19.7504
  -3870122.16048  -2997705.30948  20431812.0004                   20431812.9144
        52.5004         51.2504
   3293326.75046   2584091.93044  23534844.5234                   23534847.8634
        39.7504         29.7504
   -620707.31648   -456475.21948  21002145.3834                   21002146.9614
        50.7504         49.0004
   6354907.95346   4955957.46944  23443134.5864                   23443138.5354
        38.5004         25.0004
 25  8  7 19 21 30.0000000  0  9G02G08G23G27G28G32G24G10G18
    801971.62546    678764.98444  24048606.3284                   24048605.6804
        40.2504         24.0004
   -650962.16446   -497340.92646  22736501.1334                   22736505.2424
        41.5004         37.2504
   5534936.89147   4320512.23044  22683341.7584                   22683342.2304
        43.7504         29.0004
   4311805.78947   3374054.69146  22424246.4144                   22424249.7464
        44.2504         41.5004
   5343041.55546   4204921.02743  24315239.3134                   24315244.6484
        38.7504         19.7504
  -2355100.71548  -1817169.10248  20720110.8674                   20720112.3634
        52.7504         51.2504
   4843770.34846   3792229.74244  23829884.8984                   23829887.8284
        38.5004         29.7504
    906740.19148    733743.60948  21292808.9304                   21292810.3874
        51.0004         49.0004
   7925639.62146   6179904.13344  23742034.7034                   23742038.7894
        38.7504         25.0004
 25  8  7 19 21 45.0000000  0  9G02G08G23G27G28G32G24G10G18
    705653.05946    603711.58244  24030277.6174                   24030277.3524
        40.0004         24.7504
   -700557.66447   -535986.78546  22727063.5864                   22727067.4494
        42.5004         37.0004
   5512582.30147   4303093.03544  22679087.7584                   22679088.7624
        44.0004         29.0004
   4290600.17647   3357530.78946  22420211.1484                   22420214.4734
        45.5004         41.5004
   5239640.62546   4124348.97343  24295562.0084                   24295568.0164
        38.0004         21.0004
  -2415403.68448  -1864158.42648  20708635.9614                   20708637.1524
        52.5004         51.2504
   4818909.61746   3772857.75045  23825154.1484                   23825157.9494
        38.5004         30.0004
    858784.15248    696375.26648  21283683.2584                   21283684.8674
        51.0004         49.0004
   7920992.81646   6176283.12143  23741150.6644                   23741154.3204
        40.0004         23.2504
 25  8  7 19 22  0.0000000  0  9G02G08G23G27G28G32G24G10G18
    609340.78546    528663.10943  24011949.4454                   24011949.1804
        39.0004         22.7504
   -750037.55947   -574542.56246  22717647.8594                   22717651.5434
        43.5004         37.5004
   5490233.73447   4285678.55144  22674835.2664                   22674836.1054
        43.5004         28.5004
   4269477.21947   3341071.29346  22416191.9454                   22416195.0314
        45.0004         41.5004
   5136224.80546   4043765.31343  24275883.2664                   24275888.9454
        38.0004         20.2504
  -2475607.14548  -1911070.19948  20697179.4304                   20697181.1214
        52.2504         51.2504
   4794166.08246   3753577.04744  23820444.7814                   23820448.1804
        37.5004         27.5004
    810847.68048    659022.16448  21274561.4144                   21274562.6884
        51.2504         49.0004
   7916387.69146   6172694.57844  23740274.7734                   23740278.7344
        40.0004         24.5004
 25  8  7 19 22 15.0000000  0  9G02G08G23G27G28G32G24G10G18
    513037.43446    453621.57043  23993623.8134                   23993623.7154
        40.5004         23.7504
   -799399.60547   -613006.52346  22708254.5004                   22708258.2894
        43.7504         37.7504
   5467893.44547   4268270.48444  22670583.7504                   22670585.3794
        43.5004         28.2504
   4248438.82047   3324677.69146  22412188.2894                   22412191.9064
        43.7504         41.5004
   5032796.69946   3963172.08243  24256200.8984                   24256206.6804
        37.5004         19.5004
  -2535708.92648  -1957902.74648  20685742.5474                   20685743.5394
        52.2504         51.0004
   4769541.77746   3734389.22344  23815759.7274                   23815762.9494
        39.0004         29.2504
    762933.04348    621686.07448  21265443.3364                   21265444.8134
        51.0004         49.0004
   7911826.25046   6169140.11344  23739406.7344                   23739410.6564
        39.5004         25.5004
 25  8  7 19 22 30.0000000  0  9G02G08G23G27G28G32G24G10G18
    416738.19146    378583.24643  23975298.6094                   23975297.6134
        38.5004         22.2504
   -848648.92647   -651382.62546  22698882.9144                   22698886.3014
        43.7504         37.7504
   5445556.45747   4250865.00844  22666333.2424                   22666334.2624
        42.0004         29.0004
   4227479.72747   3308345.87146  22408199.5554                   22408203.2304
        43.7504         41.0004
   4929351.79746   3882565.79743  24236516.1174                   24236521.8554
        38.5004         20.5004
  -2595713.98448  -2004659.93048  20674324.0394                   20674325.3914
        52.5004         51.2504
   4745031.42646   3715290.26244  23811094.5704                   23811098.5274
        38.0004         28.5004
    715035.27348    584363.12548  21256329.0784                   21256330.5274
        51.2504         49.0004
   7907303.39546   6165615.68043  23738546.3754                   23738549.9964
        40.0004         23.2504
 25  8  7 19 22 45.0000000  0  9G02G08G23G27G28G32G24G10G18
    320446.66446    303550.94143  23956974.7274                   23956974.4534
        38.7504         21.5004
   -897782.39147   -689668.46546  22689532.8284                   22689537.0704
        44.0004         38.0004
   5423225.98047   4233464.60244  22662084.1884                   22662085.2304
        43.5004         28.5004
   4206602.73847   3292078.03946  22404227.1484                   22404230.5904
        44.5004         41.0004
   4825893.53546   3801949.08643  24216828.3914                   24216834.5824
        38.5004         20.2504
  -2655619.26648  -2051339.35248  20662924.2424                   20662925.3134
        52.2504         51.0004
   4720638.04346   3696282.41844  23806452.7974                   23806457.0354
        38.0004         29.2504
    667157.52348    547055.78148  21247218.1024                   21247219.5704
        51.0004         49.0004
   7902822.14846   6162123.68843  23737693.3594                   23737697.3444
        40.0004         22.5004
 25  8  7 19 23  0.0000000  0  9G02G08G23G27G28G32G24G10G18
    224161.71546    228523.78543  23938652.2814                   23938651.9224
        39.5004         21.7504
   -946801.53147   -727865.21946  22680205.2814                   22680208.9384
        43.0004         37.7504
   5400900.58247   4216068.17644  22657835.5234                   22657836.4494
        42.5004         28.5004
   4185806.16847   3275872.87146  22400269.6644                   22400273.1604
        45.0004         41.5004
   4722420.94546   3721321.19943  24197138.3594                   24197144.2504
        39.0004         21.5004
  -2715426.20348  -2097942.16048  20651543.3914                   20651544.5084
        52.5004         51.2504
   4696360.07446   3677364.50044  23801832.8054                   23801836.6414
        38.5004         26.0004
    619298.42248    509762.97348  21238110.8984                   21238112.1724
        51.0004         49.0004
   7898380.85946   6158662.82443  23736848.1094                   23736852.5434
        39.0004         23.5004
 25  8  7 19 23 15.0000000  0  9G02G08G23G27G28G32G24G10G18
    127884.18446    153502.38343  23920331.1644                   23920330.3914
        40.7504         22.5004
   -995705.52046   -765972.25046  22670899.0314                   22670903.1764
        41.5004         37.5004
   5378581.25047   4198676.46544  22653588.4844                   22653589.8284
        42.5004         29.0004
   4165090.53947   3259730.77746  22396327.8444                   22396331.0124
        44.5004         41.5004
   4618935.28946   3640683.12143  24177445.7034                   24177451.2544
        39.5004         21.5004
  -2775133.91848  -2144467.63748  20640181.3284                   20640182.5434
        52.7504         51.2504
   4672198.22346   3658537.08644  23797234.8524                   23797238.9844
        38.5004         29.7504
    571458.91448    472485.42648  21229007.3364                   21229008.9534
        49.7504         49.2504
   7893980.32846   6155233.72343  23736011.1644                   23736014.8834
        40.5004         23.0004
 25  8  7 19 23 30.0000000  0  9G02G08G23G27G28G32G24G10G18
     31614.19546     78486.85544  23902011.5004                   23902011.2584
        40.7504         24.7504
  -1044494.58246   -803989.72746  22661614.9844                   22661619.2424
        41.5004         38.0004
   5356267.84047   4181289.34044  22649342.5634                   22649343.1524
        43.0004         28.2504
   4144455.42647   3243651.41846  22392401.0084                   22392404.5554
        44.7504         41.2504
   4515436.77346   3560035.04343  24157750.5474                   24157756.1684
        39.2504         20.2504
  -2834742.63348  -2190915.98048  20628838.1954                   20628839.2584
        52.5004         51.2504
   4648151.99246   3639799.76244  23792659.0084                   23792662.6334
        37.5004         26.2504
    523638.86748    435223.04348  21219907.4144                   21219908.8874
        50.2504         49.0004
   7889620.23846   6151836.12143  23735181.7584                   23735185.9574
        39.7504         22.5004
 25  8  7 19 23 45.0000000  0  9G02G08G23G27G28G32G24G10G18
    -64645.96147      3478.98844  23883693.9844                   23883693.3444
        42.2504         24.0004
  -1093166.98447   -841916.28946  22652352.3524                   22652356.5984
        43.0004         38.0004
   5333962.18046   4163908.29344  22645097.7034                   22645098.6174
        41.7504         28.0004
   4123902.37547   3227636.00446  22388490.0004                   22388493.8484
        44.7504         41.5004
   4411927.71146   3479378.73443  24138054.0394                   24138059.3634
        39.2504         21.0004
  -2894250.53548  -2237285.77048  20617514.4144                   20617515.3284
        52.0004         51.2504
   4624223.21546   3621153.92645  23788107.0234                   23788110.3874
        40.0004         32.0004
    475840.10248    397977.24648  21210811.5634                   21210813.1134
        51.7504         49.0004
   7885302.27646   6148471.35444  23734359.4144                   23734363.4574
        40.0004         24.7504
 25  8  7 19 24  0.0000000  0  9G02G08G23G27G28G32G24G10G18
   -160897.69946    -71522.34444  23865378.5394                   23865377.4304
        41.5004         25.5004
  -1141724.40647   -879753.26246  22643112.2894                   22643116.5204
        42.5004         37.7504
   5311662.66047   4146532.00444  22640854.6484                   22640855.6374
        43.0004         28.5004
   4103429.37547   3211682.96946  22384594.2974                   22384597.8134
        44.5004         41.2504
   4308406.80546   3398713.19943  24118354.0314                   24118359.0594
        39.2504         22.0004
  -2953659.33648  -2283578.33648  20606209.1484                   20606210.3054
        52.2504         51.2504
   4600409.86746   3602598.09844  23783573.3984                   23783577.9304
        38.0004         29.0004
    428061.06348    360746.82048  21201719.5004                   21201720.9384
        50.0004         49.0004
   7881024.59046   6145137.96943  23733546.0634                   23733550.1134
        39.7504         23.5004
 25  8  7 19 24 15.0000000  0  9G02G08G23G27G28G32G24G10G18
   -257139.41047   -146515.80144  23847064.4384                   23847063.3794
        42.0004         25.5004
  -1190165.64546   -917499.70346  22633894.6024                   22633898.7114
        41.7504         37.5004
   5289370.68847   4129161.60944  22636612.4454                   22636613.1884
        43.0004         28.0004
   4083037.47347   3195793.12946  22380713.1094                   22380717.3714
        44.5004         41.0004
   4204875.85246   3318039.84443  24098652.4064                   24098658.3244
        40.2504         22.2504
  -3012967.65248  -2329792.60948  20594923.2274                   20594924.1414
        52.7504         51.2504
   4576713.27346   3584133.15644  23779065.6564                   23779069.0474
        38.0004         28.7504
    380303.08648    323532.80948  21192631.5704                   21192633.1174
        49.0004         48.7504
   7876788.39546   6141836.92243  23732740.1174                   23732743.8054
        40.0004         22.5004
 25  8  7 19 24 30.0000000  0  9G02G08G23G27G28G32G24G10G18
   -353372.11346   -221502.29344  23828751.1564                   23828750.9184
        41.5004         26.5004
  -1238491.99247   -955156.62146  22624698.1884                   22624702.0204
        42.0004         37.5004
   5267084.97347   4111796.07844  22632370.9774                   22632372.4924
        42.5004         27.0004
   4062725.09847   3179965.25446  22376848.7114                   22376852.4384
        44.7504         41.0004
   4101333.88746   3237357.90243  24078949.8204                   24078954.6334
        39.7504         22.5004
  -3072176.86748  -2375929.64848  20583655.6564                   20583657.1684
        52.5004         51.2504
   4553131.84846   3565758.02344  23774577.0554                   23774582.2274
        37.2504         29.2504
    332564.96148    286334.26248  21183547.3284                   21183548.6604
        50.2504         48.7504
   7872592.28946   6138567.10943  23731941.5704                   23731945.5664
        39.2504         23.0004
 25  8  7 19 24 45.0000000  0  9G02G08G23G27G28G32G24G10G18
   -449595.36346   -296481.37144  23810441.1414                   23810440.0554
        41.7504         26.5004
  -1286703.38747   -992723.96946  22615524.7894                   22615528.0634
        42.5004         37.2504
   5244805.74647   4094435.62544  22628132.1254                   22628133.4654
        42.0004         27.7504
   4042492.12147   3164199.23846  22372998.5394                   22373001.9104
        44.2504         41.5004
   3997781.51646   3156667.86343  24059243.5944                   24059249.1094
        40.5004         22.7504
  -3131286.80948  -2421989.33648  20572407.5704                   20572408.8134
        52.5004         51.2504
   4529665.60046   3547472.63344  23770111.7584                   23770116.3714
        38.2504         28.0004
    284846.85248    249151.31348  21174466.7274                   21174468.1094
        50.5004         48.7504
   7868436.26646   6135328.50843  23731151.1024                   23731154.7154
        39.5004         22.0004
 25  8  7 19 25  0.0000000  0  9G02G08G23G27G28G32G24G10G18
   -545809.66446   -371453.52744  23792131.6564                   23792130.8324
        41.2504         27.2504
  -1334800.76647  -1030202.46546  22606371.6484                   22606375.4574
        43.7504         37.0004
   5222532.21147   4077079.57444  22623894.0474                   22623894.7504
        42.7504         28.0004
   4022337.36747   3148494.18446  22369163.1884                   22369166.6644
        44.5004         41.5004
   3894218.32046   3075969.40243  24039536.3834                   24039541.6454
        41.0004         23.7504
  -3190298.41448  -2467972.39548  20561177.9454                   20561179.4024
        52.5004         51.5004
   4506313.57846   3529276.23044  23765668.7734                   23765672.3244
        40.0004         29.5004
    237147.95348    211983.33648  21165389.9224                   21165391.4494
        50.5004         48.7504
   7864319.36746   6132120.42243  23730367.8444                   23730371.8834
        40.0004         22.7504
 25  8  7 19 25 15.0000000  0  9G02G08G23G27G28G32G24G10G18
   -642013.75846   -446417.69544  23773824.1884                   23773824.3594
        40.5004         26.7504
  -1382783.20347  -1067591.40646  22597240.7274                   22597244.2974
        43.7504         37.0004
   5200265.42246   4059728.78944  22619655.8524                   22619657.4694
        41.7504         27.7504
   4002261.45747   3132850.56646  22365343.0394                   22365345.8794
        45.0004         41.5004
   3790645.66846   2995263.57443  24019827.2734                   24019831.8364
        41.0004         22.7504
  -3249210.64848  -2513878.02748  20549967.4384                   20549968.7464
        52.2504         51.2504
   4483076.42646   3511169.33244  23761246.7344                   23761250.2774
        37.5004         27.5004
    189469.37948    174831.18848  21156316.9534                   21156318.5514
        51.0004         49.0004
   7860242.40246   6128943.41843  23729591.6094                   23729595.8014
        39.5004         23.7504
 25  8  7 19 25 30.0000000  0  9G02G08G23G27G28G32G24G10G18
   -738204.75046   -521371.64844  23755519.3524                   23755519.8134
        40.5004         25.5004
  -1430648.16047  -1104888.79746  22588132.3284                   22588136.4774
        43.7504         37.2504
   5178007.97747   4042385.30544  22615420.5004                   22615421.8284
        43.0004         27.0004
   3982266.84047   3117270.30946  22361537.9924                   22361541.2664
        45.2504         41.0004
   3687066.57846   2914552.69543  24000116.5004                   24000121.6214
        41.7504         22.7504
  -3308020.99648  -2559704.27048  20538776.0784                   20538777.5904
        52.0004         51.0004
   4459956.64846   3493153.93044  23756847.1644                   23756850.8914
        38.7504         28.2504
    141813.68048    137696.86348  21147248.3364                   21147250.1524
        51.0004         49.0004
   7856207.80146   6125799.45343  23728824.3284                   23728828.6254
        40.0004         22.5004
 25  8  7 19 25 45.0000000  0  9G02G08G23G27G28G32G24G10G18
   -834385.57446   -596317.70344  23737217.5784                   23737217.3754
        41.5004         26.0004
  -1478398.87947  -1142097.16046  22579045.2034                   22579049.6134
        44.7504         37.5004
   5155756.80147   4025046.70744  22611185.7974                   22611187.4804
        42.5004         28.0004
   3962349.94147   3101750.59446  22357747.9924                   22357751.2274
        44.2504         40.5004
   3583478.33647   2833834.69143  23980404.1174                   23980408.8714
        42.0004         22.2504
  -3366732.62148  -2605453.57848  20527603.4614                   20527605.1644
        52.0004         51.0004
   4436950.83646   3475227.32844  23752468.9924                   23752473.1094
        39.0004         29.5004
     94177.79748    100577.99648  21138183.5164                   21138185.0664
        51.0004         49.0004
   7852212.28946   6122685.93043  23728063.9694                   23728067.8794
        39.7504         23.0004
 25  8  7 19 26  0.0000000  0  9G02G08G23G27G28G32G24G10G18
   -930555.71546   -671255.39544  23718916.5944                   23718916.3014
        40.7504         24.7504
  -1526035.15647  -1179216.37146  22569980.9304                   22569984.7584
        44.0004         37.7504
   5133512.16047   4007713.18444  22606953.0004                   22606954.7344
        42.2504         28.5004
   3942510.76247   3086291.44146  22353972.6804                   22353976.0314
        45.0004         41.0004
   3479881.52747   2753110.02043  23960690.6094                   23960695.2504
        42.0004         22.2504
  -3425345.28148  -2651125.77748  20516450.0394                   20516451.4264
        52.5004         51.2504
   4414059.17246   3457389.66045  23748112.7424                   23748117.2624
        38.2504         30.0004
     46562.02348     63474.79748  21129122.5944                   21129124.3164
        51.5004         48.7504
   7848256.00046   6119602.96943  23727310.5394                   23727315.0204
        39.7504         22.5004
 25  8  7 19 26 15.0000000  0  9G02G08G23G27G28G32G24G10G18
  -1026717.12946   -746186.33644  23700617.2584                   23700617.0664
        40.5004         24.5004
  -1573559.30947  -1216248.19546  22560937.1024                   22560941.1024
        43.2504         37.7504
   5111271.93047   3990383.09444  22602721.0704                   22602722.5314
        42.5004         28.0004
   3922746.76647   3070890.88346  22350211.4774                   22350214.8874
        45.7504         40.7504
   3376274.41446   2672377.32443  23940974.5314                   23940978.9614
        41.0004         23.2504
  -3483861.24648  -2696722.62948  20505314.7814                   20505316.1954
        52.2504         51.2504
   4391279.13346   3439638.99645  23743777.5474                   23743782.0274
        38.0004         30.0004
     -1035.79348     26385.59048  21120065.0234                   21120066.8244
        51.0004         48.7504
   7844336.55546   6116548.74243  23726565.2974                   23726569.5044
        39.7504         21.7504
 25  8  7 19 26 30.0000000  0  9G02G08G23G27G28G32G24G10G18
  -1122862.33646   -821104.62144  23682322.0084                   23682320.9844
        40.7504         25.5004
  -1620964.33647  -1253187.18446  22551916.3674                   22551920.0124
        43.5004         37.0004
   5089043.22747   3973062.00444  22598491.8524                   22598492.7734
        43.0004         28.7504
   3903064.73447   3055554.18446  22346466.7894                   22346470.2154
        44.5004         41.0004
   3272664.55146   2591642.46943  23921258.5944                   23921262.5744
        40.5004         23.7504
  -3542273.47348  -2742238.64548  20494199.5314                   20494200.9024
        52.5004         51.2504
   4368617.69146   3421980.69545  23739466.3594                   23739470.8094
        40.5004         32.0004
    -48608.49648    -10684.05548  21111012.1094                   21111014.3284
        51.0004         49.0004
   7840460.90646   6113528.61743  23725828.4304                   23725832.1804
        38.7504         22.5004
 25  8  7 19 26 45.0000000  0  9G02G08G23G27G28G32G24G10G18
  -1218996.39846   -896014.23844  23664027.6884                   23664026.8594
        41.0004         24.5004
  -1668255.62947  -1290037.57446  22542916.9924                   22542921.1844
        43.5004         36.7504
   5066820.77747   3955745.78544  22594263.0864                   22594264.4614
        42.0004         28.0004
   3883459.04747   3040276.97746  22342735.4454                   22342739.0044
        44.5004         40.7504
   3169046.95446   2510901.59644  23901539.8754                   23901544.6994
        40.7504         24.5004
  -3600587.32048  -2787677.99648  20483102.7274                   20483103.8874
        51.7504         51.5004
   4346069.33246   3404410.54744  23735173.9924                   23735179.0394
        37.0004         27.0004
    -96161.42248    -47738.27748  21101963.3914                   21101965.0634
        49.7504         49.0004
   7836623.54346   6110538.32843  23725097.1024                   23725102.1414
        39.0004         22.5004
 25  8  7 19 27  0.0000000  0  9G02G08G23G27G28G32G24G10G18
  -1315118.02046   -970914.16044  23645737.4384                   23645736.3054
        41.0004         25.7504
  -1715432.23847  -1326798.59046  22533939.3674                   22533943.7194
        43.0004         37.0004
   5044605.66047   3938435.27044  22590035.3444                   22590036.3754
        42.5004         28.2504
   3863930.38347   3025059.79346  22339019.2734                   22339023.0554
        45.0004         40.7504
   3065423.01246   2430155.78543  23881821.3054                   23881825.7464
        39.5004         23.5004
  -3658801.76648  -2833039.89848  20472024.9844                   20472026.6374
        52.5004         51.5004
   4323634.77346   3386929.06645  23730906.6024                   23730909.7234
        39.0004         30.5004
   -143693.45748    -84776.23048  21092918.0634                   21092919.7384
        50.5004         49.0004
   7832825.36346   6107578.55943  23724374.9924                   23724379.1134
        39.2504         22.7504
 25  8  7 19 27 15.0000000  0  9G02G08G23G27G28G32G24G10G18
  -1411227.13346  -1045804.34844  23627447.5314                   23627446.9734
        41.2504         25.5004
  -1762494.53547  -1363470.53146  22524983.8984                   22524988.0314
        42.5004         37.2504
   5022397.57847   3921130.25044  22585809.1094                   22585810.2304
        43.5004         28.5004
   3844478.17247   3009902.17246  22335317.7814                   22335321.4574
        44.2504         40.2504
   2961792.94046   2349405.19343  23862100.8364                   23862105.4844
        40.0004         22.7504
  -3716917.16848  -2878324.62148  20460965.8754                   20460967.4064
        52.0004         51.5004
   4301313.61746   3369535.90644  23726657.7974                   23726662.5314
        38.0004         28.5004
   -191204.87148   -121798.11348  21083877.1804                   21083878.7704
        50.2504         48.7504
   7829065.98446   6104649.02743  23723660.1024                   23723664.1604
        39.0004         22.5004
 25  8  7 19 27 30.0000000  0  9G02G08G23G27G28G32G24G10G18
  -1507323.22347  -1120684.38344  23609161.1024                   23609160.9384
        42.0004         24.2504
  -1809442.27046  -1400053.20346  22516050.1414                   22516054.7034
        40.7504         37.5004
   5000196.96547   3903831.04344  22581584.7114                   22581585.6094
        42.2504         27.7504
   3825102.45347   2994804.15646  22331630.6174                   22331633.7974
        45.0004         40.7504
   2858157.42246   2268650.35543  23842379.2274                   23842384.4534
        39.7504         22.7504
  -3774933.22748  -2923531.93748  20449925.7424                   20449926.8244
        52.2504         51.5004
   4279106.01246   3352231.27744  23722432.6724                   23722436.4304
        38.0004         29.0004
   -238695.21948   -158803.58648  21074839.9614                   21074841.7344
        50.0004         49.0004
   7825345.57446   6101749.85943  23722952.0164                   23722956.6174
        39.5004         22.5004
 25  8  7 19 27 45.0000000  0  9G02G08G23G27G28G32G24G10G18
  -1603407.55147  -1195555.25044  23590876.4144                   23590876.2624
        42.0004         25.2504
  -1856277.15646  -1436547.94546  22507137.6024                   22507141.7304
        41.5004         38.5004
   4978002.29747   3886536.46144  22577361.4924                   22577362.3914
        42.7504         28.5004
   3805801.33647   2979764.26646  22327957.9844                   22327961.3524
        44.5004         40.5004
   2754515.35546   2187890.42643  23822657.6414                   23822661.9414
        38.0004         23.0004
  -3832851.54748  -2968663.09048  20438904.4304                   20438905.5204
        52.2504         51.5004
   4257010.04746   3335013.62944  23718228.3754                   23718231.6134
        38.2504         29.5004
   -286166.11748   -195793.89548  21065806.5084                   21065807.8244
        49.7504         48.7504
   7821662.32846   6098879.67643  23722251.1884                   23722255.8014
        39.0004         22.5004
 25  8  7 19 28  0.0000000  0  9G02G08G23G27G28G32G24G10G18
  -1699478.84847  -1270415.96944  23572595.4534                   23572595.3164
        42.7504         26.0004
  -1902998.35947  -1472954.10546  22498246.7814                   22498251.1604
        44.2504         37.5004
   4955814.45747   3869247.20744  22573138.6884                   22573140.2894
        42.5004         28.0004
   3786575.40647   2964782.96946  22324299.3914                   22324302.8364
        44.5004         41.0004
   2650867.98846   2107126.36343  23802933.1724                   23802938.3524
        38.0004         22.7504
  -3890671.26248  -3013717.41048  20427901.7894                   20427902.2704
        51.7504         51.5004
   4235026.62546   3317883.69544  23714043.3984                   23714047.7584
        37.5004         28.0004
   -333616.54348   -232768.25848  21056777.0634                   21056778.7074
        50.0004         48.5004
   7818017.07046   6096039.08243  23721557.8914                   23721562.2274
        39.0004         22.5004
 25  8  7 19 28 15.0000000  0  9G02G08G23G27G28G32G24G10G18
  -1795537.39146  -1345266.74644  23554315.9304                   23554315.1604
        41.0004         24.5004
  -1949606.43447  -1509272.12146  22489377.9924                   22489381.5594
        43.0004         37.5004
   4933633.07847   3851962.98044  22568918.1724                   22568919.2974
        42.0004         28.2504
   3767423.89547   2949859.65246  22320654.9454                   22320659.0554
        43.5004         41.0004
   2547215.28946   2026358.11343  23783208.6414                   23783213.9064
        38.7504         21.7504
  -3948392.92648  -3058695.33248  20416917.6414                   20416918.6294
        52.5004         51.5004
   4213154.92246   3300840.79345  23709882.9454                   23709886.4534
        38.5004         30.2504
   -381046.94948   -269727.01248  21047751.5234                   21047753.0634
        50.5004         48.7504
   7814409.09846   6093227.52043  23720871.4144                   23720875.9144
        38.0004         22.5004
 25  8  7 19 28 30.0000000  0  9G02G08G23G27G28G32G24G10G18
  -1891579.96546  -1420105.08244  23536038.7894                   23536039.7304
        40.2504         24.5004
  -1996098.60946  -1545499.81246  22480530.6724                   22480534.5124
        41.5004         37.2504
   4911461.03147   3834686.02344  22564699.2424                   22564700.7274
        43.0004         28.2504
   3748349.29347   2934996.27746  22317025.5554                   22317029.1764
        45.5004         41.2504
   2443560.45346   1945588.19143  23763483.6334                   23763488.8444
        36.7504         22.0004
  -4006013.69548  -3103594.62548  20405952.6254                   20405953.8754
        51.7504         51.2504
   4191397.62946   3283887.00444  23705741.8834                   23705746.5704
        37.5004         28.5004
   -428454.46148   -306667.93748  21038730.2114                   21038731.7384
        50.5004         48.5004
   7810841.18846   6090447.16043  23720192.6024                   23720196.7274
        38.0004         21.5004
 25  8  7 19 28 45.0000000  0  9G02G08G23G27G28G32G24G10G18
  -1987609.35946  -1494933.10244  23517765.4224                   23517765.7194
        40.7504         24.5004
  -2042478.04347  -1581639.66446  22471705.2194                   22471708.9964
        42.5004         37.5004
   4889295.36347   3817414.05144  22560481.0394                   22560482.7114
        42.5004         28.7504
   3729348.28147   2920190.23846  22313409.8984                   22313413.6054
        44.5004         41.0004
   2339901.05146   1864814.73043  23743758.3754                   23743762.9304
        39.0004         22.5004
  -4063536.66848  -3148417.71548  20395006.2034                   20395007.4614
        52.2504         51.5004
   4169751.51646   3267019.94945  23701623.0474                   23701626.3054
        38.5004         30.2504
   -475842.03148   -343593.32448  21029712.4384                   21029714.0554
        50.0004         48.5004
   7807310.23846   6087695.67243  23719520.6254                   23719525.1884
        38.0004         22.5004
 25  8  7 19 29  0.0000000  0  9G02G08G23G27G28G32G24G10G18
   -508198.84446   -342145.65244  23799287.2194                   23799288.1294
        40.7504         26.0004
   -513321.66847   -390089.27046  22762693.9534                   22762697.6644
        44.5004         37.0004
   6442557.60247   5027748.22344  22856056.4064                   22856058.2464
        42.7504         27.7504
   5285841.86747   4133042.33646  22609600.8134                   22609604.3714
        45.0004         40.7504
   3811664.33246   3011643.39543  24023825.1954                   24023830.1764
        38.2504         22.0004
  -2545538.01248  -1965561.61348  20683871.8204                   20683873.0594
        52.2504         51.5004
   5723637.85246   4477840.41845  23997317.7974                   23997322.3714
        39.0004         30.0004
   1052213.60948    847099.37548  21320492.0004                   21320493.5354
        50.7504         48.7504
   9379236.14846   7312572.82443  24018648.1804                   24018652.9884
        38.5004         22.2504
 25  8  7 19 29 15.0000000  0  9G02G08G23G27G28G32G24G10G18
   -604198.49646   -416950.52344  23781019.6334                   23781020.2154
        40.5004         24.0004
   -559473.30947   -426051.62546  22753911.2894                   22753915.7544
        44.5004         37.2504
   6420407.29747   5010488.21944  22851841.9304                   22851843.1054
        42.7504         29.0004
   5266989.65647   4118352.25446  22606013.4384                   22606016.7704
        44.2504         41.0004
   3707999.37546   2930865.62143  24004098.0784                   24004103.2464
        37.7504         22.7504
  -2602862.98048  -2010230.41448  20672963.5394                   20672964.5474
        52.0004         51.2504
   5702216.06646   4461148.07444  23993241.5394                   23993245.0784
        37.7504         28.5004
   1004868.63348    810207.18448  21311482.3524                   21311483.8364
        50.5004         48.5004
   9375780.98846   7309880.39543  24017990.4774                   24017995.5514
        38.0004         22.0004
 25  8  7 19 29 30.0000000  0  9G02G08G23G27G28G32G24G10G18
   -700182.85247   -491743.48844  23762754.8524                   23762754.6374
        42.2504         26.7504
   -605511.18747   -461925.32846  22745150.7894                   22745155.2304
        44.5004         37.7504
   6398264.79347   4993234.29344  22847628.1564                   22847629.5984
        42.2504         29.2504
   5248211.40247   4103719.80146  22602440.0944                   22602443.6884
        44.5004         41.0004
   3604332.22346   2850086.13343  23984371.0474                   23984375.9844
        36.7504         22.5004
  -2660088.99248  -2054822.10948  20662073.7504                   20662074.7854
        52.0004         51.2504
   5680906.02746   4444542.88744  23989185.5554                   23989190.0554
        39.0004         29.7504
    957545.04748    773331.66448  21302477.1644                   21302478.6994
        51.2504         48.7504
   9372363.47746   7307217.28543  24017340.7734                   24017345.3594
        38.7504         22.0004
 25  8  7 19 29 45.0000000  0  9G02G08G23G27G28G32G24G10G18
   -796152.64847   -566525.10544  23744491.9224                   23744492.1254
        42.5004         26.2504
   -651436.55147   -497711.35246  22736411.6094                   22736415.6764
        45.0004         38.5004
   6376128.98446   4975985.56344  22843416.0554                   22843417.2074
        41.7504         29.2504
   5229505.64847   4089143.84046  22598880.5554                   22598883.7344
        44.2504         40.7504
   3500662.24246   2769304.44543  23964643.2974                   23964648.3094
        37.2504         22.0004
  -2717217.21148  -2099337.59848  20651202.4064                   20651203.6024
        52.0004         51.2504
   5659706.55546   4428023.74245  23985152.0554                   23985156.8324
        39.7504         31.7504
    910241.76648    736471.95748  21293475.7194                   21293477.2194
        50.2504         48.7504
   9368982.39546   7304582.56643  24016697.3204                   24016702.7154
        38.0004         22.0004
 25  8  7 19 30  0.0000000  0  9G02G08G23G27G28G32G24G10G18
   -892106.15647   -641294.04344  23726233.2034                   23726232.4654
        42.5004         27.0004
   -697247.91847   -533408.54746  22727693.9224                   22727697.8674
        44.2504         37.5004
   6354001.47347   4958743.32844  22839205.2664                   22839206.2814
        43.0004         28.5004
   5210873.64147   4074625.34446  22595334.8364                   22595338.7774
        43.7504         40.7504
   3396991.32846   2688522.00043  23944915.8984                   23944919.9384
        37.5004         22.7504
  -2774246.17648  -2143775.75448  20640350.1414                   20640351.4694
        52.2504         51.2504
   5638618.86746   4411591.81644  23981139.4694                   23981143.0784
        38.7504         29.7504
    862960.40648    699629.33248  21284477.8594                   21284479.7664
        50.2504         48.7504
   9365639.08246   7301977.24243  24016061.2344                   24016065.7344
        38.5004         22.5004
 25  8  7 19 30 15.0000000  0  9G02G08G23G27G28G32G24G10G18
   -988047.05547   -716053.15244  23707976.1024                   23707975.3324
        42.5004         26.5004
   -742949.34447   -569020.07846  22718997.7424                   22719001.6454
        42.0004         37.5004
   6331878.38347   4941504.52344  22834995.6094                   22834996.9844
        42.0004         29.0004
   5192311.10947   4060160.98446  22591802.6024                   22591806.4024
        44.0004         41.0004
   3293315.99646   2607736.09443  23925186.5394                   23925191.6214
        38.2504         22.5004
  -2831179.81648  -2188139.62148  20629516.0234                   20629517.2664
        52.5004         51.2504
   5617638.91846   4395243.73844  23977146.3674                   23977152.3444
        38.2504         29.5004
    815697.06648    662800.74648  21275484.1804                   21275485.8674
        50.0004         49.0004
   9362329.42846   7299398.16843  24015430.8914                   24015436.4804
        38.7504         22.5004
 25  8  7 19 30 30.0000000  0  9G02G08G23G27G28G32G24G10G18
  -1083971.10947   -790799.14144  23689722.3834                   23689721.6134
        43.0004         27.2504
   -788536.89147   -604542.88346  22710322.5784                   22710326.3674
        44.0004         37.2504
   6309763.76647   4924272.32044  22830787.5234                   22830788.5164
        42.0004         29.5004
   5173821.77347   4045753.66446  22588284.1884                   22588287.8634
        44.5004         41.0004
   3189640.64846   2526950.22743  23905458.4144                   23905462.6254
        38.0004         22.0004
  -2888014.21148  -2232426.16448  20618700.9224                   20618702.3054
        52.2504         51.2504
   5596770.43046   4378982.62544  23973175.8594                   23973179.4224
        38.2504         28.5004
    768455.82448    625989.38348  21266494.3134                   21266496.3444
        50.5004         48.7504
   9359057.37546   7296848.37543  24014808.2974                   24014814.0904
        38.7504         22.0004
 25  8  7 19 30 45.0000000  0  9G02G08G23G27G28G32G24G10G18
  -1179878.73447   -865532.31244  23671471.4224                   23671471.2234
        42.5004         26.5004
   -834011.69147   -639977.82846  22701668.9534                   22701672.6644
        42.2504         37.0004
   6287656.68447   4907045.98044  22826580.2894                   22826581.7344
        43.0004         28.7504
   5155404.27047   4031402.31346  22584779.0634                   22584783.2074
        43.7504         41.0004
   3085964.75846   2446163.91043  23885728.6024                   23885733.8834
        37.2504         21.7504
  -2944750.40648  -2276636.18748  20607904.2664                   20607905.4654
        51.5004         51.5004
   5576012.26646   4362807.35244  23969226.1954                   23969230.0554
        38.5004         29.0004
    721235.69948    589194.48048  21257508.7584                   21257510.4414
        50.0004         48.7504
   9355821.67646   7294326.91043  24014194.1564                   24014198.3834
        39.0004         22.2504
 25  8  7 19 31  0.0000000  0  9G02G08G23G27G28G32G24G10G18
  -1275768.64146   -940251.68444  23653223.8674                   23653223.8984
        41.2504         25.2504
   -879372.69547   -675324.09046  22693037.1174                   22693040.8014
        44.5004         37.0004
   6265558.32047   4889826.44944  22822375.3134                   22822376.7774
        42.5004         28.5004
   5137059.50847   4017107.63746  22581288.3914                   22581292.3714
        43.0004         41.0004
   2982289.96546   2365378.46643  23866000.4064                   23866005.0704
        38.5004         22.5004
  -3001387.28548  -2320768.81248  20597126.5944                   20597128.0514
        52.2504         51.2504
   5555365.24646   4346718.77744  23965296.3914                   23965301.0904
        36.7504         28.7504
    674037.98448    552417.03548  21248527.4534                   21248529.0474
        50.5004         48.7504
   9352623.45746   7291834.66843  24013584.3914                   24013589.5664
        39.0004         22.7504
 25  8  7 19 31 15.0000000  0  9G02G08G23G27G28G32G24G10G18
  -1371640.10946  -1014956.69944  23634979.8754                   23634979.9804
        41.5004         25.5004
   -924619.48047   -710581.36346  22684427.0634                   22684430.3404
        43.2504         36.5004
   6243469.23447   4872614.15244  22818171.9774                   22818173.2234
        42.5004         29.5004
   5118787.63747   4002869.76246  22577811.3834                   22577815.8404
        43.7504         40.5004
   2878617.02046   2284594.47743  23846271.8594                   23846276.4184
        39.2504         23.0004
  -3057924.44148  -2364823.73448  20586368.1484                   20586369.3914
        52.0004         51.2504
   5534829.76246   4330717.03944  23961389.0634                   23961394.3244
        38.5004         29.5004
    626863.16848    515657.42648  21239550.5554                   21239552.2624
        50.5004         48.7504
   9349462.96946   7289371.79743  24012983.0864                   24012988.5744
        38.7504         22.5004
 25  8  7 19 31 30.0000000  0  9G02G08G23G27G28G32G24G10G18
  -1467496.47346  -1089649.92644  23616739.3134                   23616739.1684
        41.2504         27.2504
   -969755.98047   -745752.69146  22675837.9454                   22675841.5044
        43.5004         36.7504
   6221385.71547   4855406.17244  22813969.7114                   22813971.2384
        42.7504         28.5004
   5100584.54747   3988685.48046  22574347.3674                   22574351.6454
        42.2504         40.0004
   2774942.69946   2203809.43043  23826542.9774                   23826547.5664
        39.2504         23.5004
  -3114365.66848  -2408803.90648  20575627.6414                   20575629.0984
        52.2504         51.2504
   5514401.82046   4314799.19944  23957501.8594                   23957505.1844
        38.2504         29.5004
    579707.50448    478912.75448  21230576.8284                   21230578.5394
        49.5004         48.5004
   9346336.25046   7286935.23443  24012389.3054                   24012393.7384
        38.5004         22.5004
 25  8  7 19 31 45.0000000  0  9G02G08G23G27G28G32G24G10G18
  -1563336.16846  -1164330.14544  23598500.8834                   23598501.5824
        40.7504         26.5004
  -1014780.90647   -780837.08246  22667269.7974                   22667273.4494
        43.7504         36.2504
   6199309.12947   4838203.60944  22809768.3524                   22809769.8014
        43.2504         29.0004
   5082451.27747   3974555.60546  22570896.8364                   22570900.7194
        43.5004         40.7504
   2671268.65646   2123024.55944  23806814.2344                   23806819.5434
        39.5004         24.0004
  -3170709.64148  -2452708.30148  20564905.9064                   20564906.9614
        52.5004         51.2504
   5494082.46546   4298965.86745  23953635.0394                   23953640.6294
        38.0004         31.5004
    532572.50048    442184.16848  21221607.0944                   21221608.5594
        50.5004         48.7504
   9343244.60546   7284526.01643  24011801.0634                   24011805.5474
        40.0004         22.2504
 25  8  7 19 32  0.0000000  0  9G02G08G23G27G28G32G24G10G18
  -1659159.82847  -1238997.89544  23580266.3834                   23580267.1684
        42.7504         27.7504
  -1059695.38347   -815835.41046  22658722.7814                   22658726.8284
        43.5004         36.7504
   6177238.55947   4821005.73444  22805568.2974                   22805570.1414
        43.0004         28.5004
   5064386.55947   3960479.14546  22567459.4924                   22567463.6914
        44.0004         40.5004
   2567594.35546   2042239.48843  23787085.6804                   23787090.4064
        40.0004         22.5004
  -3226957.45348  -2496537.76248  20554202.0784                   20554202.9224
        52.7504         51.2504
   5473870.59446   4283216.32044  23949789.0944                   23949793.1884
        39.0004         28.7504
    485457.13348    405470.88748  21212641.7504                   21212643.3284
        50.7504         48.5004
   9340186.77746   7282143.17243  24011218.1884                   24011223.5084
        39.7504         22.2504
 25  8  7 19 32 15.0000000  0  9G02G08G23G27G28G32G24G10G18
  -1754963.73847  -1313650.23844  23562035.8914                   23562036.4224
        42.5004         27.7504
  -1104496.04347   -850745.04346  22650197.4924                   22650201.7774
        44.0004         36.5004
   6155177.52047   4803815.28144  22801370.7424                   22801372.1524
        43.2504         29.0004
   5046393.48847   3946458.51646  22564035.4454                   22564039.4184
        43.2504         40.0004
   2463923.80146   1961457.36343  23767357.7814                   23767362.3984
        40.2504         21.7504
  -3283105.67648  -2540289.62548  20543517.3754                   20543518.6764
        52.7504         51.2504
   5453769.36746   4267553.06644  23945964.4924                   23945967.1334
        38.0004         29.2504
    438364.97748    368775.68848  21203680.3754                   21203682.0084
        50.5004         48.7504
   9337166.15646   7279789.27043  24010644.1884                   24010648.7974
        39.7504         22.2504
 25  8  7 19 32 30.0000000  0  9G02G08G23G27G28G32G24G10G18
  -1850748.75047  -1388287.85944  23543808.4144                   23543808.6294
        43.5004         29.7504
  -1149184.15647   -885566.99246  22641693.8834                   22641697.9494
        44.5004         36.7504
   6133124.87547   4786631.36344  22797174.4454                   22797175.6094
        43.2504         29.5004
   5028470.61747   3932492.58646  22560624.7894                   22560629.1374
        43.2504         40.5004
   2360256.04746   1880677.36343  23747630.5944                   23747634.8594
        40.0004         21.5004
  -3339155.53948  -2583964.83648  20532851.5004                   20532852.2274
        51.7504         51.2504
   5433777.40646   4251974.90644  23942159.4694                   23942163.9264
        36.5004         27.0004
    391294.87148    332097.68048  21194723.1884                   21194724.9884
        50.5004         48.5004
   9334181.43046   7277463.41843  24010076.1954                   24010080.8914
        39.2504         22.2504
 25  8  7 19 32 45.0000000  0  9G02G08G23G27G28G32G24G10G18
  -1946515.38747  -1462911.16044  23525584.9224                   23525584.6094
        43.2504         28.7504
  -1193760.66847   -920301.96146  22633211.2034                   22633214.9614
        44.7504         37.0004
   6111079.96947   4769453.47744  22792979.4064                   22792981.0004
        42.5004         28.5004
   5010616.81647   3918580.47346  22557227.7274                   22557231.7664
        43.5004         40.2504
   2256590.89546   1799899.45343  23727903.3284                   23727907.3484
        41.2504         22.0004
  -3395107.88748  -2627564.06648  20522204.1414                   20522205.2854
        52.0004         51.2504
   5413893.78546   4236481.11744  23938376.1724                   23938379.9654
        37.2504         27.7504
    344246.13748    295436.32048  21185770.4614                   21185771.6484
        50.7504         48.5004
   9331231.61346   7275164.71943  24009514.9924                   24009519.9654
        39.5004         22.7504
 25  8  7 19 33  0.0000000  0  9G02G08G23G27G28G32G24G10G18
  -2042265.67647  -1537521.73444  23507364.5704                   23507364.1994
        43.0004         29.0004
  -1238228.00447   -954951.86346  22624749.5474                   22624753.3204
        44.5004         36.7504
   6089040.37947   4752279.73444  22788785.3754                   22788786.9694
        42.7504         29.5004
   4992829.41447   3904720.09846  22553842.6484                   22553846.8984
        42.5004         40.5004
   2152926.27346   1719121.92643  23708176.6334                   23708181.1484
        41.0004         22.5004
  -3450965.13748  -2671089.19548  20511574.8594                   20511576.1374
        51.5004         51.2504
   5394115.84446   4221069.73844  23934611.4534                   23934615.1484
        36.0004         26.7504
    297216.46948    258789.80948  21176820.5394                   21176822.0124
        50.0004         48.5004
   9328314.19546   7272891.28143  24008959.6484                   24008964.8914
        38.5004         22.2504
 25  8  7 19 33 15.0000000  0  9G02G08G23G27G28G32G24G10G18
  -2137996.27747  -1612116.96144  23489147.7814                   23489147.0944
        43.5004         29.0004
  -1282583.15247   -989514.35246  22616309.2344                   22616312.4804
        44.7504         36.7504
   6067009.46547   4735112.74644  22784592.8594                   22784594.1994
        42.5004         28.7504
   4975111.24247   3890913.68046  22550470.6414                   22550475.1684
        44.0004         40.5004
   2049265.92246   1638347.73043  23688451.1174                   23688454.9734
        41.0004         22.7504
  -3506724.16448  -2714537.78948  20500964.2274                   20500965.7814
        52.0004         51.2504
   5374446.59846   4205743.05544  23930868.4534                   23930873.1994
        36.5004         28.5004
    250209.06648    222160.66048  21167875.4064                   21167877.0434
        50.7504         48.5004
   9325432.13746   7270645.37543  24008411.7974                   24008416.7114
        38.5004         22.2504
 25  8  7 19 33 30.0000000  0  9G02G08G23G27G28G32G24G10G18
  -2233709.42647  -1686698.57844  23470933.5554                   23470933.1954
        42.5004         27.0004
  -1326828.85547  -1023991.55546  22607889.3914                   22607892.7544
        44.5004         37.2504
   6044984.46947   4717950.39144  22780401.0864                   22780402.9844
        42.5004         28.0004
   4957459.36347   3877158.91046  22547111.6804                   22547116.3134
        43.2504         40.0004
   1945607.44146   1557574.98443  23668725.5164                   23668729.1134
        41.2504         22.7504
  -3562387.74648  -2757912.00448  20490371.9454                   20490373.0704
        52.5004         51.5004
   5354883.05146   4190498.67245  23927147.1094                   23927150.5824
        37.5004         30.5004
    203221.33248    185546.82848  21158934.0234                   21158935.2504
        50.5004         48.7504
   9322582.62946   7268424.84043  24007869.4064                   24007874.5864
        39.2504         22.0004
 25  8  7 19 33 45.0000000  0  9G02G08G23G27G28G32G24G10G18
  -2329403.71547  -1761265.53144  23452723.7504                   23452723.1374
        42.0004         27.7504
  -1370964.14547  -1058382.71946  22599490.2034                   22599494.6644
        44.7504         36.5004
   6022966.64147   4700793.59844  22776211.8284                   22776213.7544
        42.5004         28.2504
   4939874.58647   3863456.42646  22543765.9064                   22543769.7814
        42.7504         40.0004
   1841952.43047   1476804.94144  23648999.8754                   23649004.2974
        42.5004         25.0004
  -3617954.77748  -2801210.98848  20479797.5234                   20479798.8284
        52.0004         51.2504
   5335426.11346   4175337.44945  23923444.0864                   23923448.0744
        38.5004         30.7504
    156254.46948    148949.26248  21149996.5004                   21149998.2344
        50.5004         48.5004
   9319766.67646   7266230.43443  24007333.8134                   24007338.6564
        38.5004         22.0004
 25  8  7 19 34  0.0000000  0  9G02G08G23G27G28G32G24G10G18
  -2425078.93747  -1835817.59044  23434517.7114                   23434516.6134
        42.5004         25.5004
  -1414989.18047  -1092687.98046  22591112.6254                   22591117.1174
        43.7504         36.7504
   6000955.97347   4683642.39844  22772024.0634                   22772025.5514
        42.7504         28.7504
   4922356.46147   3849805.88346  22540432.2274                   22540436.1054
        44.2504         40.2504
   1738301.29746   1396037.89843  23629276.1564                   23629279.7424
        41.2504         22.2504
  -3673425.35548  -2844434.81248  20469242.0164                   20469243.3874
        51.5004         51.5004
   5316075.68045   4160259.12944  23919760.8524                   23919765.6254
        35.2504         27.0004
    109308.48048    112367.96148  21141063.0864                   21141064.4264
        50.5004         48.5004
   9316984.07846   7264062.02043  24006803.6644                   24006809.0904
        39.2504         22.5004
 25  8  7 19 34 15.0000000  0  9G02G08G23G27G28G32G24G10G18
  -2520731.81646  -1910352.27744  23416315.4064                   23416313.9694
        41.5004         25.2504
  -1458901.14547  -1126905.12146  22582756.5704                   22582760.2194
        43.7504         36.2504
   5978955.44947   4666499.09044  22767837.2814                   22767838.4654
        43.0004         28.5004
   4904907.65247   3836209.35246  22537112.3834                   22537116.2154
        43.5004         40.2504
   1634657.32847   1315276.46943  23609553.2194                   23609556.7934
        42.0004         21.5004
  -3728796.67248  -2887581.29348  20458705.2424                   20458706.4534
        52.5004         51.5004
   5296834.13746   4145265.73845  23916100.5234                   23916104.5394
        37.5004         30.5004
     62386.35548     75805.26248  21132134.0234                   21132135.6254
        50.7504         48.5004
   9314237.56346   7261921.72343  24006281.1804                   24006286.8674
        38.7504         22.0004
 25  8  7 19 34 30.0000000  0  9G02G08G23G27G28G32G24G10G18
  -2616365.53146  -1984872.02344  23398116.0314                   23398115.7854
        41.5004         26.2504
  -1502703.53547  -1161036.89146  22574421.7974                   22574425.5314
        44.2504         36.0004
   5956961.74247   4649361.09844  22763651.6254                   22763653.1844
        43.2504         29.0004
   4887524.43847   3822663.94546  22533803.5864                   22533807.8954
        44.0004         40.0004
   1531017.63746   1234518.33643  23589831.7734                   23589834.8554
        41.5004         21.5004
  -3784072.12548  -2930653.07448  20448186.6804                   20448187.9574
        52.0004         51.5004
   5277698.13345   4130354.49244  23912457.1484                   23912463.8754
        34.2504         28.0004
     15484.77348     39258.56348  21123209.0314                   21123210.5744
        50.7504         48.5004
   9311523.67646   7259806.87943  24005765.3054                   24005770.5634
        39.2504         22.0004
 25  8  7 19 34 45.0000000  0  9G02G08G23G27G28G32G24G10G18
  -2711977.28547  -2059374.61744  23379922.8444                   23379921.2154
        43.0004         28.2504
  -1546393.93047  -1195081.38346  22566107.3674                   22566111.4654
        43.5004         36.0004
   5934977.45747   4632230.46144  22759468.6954                   22759469.7154
        43.2504         28.2504
   4870209.05547   3809171.38746  22530508.9384                   22530513.1524
        43.5004         39.5004
   1427385.21147   1153765.87943  23570111.1174                   23570114.1134
        42.2504         22.5004
  -3839249.21548  -2973648.20748  20437686.7664                   20437687.8364
        52.5004         51.5004
   5258670.00845   4115527.30144  23908837.8834                   23908842.5124
        35.0004         25.2504
    -31393.63348      2729.91848  21114288.2504                   21114290.1684
        50.7504         48.7504
   9308844.72346   7257719.23843  24005255.4774                   24005260.8444
        39.0004         20.7504
 25  8  7 19 35  0.0000000  0  9G02G08G23G27G28G32G24G10G18
  -2807568.84447  -2133861.50844  23361731.7894                   23361730.7114
        42.5004         25.5004
  -1589974.62947  -1229040.41046  22557814.3834                   22557818.0864
        43.7504         36.0004
   5913000.46547   4615105.49244  22755285.6644                   22755287.6454
        42.5004         28.5004
   4852959.03147   3795729.75446  22527226.4924                   22527230.6954
        42.5004         39.5004
   1323758.27047   1073017.73443  23550391.2194                   23550393.9574
        42.0004         22.7504
  -3894330.23448  -3016568.48048  20427205.0784                   20427206.7464
        52.5004         51.5004
   5239747.11746   4100782.28544  23905237.6884                   23905240.5744
        36.7504         29.5004
    -78251.05548    -33782.35948  21105371.5474                   21105373.1134
        50.2504         48.7504
   9306198.37146   7255657.01243  24004752.2734                   24004757.8674
        39.0004         22.0004
 25  8  7 19 35 15.0000000  0  9G02G08G23G27G28G32G24G10G18
  -2903136.28947  -2208329.62144  23343545.1804                   23343544.8484
        42.0004         26.0004
  -1633442.22747  -1262911.30146  22549543.1094                   22549546.7544
        44.0004         36.2504
   5891034.38747   4597989.03944  22751106.3134                   22751108.0474
        42.2504         28.5004
   4835777.53947   3782341.52346  22523957.1804                   22523961.1684
        43.5004         40.0004
   1220140.70347    992276.83643  23530673.1024                   23530676.6094
        42.5004         22.5004
  -3949311.66448  -3059411.16448  20416742.5704                   20416743.3094
        51.0004         51.7504
   5220933.05545   4086121.86744  23901656.6484                   23901661.8244
        34.0004         28.0004
   -125083.77748    -70275.41048  21096459.6174                   21096461.2734
        50.7504         48.5004
   9303588.01246   7253622.77743  24004255.5554                   24004261.1684
        40.0004         20.7504
 25  8  7 19 35 30.0000000  0  9G02G08G23G27G28G32G24G10G18
  -2998682.50047  -2282781.16444  23325364.2814                   23325362.7664
        43.5004         28.5004
  -1676799.98847  -1296696.59446  22541292.0234                   22541296.1254
        43.5004         36.2504
   5869076.07447   4580878.62144  22746927.5084                   22746929.5904
        42.5004         27.2504
   4818661.13747   3769004.00846  22520699.9534                   22520704.1604
        43.2504         39.7504
   1116529.87547    911541.20743  23510956.6024                   23510960.3754
        43.0004         23.5004
  -4004196.73848  -3102178.75048  20406298.2584                   20406299.6764
        52.5004         51.5004
   5202224.25846   4071543.62544  23898096.2974                   23898100.3834
        37.2504         27.0004
   -171894.94948   -106751.65248  21087551.8914                   21087553.4414
        50.0004         48.7504
   9301010.36346   7251614.10543  24003765.0164                   24003770.6024
        39.5004         21.2504
 25  8  7 19 35 45.0000000  0  9G02G08G23G27G28G32G24G10G18
  -3094205.55147  -2357214.66044  23307186.3524                   23307186.0634
        43.5004         27.5004
  -1720046.25847  -1330395.01645  22533061.6644                   22533066.3484
        42.2504         35.7504
   5847127.43846   4563775.75844  22742750.5864                   22742752.7384
        41.7504         26.5004
   4801611.25847   3755718.34446  22517455.6174                   22517460.1334
        43.5004         40.0004
   1012927.96547    830812.54344  23491241.8524                   23491245.5944
        42.0004         24.5004
  -4058983.77048  -3144869.93748  20395872.8134                   20395873.9344
        51.7504         51.5004
   5183622.23846   4057048.53544  23894556.3594                   23894561.3674
        36.2504         29.7504
   -218682.71548   -143209.66048  21078648.5634                   21078649.9654
        50.5004         48.5004
   9298466.99646   7249632.10943  24003282.0004                   24003286.7704
        39.5004         21.5004
 25  8  7 19 36  0.0000000  0  9G02G08G23G27G28G32G24G10G18
  -3189706.08247  -2431630.62544  23289013.5234                   23289012.3954
        43.0004         28.5004
  -1763182.23047  -1364007.49246  22524854.1414                   22524857.5394
        42.7504         36.0004
   5825187.44146   4546679.63744  22738575.8674                   22738577.3164
        41.7504         28.2504
   4784626.56347   3742483.45346  22514223.4384                   22514227.8244
        43.0004         40.0004
    909334.33647    750090.31343  23471528.2034                   23471531.9844
        42.5004         22.5004
  -4113673.80948  -3187485.55548  20385465.5784                   20385466.6644
        51.2504         51.2504
   5165125.82045   4042635.69544  23891036.4774                   23891041.6524
        34.0004         27.2504
   -265448.05948   -179650.19148  21069749.1644                   21069751.2274
        50.5004         48.7504
   9295956.77346   7247675.95343  24002803.7974                   24002808.9064
        39.7504         20.5004
 25  8  7 19 36 15.0000000  0  9G02G08G23G27G28G32G24G10G18
  -3285186.93747  -2506031.22344  23270844.3134                   23270843.1214
        42.5004         28.0004
  -1806211.12147  -1397536.52746  22516666.2034                   22516669.6524
        43.0004         36.0004
   5803253.05947   4529587.88344  22734401.9614                   22734403.1604
        42.2504         26.5004
   4767703.68047   3729296.74246  22511003.5164                   22511007.2584
        43.7504         39.2504
    805746.37546    669372.50443  23451815.8054                   23451819.7704
        41.2504         22.7504
  -4168270.05948  -3230028.08248  20375076.3984                   20375077.6094
        52.5004         51.5004
   5146731.73445   4028302.61344  23887536.2274                   23887540.6054
        34.5004         26.7504
   -312193.96948   -216075.58248  21060853.8594                   21060855.5514
        49.7504         48.7504
   9293476.39146   7245743.05543  24002331.9304                   24002337.4224
        39.5004         21.2504
 25  8  7 19 36 30.0000000  0  9G02G08G23G27G28G32G24G10G18
  -1805216.62947  -1352807.54744  23552472.7424                   23552472.1724
        42.5004         27.0004
   -273705.51647   -203376.35546  22808292.0394                   22808296.1764
        43.0004         36.0004
   7356750.45347   5740105.28144  23030023.7734                   23030024.0744
        42.0004         25.5004
   6326267.99247   4943762.37946  22807588.3284                   22807592.0744
        44.0004         40.0004
   2277595.98847   1816268.41044  23731899.8984                   23731903.3914
        42.5004         24.0004
  -2647344.32448  -2044891.15248  20664498.5474                   20664499.8554
        52.7504         51.5004
   6703865.44546   5241653.55545  24183850.4774                   24183853.7114
        38.5004         31.5004
   1216507.30148    975120.20748  21351756.0004                   21351757.9734
        50.0004         48.5004
  10866450.48846   8471437.02343  24301659.0164                   24301664.2344
        39.5004         21.2504
 25  8  7 19 36 45.0000000  0  9G02G08G23G27G28G32G24G10G18
  -1900649.07847  -1427170.46944  23534311.8134                   23534311.3054
        42.0004         26.7504
   -316512.79747   -236732.70346  22800145.8444                   22800150.1844
        42.7504         36.0004
   7334835.32446   5723028.51244  23025852.2274                   23025853.2424
        41.0004         25.2504
   6309475.43847   4930677.22746  22804392.5314                   22804396.7544
        43.7504         40.0004
   2174028.39146   1735566.47343  23712191.3444                   23712195.3094
        41.7504         22.5004
  -2701745.34448  -2087281.55948  20654146.5234                   20654147.8834
        52.0004         51.2504
   6685682.96144   5227485.37144  24180387.3754                   24180393.7304
        29.5004         25.0004
   1169808.23048    938731.30948  21342869.5944                   21342870.9804
        50.7504         48.5004
  10864037.13746   8469556.35543  24301199.8984                   24301205.5164
        38.5004         21.0004
 25  8  7 19 37  0.0000000  0  9G02G08G23G27G28G32G24G10G18
  -1996058.02047  -1501515.04744  23516156.1954                   23516155.3204
        42.0004         27.0004
   -359210.49247   -270003.68045  22792021.0084                   22792024.7934
        43.0004         35.7504
   7312928.81646   5705958.47344  23021683.8834                   23021684.9964
        41.7504         25.0004
   6292746.59447   4917641.70346  22801209.1724                   22801213.6294
        43.0004         39.7504
   2070470.59447   1654872.16444  23692484.6414                   23692489.2234
        42.0004         24.2504
  -2756049.91048  -2129596.80148  20643812.7194                   20643813.6454
        51.0004         51.5004
   6667604.96546   5213398.55145  24176950.6804                   24176953.8794
        36.5004         30.7504
   1123131.64148    902359.93448  21333987.4144                   21333989.3014
        49.7504         48.5004
  10861656.03146   8467700.77043  24300746.6954                   24300752.4654
        39.5004         21.0004
 25  8  7 19 37 15.0000000  0  8G02G08G23G27G28G32G10G18
  -2091440.80946  -1575839.23444  23498005.9924                   23498004.3954
        41.5004         27.0004
   -401796.56647   -303187.64846  22783917.5704                   22783921.2544
        43.0004         36.2504
   7291033.24646   5688896.96144  23017517.6174                   23017519.1804
        41.2504         26.2504
   6276083.25447   4904657.22746  22798038.2194                   22798042.7424
        43.5004         40.0004
   1966925.21147   1574187.56344  23672780.8204                   23672784.9344
        42.5004         25.2504
  -2810255.85548  -2171835.19948  20633497.9304                   20633498.8054
        50.0004         51.2504
   1076479.80948    866007.84848  21325109.7424                   21325111.7664
        50.0004         48.5004
  10859309.25346   8465871.97043  24300300.9844                   24300306.6024
        39.0004         20.5004
 25  8  7 19 37 30.0000000  0  8G02G08G23G27G28G32G10G18
  -2186799.41847  -1650144.61344  23479859.3984                   23479858.3014
        42.0004         26.5004
   -444273.23047   -336286.37946  22775834.2424                   22775838.0084
        43.5004         36.0004
   7269146.53946   5671842.32844  23013352.7664                   23013354.0044
        41.5004         26.2504
   6259483.03147   4891721.93446  22794880.2424                   22794883.9534
        44.0004         39.5004
   1863390.49247   1493511.22343  23653078.6644                   23653082.9024
        42.2504         21.7504
  -2864365.41448  -2213998.49648  20623201.2504                   20623202.2774
        50.5004         51.2504
   1029850.65248    829673.42648  21316236.4224                   21316238.3594
        50.7504         48.7504
  10856994.44146   8464068.10243  24299859.3594                   24299865.8284
        39.5004         20.7504
 25  8  7 19 37 45.0000000  0  8G02G08G23G27G28G32G10G18
  -2282132.75047  -1724430.28144  23461718.3914                   23461717.4614
        43.5004         26.5004
   -486639.81647   -369299.33246  22767771.9064                   22767776.2154
        43.5004         36.2504
   7247269.58646   5654795.31644  23009189.1724                   23009191.0474
        40.7504         25.0004
   6242946.42247   4878836.21946  22791733.0004                   22791737.0234
        43.5004         40.5004
   1759867.81347   1412844.29343  23633379.1724                   23633383.0514
        42.0004         23.7504
  -2918377.79748  -2256086.06648  20612922.9454                   20612924.2734
        52.0004         51.2504
    983245.14848    793357.44548  21307367.4614                   21307369.4184
        50.0004         48.5004
  10854712.31646   8462289.69143  24299425.5394                   24299431.3484
        38.5004         20.7504
 25  8  7 19 38  0.0000000  0  8G02G08G23G27G28G32G10G18
  -2377437.57447  -1798693.75444  23443582.5474                   23443581.0944
        43.7504         27.0004
   -528893.50847   -402224.33246  22759731.8364                   22759735.2894
        43.7504         36.5004
   7225405.35246   5637758.20744  23005028.6174                   23005030.2624
        41.0004         25.0004
   6226476.01247   4866002.08246  22788598.7814                   22788602.8914
        44.0004         40.0004
   1656360.48447   1332189.34843  23613681.9774                   23613686.0744
        42.2504         23.7504
  -2972290.17248  -2298095.70748  20602663.4774                   20602664.5434
        52.0004         51.5004
    936666.21148    757062.16448  21298504.1024                   21298505.7934
        49.5004         48.5004
  10852465.59046   8460538.84043  24298998.7114                   24299004.2704
        39.0004         20.0004
 25  8  7 19 38 15.0000000  0  8G02G08G23G27G28G32G10G18
  -2472712.39147  -1872933.83644  23425452.0084                   23425451.2774
        43.7504         28.0004
   -571033.37547   -435060.61346  22751712.6334                   22751717.1094
        43.0004         37.0004
   7203555.11346   5620732.00443  23000870.6884                   23000872.0824
        40.0004         23.0004
   6210072.63347   4853220.17246  22785477.4304                   22785481.3204
        43.5004         39.7504
   1552870.02347   1251547.50844  23593988.5394                   23593992.1994
        42.0004         25.0004
  -3026101.45748  -2340026.57848  20592423.2734                   20592424.9694
        52.0004         51.5004
    890115.07848    720788.54748  21289645.8834                   21289647.3594
        50.7504         48.5004
  10850255.30146   8458816.37543  24298577.9844                   24298583.3324
        38.0004         20.0004
 25  8  7 19 38 30.0000000  0  8G02G08G23G27G28G32G10G18
  -2567958.30147  -1947151.41044  23407327.6174                   23407326.7814
        44.2504         29.0004
   -613060.92647   -467809.39546  22743715.6564                   22743719.2734
        44.0004         37.2504
   7181717.41846   5603715.59844  22996714.6644                   22996717.1054
        39.0004         27.0004
   6193734.53947   4840489.12546  22782368.4454                   22782372.5984
        43.0004         40.0004
   1449395.48847   1170918.09844  23574298.2114                   23574301.5984
        42.2504         24.7504
  -3079813.14148  -2381879.84048  20582202.7114                   20582203.6884
        52.0004         51.2504
    843590.43848    684535.57048  21280792.4454                   21280794.3054
        50.0004         48.5004
  10848079.79746   8457121.05943  24298163.4384                   24298169.9184
        39.0004         20.0004
 25  8  7 19 38 45.0000000  0  8G02G08G23G27G28G32G10G18
  -2663172.83247  -2021344.50444  23389209.0704                   23389207.8794
        44.0004         29.0004
   -654974.09847   -500469.03946  22735739.8134                   22735743.5084
        43.5004         37.5004
   7159894.53146   5586710.70344  22992562.0084                   22992563.8324
        39.5004         25.5004
   6177463.62147   4827810.42646  22779271.9304                   22779276.5784
        43.5004         40.2504
   1345939.56346   1090303.21944  23554610.5864                   23554614.8754
        41.7504         25.5004
  -3133423.10548  -2423653.82848  20572000.9614                   20572002.2154
        51.7504         51.2504
    797094.47748    648304.94148  21271944.2194                   21271945.9264
        50.5004         48.5004
  10845941.20346   8455454.46943  24297756.8444                   24297762.1914
        38.2504         20.7504
 25  8  7 19 39  0.0000000  0  8G02G08G23G27G28G32G10G18
  -2758357.57847  -2095514.37544  23371096.1094                   23371094.9184
        43.0004         29.2504
   -696775.01647   -533041.22746  22727784.8914                   22727788.8714
        43.5004         37.2504
   7138084.56346   5569715.87944  22988412.7344                   22988413.8284
        39.7504         24.5004
   6161257.52347   4815182.24246  22776188.3134                   22776192.4384
        44.5004         39.7504
   1242500.60946   1009701.52344  23534926.6174                   23534930.7344
        41.2504         25.5004
  -3186933.39848  -2465350.15648  20561818.4304                   20561819.4414
        52.2504         51.2504
    750625.39148    612095.26248  21263101.6644                   21263103.0234
        51.0004         48.5004
  10843837.32846   8453814.93043  24297356.9384                   24297362.5664
        38.5004         19.5004
 25  8  7 19 39 15.0000000  0  8G02G08G23G27G28G32G10G18
  -2853510.75047  -2169659.66444  23352988.3674                   23352987.8984
        42.2504         28.7504
   -738462.34847   -565524.89146  22719852.3754                   22719856.4104
        43.0004         37.0004
   7116289.09046   5552732.34044  22984265.0704                   22984266.4844
        39.5004         24.5004
   6145117.45747   4802605.51646  22773116.6094                   22773120.8874
        43.0004         39.5004
   1139080.59047    929114.60244  23515246.2424                   23515250.5004
        42.0004         26.0004
  -3240342.62548  -2506967.73448  20551654.9844                   20551656.4104
        51.2504         51.5004
    704184.67648    575907.68448  21254264.3364                   21254265.7384
        50.2504         48.5004
  10841769.50846   8452203.48043  24296963.6024                   24296969.3524
        38.0004         19.2504
 25  8  7 19 39 30.0000000  0  8G02G08G23G27G28G32G10G18
  -2948631.78547  -2243779.88744  23334887.7894                   23334887.4184
        42.5004         28.2504
   -780035.93047   -597919.92246  22711941.0474                   22711944.8914
        42.7504         36.5004
   7094508.46146   5535760.39544  22980119.5634                   22980121.6684
        40.7504         25.2504
   6129043.37147   4790080.19946  22770058.1954                   22770062.1804
        43.0004         40.0004
   1035680.20346    848542.98844  23495570.2584                   23495573.9494
        41.5004         24.7504
  -3293650.56248  -2548506.37948  20541510.6724                   20541512.1054
        51.0004         51.2504
    657772.75048    539742.53948  21245432.5004                   21245434.0744
        49.7504         48.5004
  10839737.89846   8450620.27343  24296576.6334                   24296582.8204
        37.7504         19.7504
 25  8  7 19 39 45.0000000  0  8G02G08G23G27G28G32G10G18
  -3043723.10246  -2317876.96144  23316791.6094                   23316791.6764
        41.7504         27.2504
   -821498.60947   -630228.52746  22704050.5554                   22704054.5824
        43.0004         36.5004
   7072739.99646   5518797.91443  22975977.3984                   22975978.8874
        40.2504         23.7504
   6113032.28547   4777603.97346  22767011.1094                   22767015.4064
        42.7504         40.0004
    932297.21146    767984.91044  23475896.8204                   23475900.5594
        41.5004         24.5004
  -3346859.98048  -2589968.27048  20531385.3054                   20531386.3324
        49.7504         51.2504
    611386.94948    503597.74248  21236605.5314                   21236606.9734
        50.7504         48.5004
  10837739.56646   8449062.97343  24296196.0864                   24296202.6954
        38.0004         20.0004
 25  8  7 19 40  0.0000000  0  8G02G08G23G27G28G32G10G18
  -3138781.97347  -2391948.73844  23298702.7814                   23298702.2774
        43.0004         28.2504
   -862848.13347   -662448.97746  22696182.4534                   22696186.5984
        43.0004         36.7504
   7050986.17246   5501846.84044  22971838.4774                   22971839.8714
        40.0004         25.5004
   6097086.24247   4765178.41846  22763976.9844                   22763981.3754
        43.2504         39.7504
    828934.41847    687442.57844  23456227.1254                   23456231.0394
        42.0004         25.5004
  -3399968.56248  -2631351.57848  20521279.0944                   20521280.2154
        51.5004         51.2504
    565029.76248    467475.26248  21227784.0164                   21227786.1294
        50.0004         48.5004
  10835776.77746   8447533.36743  24295823.1804                   24295829.7504
        38.2504         20.2504
 25  8  7 19 40 15.0000000  0  8G02G08G23G27G28G32G10G18
  -3233811.42647  -2465997.63344  23280619.7274                   23280618.2584
        43.7504         29.0004
   -904088.11746   -694584.07046  22688334.7894                   22688338.5354
        41.5004         36.5004
   7029243.62146   5484904.54344  22967700.6174                   22967703.0204
        40.5004         25.0004
   6081201.42647   4752800.59446  22760954.4064                   22760958.3794
        43.5004         39.7504
    725588.78947    606913.63744  23436561.0784                   23436565.1484
        42.0004         26.7504
  -3452979.84848  -2672659.07048  20511191.4844                   20511192.2814
        52.0004         51.2504
    518697.77748    431372.40648  21218967.3054                   21218969.2234
        50.2504         48.7504
  10833845.91846   8446028.65643  24295455.6254                   24295462.0274
        38.0004         19.5004
 25  8  7 19 40 30.0000000  0  8G02G08G23G27G28G32G10G18
  -3328808.76247  -2540021.49644  23262542.2504                   23262540.6294
        45.0004         29.7504
   -945216.24247   -726631.98446  22680508.2194                   22680512.3714
        43.5004         37.2504
   7007514.79746   5467972.96144  22963565.7034                   22963567.7274
        39.7504         25.7504
   6065379.99647   4740472.14846  22757943.5554                   22757947.9804
        43.0004         39.7504
    622263.22346    526400.29743  23416898.8284                   23416902.6564
        41.0004         22.5004
  -3505891.45748  -2713888.88748  20501122.7894                   20501123.8714
        52.0004         51.2504
    472393.56648    395291.19548  21210156.0004                   21210157.9144
        50.2504         49.0004
  10831949.22846   8444550.52743  24295095.2584                   24295100.7974
        38.5004         19.2504
 25  8  7 19 40 45.0000000  0  8G02G08G23G27G28G32G10G18
  -3423776.93747  -2614022.64144  23244471.3364                   23244469.1294
        44.7504         29.7504
   -986235.82047   -758595.32846  22672702.0944                   22672706.3284
        43.5004         36.5004
   6985796.66446   5451049.69144  22959433.6804                   22959434.8554
        39.7504         26.0004
   6049618.48847   4728190.39846  22754944.4844                   22754948.7034
        43.5004         39.2504
    518954.98446    445900.50044  23397239.7194                   23397243.8874
        41.7504         24.0004
  -3558706.62548  -2755043.55948  20491072.3134                   20491073.2704
        52.2504         51.2504
    426114.00848    359229.19948  21201349.3674                   21201351.0864
        50.7504         49.0004
  10830083.49246   8443096.56343  24294740.6954                   24294746.5634
        37.2504         20.2504
 25  8  7 19 41  0.0000000  0  8G02G08G23G27G28G32G10G18
  -3518712.97747  -2687998.73844  23226404.8754                   23226402.8014
        44.0004         28.0004
  -1027144.50847   -790472.26246  22664918.0784                   22664921.5314
        42.5004         36.5004
   6964091.77046   5434136.75044  22955303.0084                   22955304.3674
        41.0004         25.0004
   6033919.07047   4715957.03146  22751956.6724                   22751960.9884
        43.7504         39.7504
    415667.07846    365416.50844  23377585.3444                   23377588.4694
        41.0004         24.5004
  -3611422.92648  -2796121.19148  20481040.6954                   20481041.5984
        51.0004         51.2504
    379861.73448    323188.45748  21192547.5084                   21192549.2734
        50.5004         48.7504
  10828251.00446   8441668.48843  24294392.3984                   24294398.2424
        36.5004         20.5004
 25  8  7 19 41 15.0000000  0  8G02G08G23G27G28G32G10G18
  -3613618.35247  -2761950.96944  23208345.1884                   23208343.5744
        43.7504         28.5004
  -1067944.06647   -822264.15246  22657154.1724                   22657158.0664
        43.0004         36.0004
   6942398.55146   5417232.89144  22951175.2974                   22951176.6764
        39.5004         24.5004
   6018279.72347   4703770.46546  22748981.2344                   22748984.8874
        43.7504         39.5004
    312398.22746    284947.36744  23357933.3834                   23357937.0514
        41.0004         24.5004
  -3664042.09448  -2837123.13748  20471027.8054                   20471028.9384
        53.0004         51.2504
    333635.13748    287167.72348  21183751.4384                   21183753.0274
        51.0004         49.0004
  10826449.95746   8440264.91443  24294049.1024                   24294055.3404
        37.2504         19.7504
 25  8  7 19 41 30.0000000  0  8G02G08G23G27G28G32G10G18
  -3708492.33647  -2835878.71944  23190290.9064                   23190289.0434
        43.2504         27.7504
  -1108634.28947   -853970.85546  22649410.4304                   22649415.1764
        43.0004         36.7504
   6920717.46546   5400338.50444  22947049.2664                   22947050.6884
        41.0004         25.7504
   6002700.57847   4691630.82046  22746016.1724                   22746020.4144
        43.7504         39.7504
    209149.26646    204493.75044  23338286.2424                   23338289.2274
        41.5004         25.0004
  -3716563.82048  -2878049.15648  20461033.1094                   20461034.2624
        53.0004         51.2504
    287434.71148    251167.38348  21174959.1724                   21174961.0234
        51.0004         48.7504
  10824680.56646   8438886.00443  24293712.8834                   24293719.0124
        37.5004         19.2504
 25  8  7 19 41 45.0000000  0  8G02G08G23G27G28G32G10G18
  -3803336.09847  -2909782.88344  23172242.3444                   23172242.2114
        43.0004         27.5004
  -1149216.77047   -885593.60246  22641688.3754                   22641692.6524
        42.5004         36.5004
   6899047.03546   5383452.41844  22942925.1954                   22942927.1724
        40.5004         25.7504
   5987179.82447   4679536.67246  22743062.7504                   22743067.2774
        43.0004         39.2504
    105919.15646    124054.80944  23318641.8914                   23318645.5474
        41.0004         25.0004
  -3768989.68448  -2918900.46948  20451056.6334                   20451057.6764
        52.0004         51.2504
    241259.01648    215186.31648  21166172.4144                   21166174.2274
        50.5004         48.7504
  10822941.13746   8437530.43043  24293381.0554                   24293388.2734
        37.5004         20.0004
 25  8  7 19 42  0.0000000  0  8G02G08G23G27G28G32G10G18
  -3898149.48847  -2983663.39544  23154199.6644                   23154198.9454
        43.0004         28.7504
  -1189691.83647   -917132.64546  22633986.3284                   22633990.7894
        43.0004         37.0004
   6877387.23446   5366574.61744  22938804.0004                   22938805.2074
        40.5004         26.5004
   5971716.96547   4667487.63346  22740120.7664                   22740125.3834
        43.0004         39.5004
      2708.16046     43630.75444  23299000.9384                   23299004.6214
        41.5004         24.5004
  -3821319.86348  -2959677.23048  20441098.5004                   20441100.1454
        52.0004         51.5004
    195108.03548    179224.50048  21157390.2814                   21157391.8634
        50.0004         48.7504
  10821231.47346   8436198.08643  24293056.9924                   24293063.4264
        36.2504         19.2504
 25  8  7 19 42 15.0000000  0  8G02G08G23G27G28G32G10G18
  -3992929.57847  -3057517.97344  23136163.7664                   23136163.2774
        43.5004         29.0004
  -1230057.09447   -948586.12946  22626305.2584                   22626309.4734
        42.5004         37.5004
   6855740.68446   5349707.12544  22934684.1254                   22934685.9804
        41.5004         25.5004
   5956314.23847   4655485.45346  22737189.6094                   22737194.3164
        43.2504         39.2504
   -100480.71946    -36776.07043  23279365.3204                   23279368.6454
        40.5004         22.7504
  -3873551.96148  -3000377.56648  20431159.0704                   20431160.4454
        51.7504         51.0004
    148984.38348    143283.98448  21148613.3284                   21148615.0234
        51.0004         48.7504
  10819553.86346   8434890.66043  24292737.2734                   24292744.2814
        36.5004         19.2504
 25  8  7 19 42 30.0000000  0  8G02G08G23G27G28G32G10G18
  -4087679.50447  -3131349.03544  23118133.8674                   23118132.6844
        44.0004         29.2504
  -1270316.16447   -979956.87146  22618643.9304                   22618648.4884
        42.0004         37.2504
   6834103.94546   5332847.28144  22930567.3524                   22930568.7544
        41.2504         26.0004
   5940967.80547   4643527.13746  22734269.0864                   22734273.7304
        43.0004         39.7504
   -203650.48046   -117167.98444  23259732.3984                   23259735.7734
        41.2504         24.5004
  -3925689.47348  -3041004.19948  20421237.7114                   20421238.7234
        52.5004         51.0004
    102884.66048    107362.11348  21139840.8444                   21139842.5594
        50.5004         49.0004
  10817904.69546   8433605.46143  24292423.3914                   24292430.6254
        37.0004         20.0004
 25  8  7 19 42 45.0000000  0  8G02G08G23G27G28G32G10G18
  -4182398.96147  -3205156.36344  23100109.2584                   23100107.8134
        44.0004         29.0004
  -1310469.21946  -1011245.00046  22611003.1884                   22611007.4574
        41.5004         37.2504
   6812477.11746   5315995.16044  22926451.9774                   22926453.4614
        41.0004         26.5004
   5925677.39847   4631612.47746  22731359.3984                   22731364.1054
        43.0004         39.5004
   -306800.73446   -197544.71944  23240103.1414                   23240106.8754
        41.5004         26.5004
  -3977732.48448  -3081557.19148  20411334.2424                   20411335.3284
        52.2504         51.0004
     56808.95348     71458.95348  21131072.6724                   21131074.5204
        50.5004         48.7504
  10816283.85946   8432342.31343  24292114.7974                   24292121.9414
        37.7504         19.2504
 25  8  7 19 43  0.0000000  0  8G02G08G23G27G28G32G10G18
  -4277086.39547  -3278938.73844  23082090.7894                   23082089.2194
        45.0004         29.5004
  -1350515.01647  -1042449.54746  22603382.2664                   22603386.9884
        42.2504         37.2504
   6790861.60947   5299151.86344  22922338.2424                   22922339.8594
        42.0004         26.0004
   5910444.01247   4619742.25446  22728460.8444                   22728465.4264
        42.5004         39.0004
   -409929.63346   -277904.79344  23220478.1484                   23220481.9224
        41.2504         24.0004
  -4029679.74648  -3122035.58248  20401448.9774                   20401450.1994
        51.7504         51.0004
     10758.67248     35575.61348  21122309.9844                   21122311.6844
        50.2504         48.7504
  10814692.50846   8431102.12543  24291813.1094                   24291818.9024
        37.7504         19.2504
 25  8  7 19 43 15.0000000  0  7G02G08G23G27G28G32G10
  -4371743.28147  -3352697.34044  23064078.5084                   23064076.8794
        44.5004         29.7504
  -1390455.80947  -1073572.28146  22595782.6334                   22595786.9414
        43.0004         37.2504
   6769255.44147   5282315.84044  22918226.6954                   22918228.5394
        42.5004         26.5004
   5895265.30947   4607914.62946  22725572.8284                   22725576.8204
        43.0004         39.2504
   -513038.86746   -358249.56644  23200856.8834                   23200860.8874
        41.2504         26.0004
  -4081533.37148  -3162441.00448  20391581.1884                   20391582.2974
        51.5004         51.0004
    -35268.07048      -289.39548  21113551.2274                   21113552.9224
        51.2504         48.5004
 25  8  7 19 43 30.0000000  0  7G02G08G23G27G28G32G10
  -4466367.08647  -3426430.10944  23046072.0084                   23046070.1604
        44.0004         27.2504
  -1430289.30947  -1104611.40646  22588202.0164                   22588206.3364
        42.2504         37.0004
   6747661.12147   5265489.05944  22914117.9844                   22914119.2814
        42.5004         26.7504
   5880143.37147   4596131.24246  22722694.7344                   22722699.3914
        42.5004         39.0004
   -616125.53146   -438576.75844  23181240.6174                   23181243.7974
        41.2504         26.0004
  -4133291.05148  -3202771.65648  20381732.4924                   20381733.6214
        51.7504         51.2504
    -81268.86348    -36134.18748  21104797.5704                   21104799.2544
        50.7504         48.5004
 25  8  7 19 43 45.0000000  0  7G02G08G23G27G28G32G10
  -2985530.14547  -2272531.17244  23327865.6644                   23327864.2934
        43.5004         28.5004
    105408.02347     92035.83646  22880435.6414                   22880440.0274
        42.7504         37.0004
   8301501.20347   6476273.49644  23209804.1804                   23209805.3594
        43.2504         28.0004
   7440499.89847   5811993.40246  23019621.1254                   23019625.3094
        44.0004         39.0004
    856238.73446    708720.18044  23461421.8134                   23461425.5634
        41.0004         24.5004
  -2609528.36748  -2015424.11348  20671694.8674                   20671696.1564
        51.5004         51.0004
   1448180.56348   1155644.57848  21395842.4774                   21395844.1134
        50.5004         48.5004
 25  8  7 19 44  0.0000000  0  7G02G08G23G27G28G32G10
  -3080080.89147  -2346207.06244  23309873.4774                   23309871.8484
        42.7504         29.2504
     65794.56346     61168.16846  22872896.9384                   22872901.8554
        41.5004         36.5004
   8279936.62947   6459469.87944  23205700.5084                   23205701.9344
        43.7504         27.0004
   7425496.41047   5800302.30546  23016766.0394                   23016770.6884
        43.5004         39.5004
    753204.44946    628433.81344  23441815.4924                   23441818.7664
        41.5004         26.0004
  -2661088.49648  -2055600.84048  20661883.3134                   20661884.6374
        52.0004         51.0004
   1402237.97348   1119845.14548  21387099.9454                   21387101.5944
        51.0004         48.5004
 25  8  7 19 44 15.0000000  0  7G02G08G23G27G28G32G10
  -3174594.49247  -2419853.98444  23291887.9304                   23291886.3014
        43.7504         26.7504
     26291.02347     30386.16046  22865380.1094                   22865384.9654
        42.5004         37.0004
   8258387.26247   6442678.13744  23201599.4454                   23201600.8794
        43.2504         27.7504
   7410551.84447   5788657.12946  23013921.9064                   23013926.8324
        42.7504         38.7504
    650197.24246    548168.54744  23422213.5784                   23422216.9384
        41.5004         25.7504
  -2712549.74248  -2095700.51248  20652090.3284                   20652091.6644
        51.2504         51.0004
   1356324.73448   1084068.58648  21378362.3284                   21378364.1914
        50.7504         48.5004
 25  8  7 19 44 30.0000000  0  7G02G08G23G27G28G32G10
  -3269067.89147  -2493469.58244  23273910.5554                   23273908.8984
        42.7504         28.5004
    -13100.10547      -308.25846  22857884.1094                   22857888.7504
        43.0004         37.0004
   8236855.77747   6425900.30944  23197502.5394                   23197503.9804
        42.7504         27.2504
   7395668.48447   5777059.64846  23011089.9144                   23011094.4614
        43.0004         39.0004
    547220.08247    467926.70344  23402618.1334                   23402620.8714
        42.2504         26.5004
  -2763909.62548  -2135721.19548  20642316.7734                   20642318.2384
        50.7504         51.0004
   1310443.62548   1048317.06348  21369631.8834                   21369633.5004
        50.2504         48.5004
 25  8  7 19 44 45.0000000  0  7G02G08G23G27G28G32G10
  -3363501.13747  -2567053.89144  23255940.2504                   23255938.8594
        43.2504         28.7504
    -52379.30947    -30915.47346  22850409.8204                   22850414.2344
        42.7504         37.2504
   8215341.91047   6409136.21944  23193407.7974                   23193410.6214
        42.0004         26.5004
   7380845.73047   5765509.38746  23008269.1484                   23008273.8834
        43.5004         39.2504
    444273.15647    387708.40244  23383027.3054                   23383030.9884
        42.0004         26.5004
  -2815168.53548  -2175663.20748  20632562.5004                   20632563.7814
        52.0004         51.0004
   1264594.39848   1012590.37548  21360906.9614                   21360908.8444
        50.5004         48.7504
 25  8  7 19 45  0.0000000  0  7G02G08G23G27G28G32G10
  -3457895.66047  -2640608.02344  23237977.1094                   23237976.6134
        43.5004         29.5004
    -91548.49247    -61436.95346  22842956.2274                   22842960.7814
        42.5004         37.5004
   8193843.94947   6392384.50444  23189317.2734                   23189319.2114
        42.5004         28.0004
   7366081.49647   5754004.72746  23005459.1804                   23005464.2854
        42.5004         39.2504
    341355.12147    307512.62944  23363442.7664                   23363446.1484
        42.5004         26.0004
  -2866328.32048  -2215527.97748  20622827.6094                   20622828.7664
        52.0004         51.0004
   1218775.35248    976887.21548  21352188.0394                   21352189.7304
        50.7504         48.7504
 25  8  7 19 45 15.0000000  0  7G02G08G23G27G28G32G10
  -3552250.12547  -2714130.96145  23220022.3284                   23220021.1414
        44.7504         30.2504
   -130606.81647    -91872.03946  22835523.3914                   22835528.4494
        42.7504         37.2504
   8172363.03547   6375646.08644  23185229.9384                   23185231.5124
        43.2504         28.5004
   7351376.46947   5742546.20346  23002661.4774                   23002665.8134
        43.0004         38.5004
    238467.40247    227340.47744  23343864.1174                   23343867.2934
        42.5004         27.5004
  -2917388.04748  -2255314.77348  20613110.9534                   20613112.4264
        52.5004         51.0004
   1172987.65248    941208.47348  21343474.6804                   21343476.5474
        50.5004         48.7504
 25  8  7 19 45 30.0000000  0  7G02G08G23G27G28G32G10
  -3646565.09847  -2787623.10944  23202075.0084                   23202073.8284
        44.5004         29.7504
   -169555.32847   -122221.57446  22828111.8984                   22828116.9614
        42.2504         37.2504
   8150898.30547   6358920.27044  23181145.7734                   23181147.8874
        43.0004         29.5004
   7336729.35947   5731132.80546  22999874.3364                   22999878.7344
        42.5004         38.7504
    135609.60547    147191.61744  23324290.4694                   23324293.7704
        43.0004         27.0004
  -2968348.73448  -2295024.40248  20603413.3674                   20603414.6254
        52.0004         51.0004
   1127230.41048    905553.46148  21334767.3674                   21334769.0234
        51.0004         48.5004
 25  8  7 19 45 45.0000000  0  7G02G08G23G27G28G32G10
  -3740840.14847  -2861084.16444  23184135.0944                   23184133.9184
        43.5004         29.0004
   -208394.25047   -152485.69546  22820721.2894                   22820725.8404
        42.5004         37.0004
   8129449.84847   6342207.14844  23177063.9304                   23177065.8164
        42.7504         29.2504
   7322139.91447   5719764.35546  22997097.9454                   22997101.9574
        43.0004         38.2504
     32782.10547     67066.38744  23304723.0084                   23304726.1994
        42.5004         27.7504
  -3019210.40648  -2334656.87148  20593734.8674                   20593736.0634
        52.0004         51.0004
   1081503.76648    869922.30148  21326065.8834                   21326067.7854
        51.2504         48.5004
 25  8  7 19 46  0.0000000  0  7G02G08G23G27G28G32G10
  -3835077.66047  -2934515.96144  23166202.0004                   23166200.4844
        43.0004         29.7504
   -247126.16447   -182666.44146  22813351.2664                   22813355.7074
        42.0004         37.0004
   8108015.26247   6325504.83244  23172984.7424                   23172986.8484
        42.2504         28.7504
   7307605.30146   5708438.61746  22994332.0634                   22994336.3444
        41.2504         39.0004
    -70017.05147    -13036.76644  23285161.4304                   23285164.2814
        42.5004         27.5004
  -3069975.65648  -2374214.21148  20584074.7584                   20584075.9344
        51.2504         51.0004
   1035805.35248    834313.13348  21317369.7974                   21317371.5944
        50.0004         48.5004
 25  8  7 19 46 15.0000000  0  7G02G08G23G27G28G32G10
  -3929274.10247  -3007915.73444  23148276.8674                   23148276.2974
        42.5004         29.0004
   -285748.14147   -212761.52346  22806001.4534                   22806006.3874
        43.0004         36.5004
   8086597.75447   6308815.83644  23168909.4064                   23168911.4454
        42.5004         28.0004
   7293128.37947   5697157.84446  22991576.9534                   22991581.7974
        42.5004         38.2504
   -172784.35547    -93115.10944  23265604.6024                   23265607.8914
        43.0004         25.7504
  -3120641.47748  -2413694.07048  20574433.2034                   20574434.4454
        50.7504         50.2504
    990138.37548    798728.47348  21308679.7894                   21308681.5824
        51.0004         48.0004
 25  8  7 19 46 30.0000000  0  7G02G08G23G27G28G32G10
  -4023431.40647  -3081285.04344  23130359.1644                   23130357.8554
        42.2504         29.5004
   -324262.57047   -242772.79746  22798672.0864                   22798677.0784
        43.2504         36.2504
   8065195.15247   6292138.43444  23164836.8134                   23164839.0984
        42.0004         28.0004
   7278706.50447   5685919.95346  22988832.8204                   22988837.7504
        43.0004         38.7504
   -275521.59047   -173170.01644  23246054.5164                   23246057.4654
        42.5004         26.5004
  -3171210.18448  -2453098.26648  20564810.1024                   20564811.3754
        51.0004         50.7504
    944500.65248    763166.59448  21299995.1724                   21299996.9804
        50.7504         48.0004
 25  8  7 19 46 45.0000000  0  7G02G08G23G27G28G32G10
  -4117550.31247  -3154624.40244  23112449.0864                   23112447.5204
        43.5004         28.5004
   -362670.71147   -272701.26246  22791363.5634                   22791368.1454
        42.5004         36.7504
   8043806.36747   6275471.80944  23160766.5784                   23160768.6414
        42.7504         27.7504
   7264338.28947   5674723.87146  22986099.2894                   22986103.5514
        42.7504         39.0004
   -378229.40247   -253201.98844  23226510.0704                   23226513.0044
        42.7504         27.2504
  -3221682.97748  -2492427.71948  20555205.6024                   20555207.0124
        51.5004         51.2504
    898891.17248    727626.71948  21291315.8284                   21291317.6174
        50.5004         48.5004
 25  8  7 19 47  0.0000000  0  7G02G08G23G27G28G32G10
  -4211628.55147  -3227932.09445  23094547.0084                   23094545.5354
        42.5004         30.0004
   -400970.88347   -302545.57846  22784075.5314                   22784079.9614
        43.0004         37.5004
   8022433.44546   6258817.53944  23156699.3134                   23156701.6524
        41.7504         28.0004
   7250025.34447   5663570.86746  22983375.1254                   22983380.3794
        43.0004         39.7504
   -480905.49247   -333209.24644  23206971.0704                   23206974.5164
        42.5004         26.5004
  -3272057.98448  -2531680.97348  20545619.5084                   20545620.7464
        51.5004         51.2504
    853312.00448    692110.47748  21282642.3594                   21282644.6094
        50.7504         48.5004
 25  8  7 19 47 15.0000000  0  7G02G08G23G27G28G32G10
  -4305668.21947  -3301209.75444  23076651.7114                   23076650.2664
        44.0004         29.2504
   -439165.64847   -332307.77746  22776807.1954                   22776811.9774
        42.0004         37.5004
   8001074.02346   6242173.77344  23152634.6644                   23152636.9454
        41.2504         28.5004
   7235764.86747   5652458.73846  22980661.4454                   22980666.2774
        42.2504         39.5004
   -583551.78547   -413193.28944  23187438.2424                   23187441.4884
        42.5004         25.7504
  -3322337.81248  -2570860.05948  20536051.8594                   20536052.9804
        51.2504         51.2504
    807760.71148    656615.95348  21273974.6334                   21273976.5354
        50.0004         48.2504
 25  8  7 19 47 30.0000000  0  7G02G08G23G27G28G32G10
  -4399670.06647  -3374457.92245  23058763.3284                   23058761.4264
        43.7504         31.0004
   -477256.21947   -361988.78146  22769558.5314                   22769563.3554
        42.2504         37.5004
   7979727.14546   6225539.80144  23148572.4454                   23148575.1844
        40.7504         26.5004
   7221555.53147   5641386.46546  22977957.5554                   22977962.7304
        43.2504         38.5004
   -686168.86347   -493154.57044  23167910.8204                   23167913.9844
        42.7504         27.7504
  -3372523.53148  -2609965.82048  20526501.4774                   20526502.8244
        51.7504         51.2504
    762236.46948    621142.50048  21265311.4694                   21265313.2894
        49.5004         48.2504
 25  8  7 19 47 45.0000000  0  7G02G08G23G27G28G32G10
  -4493630.56647  -3447673.88344  23040883.8834                   23040882.0084
        43.5004         29.2504
   -515239.52746   -391586.19946  22762330.5864                   22762335.2934
        41.5004         37.0004
   7958396.08246   6208918.14844  23144513.4774                   23144515.5204
        41.5004         27.0004
   7207400.19147   5630356.25846  22975264.1094                   22975269.1374
        42.5004         38.0004
   -788753.08647   -573090.24644  23148389.9694                   23148393.3594
        43.0004         27.0004
  -3422612.06248  -2648995.84848  20516970.1414                   20516971.7194
        52.0004         51.5004
    716742.46548    585692.60948  21256654.2344                   21256656.2234
        50.5004         48.2504
 25  8  7 19 48  0.0000000  0  7G02G08G23G27G28G32G10
  -4587550.22347  -3520857.98044  23023011.0314                   23023009.4884
        43.0004         28.5004
   -553116.62147   -421100.85546  22755123.3674                   22755127.7854
        42.5004         37.0004
   7937080.08646   6192308.24644  23140457.2894                   23140458.7974
        41.0004         28.0004
   7193297.74247   5619367.27746  22972580.8284                   22972585.4454
        42.2504         38.0004
   -891304.87147   -653000.65244  23128874.2274                   23128877.4264
        42.2504         27.7504
  -3472604.25448  -2687950.80548  20507457.0474                   20507458.4224
        51.5004         51.2504
    671278.06648    550265.79348  21248002.9454                   21248004.6024
        50.7504         48.5004
 25  8  7 19 48 15.0000000  0  7G02G08G23G27G28G32G10
  -4681429.27047  -3594010.46144  23005146.3754                   23005145.4304
        43.0004         28.7504
   -590888.25846   -450533.34446  22747935.7274                   22747940.2034
        41.2504         37.2504
   7915778.66446   6175709.68844  23136403.1094                   23136405.5784
        40.7504         27.0004
   7179247.27747   5608418.79746  22969906.7814                   22969911.7734
        42.5004         38.7504
   -993824.27747   -732885.82844  23109365.5944                   23109368.3594
        43.2504         26.5004
  -3522500.82048  -2726831.23848  20497961.7974                   20497963.2034
        51.7504         51.5004
    625842.77348    514861.64548  21239356.6954                   21239358.7624
        51.0004         48.5004
 25  8  7 19 48 30.0000000  0  7G02G08G23G27G28G32G10
  -4775268.44946  -3667131.87944  22987288.9694                   22987287.9104
        41.5004         29.0004
   -628555.64547   -479884.59046  22740766.9384                   22740771.9024
        42.5004         37.7504
   7894490.81346   6159121.70344  23132353.3284                   23132354.2934
        39.5004         26.0004
   7165247.34847   5597509.69146  22967242.9064                   22967247.4224
        42.5004         38.5004
  -1096312.01247   -812746.32444  23089863.0784                   23089865.7344
        43.5004         27.2504
  -3572302.95348  -2765638.09048  20488485.0554                   20488486.1214
        51.5004         51.7504
    580435.58248    479479.39848  21230715.7894                   21230717.5044
        49.5004         48.2504
 25  8  7 19 48 45.0000000  0  7G02G08G23G27G28G32G10
  -4869068.71147  -3740222.94944  22969439.1484                   22969438.1994
        43.0004         29.0004
   -666120.19146   -509155.70746  22733619.6804                   22733624.0274
        41.5004         36.7504
   7873215.41846   6142543.43044  23128304.4144                   23128306.7774
        40.0004         27.5004
   7151296.52347   5586638.84846  22964587.9144                   22964593.0044
        42.0004         38.0004
  -1198768.79347   -892582.69944  23070366.1564                   23070368.6644
        43.0004         27.5004
  -3622011.93748  -2804372.37548  20479025.8284                   20479026.7934
        52.5004         51.5004
    535055.37148    444118.18048  21222080.4224                   21222082.5664
        50.5004         48.0004
 25  8  7 19 49  0.0000000  0  7G02G08G23G27G28G32G10
  -4962830.83247  -3813284.33244  22951597.5944                   22951596.1254
        43.5004         29.0004
   -703583.32847   -538347.80546  22726489.7894                   22726494.9844
        42.5004         37.0004
   7851951.24246   6125973.89844  23124257.7194                   23124259.8674
        40.5004         26.5004
   7137393.06347   5575804.90646  22961942.4454                   22961947.4454
        42.5004         38.5004
  -1301195.47347   -972395.63344  23050875.3134                   23050877.6054
        42.2504         26.5004
  -3671629.14148  -2843035.13348  20469583.6724                   20469585.1564
        52.0004         51.5004
    489701.00448    408777.09448  21213449.6414                   21213451.8054
        49.7504         48.0004
 25  8  7 19 49 15.0000000  0  7G02G08G23G27G28G32G10
  -5056552.76247  -3886314.37544  22933762.8444                   22933761.0664
        42.7504         29.5004
   -740943.39547   -567459.59446  22719381.3984                   22719385.6524
        43.2504         37.2504
   7830700.28946   6109414.65244  23120214.7664                   23120216.4064
        40.0004         25.0004
   7123538.60946   5565009.15646  22959305.7664                   22959310.9384
        41.5004         37.7504
  -1403589.70347  -1052183.27344  23031389.9454                   23031392.6414
        43.0004         26.2504
  -3721152.79348  -2881624.99648  20460160.0084                   20460161.1134
        51.5004         51.5004
    444374.40248    373457.66048  21204824.4224                   21204826.2854
        50.5004         48.5004
 25  8  7 19 49 30.0000000  0  7G02G08G23G27G28G32G10
  -5150233.32047  -3959312.18744  22915935.8984                   22915934.1524
        44.5004         28.2504
   -778199.69947   -596490.51646  22712291.6644                   22712295.7894
        43.0004         36.2504
   7809463.36346   6092866.36744  23116172.6564                   23116174.5864
        40.2504         25.5004
   7109733.72347   5554252.03146  22956679.1254                   22956684.5664
        42.0004         38.0004
  -1505950.23847  -1131944.64544  23011910.7114                   23011913.7624
        42.5004         27.0004
  -3770582.14848  -2920141.37948  20450753.6644                   20450755.1334
        52.0004         51.5004
    399076.55948    338160.62148  21196204.5554                   21196206.5234
        49.0004         48.5004
 25  8  7 19 49 45.0000000  0  7G02G08G23G27G28G32G10
  -5243872.21547  -4032277.56244  22898116.7974                   22898115.2304
        44.0004         29.0004
   -815352.47347   -625440.77046  22705221.7034                   22705226.1454
        42.0004         37.2504
   7788240.67646   6076329.14144  23112134.4924                   23112136.5354
        40.5004         24.7504
   7095977.96947   5543533.18446  22954061.4454                   22954066.1684
        42.2504         37.0004
  -1608276.59447  -1211679.40244  22992438.9304                   22992441.6644
        43.2504         26.0004
  -3819917.26248  -2958584.32848  20441365.6564                   20441366.5944
        52.5004         51.7504
    353807.54348    302886.05148  21187590.1094                   21187592.2704
        50.2504         48.5004
 25  8  7 19 50  0.0000000  0  7G02G08G23G27G28G32G10
  -5337469.52047  -4105210.50444  22880305.4144                   22880304.3244
        43.7504         29.2504
   -852402.38347   -654310.85546  22698171.0634                   22698175.6484
        43.5004         37.7504
   7767031.68446   6059802.60244  23108098.1254                   23108100.3874
        40.0004         25.2504
   7082270.53947   5532852.00446  22951453.4064                   22951457.8324
        42.2504         37.5004
  -1710568.92247  -1291387.64844  22972973.6024                   22972976.0354
        43.2504         26.7504
  -3869158.85248  -2996954.40648  20431995.3754                   20431996.1914
        52.2504         51.5004
    308566.88348    267633.56648  21178981.0944                   21178982.8444
        50.0004         48.2504
 25  8  7 19 50 15.0000000  0  7G02G08G23G27G28G32G10
  -5431026.94547  -4178112.39544  22862502.4384                   22862500.8554
        43.2504         29.0004
   -889351.54747   -683102.46546  22691140.2194                   22691144.6954
        43.0004         36.7504
   7745834.53946   6043285.32043  23104064.8594                   23104066.7234
        40.7504         22.7504
   7068609.18447   5522206.71946  22948853.6414                   22948858.3284
        42.2504         37.7504
  -1812828.63347  -1371070.47344  22953514.0474                   22953516.3014
        42.5004         27.7504
  -3918308.85948  -3035253.11348  20422642.5864                   20422643.5594
        52.2504         51.5004
    263352.81648    232401.82048  21170377.4224                   21170379.5004
        50.0004         48.2504
 25  8  7 19 50 30.0000000  0  7G02G08G23G27G28G32G10
  -5524541.51247  -4250980.86344  22844707.2344                   22844705.8834
        43.7504         29.0004
   -926197.53547   -711813.66046  22684128.4144                   22684133.8754
        42.2504         37.0004
   7724652.05146   6026779.42644  23100033.8364                   23100035.5864
        40.5004         24.2504
   7054996.23446   5511599.14546  22946263.1644                   22946268.2504
        41.2504         38.0004
  -1915052.68747  -1450725.52044  22934061.6094                   22934063.9654
        42.5004         26.0004
  -3967364.81648  -3073478.53548  20413307.4694                   20413308.1684
        52.5004         51.5004
    218168.06348    197192.90648  21161778.4454                   21161780.7344
        50.7504         48.2504
 25  8  7 19 50 45.0000000  0  7G02G08G23G27G28G32G10
  -5618013.69547  -4323816.29344  22826920.3054                   22826918.8284
        44.2504         29.2504
   -962941.33247   -740445.22746  22677136.2274                   22677141.3484
        42.7504         37.0004
   7703483.34846   6010284.28943  23096005.4844                   23096007.5354
        40.0004         22.5004
   7041430.52746   5501028.39546  22943681.8674                   22943686.4494
        41.7504         38.0004
  -2017241.41847  -1530353.03144  22914615.5004                   22914617.9144
        42.5004         26.0004
  -4016327.60948  -3111631.35948  20403989.7194                   20403991.2934
        52.5004         51.5004
    173011.85948    162006.23848  21153186.2424                   21153188.0474
        50.5004         48.2504
 25  8  7 19 51  0.0000000  0  7G02G08G23G27G28G32G10
  -4136016.17647  -3169013.01645  23108934.6564                   23108933.2704
        44.2504         30.0004
    575840.00847    458605.12946  22969956.6254                   22969961.7584
        42.7504         36.7504
   9257750.65646   7221401.60943  23391772.5314                   23391774.9064
        40.5004         22.5004
   8603333.32847   6718095.43446  23240902.2974                   23240906.9184
        42.2504         38.2504
   -543966.91447   -382346.87144  23194970.3984                   23194972.7814
        42.5004         26.2504
  -2489773.39148  -1922108.58648  20694483.5234                   20694484.9104
        52.2504         51.5004
   1703308.07848   1354444.84448  21444391.8054                   21444393.9064
        50.5004         48.0004
 25  8  7 19 51 15.0000000  0  7G02G08G23G27G28G32G10
  -4229399.43447  -3241779.16845  23091164.6804                   23091163.2384
        45.2504         30.0004
    539303.15247    430134.81646  22963003.9454                   22963009.1454
        43.5004         36.7504
   9236613.00446   7204930.64543  23387750.2814                   23387752.7234
        39.7504         23.5004
   8589864.25047   6707599.98046  23238339.6414                   23238344.3484
        42.2504         38.0004
   -646080.61347   -461915.92644  23175538.8754                   23175541.0124
        43.0004         26.0004
  -2538547.04748  -1960114.04348  20685202.3754                   20685203.2934
        52.7504         51.5004
   1658212.47748   1319305.39848  21435810.1724                   21435812.4344
        49.5004         48.2504
 25  8  7 19 51 30.0000000  0  7G02G08G23G27G28G32G10
  -4322739.41447  -3314511.61345  23073402.7894                   23073402.0164
        45.0004         31.2504
    502867.87146    401743.66046  22956070.5704                   22956075.3524
        41.5004         37.0004
   9215489.36746   7188470.63743  23383730.7584                   23383733.4734
        40.0004         22.5004
   8576441.40647   6697140.55546  23235784.7504                   23235789.4384
        42.5004         37.2504
   -748157.65647   -541456.43444  23156114.1334                   23156116.2274
        42.7504         27.0004
  -2587227.87148  -1998047.15248  20675938.5944                   20675939.3324
        52.0004         51.2504
   1613145.75448   1284188.45348  21427234.1644                   21427235.9384
        50.5004         48.2504
 25  8  7 19 51 45.0000000  0  7G02G08G23G27G28G32G10
  -4416039.46947  -3387212.94145  23055648.4844                   23055647.3284
        45.0004         31.0004
    466530.32047    373428.65246  22949155.0474                   22949160.7114
        42.7504         36.5004
   9194376.21146   7172018.77343  23379713.7114                   23379715.0474
        40.7504         22.2504
   8563060.76247   6686714.00446  23233238.9064                   23233243.6914
        42.5004         37.5004
   -850201.37547   -620970.94944  23136695.4384                   23136697.9774
        42.0004         27.2504
  -2635819.67648  -2035910.89548  20666691.7034                   20666692.9224
        52.5004         51.2504
   1568104.28948   1249091.19548  21418663.0474                   21418665.2234
        50.7504         48.2504
 25  8  7 19 52  0.0000000  0  7G02G08G23G27G28G32G10
  -4509297.67647  -3459881.64145  23037902.1094                   23037900.3954
        45.0004         30.5004
    430291.79347    345190.79346  22942259.7344                   22942265.0554
        42.0004         36.5004
   9173275.04746   7155576.26243  23375697.2424                   23375699.8484
        40.5004         22.0004
   8549723.55146   6676321.30146  23230700.9614                   23230705.8524
        41.0004         38.0004
   -952209.79747   -700457.97344  23117284.0474                   23117286.4304
        42.5004         27.2504
  -2684321.02348  -2073704.14848  20657462.2424                   20657463.5124
        53.0004         51.5004
   1523089.64548   1214014.84048  21410097.2814                   21410099.1294
        50.5004         48.0004
 25  8  7 19 52 15.0000000  0  7G02G08G23G27G28G32G10
  -4602514.85547  -3532518.39844  23020163.4304                   23020161.3014
        45.7504         29.7504
    394150.93847    317029.05146  22935382.4384                   22935387.3714
        42.0004         36.0004
   9152184.75846   7139142.20344  23371684.6024                   23371687.1804
        41.0004         24.5004
   8536428.25046   6665961.25046  23228171.1094                   23228175.7774
        41.5004         38.5004
  -1054183.60947   -779918.03944  23097878.9534                   23097881.3134
        42.5004         27.2504
  -2732733.24648  -2111427.96548  20648249.7344                   20648251.0664
        53.0004         51.5004
   1478100.85548   1178958.61748  21401536.3674                   21401537.7624
        50.5004         48.0004
 25  8  7 19 52 30.0000000  0  7G02G08G23G27G28G32G10
  -4695688.13347  -3605120.94144  23002433.2424                   23002431.2074
        45.5004         29.5004
    358110.13347    288945.27046  22928524.1804                   22928528.8164
        42.5004         37.0004
   9131108.10546   7122718.78543  23367673.8134                   23367676.0944
        41.5004         22.7504
   8523177.11747   6655635.60946  23225649.3914                   23225654.5164
        42.0004         38.0004
  -1156119.80947   -859348.77344  23078480.9064                   23078483.6174
        42.2504         27.2504
  -2781053.81648  -2149080.36748  20639054.6724                   20639055.6094
        52.0004         51.2504
   1433140.55548   1143924.60948  21392980.8054                   21392982.1294
        50.5004         48.0004
 25  8  7 19 52 45.0000000  0  7G02G08G23G27G28G32G10
  -4788815.85247  -3677687.96144  22984711.2504                   22984710.0824
        45.0004         29.2504
    322170.62947    260940.42246  22921685.5004                   22921690.0124
        43.2504         37.0004
   9110046.52546   7106307.12843  23363666.4924                   23363667.7974
        40.7504         21.7504
   8509971.23047   6645345.24646  23223136.1954                   23223141.9224
        42.7504         37.5004
  -1258016.53947   -938748.76244  23059090.2814                   23059093.6844
        42.5004         26.5004
  -2829281.41448  -2186660.29748  20629877.4224                   20629878.6094
        52.5004         51.5004
   1388210.29748   1108914.01248  21384430.5944                   21384432.2704
        50.7504         48.0004
 25  8  7 19 53  0.0000000  0  7G02G08G23G27G28G32G10
  -4881898.84847  -3750220.14844  22966997.7194                   22966996.3404
        45.2504         29.5004
    286330.96547    233013.37946  22914865.1254                   22914869.7854
        43.5004         37.2504
   9088998.78947   7089906.24643  23359660.8834                   23359662.6724
        42.0004         22.7504
   8496809.03946   6635088.91446  23220631.6024                   23220636.3484
        41.2504         37.2504
  -1359874.57847  -1018118.61344  23039707.5164                   23039710.5044
        43.0004         27.0004
  -2877417.44948  -2224168.89148  20620717.3284                   20620718.4414
        52.5004         51.2504
   1343308.84448   1073925.85248  21375886.1884                   21375887.8834
        50.5004         48.0004
 25  8  7 19 53 15.0000000  0  7G02G08G23G27G28G32G10
  -4974938.07847  -3822718.23845  22949293.3054                   22949291.6524
        45.0004         30.5004
    250589.66847    205162.97346  22908063.6334                   22908068.6994
        43.0004         36.2504
   9067963.77046   7073515.27044  23355658.8524                   23355659.8874
        41.7504         24.5004
   8483688.91846   6624865.36746  23218134.6334                   23218140.1524
        41.0004         37.2504
  -1461694.80547  -1097459.00444  23020331.8134                   23020334.6484
        42.2504         27.0004
  -2925463.32848  -2261607.26648  20611574.5084                   20611575.7234
        52.5004         51.2504
   1298435.09848   1038959.27748  21367347.0864                   21367348.6254
        50.2504         48.0004
 25  8  7 19 53 30.0000000  0  7G02G08G23G27G28G32G10
  -5067932.52747  -3895181.41445  22931597.0634                   22931595.7504
        45.5004         30.0004
    214947.16447    177389.54746  22901281.5084                   22901286.2464
        43.0004         36.5004
   9046942.18847   7057134.76243  23351658.8754                   23351660.5944
        42.2504         23.2504
   8470611.23046   6614674.88746  23215646.4304                   23215651.3714
        41.5004         36.5004
  -1563476.04347  -1176769.00044  23000963.2424                   23000966.0704
        42.5004         26.5004
  -2973418.35948  -2298974.80948  20602448.9774                   20602449.9964
        52.2504         51.2504
   1253589.81348   1004014.88748  21358813.2894                   21358814.7274
        50.5004         48.0004
 25  8  7 19 53 45.0000000  0  7G02G08G23G27G28G32G10
  -5160880.50847  -3967608.38745  22913909.8834                   22913908.1884
        46.0004         31.0004
    179404.63347    149694.02746  22894517.9144                   22894522.8984
        43.2504         36.5004
   9025935.44947   7040765.83243  23347660.5634                   23347662.5204
        42.2504         22.7504
   8457576.97746   6604518.25446  23213165.9534                   23213170.7114
        41.0004         37.0004
  -1665216.55547  -1256047.27044  22981603.0234                   22981606.1414
        43.0004         28.0004
  -3021281.45748  -2336270.73848  20593340.6644                   20593341.9614
        52.5004         51.2504
   1208774.42648    969093.79748  21350285.0084                   21350286.6764
        50.7504         48.0004
 25  8  7 19 54  0.0000000  0  7G02G08G23G27G28G32G10
  -5253782.54347  -4039999.56645  22896230.9454                   22896229.2934
        45.2504         30.0004
    143961.12147    122075.67246  22887772.8914                   22887777.9494
        42.5004         36.0004
   9004942.94146   7024407.99243  23343665.8364                   23343667.2704
        41.0004         22.5004
   8444585.11346   6594394.65646  23210693.9694                   23210699.0784
        41.7504         37.7504
  -1766916.56647  -1335293.96944  22962250.0164                   22962253.0944
        42.7504         27.5004
  -3069053.34048  -2373495.56648  20584250.2424                   20584251.2774
        53.0004         51.5004
   1163988.30148    934195.49647  21341762.6414                   21341764.0904
        50.7504         47.7504
 25  8  7 19 54 15.0000000  0  7G02G08G23G27G28G32G10
  -5346639.16447  -4112355.35245  22878560.4614                   22878559.2424
        45.2504         30.0004
    108615.57847     94533.66046  22881047.4224                   22881052.1254
        42.5004         36.5004
   8983963.77046   7008060.52343  23339673.7894                   23339675.6524
        41.2504         22.2504
   8431634.37946   6584303.10246  23208229.5084                   23208234.7734
        40.7504         37.2504
  -1868576.63747  -1414509.55144  22942904.3594                   22942907.5864
        43.0004         27.5004
  -3116735.15648  -2410650.25448  20575176.8524                   20575178.1804
        53.0004         51.2504
   1119230.62948    899319.37148  21333245.3524                   21333247.2424
        50.7504         48.0004
 25  8  7 19 54 30.0000000  0  7G02G08G23G27G28G32G10
  -5439450.59847  -4184675.92244  22860899.5394                   22860898.0944
        44.5004         29.5004
     73367.03947     67067.22346  22874339.8134                   22874344.2584
        42.5004         36.0004
   8962997.34046   6991722.99244  23335683.5554                   23335686.2734
        41.5004         24.2504
   8418723.75446   6574242.80546  23205772.6884                   23205778.0904
        41.2504         37.7504
  -1970196.94147  -1493694.15644  22923566.7734                   22923570.0394
        42.7504         28.2504
  -3164327.57448  -2447735.21948  20566120.2274                   20566121.4224
        52.7504         51.5004
   1074500.76648    864464.92647  21324733.9224                   21324735.2504
        51.0004         47.7504
 25  8  7 19 54 45.0000000  0  7G02G08G23G27G28G32G10
  -5532216.23047  -4256960.81645  22843246.0704                   22843244.4344
        44.7504         30.0004
     38215.63747     39676.47746  22867651.3594                   22867655.6684
        42.7504         37.0004
   8942043.94947   6975395.61343  23331696.2974                   23331698.9184
        42.0004         23.7504
   8405853.13346   6564213.67246  23203323.6254                   23203328.8364
        41.0004         37.5004
  -2071776.87147  -1572847.28144  22904237.2114                   22904239.3754
        42.7504         27.5004
  -3211830.59448  -2484750.55948  20557080.5784                   20557081.9804
        52.5004         51.2504
   1029799.17648    829632.51248  21316227.3834                   21316229.1094
        50.7504         48.0004
 25  8  7 19 55  0.0000000  0  7G02G08G23G27G28G32G10
  -5624936.53147  -4329210.39144  22825602.3444                   22825600.4104
        45.0004         29.2504
      3160.55547     12360.79346  22860979.8054                   22860985.0554
        43.5004         36.7504
   8921103.20746   6959078.10943  23327711.4384                   23327713.8404
        41.0004         22.7504
   8393021.68046   6554215.07046  23200881.9614                   23200886.7974
        41.5004         37.2504
  -2173316.43747  -1651968.96944  22884914.4614                   22884917.2274
        43.5004         28.5004
  -3259244.78948  -2521696.67648  20548057.7894                   20548059.3164
        52.7504         51.5004
    985125.39848    794821.76648  21307726.0944                   21307728.0704
        50.2504         48.0004
 25  8  7 19 55 15.0000000  0  7G02G08G23G27G28G32G10
  -5717612.92647  -4401425.74244  22807966.2034                   22807965.1954
        45.0004         29.2504
    -31800.04747    -14881.27046  22854327.6334                   22854332.0824
        43.0004         36.2504
   8900173.55146   6942769.22743  23323728.8834                   23323731.6684
        41.2504         23.5004
   8380227.52747   6544245.53146  23198447.7114                   23198452.8094
        42.2504         37.5004
  -2274816.83247  -1731060.13744  22865599.7034                   22865601.5744
        43.2504         28.0004
  -3306571.87548  -2558574.92248  20539051.8834                   20539053.3524
        52.0004         51.5004
    940477.91848    760031.51248  21299230.0634                   21299232.0204
        49.5004         48.2504
 25  8  7 19 55 30.0000000  0  7G02G08G23G27G28G32G10
  -5810239.68747  -4473602.41845  22790340.3834                   22790338.5164
        45.2504         31.2504
    -66661.14847    -42045.80546  22847693.4614                   22847698.1414
        42.7504         36.5004
   8879260.22747   6926473.08243  23319749.1564                   23319751.3484
        42.2504         23.2504
   8367475.40247   6534308.75446  23196021.2584                   23196025.5984
        42.2504         37.2504
  -2376272.46547  -1810116.43444  22846293.4224                   22846295.5704
        43.7504         27.5004
  -3353806.87948  -2595381.44548  20530063.1564                   20530064.4734
        51.2504         51.2504
    895861.97748    725265.82848  21290740.0784                   21290741.9534
        48.5004         48.0004
 25  8  7 19 55 45.0000000  0  7G02G08G23G27G28G32G10
  -5902817.26247  -4545740.77045  22772723.6484                   22772721.7664
        45.2504         31.0004
   -101423.86747    -69133.68746  22841077.7894                   22841083.3874
        42.5004         36.2504
   8858362.37546   6910188.97744  23315772.7814                   23315775.1764
        41.2504         24.7504
   8354764.13747   6524403.80546  23193602.0784                   23193606.9844
        42.5004         37.0004
  -2477683.72747  -1889138.13744  22826995.3754                   22826997.9064
        43.5004         28.0004
  -3400950.70748  -2632116.88748  20521092.3134                   20521093.3244
        52.0004         51.2504
    851276.76648    690524.10248  21282255.6724                   21282257.2854
        50.2504         48.0004
 25  8  7 19 56  0.0000000  0  7G02G08G23G27G28G32G10
  -5995345.62547  -4617840.76645  22755115.7974                   22755114.4104
        45.5004         31.5004
   -136088.73847    -96145.30946  22834481.5314                   22834486.5554
        42.7504         36.0004
   8837479.81646   6893916.80143  23311798.9534                   23311800.9184
        41.7504         23.2504
   8342093.10946   6514530.21546  23191190.6024                   23191195.9694
        41.5004         37.7504
  -2579050.54747  -1968125.22344  22807705.7894                   22807708.6054
        43.5004         28.0004
  -3448003.82848  -2668781.66048  20512138.2344                   20512139.8014
        53.0004         51.5004
    806722.18048    655806.21948  21273777.0554                   21273779.3244
        50.5004         48.0004
 25  8  7 19 56 15.0000000  0  7G02G08G23G27G28G32G10
  -6087826.24647  -4689903.55945  22737517.7504                   22737516.3404
        45.5004         32.2504
   -170657.69547   -123082.19945  22827903.3914                   22827907.8134
        42.5004         35.5004
   8816610.85947   6877655.23443  23307827.9694                   23307829.6954
        42.5004         22.7504
   8329460.23046   6504686.34046  23188786.5704                   23188792.4384
        41.5004         37.0004
  -2680374.17647  -2047078.62544  22788424.4614                   22788426.8834
        43.5004         27.7504
  -3494968.10948  -2705377.20348  20503201.5474                   20503202.8134
        52.5004         51.2504
    762196.48048    621110.86748  21265304.1884                   21265306.2114
        50.7504         48.0004
 25  8  7 19 56 30.0000000  0  7G02G08G23G27G28G32G10
  -6180258.99647  -4761929.05545  22719928.3364                   22719926.2584
        45.0004         30.0004
   -205131.09047   -149944.62546  22821343.2664                   22821348.1374
        42.5004         36.2504
   8795755.45747   6861404.21144  23303859.0864                   23303860.8674
        42.5004         24.5004
   8316865.03947   6494871.83246  23186390.1644                   23186395.6134
        42.2504         37.0004
  -2781654.32447  -2125998.16844  22769151.2344                   22769153.9384
        43.0004         28.7504
  -3541843.75848  -2741903.68048  20494281.0314                   20494282.3674
        52.0004         51.0004
    717699.70748    586438.03548  21256836.9614                   21256838.7774
        50.2504         48.0004
 25  8  7 19 56 45.0000000  0  7G02G08G23G27G28G32G10
  -6272641.27747  -4833915.23045  22702347.9304                   22702346.2544
        44.0004         30.0004
   -239506.88747   -176731.00846  22814802.3364                   22814806.8014
        42.5004         36.5004
   8774915.88347   6845165.51644  23299893.7274                   23299896.0274
        42.2504         25.7504
   8304309.41846   6485088.16046  23184001.4454                   23184006.4414
        41.5004         37.0004
  -2882888.35547  -2204881.77044  22749887.5234                   22749889.8984
        43.7504         29.0004
  -3588628.73448  -2778359.50048  20485378.4774                   20485379.5234
        52.0004         51.0004
    673234.11748    551789.52748  21248375.1254                   21248377.0394
        50.0004         48.0004
 25  8  7 19 57  0.0000000  0  7G02G08G23G27G28G32G10
  -6364975.60247  -4905864.02045  22684777.4534                   22684775.9414
        44.0004         30.7504
   -273788.18747   -203443.76646  22808278.7974                   22808283.1174
        43.2504         36.5004
   8754089.37547   6828937.01244  23295930.6414                   23295932.5904
        43.0004         24.7504
   8291790.19946   6475332.85246  23181618.9534                   23181624.2304
        41.7504         37.2504
  -2984078.63347  -2283731.29344  22730630.9694                   22730633.5744
        42.0004         28.0004
  -3635325.96548  -2814746.95748  20476492.1724                   20476493.3834
        52.2504         51.0004
    628797.05148    517163.22748  21239919.3914                   21239921.0354
        50.5004         48.0004
 25  8  7 19 57 15.0000000  0  7G02G08G23G27G28G32G10
  -6457261.24647  -4977774.89145  22667216.1484                   22667214.6644
        43.5004         30.7504
   -307974.68747   -230082.62546  22801773.3444                   22801777.8054
        43.5004         37.0004
   8733276.53147   6812719.14544  23291969.8754                   23291971.8364
        42.0004         25.2504
   8279307.52747   6465606.03146  23179243.4694                   23179248.8754
        42.0004         37.0004
  -3085224.27347  -2362546.02044  22711384.2114                   22711386.5124
        43.2504         29.0004
  -3681935.05948  -2851065.72748  20467622.6954                   20467623.8244
        52.5004         51.0004
    584389.05148    482559.55948  21231468.5004                   21231470.5164
        50.5004         48.0004
 25  8  7 19 57 30.0000000  0  7G02G08G23G27G28G32G10
  -6549497.58647  -5049647.34045  22649664.0004                   22649662.0274
        44.5004         30.0004
   -342066.30947   -256647.56645  22795285.9614                   22795290.3284
        42.5004         35.5004
   8712477.70747   6796512.22344  23288012.1884                   23288013.6804
        42.7504         24.5004
   8266861.44147   6455907.70746  23176874.6954                   23176880.2274
        42.0004         37.2504
  -3186324.46147  -2441325.34045  22692145.0864                   22692147.6764
        42.7504         30.0004
  -3728455.89848  -2887315.73848  20458770.0784                   20458770.8984
        52.2504         51.0004
    540010.50848    447978.87148  21223023.5234                   21223025.5594
        50.2504         48.0004
 25  8  7 19 57 45.0000000  0  7G02G08G23G27G28G32G10
  -6641684.34847  -5121481.16445  22632121.5004                   22632120.3524
        44.2504         30.7504
   -376063.54347   -283138.96946  22788815.8444                   22788820.6684
        42.5004         36.5004
   8691692.68847   6780316.04744  23284056.4064                   23284059.0234
        42.0004         24.5004
   8254451.25446   6446237.35246  23174513.2194                   23174518.4574
        41.2504         36.5004
  -3287379.09847  -2520069.15644  22672914.7664                   22672917.4534
        43.5004         27.5004
  -3774888.80148  -2923497.21548  20449934.0394                   20449935.1374
        50.7504         51.0004
    495661.33648    413421.07048  21214584.3134                   21214586.1214
        48.5004         48.0004
 25  8  7 19 58  0.0000000  0  7G02G08G23G27G28G32G10
  -6733820.22747  -5193275.30945  22614589.1414                   22614587.1764
        44.2504         31.7504
   -409965.35947   -309556.01246  22782365.3054                   22782369.6604
        42.2504         36.7504
   8670922.76647   6764131.61744  23280104.8594                   23280106.3284
        42.0004         24.2504
   8242077.93446   6436595.73446  23172158.7814                   23172164.5394
        41.0004         36.5004
  -3388386.46547  -2598776.14844  22653694.1094                   22653696.3444
        44.0004         28.5004
  -3821232.73048  -2959609.37148  20441115.0704                   20441115.9774
        52.2504         51.0004
    451342.75848    378887.09847  21206150.6954                   21206152.9454
        50.5004         47.7504
 25  8  7 19 58 15.0000000  0  7G02G08G23G27G28G32G10
  -5250480.71547  -4037426.32845  22896859.0944                   22896857.1764
        45.5004         31.0004
   1131648.19147    891701.26246  23075724.4384                   23075729.0044
        43.0004         36.0004
  10225587.43047   7975558.57444  23575947.5944                   23575949.3524
        42.2504         24.7504
   9805159.89146   7654581.59446  23469603.3594                   23469609.1564
        41.7504         36.7504
  -1913921.46547  -1449842.32844  22934275.4224                   22934277.3914
        42.7504         28.7504
  -2292066.69948  -1768051.42248  20732105.6884                   20732106.8324
        52.5004         51.2504
   1982475.87148   1571977.82447  21497515.9224                   21497517.4344
        50.2504         47.7504
 25  8  7 19 58 30.0000000  0  7G02G08G23G27G28G32G10
  -5342518.03547  -4109143.68445  22879344.5234                   22879343.7704
        43.0004         30.5004
   1097932.09847    865428.94146  23069308.7814                   23069313.1484
        42.5004         36.0004
  10204843.65247   7959394.54344  23571999.9694                   23572002.5904
        42.0004         24.5004
   9792854.85946   7644993.18046  23467261.9384                   23467267.8714
        41.7504         37.0004
  -2014837.39547  -1528478.05944  22915071.4614                   22915074.0594
        44.2504         28.7504
  -2338237.36348  -1804028.56248  20723319.9064                   20723320.8524
        52.5004         51.0004
   1938214.52048   1537488.44148  21489093.1644                   21489094.8094
        50.0004         48.0004
 25  8  7 19 58 45.0000000  0  7G02G08G23G27G28G32G10
  -5434502.58247  -4180819.93445  22861840.3834                   22861839.2734
        43.7504         31.7504
   1064311.50447    839231.03146  23062911.1484                   23062914.9574
        43.0004         36.5004
  10184115.85547   7943242.94944  23568055.7344                   23568058.1174
        42.5004         25.0004
   9780586.37946   7635433.24246  23464927.2734                   23464933.1454
        41.5004         36.7504
  -2115704.07047  -1607075.41445  22895877.3284                   22895879.7624
        43.0004         30.5004
  -2384318.68748  -1839936.08648  20714551.0314                   20714552.0704
        52.5004         51.0004
   1893984.82848   1503023.72747  21480676.5164                   21480678.4924
        49.7504         47.7504
