     2.11           OBSERVATION DATA    G (GPS)             RINEX VERSION / TYPE
teqc  2019Feb25                         20250728 21:29:13UTCPGM / RUN BY / DATE
Linux 2.6.32-573.12.1.x86_64|x86_64|gcc -static|Linux 64|=+ COMMENT
BIT 2 OF LLI FLAGS DATA COLLECTED UNDER A/S CONDITION       COMMENT
35163331                                                    MARKER NAME
3331                                                        MARKER NUMBER
-Unknown-           -Unknown-                               OBSERVER / AGENCY
0220413516          TRIMBLE R7          2.32                REC # / TYPE / VERS
-Unknown-           TRM39105.00     NONE                    ANT # / TYPE
 -2365364.2807 -4672582.8308  3629198.1345                  APPROX POSITION XYZ
        0.0000        0.0000        0.0000                  ANTENNA: DELTA H/E/N
     1     1                                                WAVELENGTH FACT L1/2
     7    L1    L2    C1    P1    P2    S1    S2            # / TYPES OF OBSERV
    18                                                      LEAP SECONDS
 SNR is mapped to RINEX snr flag value [0-9]                COMMENT
  L1 & L2: min(max(int(snr_dBHz/6), 0), 9)                  COMMENT
  2025     7    15    22    42   30.0000000     GPS         TIME OF FIRST OBS
                                                            END OF HEADER
 25  7 15 22 42 30.0000000  0  8G01G02G03G10G28G31G32G08
   -326025.94557   -209286.73855  22475815.9844                   22475814.1684
        43.5004         30.7504
   -221636.51258   -152030.91456  21476524.6954                   21476520.0124
        48.2504         39.0004
   -219332.11356    -99758.89554  24230752.2584                   24230753.9304
        37.0004         25.5004
    -88266.65257    -60749.73057  22245401.0314                   22245400.6604
        47.2504         42.0004
   -239889.14857   -164449.96555  21004453.9064                   21004451.8444
        45.2504         35.5004
   -351396.82857   -243267.96556  21723515.3524                   21723512.8984
        43.7504         39.7504
    -71523.32458    -49313.46958  21685067.4454                   21685066.6254
        48.5004         48.2504
    -22514.27056    -11666.80154  24632897.3594                   24632901.6134
        40.0004         29.5004
 25  7 15 22 43  0.0000000  0  8G01G02G03G10G28G31G32G08
   -501319.04347   -345878.75044  22442459.1024                   22442456.8834
        43.7504         29.7504
   -338140.35248   -242813.14146  21454354.7344                   21454349.7584
        48.5004         38.2504
   -401047.19546   -241355.02344  24196173.7584                   24196174.4064
        37.2504         26.5004
   -135815.50047    -97800.82047  22236352.3444                   22236352.4064
        47.7504         43.0004
   -366232.86747   -262899.62946  20980411.6174                   20980409.2464
        45.5004         36.5004
   -538244.48047   -388863.48446  21687959.3524                   21687956.4924
        44.7504         40.0004
   -110438.35548    -79636.87948  21677662.3444                   21677661.3364
        48.7504         48.0004
    -44000.57046    -28409.52744  24628809.6484                   24628812.7034
        38.5004         29.5004
 25  7 15 22 43 30.0000000  0  8G01G02G25G10G28G31G32G08
   -676632.49247   -482486.66844  22409098.0394                   22409095.7424
        42.5004         27.5004
   -454513.06647   -333493.17244  21432210.1414                   21432205.0904
        43.5004         28.7504
   -338868.44955   -221001.69953  24731549.8834                   24731552.5984
        32.2504         21.2504
   -183488.72747   -134948.86346  22227280.1484                   22227280.5354
        45.0004         41.0004
   -492370.77347   -361188.92646  20956408.1174                   20956405.8954
        46.0004         37.5004
   -725088.34447   -534456.06647  21652404.1644                   21652401.5744
        44.7504         42.5004
   -149560.07448   -110121.38348  21670218.0084                   21670216.9964
        49.0004         49.5004
    -65810.78955    -45404.65253  24624659.4774                   24624662.8554
        33.5004         20.5004
 25  7 15 22 44  0.0000000  0  9G01G02G03G25G10G28G31G32G08
   -851863.21947   -619030.03945  22375752.6094                   22375750.4414
        45.0004         30.5004
   -570653.03148   -423991.89146  21410109.2974                   21410104.5234
        49.5004         38.2504
                                  24126806.984
        36.750
   -479190.52355   -330343.53953  24704848.6724                   24704849.5394
        31.0004         20.7504
   -231185.05947   -172114.84847  22218204.5314                   22218204.3954
        46.0004         42.5004
   -618201.02047   -459238.44546  20932463.8524                   20932461.4734
        46.7504         36.7504
   -911824.59447   -679964.80147  21616869.1484                   21616866.5394
        45.2504         42.0004
   -188789.15647   -140689.51647  21662752.4844                   21662751.7234
        47.2504         47.5004
    -87847.05946    -62575.93044  24620465.7734                   24620468.5514
        37.0004         24.5004
 25  7 15 22 44 30.0000000  0  8G01G02G03G10G28G31G32G08
  -1026943.04747   -755455.85945  22342436.1414                   22342434.0204
        43.0004         31.5004
   -686494.25447   -514257.78146  21388065.3204                   21388060.3594
        47.0004         36.2504
   -301878.46945   -454564.20754  24092052.9064                   24092053.6994
        34.2504         25.7504
   -278838.76247   -209247.65247  22209136.4224                   22209135.9654
        46.5004         43.5004
   -743657.34048   -556996.63746  20908590.6484                   20908587.8914
        48.7504         38.5004
  -1098385.10547   -825336.56647  21581367.8364                   21581365.2854
        46.2504         43.0004
   -228061.79747   -171291.58647  21655279.4064                   21655278.7194
        46.0004         42.5004
   -110046.90246    -79874.61744  24616241.7734                   24616244.2234
        38.7504         29.0004
 25  7 15 22 45  0.0000000  0  8G01G02G03G10G28G31G32G08
  -1201828.62147   -891730.34845  22309156.3204                   22309154.4224
        45.5004         31.5004
   -801994.80548   -604258.24646  21366086.7344                   21366081.3634
        49.7504         39.5004
   -484704.02045   -597025.64543  24057262.7034                   24057262.7034
        30.5004         19.7504
   -326408.35947   -246314.91846  22200084.1414                   22200084.1214
        46.5004         40.7504
   -868697.73447   -654430.70345  20884795.9924                   20884793.4184
        46.2504         35.5004
  -1284725.76647   -970537.06647  21545908.6564                   21545905.9494
        47.0004         44.0004
   -267338.42247   -201896.78546  21647805.2584                   21647804.7234
        44.7504         39.5004
   -132372.09846    -97271.01644  24611993.1484                   24611996.4614
        37.5004         27.5004
 25  7 15 22 45 30.0000000  0  9G01G02G03G25G10G28G31G32G08
  -1376479.87547  -1027822.21145  22275921.4064                   22275919.1134
        45.0004         31.0004
   -917116.23048   -693963.26646  21344179.3054                   21344174.8094
        48.2504         38.0004
   -667679.46955   -739603.81254  24022441.9534                   24022443.3484
        35.0004         26.2504
   -125581.20355   -478714.97354  24624954.4304                   24624955.2894
        31.0004         24.0004
   -373856.12547   -283287.23847  22191055.2274                   22191054.7504
        47.0004         42.0004
   -993283.62147   -751510.60546  20861088.1804                   20861085.3714
        46.0004         37.5004
  -1470806.25447  -1115534.78547  21510498.2114                   21510495.5434
        45.7504         42.7504
   -306582.99248   -232477.01647  21640337.1024                   21640336.3364
        49.2504         47.0004
   -154787.96546   -114738.09044  24607727.6414                   24607731.2194
        37.0004         26.5004
 25  7 15 22 46  0.0000000  0  9G01G02G03G25G10G28G31G32G08
  -1550867.69947  -1163708.81245  22242736.2584                   22242734.0744
        45.0004         30.5004
  -1031831.34848   -783351.69146  21322349.9304                   21322344.9264
        48.5004         38.0004
   -850776.76255   -856592.75854  23987600.4064                   23987601.2934
        34.2504         26.5004
   -265032.34455   -587378.22753  24598418.0944                   24598418.5394
        30.0004         22.5004
   -421154.90647   -320143.47347  22182054.5554                   22182054.5124
        47.0004         42.2504
  -1117387.64847   -848215.04346  20837471.7734                   20837469.0124
        46.2504         37.2504
  -1656596.79747  -1260306.60247  21475144.0084                   21475140.8164
        45.7504         43.0004
   -345770.46148   -263012.73447  21632880.0704                   21632879.7814
        48.7504         47.0004
   -177271.01245   -132257.46944  24603448.8364                   24603453.2974
        35.0004         25.5004
 25  7 15 22 46 30.0000000  0  9G01G02G03G25G10G28G31G32G08
  -1724966.37147  -1299370.10545  22209606.7504                   22209604.0864
        46.2504         30.5004
  -1146115.76248   -872404.49646  21300602.4064                   21300597.1604
        48.7504         37.5004
  -1033974.03146   -999343.84044  23952738.8594                   23952740.0984
        37.0004         28.5004
   -404187.06245   -695810.44943  24571936.1564                   24571938.5474
        30.7504         22.5004
   -468281.09447   -356865.21547  22173087.1484                   22173086.2034
        47.7504         42.0004
  -1240985.65247   -944525.16446  20813951.6644                   20813949.2734
        47.0004         37.7504
  -1842071.42247  -1404832.23447  21439849.1174                   21439845.9574
        46.7504         42.5004
   -384879.09048   -293487.01647  21625438.2664                   21625437.4144
        48.2504         47.0004
   -199800.65646   -149813.14144  24599161.4534                   24599165.7894
        36.5004         26.7504
 25  7 15 22 47  0.0000000  0  9G01G02G03G25G10G28G31G32G08
  -1898755.02047  -1434789.82845  22176535.9304                   22176533.1454
        46.0004         30.0004
  -1259950.46548   -961106.87946  21278940.2194                   21278935.2194
        48.7504         37.2504
  -1217251.29746  -1142157.23045  23917862.0314                   23917863.8914
        37.2504         30.0004
   -543024.66855   -803995.60253  24545516.3754                   24545518.4064
        30.5004         22.7504
   -515216.02347   -393437.93447  22164155.5864                   22164155.0744
        46.5004         42.0004
  -1364058.41847  -1040426.02046  20790531.8674                   20790529.1254
        46.7504         37.0004
  -2027208.92647  -1549095.19547  21404618.3754                   21404615.5594
        45.7504         42.5004
   -423891.95348   -323886.68047  21618013.9774                   21618013.7154
        48.7504         47.0004
   -222361.50046   -167393.14544  24594868.9304                   24594872.3754
        37.0004         28.2504
 25  7 15 22 47 30.0000000  0  9G01G02G03G25G10G28G31G32G08
   -496787.60547   -342347.67245  22443321.4384                   22443318.8954
        46.2504         31.0004
    202106.75048    178158.46546  21557160.6174                   21557155.7704
        49.7504         37.5004
    174835.87946    -57413.89544  24182768.0474                   24182769.2934
        39.0004         29.0004
    893900.01245    315685.96544  24818954.7584                   24818956.3324
        31.7504         24.5004
   1013479.93047    797753.67647  22455056.7664                   22455056.2274
        46.5004         42.0004
     88836.68847     91700.04746  21067008.4614                   21067005.8524
        46.2504         37.2504
   -636562.66847   -465474.68747  21669249.7194                   21669246.7234
        46.7504         43.5004
   1112628.47748    873401.94947  21910404.2814                   21910403.4064
        49.2504         46.7504
   1330482.13746   1042614.70744  24890365.0864                   24890369.6294
        37.5004         27.5004
 25  7 15 22 48  0.0000000  0  9G01G02G03G25G10G28G31G32G08
   -669900.44547   -477240.78945  22410378.9224                   22410376.5824
        45.5004         31.5004
     89221.91448     90196.24246  21535679.5314                   21535674.4884
        48.2504         38.0004
     -8551.12546   -200312.79344  24147870.0314                   24147871.1054
        38.0004         28.2504
    755752.87145    208038.87544  24792666.6804                   24792667.6214
        33.2504         26.2504
    966976.93847    761517.53546  22446207.1954                   22446207.3204
        46.5004         41.7504
    -33134.86347     -3342.71546  21043798.1484                   21043795.7704
        45.7504         37.0004
   -820969.34447   -609168.16847  21634158.1174                   21634155.2774
        46.2504         43.0004
   1073850.98048    843185.69547  21903025.2584                   21903024.2664
        48.7504         46.5004
   1307898.64546   1025017.05544  24886068.1414                   24886072.1804
        37.7504         27.2504
 25  7 15 22 48 30.0000000  0  9G01G02G03G25G10G28G31G32G08
   -842649.77047   -611850.62545  22377505.7114                   22377503.3594
        46.2504         31.5004
    -23165.05548      2621.96146  21514293.0084                   21514287.8094
        48.7504         38.0004
   -191970.20346   -343236.68444  24112966.7274                   24112967.6374
        37.7504         28.2504
    617976.56345    100680.76244  24766447.6954                   24766449.7854
        32.0004         25.2504
    920712.34847    725467.17247  22437403.6484                   22437403.0704
        46.5004         42.0004
   -154532.71147    -97938.43446  21020696.7424                   21020693.9734
        46.7504         37.0004
  -1004984.23847   -752556.36347  21599141.1954                   21599138.5124
        47.0004         43.2504
   1035210.85948    813076.48447  21895672.1484                   21895671.0904
        48.5004         46.5004
   1285321.44946   1007424.30144  24881772.0084                   24881775.6564
        38.0004         27.0004
 25  7 15 22 49  0.0000000  0  9G01G02G03G25G10G28G31G32G08
  -1015020.09047   -746165.15245  22344704.5474                   22344702.4494
        45.5004         31.0004
   -135040.45348    -84553.68446  21493003.4614                   21492998.8284
        49.2504         37.5004
   -375407.75446   -486174.97744  24078059.7664                   24078060.6294
        39.0004         29.7504
    480586.51645     -6376.39843  24740301.9144                   24740305.3134
        31.0004         23.5004
    874699.53547    689612.98846  22428647.5554                   22428647.3284
        46.5004         41.7504
   -275343.13747   -192076.41446  20997706.8834                   20997704.7814
        47.5004         37.0004
  -1188591.62547   -895627.00847  21564202.0164                   21564199.2584
        47.0004         43.2504
    996719.67248    783083.32047  21888347.6954                   21888346.5594
        48.0004         46.5004
   1262760.64846    989844.32844  24877479.0554                   24877482.2854
        36.7504         25.5004
 25  7 15 22 49 30.0000000  0  9G01G02G03G25G10G28G31G32G08
  -1186995.74247   -880172.12945  22311979.1174                   22311976.4344
        45.7504         31.0004
   -246390.56648   -171320.02346  21471814.2734                   21471809.3834
        48.7504         37.2504
   -558849.79346   -629116.81244  24043151.6414                   24043152.6994
        40.0004         29.7504
    343598.38745   -113120.36744  24714234.5784                   24714237.6254
        31.7504         24.7504
    828952.00847    653965.52047  22419942.5394                   22419942.0474
        46.5004         42.0004
   -395552.14547   -285745.76246  20974832.3054                   20974829.7934
        47.2504         37.2504
  -1371775.37547  -1038367.55947  21529343.1884                   21529340.7344
        47.5004         43.5004
    958389.19948    753215.39547  21881053.8914                   21881052.6764
        48.2504         46.7504
   1240226.68845    972285.23044  24873190.6254                   24873194.2584
        35.5004         25.0004
 25  7 15 22 50  0.0000000  0  9G01G02G03G25G10G28G31G32G08
  -1358564.84847  -1013862.32045  22279330.3364                   22279327.9654
        45.2504         30.7504
   -357205.32848   -257669.20346  21450727.1954                   21450722.1844
        48.7504         37.7504
   -742286.29346   -772054.32445  24008245.3674                   24008245.9064
        39.5004         30.5004
    207024.14845   -219541.79344  24688245.6174                   24688248.3524
        33.5004         26.0004
    783479.53947    618532.38747  22411289.1414                   22411289.0744
        47.5004         42.0004
   -515149.70347   -378938.66046  20952073.8984                   20952071.2274
        47.5004         37.5004
  -1554523.16847  -1180768.40647  21494567.3524                   21494564.4024
        47.7504         43.7504
    920227.38348    723478.90247  21873791.5864                   21873791.0514
        49.0004         46.7504
   1217725.96545    954752.09044  24868908.7034                   24868912.6844
        35.2504         24.2504
 25  7 15 22 50 30.0000000  0  9G01G02G03G25G10G28G31G32G08
  -1529717.72347  -1147228.17645  22246760.8444                   22246759.0864
        45.0004         30.5004
   -467476.61348   -343594.89146  21429743.1484                   21429738.0744
        49.0004         37.7504
   -925709.36746   -914981.33245  23973341.0704                   23973341.6764
        40.0004         31.5004
     70873.38745   -325633.22344  24662337.6564                   24662339.0274
        34.2504         26.7504
    738289.67247    583319.45747  22402689.9694                   22402689.2704
        46.7504         42.2504
   -634127.82447   -471648.87946  20929432.9144                   20929430.3554
        47.0004         37.5004
  -1736825.07447  -1322821.80547  21459876.6804                   21459873.4534
        47.7504         43.7504
    882240.02048    693878.34447  21866562.8594                   21866562.0704
        49.0004         46.0004
   1195263.03945    937248.37543  24864634.3364                   24864638.3014
        35.0004         22.5004
 25  7 15 22 51  0.0000000  0  9G01G02G03G25G10G28G31G32G08
  -1700443.03947  -1280260.87545  22214272.9304                   22214271.1804
        45.5004         32.0004
   -577195.06248   -429089.80946  21408864.5784                   21408859.5124
        48.0004         38.0004
  -1109109.53446  -1057890.48645  23938441.3284                   23938442.2814
        38.7504         31.7504
    -64842.61745   -431385.93044  24636511.3444                   24636513.3714
        35.5004         27.7504
    693391.58647    548333.89547  22394145.9064                   22394146.1954
        46.7504         42.2504
   -752477.07047   -563869.06246  20906911.7114                   20906908.8164
        46.5004         37.5004
  -1918669.65647  -1464518.84447  21425272.3284                   21425269.6024
        47.5004         43.5004
    844434.55548    664419.51247  21859368.8284                   21859368.1604
        48.5004         46.0004
   1172843.96545    919778.82844  24860368.4694                   24860372.1134
        33.5004         24.0004
 25  7 15 22 51 30.0000000  0  9G01G02G03G25G10G28G31G32G08
  -1870734.23847  -1412955.29745  22181867.2814                   22181865.6214
        46.0004         31.5004
   -686356.13748   -514150.39846  21388091.6094                   21388086.3754
        49.2504         38.0004
  -1292481.76246  -1200777.87545  23903545.8834                   23903547.6954
        38.7504         31.5004
   -200117.40645   -536794.76244  24610769.2194                   24610771.3134
        34.7504         25.5004
    648789.74247    513579.16047  22385658.7194                   22385658.5594
        46.5004         42.0004
   -870192.68447   -655595.51246  20884511.5004                   20884508.7974
        47.7504         37.2504
  -2100049.82448  -1605854.00447  21390757.1174                   21390754.0704
        48.0004         43.7504
    806813.66448    635104.49647  21852209.9534                   21852208.8014
        49.5004         46.2504
   1150469.89545    902344.33644  24856110.9774                   24856115.0124
        35.5004         25.7504
 25  7 15 22 52  0.0000000  0  9G01G02G03G25G10G28G31G32G08
  -2040579.23447  -1545302.02045  22149547.2504                   22149545.2274
        44.5004         30.5004
   -794949.28148   -598768.44946  21367427.2194                   21367422.0234
        48.5004         38.5004
  -1475815.90646  -1343635.61745  23868658.5784                   23868659.9414
        36.7504         31.0004
   -334938.93745   -641850.46944  24585111.7344                   24585115.6644
        31.5004         24.5004
    604494.11347    479063.03947  22377229.5864                   22377229.1214
        46.2504         42.0004
   -987264.38747   -746820.21146  20862233.1334                   20862230.4494
        47.5004         37.2504
  -2280953.03947  -1746817.50447  21356332.0314                   21356328.9694
        47.7504         44.0004
    769385.60948    605939.76247  21845087.3834                   21845086.5824
        49.0004         46.0004
   1128147.75846    884950.30944  24851863.5554                   24851867.2504
        37.5004         27.0004
 25  7 15 22 52 30.0000000  0  9G01G02G03G25G10G28G31G32G08
  -2209971.84047  -1677296.23445  22117312.8754                   22117311.0984
        45.0004         31.5004
   -902970.47348   -682940.81246  21346871.6804                   21346866.4884
        48.5004         38.0004
  -1659107.49646  -1486460.16044  23833779.0634                   23833780.9574
        37.7504         29.5004
   -469300.97346   -746548.11344  24559545.7344                   24559547.4884
        36.5004         28.7504
    560508.75047    444788.68847  22368858.9844                   22368859.1214
        46.5004         42.0004
  -1103687.82447   -837539.76246  20840078.6174                   20840075.9844
        47.5004         38.0004
  -2461372.84848  -1887404.33247  21321999.6564                   21321996.5084
        49.0004         44.0004
    732152.74248    576927.10947  21838002.0784                   21838001.7894
        48.7504         46.0004
   1105878.43446    867597.45344  24847626.1724                   24847629.9844
        37.2504         26.2504
 25  7 15 22 53  0.0000000  0  9G01G02G03G25G10G28G31G32G08
  -2378904.98047  -1808932.43745  22085165.8594                   22085163.8554
        45.2504         32.0004
  -1010414.53548   -766663.46946  21326425.5554                   21326420.7074
        48.2504         38.0004
  -1842351.10546  -1629247.32844  23798909.5474                   23798910.2894
        36.2504         29.5004
   -603196.46946   -850882.23444  24534065.0394                   24534067.5474
        36.5004         27.2504
    516838.53147    410759.89547  22360549.1254                   22360549.0744
        45.2504         42.0004
  -1219457.86747   -927750.18446  20818048.5004                   20818045.4144
        47.2504         38.0004
  -2641301.75048  -2027608.64147  21287760.1414                   21287756.9844
        48.5004         43.7504
    695118.26648    548069.05947  21830954.6724                   21830954.2464
        48.2504         45.7504
   1083663.72346    850287.16444  24843398.8984                   24843402.5944
        37.0004         27.0004
 25  7 15 22 53 30.0000000  0  9G01G02G03G25G10G28G31G32G08
  -2547366.70747  -1940201.28545  22053108.6174                   22053106.5314
        44.7504         31.2504
  -1117271.17248   -849928.39546  21306091.7974                   21306086.5554
        48.5004         37.7504
  -2025536.47746  -1771989.13344  23764049.0704                   23764050.6764
        36.0004         28.2504
   -736613.63345   -954843.60944  24508677.5314                   24508679.2194
        35.5004         26.5004
    473493.41847    376984.44147  22352300.9924                   22352300.6484
        46.2504         42.0004
  -1334564.39548  -1017443.56646  20796144.1254                   20796141.6684
        48.7504         37.5004
  -2820727.69548  -2167421.02347  21253616.2424                   21253613.5514
        48.5004         44.2504
    658290.39148    519371.98447  21823946.7664                   21823945.9494
        48.5004         45.7504
   1061510.38745    833024.69944  24839182.6724                   24839187.1604
        35.2504         26.5004
 25  7 15 22 54  0.0000000  0  9G01G02G03G25G10G28G31G32G08
  -2715347.37547  -2071095.30945  22021143.2814                   22021140.9264
        44.5004         32.0004
  -1223532.87548   -932729.73046  21285870.1334                   21285865.2974
        48.0004         37.5004
  -2208655.73445  -1914679.42244  23729204.0474                   23729204.8324
        34.0004         27.7504
   -869542.92246  -1058424.89144  24483381.9064                   24483383.3594
        36.5004         28.7504
    430480.80547    343468.06347  22344115.9614                   22344115.8364
        46.0004         42.2504
  -1448999.77348  -1106613.98446  20774367.9614                   20774365.0394
        48.0004         37.7504
  -2999640.85948  -2306833.84847  21219570.5704                   21219567.1844
        48.0004         43.7504
    621675.02748    490840.50447  21816979.1254                   21816978.0594
        49.2504         45.5004
   1039422.85245    815813.50044  24834980.1954                   24834983.8324
        34.7504         26.0004
 25  7 15 22 54 30.0000000  0  9G01G02G03G25G10G28G31G32G08
  -2882843.28947  -2201611.58245  21989269.8054                   21989267.5744
        45.0004         31.0004
  -1329197.92248  -1015066.14146  21265763.2504                   21265757.9224
        48.0004         37.7504
  -2391706.70745  -2057316.46544  23694369.7424                   23694371.5944
        33.7504         28.0004
  -1001980.71546  -1161623.18044  24458179.0474                   24458180.7344
        37.0004         27.5004
    387802.35947    310212.08647  22335994.3444                   22335994.1214
        46.2504         42.0004
  -1562762.10548  -1195259.94546  20752719.5864                   20752716.9734
        49.0004         37.5004
  -3178036.96948  -2445843.76247  21185622.3594                   21185619.5744
        48.5004         44.0004
    585271.89548    462474.39547  21810052.0164                   21810050.7774
        48.2504         45.5004
   1017399.69545    798652.47344  24830788.6644                   24830793.0704
        35.0004         25.2504
 25  7 15 22 55  0.0000000  0  9G01G02G03G25G10G28G31G32G08
  -3049851.60947  -2331747.91445  21957488.8524                   21957486.9884
        45.5004         32.2504
  -1434265.43047  -1096936.93746  21245769.5944                   21245764.7154
        47.2504         37.7504
  -2574688.26245  -2199899.41844  23659549.7114                   23659551.2154
        34.7504         27.7504
  -1133924.32845  -1264436.35544  24433070.7814                   24433073.3524
        35.5004         25.7504
    345458.76247    277217.01247  22327936.8204                   22327936.6214
        46.2504         42.0004
  -1675850.64548  -1283380.88746  20731199.7194                   20731196.7814
        48.5004         38.0004
  -3355912.88348  -2584448.33647  21151773.7814                   21151771.2034
        48.7504         44.0004
    549080.12948    434272.98847  21803164.5634                   21803164.1844
        48.0004         45.0004
    995438.39145    781539.62944  24826610.6804                   24826614.4104
        34.2504         25.0004
 25  7 15 22 55 30.0000000  0  9G01G02G03G25G10G28G31G32G08
  -3216370.87947  -2461503.18045  21925801.6724                   21925799.4964
        46.0004         31.0004
  -1538736.16047  -1178342.71546  21225889.2344                   21225884.3054
        47.5004         38.5004
  -2757600.63345  -2342428.44944  23624742.4304                   23624743.7304
        35.2504         29.0004
  -1265372.37145  -1366863.42244  24408057.8444                   24408058.9694
        35.2504         24.2504
    303449.29747    244482.32047  22319943.2664                   22319942.6054
        46.0004         42.0004
  -1788265.87948  -1370977.16446  20709807.6414                   20709805.0554
        48.5004         37.7504
  -3533266.88748  -2722646.22747  21118025.0394                   21118021.6764
        48.7504         44.0004
    513097.45348    406234.52347  21796317.4774                   21796316.9064
        48.0004         45.5004
    973535.39555    764472.18854  24822442.7504                   24822446.5634
        32.7504         24.2504
 25  7 15 22 56  0.0000000  0  9G01G02G03G25G10G28G31G32G08
  -1806972.77747  -1363270.87145  22194001.0004                   22193998.5124
        45.2504         32.0004
    -67185.26247    -31679.68746  21505915.8364                   21505911.2234
        47.5004         37.5004
  -1365016.41445  -1257297.81644  23889742.4694                   23889743.9734
        35.7504         28.2504
    179102.32445   -241298.71543  24682932.0554                   24682932.9884
        35.0004         22.7504
   1837196.11747   1439609.67246  22611805.1804                   22611804.9494
        46.2504         41.7504
   -324583.25048   -230445.23446  20988337.3284                   20988334.7584
        48.5004         37.7504
  -2134670.12548  -1632830.53547  21384168.3134                   21384165.2814
        48.2504         44.0004
   2052744.11748   1605959.17247  22089303.0634                   22089302.1564
        48.5004         45.7504
   2527108.96145   1975048.83244  25118077.6174                   25118081.6414
        34.5004         25.2504
 25  7 15 22 56 30.0000000  0  9G01G02G03G25G10G28G31G32G08
  -1972506.93447  -1492258.51645  22162500.4384                   22162498.5274
        45.0004         31.7504
   -170460.43448   -112153.85946  21486263.5314                   21486258.6914
        48.2504         37.7504
  -1547788.02746  -1399717.20744  23854962.2504                   23854963.4304
        36.2504         28.0004
     48652.23445   -342948.16043  24658108.3984                   24658110.0514
        33.7504         22.7504
   1795855.65647   1407396.28546  22603938.5554                   22603938.1804
        45.7504         41.7504
   -435650.82048   -316991.38346  20967201.7114                   20967199.0204
        48.2504         38.0004
  -2310972.51248  -1770208.99247  21350619.5164                   21350616.4144
        48.2504         44.0004
   2017175.45348   1578243.30147  22082534.2344                   22082533.5904
        49.0004         45.7504
   2505313.94945   1958065.53944  25113930.2504                   25113934.8594
        33.2504         24.5004
 25  7 15 22 57  0.0000000  0  9G01G02G03G25G10G28G31G32G08
  -2137543.49247  -1620858.40245  22131095.4064                   22131093.3054
        44.5004         31.5004
   -273135.92247   -192160.74646  21466724.9614                   21466720.1454
        47.2504         37.7504
  -1730486.64846  -1542079.68745  23820195.5164                   23820196.9964
        36.5004         30.0004
    -81293.98845   -444205.02743  24633380.2504                   24633382.2194
        32.7504         22.5004
   1754851.62147   1375445.05546  22596135.4304                   22596135.7194
        45.0004         41.5004
   -546042.49248   -403010.85546  20946195.1254                   20946192.3014
        48.0004         37.7504
  -2486743.69948  -1907173.51647  21317170.9844                   21317167.9264
        48.5004         44.2504
   1981813.26648   1550688.33247  22075804.9144                   22075803.8094
        48.5004         45.5004
   2483570.32045   1941122.27344  25109793.1724                   25109797.3244
        34.0004         26.7504
 25  7 15 22 57 30.0000000  0  9G01G02G03G25G10G28G31G32G08
  -2302079.58247  -1749068.33245  22099785.1414                   22099782.5744
        44.5004         31.5004
   -375211.05147   -271699.82046  21447300.9224                   21447295.8364
        47.2504         37.5004
  -1913110.88346  -1684384.23045  23785443.9924                   23785444.2544
        38.5004         30.0004
   -210733.60245   -545067.08643  24608748.1884                   24608750.2624
        33.7504         22.2504
   1714184.68847   1343756.49646  22588396.9224                   22588396.8714
        45.2504         41.5004
   -655757.49648   -488503.05546  20925317.0704                   20925313.8914
        48.2504         38.0004
  -2661980.28948  -2043721.47347  21283824.5704                   21283821.3834
        49.0004         44.2504
   1946656.76248   1523293.61747  22069115.0234                   22069113.8834
        48.0004         45.0004
   2461875.86745   1924217.32844  25105665.4774                   25105669.0354
        33.2504         26.2504
 25  7 15 22 58  0.0000000  0 10G01G02G03G25G10G28G31G32G04G08
  -2466113.21947  -1876886.73845  22068570.2664                   22068567.7814
        44.5004         31.2504
   -476685.64847   -350770.94146  21427990.7584                   21427985.6414
        47.7504         38.0004
  -2095660.41446  -1826630.55945  23750705.7584                   23750706.1454
        39.0004         31.0004
   -339664.91445   -645532.98043  24584212.8754                   24584215.3524
        32.2504         21.7504
   1673854.77047   1312330.54746  22580722.5234                   22580722.3404
        45.0004         41.2504
   -764795.91448   -573468.05546  20904567.4384                   20904564.8554
        48.0004         37.5004
  -2836679.91048  -2179851.01247  21250580.6724                   21250577.6564
        48.5004         44.2504
   1911704.16847   1496057.81647  22062463.8914                   22062462.8444
        47.5004         45.5004
   2955100.11315                  25179405.422
        33.750
   2440227.20345   1907348.05544  25101545.2734                   25101549.6684
        32.5004         26.2504
 25  7 15 22 58 30.0000000  0 10G01G02G03G25G10G28G31G32G04G08
  -2629641.34847  -2004311.23845  22037451.8204                   22037449.6174
        44.5004         31.7504
   -577558.82847   -429373.43446  21408795.2814                   21408789.9454
        47.5004         38.0004
  -2278133.64846  -1968817.41045  23715982.4694                   23715983.0554
        38.0004         30.7504
   -468084.91445   -745600.57443  24559776.1954                   24559778.7074
        34.0004         22.5004
   1633862.73847   1281167.89846  22573112.1414                   22573112.0164
        45.5004         41.5004
   -873156.76248   -657905.07846  20883947.1804                   20883944.3364
        48.7504         38.0004
  -3010839.71548  -2315559.92247  21217438.8364                   21217435.9804
        48.5004         44.5004
   1876954.96148   1468980.49247  22055851.1724                   22055850.4064
        49.0004         45.7504
   2775194.105 5                  25145169.922
        32.250
   2418622.60545   1890513.10544  25097434.5004                   25097438.7074
        32.0004         25.7504
 25  7 15 22 59  0.0000000  0 10G01G02G03G25G10G28G31G32G04G08
  -2792667.68447  -2131344.73045  22006429.4774                   22006426.5314
        44.2504         32.2504
   -677836.35247   -507511.77746  21389713.3444                   21389708.1954
        47.7504         37.5004
  -2460535.81646  -2110948.91845  23681271.7664                   23681272.2274
        40.0004         31.5004
   -595997.41045   -845272.66043  24535435.9224                   24535437.0704
        33.0004         22.0004
   1594202.83647   1250264.04346  22565565.3204                   22565565.4224
        44.7504         41.5004
   -980845.85548   -741818.64546  20863454.2194                   20863451.7154
        48.0004         37.5004
  -3184463.08648  -2450850.82047  21184399.6724                   21184396.3054
        49.2504         44.2504
   1842401.74648   1442055.88747  22049275.9384                   22049275.4924
        49.0004         46.0004
   2595483.719 5                  25110972.195
        34.000
   2397052.97345   1873705.45344  25093329.9064                   25093334.5004
        33.5004         25.5004
 25  7 15 22 59 30.0000000  0 10G01G02G03G25G10G28G31G32G04G08
  -2955187.84047  -2257983.80545  21975502.6724                   21975500.2504
        44.7504         31.5004
   -777515.75848   -585184.05546  21370744.8594                   21370739.4964
        48.2504         37.5004
  -2642864.00446  -2253022.77045  23646575.6094                   23646576.4884
        38.7504         32.0004
   -723398.27045   -944546.09443  24511191.9454                   24511192.8014
        33.0004         22.0004
   1554877.25447   1219620.69546  22558081.7734                   22558082.1174
        45.0004         41.5004
  -1087860.94148   -825207.02346  20843090.1884                   20843087.6684
        49.0004         38.0004
  -3357545.19948  -2585719.97347  21151463.0554                   21151459.7854
        49.5004         44.5004
   1808045.23048   1415284.55147  22042738.1334                   22042737.2114
        48.0004         45.2504
   2415971.328 5                  25076811.641
        35.500
   2375517.86745   1856924.67644  25089231.3984                   25089235.8714
        33.5004         25.2504
 25  7 15 23  0  0.0000000  0 10G01G02G03G25G10G28G31G32G04G08
  -3117196.41447  -2384224.23445  21944673.7504                   21944671.3164
        44.2504         32.2504
   -876593.65648   -662387.62546  21351890.9614                   21351886.2074
        48.0004         38.0004
  -2825114.34046  -2395035.96145  23611894.4694                   23611895.6174
        40.2504         33.5004
   -850282.23445  -1043416.70743  24487047.6094                   24487047.7814
        34.0004         22.2504
   1515889.43847   1189240.55546  22550663.0704                   22550662.9024
        45.0004         41.2504
  -1194198.68748   -908067.59846  20822855.1644                   20822851.9144
        48.2504         37.7504
  -3530080.29348  -2720162.86747  21118630.9384                   21118627.7234
        49.0004         44.5004
   1773887.32448   1388667.98847  22036238.1954                   22036236.4924
        48.0004         45.0004
   2236660.602 6                  25042690.102
        36.000
   2354017.60945   1840171.05944  25085141.2504                   25085145.1884
        35.5004         27.2504
 25  7 15 23  0 30.0000000  0 10G01G02G03G25G10G28G31G32G04G08
  -3278688.49247  -2510062.19945  21913942.2814                   21913940.1334
        44.7504         32.2504
   -975067.48047   -739120.48846  21333151.9454                   21333146.6914
        47.2504         38.0004
  -3007283.29746  -2536985.73045  23577229.6644                   23577230.1764
        40.0004         34.5004
   -976644.54745  -1141880.85943  24463000.4064                   24463002.0824
        34.0004         22.5004
   1477242.03147   1159125.64846  22543308.4144                   22543308.8164
        44.2504         40.7504
  -1299856.37948   -990398.26246  20802748.9144                   20802746.2384
        48.2504         37.5004
  -3702063.21948  -2854175.49647  21085903.4064                   21085900.4224
        49.0004         44.7504
   1739929.24248   1362207.12147  22029776.2504                   22029775.4024
        48.2504         45.2504
   2057554.449 6                  25008607.570
        36.750
   2332551.98045   1823444.43044  25081055.4144                   25081060.6954
        35.7504         28.0004
 25  7 15 23  1  0.0000000  0 10G01G02G03G25G10G28G31G32G04G08
  -3439661.65247  -2635495.82445  21883310.5634                   21883308.2584
        44.5004         32.2504
  -1072936.97347   -815382.44546  21314528.3444                   21314523.1214
        46.2504         38.0004
  -3189369.91446  -2678871.35545  23542579.3054                   23542580.0664
        39.7504         33.7504
  -1102483.02745  -1239936.78544  24439054.9694                   24439056.1054
        33.7504         25.2504
   1438935.44547   1129276.34846  22536018.9224                   22536019.1374
        44.5004         40.5004
  -1404833.78148  -1072198.83646  20782772.4384                   20782769.5394
        48.0004         37.7504
  -3873491.56648  -2987755.99247  21053282.0784                   21053278.5204
        49.7504         44.5004
   1706169.82447   1335901.04747  22023351.9534                   22023351.5354
        47.5004         45.7504
   1878653.422 6                  24974564.594
        38.250
   2311118.46946   1806742.82444  25076978.0704                   25076981.8914
        37.7504         27.5004
 25  7 15 23  1 30.0000000  0 10G01G02G03G25G10G28G31G32G04G08
  -3600108.16047  -2760519.06645  21852778.4534                   21852775.9344
        44.5004         32.0004
  -1170196.02347   -891168.73446  21296020.0634                   21296014.8914
        46.5004         37.0004
  -3371367.86746  -2820687.88345  23507945.9774                   23507947.1454
        39.2504         35.0004
  -1227790.09845  -1337578.65644  24415208.7974                   24415211.6644
        35.5004         27.2504
   1400975.31347   1099696.98046  22528795.4774                   22528795.3204
        44.2504         40.2504
  -1509125.24248  -1153464.89846  20762926.0084                   20762923.4964
        48.0004         38.2504
  -4044357.22348  -3120898.03547  21020767.4694                   21020763.6374
        49.2504         44.7504
   1672613.33247   1309753.10947  22016966.5084                   22016965.9694
        47.2504         45.5004
   1699963.30146   2397669.06352  24940560.6094                   24940563.2974
        37.0004         14.7504
   2289719.74646   1790068.31644  25072904.9694                   25072910.1024
        38.2504         28.0004
 25  7 15 23  2  0.0000000  0 10G01G02G03G25G10G28G31G32G04G08
  -3760029.03147  -2885132.71545  21822346.9384                   21822344.0434
        45.2504         32.5004
  -1266848.15647   -966482.09846  21277628.1484                   21277623.2304
        47.0004         37.0004
  -3553279.60246  -2962437.21945  23473329.6884                   23473330.2034
        39.0004         34.0004
  -1352566.84046  -1434807.28144  24391464.9534                   24391467.6174
        37.0004         28.7504
   1363358.44147   1070385.09846  22521637.0704                   22521637.2894
        44.2504         40.0004
  -1612734.05947  -1234199.03946  20743210.1564                   20743207.3954
        47.7504         38.2504
  -4214660.94548  -3253602.20347  20988359.4064                   20988356.1844
        48.7504         45.0004
   1639255.14147   1283759.69147  22010618.4384                   22010618.2424
        47.0004         45.5004
   1521481.14146   2258592.23442  24906596.1644                   24906599.3134
        37.7504         15.5004
   2268349.92246   1773416.32844  25068839.0164                   25068843.6954
        37.7504         29.5004
 25  7 15 23  2 30.0000000  0 10G01G02G03G25G10G28G31G32G04G08
  -3919419.04347  -3009332.70345  21792015.7274                   21792012.9924
        45.0004         31.7504
  -1362890.12547  -1041320.01246  21259351.7974                   21259346.8134
        47.5004         37.5004
  -3735101.16446  -3104116.30545  23438730.2664                   23438730.5354
        40.0004         33.0004
  -1476808.44146  -1531618.91444  24367823.1724                   24367825.0314
        36.5004         28.2504
   1326088.09447   1041343.23046  22514544.6564                   22514544.9734
        44.0004         40.2504
  -1715657.19148  -1314398.87946  20723625.0004                   20723621.9264
        48.0004         38.0004
  -4384397.30548  -3385864.27047  20956059.4924                   20956056.0124
        49.0004         45.0004
   1606096.98447   1257922.14547  22004308.6254                   22004307.7114
        47.0004         45.2504
   1343210.35946   2119680.12942  24872672.2274                   24872675.4344
        38.2504         17.2504
   2247009.19946   1756787.01644  25064778.6804                   25064783.1414
        38.7504         29.2504
 25  7 15 23  3  0.0000000  0 10G01G02G03G25G10G28G31G32G04G08
  -4078275.13747  -3133116.66045  21761786.3284                   21761783.7814
        45.2504         32.2504
  -1458321.05147  -1115681.78546  21241191.8204                   21241186.9454
        46.2504         37.7504
  -3916830.97746  -3245723.89545  23404148.0164                   23404148.8714
        38.5004         33.2504
  -1600511.99246  -1628011.23844  24344283.0784                   24344284.5634
        37.0004         28.2504
   1289165.12547   1012572.04746  22507518.5864                   22507518.7074
        43.5004         39.7504
  -1817893.82448  -1394063.78146  20704169.6644                   20704167.0204
        48.0004         38.0004
  -4553562.90648  -3517681.59447  20923868.2584                   20923865.1884
        49.5004         44.7504
   1573138.39847   1232240.10547  21998036.7894                   21998035.9964
        47.2504         45.0004
   1165152.00446   1980933.52342  24838788.0784                   24838791.2384
        38.0004         16.7504
   2225695.62146   1740178.87944  25060722.8134                   25060727.3874
        38.5004         28.7504
 25  7 15 23  3 30.0000000  0 10G01G02G03G25G10G28G31G32G04G08
  -4236596.59847  -3256484.02045  21731658.5864                   21731656.3524
        44.2504         33.0004
  -1553142.57447  -1189568.70746  21223147.9534                   21223142.6724
        46.7504         37.2504
  -4098469.59846  -3387260.43045  23369582.8444                   23369583.8984
        38.0004         33.0004
  -1723676.97346  -1723983.90244  24320845.7274                   24320846.8094
        37.0004         28.0004
   1252588.18047    984070.49246  22500558.3054                   22500558.5984
        44.0004         40.2504
  -1919445.49247  -1473194.94546  20684845.0234                   20684842.4734
        47.5004         37.7504
  -4722156.78148  -3649053.41447  20891786.1254                   20891782.6174
        48.7504         45.5004
   1540376.55948   1206711.36347  21991802.7974                   21991801.3164
        48.5004         45.0004
    987304.96546   1842351.56342  24804945.3134                   24804949.1374
        36.7504         15.5004
   2204405.01646   1723588.64844  25056670.7034                   25056676.0394
        38.5004         28.0004
 25  7 15 23  4  0.0000000  0 10G01G02G03G25G10G28G31G32G04G08
  -2818954.41047  -2151827.75845  22001426.8914                   22001425.0354
        43.7504         32.5004
    -71929.93447    -35377.04346  21505013.4304                   21505008.5354
        46.2504         37.0004
  -2704588.49646  -2301119.23845  23634829.2974                   23634830.5704
        37.0004         32.2504
   -270875.87145   -591931.08644  24597303.7584                   24597305.4454
        35.2504         25.5004
   2791780.18047   2183440.84846  22793457.1884                   22793456.8134
        43.2504         39.7504
   -444887.32048   -324188.56646  20965444.0314                   20965441.6174
        48.0004         38.0004
  -3314749.77048  -2552372.59447  21159606.6414                   21159603.3014
        49.0004         45.0004
   3083232.92647   2408937.07047  22285398.3204                   22285397.8054
        47.0004         45.2504
   2385096.98046   2931540.23442  25070936.1884                   25070939.0004
        36.2504         17.7504
   3758556.95746   2934615.99244  25352416.5314                   25352421.6214
        39.2504         29.2504
 25  7 15 23  4 30.0000000  0 10G01G02G03G25G10G28G31G32G04G08
  -2976195.29347  -2274353.10245  21971504.7344                   21971502.7504
        43.5004         32.0004
   -165527.59848   -108310.30546  21487202.0944                   21487197.4654
        48.0004         37.2504
  -2886037.36346  -2442507.90645  23600301.0164                   23600301.5514
        37.5004         31.0004
   -392953.17646   -687056.25444  24574073.8674                   24574075.2734
        36.7504         25.5004
   2755900.41847   2155482.55146  22786629.3674                   22786629.5984
        45.0004         39.7504
   -545064.49648   -402248.70346  20946380.9144                   20946378.0554
        48.0004         38.0004
  -3482188.69548  -2682844.44547  21127743.8364                   21127740.6294
        49.5004         45.2504
   3050865.65247   2383715.80147  22279238.8594                   22279238.7234
        47.0004         45.2504
   2207678.21146   2793291.97743  25037174.5394                   25037176.7274
        37.2504         18.5004
   3737308.94546   2918058.94944  25348372.9064                   25348377.9804
        39.2504         27.7504
 25  7 15 23  5  0.0000000  0 10G01G02G03G25G10G28G31G32G04G08
  -3132891.87947  -2396454.32045  21941686.1884                   21941684.3914
        43.5004         32.5004
   -258512.41048   -180766.01646  21469508.2814                   21469502.6994
        48.0004         37.5004
  -3067389.19946  -2583820.95745  23565790.6334                   23565792.0434
        37.7504         31.0004
   -514483.05546   -781754.85944  24550946.6094                   24550949.0554
        36.5004         24.7504
   2720370.14847   2127796.59046  22779867.5864                   22779867.8794
        43.5004         39.2504
   -644553.85547   -479772.87546  20927448.6724                   20927446.1134
        47.5004         38.0004
  -3649045.63348  -2812862.80947  21095991.8834                   21095989.0084
        49.0004         45.0004
   3018694.49247   2358647.35247  22273117.4144                   22273116.8444
        47.7504         45.5004
   2030474.77346   2655211.55543  25003453.6024                   25003456.6724
        36.2504         18.2504
   3716078.91446   2901515.94144  25344333.6644                   25344338.2814
        39.0004         27.0004
 25  7 15 23  5 30.0000000  0 10G01G02G03G25G10G28G31G32G04G08
  -3289039.57847  -2518127.83645  21911972.5944                   21911970.1254
        43.7504         32.0004
   -350882.10247   -252742.41446  21451930.3524                   21451925.5204
        46.2504         37.5004
  -3248640.78946  -2725055.90645  23531300.1334                   23531300.6604
        38.0004         32.0004
   -635461.04746   -876023.38744  24527926.5164                   24527927.6724
        36.0004         26.2504
   2685191.79347   2100384.83646  22773173.8674                   22773173.9064
        43.2504         39.5004
   -743353.13347   -556759.32046  20908647.7274                   20908645.4454
        46.5004         37.7504
  -3815315.89148  -2942424.02047  21064352.1724                   21064349.0434
        49.0004         45.2504
   2986720.62547   2333732.62547  22267032.6414                   22267031.6054
        47.7504         45.0004
   1853489.34845   2517300.97343  24969773.5004                   24969776.7304
        35.7504         18.2504
   3694866.53146   2884986.67644  25340296.9064                   25340302.1374
        38.5004         27.2504
 25  7 15 23  6  0.0000000  0 10G01G02G03G25G10G28G31G32G04G08
  -3444638.59047  -2639373.79345  21882362.9454                   21882360.9844
        43.7504         33.0004
   -442639.06647   -324241.36346  21434470.1334                   21434464.7854
        46.5004         37.5004
  -3429793.41846  -2866213.73445  23496828.0314                   23496828.4654
        39.5004         32.5004
   -755887.58245   -969862.25444  24505009.0164                   24505011.0354
        35.7504         25.0004
   2650363.21147   2073245.63346  22766546.0394                   22766546.2384
        43.0004         39.7504
   -841464.78947   -633209.95746  20889977.9774                   20889974.9144
        47.5004         38.2504
  -3980999.44948  -3071528.05947  21032823.4614                   21032820.0984
        49.0004         45.5004
   2954940.46147   2308968.82847  22260985.4384                   22260983.7854
        46.5004         44.5004
   1676719.96146   2379558.67243  24936135.2814                   24936138.8834
        37.2504         19.5004
   3673666.87946   2868467.30944  25336262.6094                   25336267.3594
        38.7504         25.5004
 25  7 15 23  6 30.0000000  0 10G01G02G03G25G10G28G31G32G04G08
  -3599687.42647  -2760191.05545  21852858.4064                   21852856.5124
        44.5004         32.2504
   -533784.12147   -395263.49646  21417125.5394                   21417120.4494
        46.7504         37.5004
  -3610846.99246  -3007294.37145  23462373.9064                   23462375.0704
        38.5004         32.5004
   -875761.62545  -1063270.56244  24482198.3284                   24482199.9344
        35.7504         26.0004
   2615883.68447   2046378.42246  22759985.0474                   22759984.9614
        44.5004         39.2504
   -938889.75047   -709125.50846  20871438.6564                   20871435.8244
        47.7504         38.0004
  -4146094.68048  -3200173.66047  21001406.8054                   21001403.5434
        49.5004         45.7504
   2923352.04747   2284354.45747  22254973.9384                   22254973.3404
        47.5004         44.5004
   1500166.10946   2241984.35943  24902539.0554                   24902541.0044
        37.7504         18.2504
   3652476.43846   2851955.12544  25332231.0944                   25332234.9844
        38.7504         25.2504
 25  7 15 23  7  0.0000000  0 10G01G02G03G25G10G28G31G32G04G08
  -3754182.84847  -2880577.07445  21823459.0164                   21823456.0594
        44.7504         32.2504
   -624316.05547   -465807.87146  21399897.7344                   21399892.7074
        47.5004         37.0004
  -3791799.30546  -3148296.10545  23427939.9064                   23427940.9694
        39.2504         32.5004
   -995079.98446  -1156245.89143  24459492.2504                   24459493.9734
        37.0004         23.7504
   2581754.52047   2019784.21146  22753490.6024                   22753490.9024
        44.0004         39.2504
  -1035627.05547   -784505.21546  20853029.8674                   20853027.3674
        47.7504         38.5004
  -4310598.07448  -3328358.09847  20970102.6954                   20970099.3674
        49.5004         45.5004
   2891955.39547   2259889.51247  22248999.5634                   22248998.9694
        46.7504         44.5004
   1323829.25445   2104579.15642  24868981.8984                   24868985.8484
        35.7504         17.7504
   3631293.82046   2835449.03143  25328199.1254                   25328204.4614
        36.7504         22.5004
 25  7 15 23  7 30.0000000  0 10G01G02G03G25G10G28G31G32G04G08
  -3908120.51247  -3000528.48445  21794165.2034                   21794162.8164
        44.2504         32.5004
   -714232.89848   -535872.96146  21382787.4534                   21382782.3714
        48.0004         37.5004
  -3972647.32046  -3289216.59045  23393526.2974                   23393526.5044
        39.5004         31.5004
  -1113838.74646  -1248785.14144  24436893.7194                   24436894.6414
        37.2504         25.0004
   2547977.87147   1993464.69946  22747063.0554                   22747062.7624
        43.2504         39.2504
  -1131674.77347   -859347.59846  20834752.7894                   20834750.2114
        46.5004         38.2504
  -4474505.31648  -3456077.98447  20938912.0314                   20938908.9064
        49.5004         45.5004
   2860751.38747   2235574.68447  22243061.5944                   22243061.1214
        46.0004         44.5004
   1147711.87546   1967344.94143  24835468.2974                   24835470.6644
        36.7504         18.5004
   3610118.39846   2818948.52343  25324170.5554                   25324175.1804
        37.0004         23.0004
 25  7 15 23  8  0.0000000  0 10G01G02G03G25G10G28G31G32G04G08
  -4061502.14847  -3120046.63345  21764978.1484                   21764975.0744
        44.2504         32.5004
   -803538.78147   -605461.97346  21365792.8594                   21365787.8714
        47.5004         37.5004
  -4153393.79746  -3430057.94945  23359131.7664                   23359131.2504
        39.7504         32.0004
  -1232039.88746  -1340889.89544  24414401.0234                   24414401.5044
        38.0004         26.0004
   2514550.09847   1967417.03146  22740702.0234                   22740702.3834
        43.7504         39.7504
  -1227036.93447   -933655.77046  20816605.6174                   20816603.0514
        47.0004         38.0004
  -4637817.97748  -3583334.57447  20907834.8364                   20907831.8714
        49.2504         45.5004
   2829735.07047   2211406.10547  22237159.4454                   22237158.6994
        46.2504         44.0004
    971810.46946   1830278.98443  24801995.5004                   24801997.8014
        37.0004         19.7504
   3588943.87146   2802448.69943  25320141.3834                   25320145.7384
        36.5004         22.5004
 25  7 15 23  8 30.0000000  0 11G01G02G03G25G10G28G31G32G04G26G08
  -4214325.02347  -3239129.37945  21735896.7424                   21735894.0084
        44.2504         32.2504
   -892232.92647   -674574.30946  21348914.8364                   21348910.2424
        47.2504         37.0004
  -4334037.12146  -3570818.94145  23324755.9534                   23324756.3444
        39.5004         31.0004
  -1349680.94946  -1432558.23044  24392014.9774                   24392015.9964
        38.7504         26.7504
   2481471.78547   1941641.66446  22734407.6334                   22734407.6994
        44.5004         39.0004
  -1321713.27047  -1007429.53546  20798589.6724                   20798586.9414
        47.2504         37.5004
  -4800533.02748  -3710125.49647  20876871.5234                   20876867.9184
        49.0004         45.5004
   2798905.82447   2187383.30147  22231292.8054                   22231291.7344
        46.7504         43.7504
    796125.85546   1693381.99643  24768564.2504                   24768566.0634
        36.7504         18.5004
   4517763.38755   3564216.16054  25170392.9224                   25170398.4224
        33.5004         25.0004
   3567768.06646   2785947.91043  25316112.6254                   25316115.9774
        37.5004         21.0004
 25  7 15 23  9  0.0000000  0 11G01G02G03G25G10G28G31G32G04G26G08
  -4366591.22747  -3357778.35245  21706921.6804                   21706918.4224
        44.5004         32.0004
   -980320.03147   -743213.62946  21332152.5164                   21332147.8444
        47.7504         37.5004
  -4514580.61746  -3711502.13345  23290399.0234                   23290399.8164
        39.7504         32.0004
  -1466764.35946  -1523792.03144  24369734.0944                   24369735.1094
        38.0004         25.5004
   2448738.87547   1916135.44946  22728178.5234                   22728179.1994
        43.2504         39.0004
  -1415708.22347  -1080672.34846  20780702.8754                   20780700.0394
        46.7504         38.0004
  -4962652.26648  -3836452.14147  20846021.0864                   20846017.5164
        49.0004         45.7504
   2768258.32047   2163502.11347  22225460.6564                   22225460.2504
        45.5004         43.5004
    620654.10945   1556650.89143  24735172.7424                   24735174.8094
        35.5004         18.5004
   4337959.50845   3424109.51644  25136176.9144                   25136182.3164
        33.7504         26.0004
   3546584.26246   2769440.91443  25312080.8364                   25312085.4384
        36.7504         22.5004
 25  7 15 23  9 30.0000000  0 10G01G02G03G25G10G28G31G32G04G26
  -4518301.08647  -3475993.81245  21678052.0004                   21678049.3674
        44.0004         32.0004
  -1067802.38747   -811381.70746  21315505.1724                   21315500.3594
        46.2504         37.5004
  -4695025.55946  -3852108.52745  23256061.3444                   23256061.7464
        39.7504         32.0004
  -1583290.66846  -1614591.70744  24347559.8754                   24347561.9024
        39.0004         28.0004
   2416348.92247   1890896.46946  22722014.7194                   22722015.2114
        43.2504         39.0004
  -1509024.54747  -1153386.35946  20762945.3834                   20762942.3714
        46.5004         38.0004
  -5124176.01248  -3962314.77047  20815283.6644                   20815280.7584
        49.5004         45.7504
   2737788.97747   2139759.74647  22219662.7584                   22219661.5904
        46.2504         43.2504
    445393.14846   1420083.98043  24701821.4774                   24701823.5554
        36.5004         18.2504
   4158084.88745   3283947.73444  25101946.7584                   25101953.1254
        33.7504         27.5004
 25  7 15 23 10  0.0000000  0 10G01G02G03G25G10G28G31G32G04G26
  -4669455.00447  -3593776.06645  21649288.2194                   21649285.7034
        44.5004         32.2504
  -1154682.64547   -879080.62146  21298972.3754                   21298967.7074
        47.5004         37.2504
  -4875373.47746  -3992639.32045  23221742.5554                   23221742.5634
        39.7504         31.5004
  -1699260.66446  -1704957.86744  24325491.0784                   24325493.5944
        38.5004         27.0004
   2384299.50447   1865922.83646  22715915.9454                   22715916.8634
        44.0004         39.5004
  -1601665.06647  -1225573.77346  20745316.7424                   20745313.6484
        47.0004         37.7504
  -5285104.44148  -4087713.51647  20784660.2504                   20784657.0474
        49.0004         45.7504
   2707494.12147   2116153.35247  22213897.6564                   22213896.8484
        46.5004         43.5004
    270340.66045   1283679.56342  24668510.3284                   24668512.0474
        35.5004         16.7504
   3978139.40246   3143730.73845  25067705.4614                   25067709.8164
        38.2504         30.0004
 25  7 15 23 10 30.0000000  0 10G01G02G03G25G10G28G31G32G04G26
  -4820042.18047  -3711116.71145  21620632.3364                   21620629.8954
        44.2504         32.2504
  -1240952.43048   -946303.84446  21282555.8834                   21282551.0474
        48.2504         37.5004
  -5055614.59046  -4133086.90245  23187443.3984                   23187444.1294
        40.0004         32.2504
  -1814663.80646  -1794882.37444  24303531.0234                   24303532.5664
        38.5004         28.2504
   2352599.43447   1841221.43446  22709884.0784                   22709884.1954
        43.5004         39.0004
  -1693621.42647  -1297228.07846  20727817.7974                   20727814.7774
        46.2504         38.0004
  -5445426.52748  -4212639.78947  20754152.1094                   20754148.7034
        49.5004         45.7504
   2677381.41447   2092688.87147  22208167.7504                   22208167.2814
        46.5004         43.2504
     95505.82445   1147444.68042  24635240.5314                   24635242.5864
        33.0004         16.7504
   3798134.10246   3003467.08644  25033449.7194                   25033456.2974
        37.0004         25.5004
 25  7 15 23 11  0.0000000  0 10G01G02G03G25G10G28G31G32G04G26
  -4970051.75047  -3828007.27345  21592086.6804                   21592084.0554
        44.7504         32.5004
  -1326603.28148  -1013044.78146  21266256.9304                   21266251.9454
        48.5004         37.2504
  -5235738.96946  -4273443.52045  23153167.1334                   23153167.9304
        40.5004         32.2504
  -1929489.73246  -1884357.07844  24281679.7424                   24281682.1524
        38.5004         27.7504
   2321257.52047   1816799.09846  22703919.9534                   22703920.2424
        43.5004         40.2504
  -1784885.23047  -1368342.73446  20710450.8054                   20710447.6604
        46.2504         38.0004
  -5605131.50848  -4337085.19147  20723760.8674                   20723757.5204
        49.2504         46.0004
   2647458.44947   2069372.27047  22202473.2034                   22202472.9964
        45.2504         43.0004
    -79102.48845   1011386.36742  24602013.0944                   24602016.0234
        34.0004         14.7504
   3618080.41046   2863165.74644  24999186.9144                   24999193.2664
        36.0004         26.5004
 25  7 15 23 11 30.0000000  0 10G01G02G03G25G10G28G31G32G04G26
  -5119481.35547  -3944445.91845  21563651.3134                   21563648.8754
        44.5004         32.0004
  -1411634.86748  -1079303.17646  21250076.1414                   21250071.1684
        48.2504         37.7504
  -5415745.35546  -4413708.18445  23118912.9454                   23118913.4774
        40.5004         32.2504
  -2043736.17246  -1973380.25844  24259939.7274                   24259941.3674
        37.5004         27.2504
   2290274.12547   1792656.14846  22698023.9224                   22698024.2584
        43.0004         39.2504
  -1875456.53547  -1438917.77046  20693215.4064                   20693212.6684
        47.0004         38.0004
  -5764216.81248  -4461047.73847  20693487.7974                   20693484.8914
        48.5004         46.0004
   2617724.45347   2046202.90647  22196815.2734                   22196813.9924
        46.2504         43.0004
   -253483.60245    875505.11342  24568829.2664                   24568832.2894
        33.5004         15.5004
   3437981.09446   2722828.84443  24964914.5784                   24964920.6684
        36.7504         23.0004
 25  7 15 23 12  0.0000000  0 10G01G02G03G25G10G28G31G32G04G26
  -5268329.18047  -4060431.21545  21535326.0944                   21535323.6954
        44.5004         31.7504
  -1496047.84048  -1145079.53946  21234012.8834                   21234008.0204
        48.5004         37.5004
  -5595632.86346  -4553880.23245  23084682.2664                   23084681.9694
        39.5004         32.2504
  -2157401.80946  -2061950.87544  24238310.3834                   24238311.6564
        38.2504         27.2504
   2259649.07447   1768792.41846  22692196.5634                   22692196.9104
        43.0004         39.7504
  -1965336.05547  -1508953.75846  20676111.8674                   20676109.1604
        46.5004         38.0004
  -5922680.39148  -4584525.81647  20663333.5554                   20663330.1564
        49.0004         46.0004
   2588178.09447   2023179.73847  22191192.8284                   22191191.4654
        47.0004         43.0004
   -427637.43455    739800.87952  24535688.8134                   24535692.1334
        32.7504         16.2504
   3257838.42246   2582458.15243  24930634.9224                   24930640.5744
        36.7504         23.0004
 25  7 15 23 12 30.0000000  0 10G01G02G03G25G10G28G31G32G04G26
  -3841172.91847  -2948361.39145  21806905.2114                   21806902.5554
        43.7504         32.5004
     -4424.28548     17224.52046  21517859.3834                   21517854.4304
        49.0004         37.0004
  -4199979.06646  -3466357.74245  23350266.0084                   23350265.8954
        38.2504         31.5004
   -695065.82446   -922468.24644  24516583.1334                   24516584.6374
        38.7504         28.0004
   3804798.65247   2972805.03546  22986228.6254                   22986228.5124
        43.2504         39.5004
   -479105.91847   -350852.34446  20958932.3284                   20958929.5164
        47.2504         38.0004
  -4505099.59448  -3479917.38347  20933090.0784                   20933086.7544
        48.2504         46.0004
   4134234.60247   3227899.06647  22485397.7194                   22485396.4414
        46.0004         43.0004
    973857.30145   1831874.79742  24802384.7194                   24802387.0274
        34.0004         16.2504
   4653076.16846   3669656.57043  25196140.1804                   25196145.7704
        37.0004         21.5004
 25  7 15 23 13  0.0000000  0 10G01G02G03G25G10G28G31G32G04G26
  -3988866.36347  -3063447.18045  21778799.7974                   21778797.4694
        44.5004         32.0004
    -87616.18448    -47600.35246  21502028.5314                   21502023.5044
        48.2504         37.0004
  -4379640.79346  -3606353.85545  23316076.7114                   23316077.2464
        38.5004         32.0004
   -807579.98046  -1010141.56244  24495172.3834                   24495173.9304
        38.2504         26.5004
   3774875.01647   2949487.85946  22980533.8284                   22980534.5784
        43.5004         39.0004
   -567618.39547   -419823.10546  20942088.5944                   20942085.9384
        47.5004         37.5004
  -4662328.56248  -3602433.43047  20903170.3204                   20903166.9384
        48.7504         46.0004
   4105045.00847   3205153.89847  22479842.9844                   22479842.5084
        46.0004         43.2504
    800143.37955   1696513.36752  24769327.1024                   24769330.7074
        31.2504         17.2504
   4472838.88346   3529212.05543  25161842.3054                   25161846.6724
        37.0004         22.5004
 25  7 15 23 13 30.0000000  0 10G01G02G03G25G10G28G31G32G04G26
  -4135979.73447  -3178080.96545  21750805.5314                   21750802.3444
        45.2504         33.7504
   -170198.06648   -111949.88746  21486313.6564                   21486308.7814
        48.5004         38.0004
  -4559188.10246  -3746260.78945  23281910.4534                   23281910.9614
        37.7504         31.0004
   -919516.00946  -1097364.41544  24473871.5394                   24473873.2774
        38.5004         27.7504
   3745301.94947   2926443.84846  22974906.4384                   22974906.6884
        43.0004         39.2504
   -655448.30547   -488261.99246  20925375.2034                   20925373.0204
        47.2504         38.2504
  -4818937.52748  -3724466.35247  20873368.8204                   20873365.2854
        49.0004         46.2504
   4076032.03147   3182546.35947  22474321.8444                   22474321.2424
        46.5004         42.5004
    626649.65245   1561323.58242  24736312.5004                   24736314.8554
        33.7504         16.7504
   4292557.86346   3388733.56644  25127536.2034                   25127540.6644
        36.5004         25.5004
 25  7 15 23 14  0.0000000  0 10G01G02G03G25G10G28G31G32G04G26
  -4282510.49247  -3292260.75445  21722921.2034                   21722918.8594
        45.0004         33.0004
   -252169.65648   -175823.86746  21470714.9304                   21470710.0354
        48.5004         37.2504
  -4738619.34046  -3886077.29745  23247765.9694                   23247766.2274
        37.2504         30.7504
  -1030871.94146  -1184135.21644  24452681.4534                   24452682.7584
        39.2504         28.2504
   3716079.99647   2903673.44146  22969345.6484                   22969346.1094
        43.5004         39.0004
   -742595.57447   -556168.95346  20908792.1884                   20908789.1644
        46.5004         38.0004
  -4974923.25848  -3846013.64847  20843685.6884                   20843682.4654
        48.5004         46.0004
   4047195.17247   3160076.06347  22468834.1804                   22468834.0864
        45.5004         43.0004
    453376.95745   1426306.02343  24703340.3984                   24703342.5784
        34.7504         19.0004
   4112236.20746   3248223.44544  25093220.9064                   25093226.1954
        36.7504         24.7504
 25  7 15 23 14 30.0000000  0 10G01G02G03G25G10G28G31G32G04G26
  -4428462.96547  -3405989.93445  21695147.5864                   21695144.9494
        45.2504         33.2504
   -333538.05148   -239227.82046  21455231.1414                   21455226.2624
        49.0004         37.0004
  -4917939.60946  -4025807.31244  23213641.0554                   23213642.3954
        36.5004         29.7504
  -1141652.13746  -1270457.44944  24431600.2034                   24431600.9024
        40.0004         26.0004
   3687202.94547   2881171.78146  22963850.8284                   22963851.0944
        42.7504         38.5004
   -829067.02347   -623549.29746  20892336.8524                   20892333.9494
        47.5004         38.5004
  -5130290.17648  -3967078.75047  20814120.4384                   20814116.8054
        48.5004         46.0004
   4018527.10247   3137737.27347  22463379.3674                   22463378.7344
        46.5004         42.7504
    280319.28145   1291456.01242  24670409.5784                   24670410.4494
        34.5004         17.2504
   3931870.10945   3107678.61744  25058898.2114                   25058903.0204
        34.7504         24.5004
 25  7 15 23 15  0.0000000  0 10G01G02G03G25G10G28G31G32G04G26
  -4573834.28947  -3519266.27745  21667483.9844                   21667481.7424
        45.7504         33.5004
   -414302.42648   -302161.12946  21439862.2584                   21439857.2894
        49.0004         37.5004
  -5097146.95746  -4165449.34445  23179539.2424                   23179540.9144
        36.7504         30.5004
  -1251854.37146  -1356329.25444  24410629.5394                   24410630.5864
        38.7504         26.5004
   3658671.56347   2858939.48846  22958421.6484                   22958421.7384
        43.0004         39.2504
   -914862.39147   -690402.82446  20876010.9224                   20876007.4614
        46.5004         37.7504
  -5285035.36748  -4087659.39547  20784673.0944                   20784669.7734
        48.7504         46.2504
   3990027.58647   3115529.83247  22457955.8834                   22457955.3444
        46.0004         43.0004
    107477.66845   1156774.34843  24637517.5784                   24637519.4344
        34.7504         19.2504
   3751463.01645   2967101.85943  25024568.3444                   25024572.2344
        35.2504         22.5004
 25  7 15 23 15 30.0000000  0 10G01G02G03G25G10G28G31G32G04G26
  -4718620.95347  -3632087.03545  21639932.2344                   21639929.7274
        45.7504         33.7504
   -494461.53948   -364622.78946  21424608.6174                   21424603.4574
        48.5004         38.0004
  -5276238.62946  -4305001.23045  23145459.7274                   23145460.6914
        37.5004         32.0004
  -1361475.48046  -1441748.30144  24389769.0234                   24389770.7464
        38.2504         25.2504
   3630487.41847   2836977.77046  22953058.7194                   22953058.4654
        43.7504         39.0004
   -999980.66847   -756728.75046  20859813.2814                   20859810.1094
        47.7504         38.0004
  -5439155.09848  -4207752.65647  20755345.3134                   20755342.0514
        48.7504         46.5004
   3961697.20347   3093454.18847  22452564.2814                   22452563.9804
        46.2504         42.5004
    -65146.03945   1022262.50043  24604668.6724                   24604669.8164
        35.7504         19.5004
   3571018.96946   2826496.34444  24990230.9454                   24990234.5044
        36.0004         25.5004
 25  7 15 23 16  0.0000000  0 10G01G02G03G25G10G28G31G32G04G26
  -4862824.53947  -3744453.45345  21612490.8984                   21612489.0354
        46.7504         33.5004
   -574019.62148   -426616.11346  21409469.2814                   21409463.9924
        48.2504         37.2504
  -5455216.98846  -4444464.84445  23111400.9844                   23111401.8014
        38.5004         33.0004
  -1470517.37146  -1526715.93044  24369019.6254                   24369020.4264
        38.5004         24.7504
   3602647.04747   2815283.91446  22947760.7814                   22947760.9614
        43.5004         38.2504
  -1084426.01648   -822530.31646  20843743.6644                   20843741.0434
        48.0004         38.5004
  -5592651.03548  -4327359.85247  20726135.7894                   20726132.4614
        48.0004         46.2504
   3933531.42247   3071506.81347  22447204.9144                   22447204.5554
        46.7504         43.0004
   -237555.16045    887917.84043  24571860.0234                   24571862.1454
        35.0004         20.0004
   3390537.22745   2685861.42244  24955885.5864                   24955890.3164
        35.5004         25.2504
 25  7 15 23 16 30.0000000  0 10G01G02G03G25G10G28G31G32G04G26
  -5006436.45747  -3856358.84045  21585162.4774                   21585159.7774
        46.5004         33.5004
   -652970.23048   -488136.08646  21394445.3674                   21394440.2344
        48.2504         38.0004
  -5634074.10946  -4583833.98845  23077365.4844                   23077366.8364
        39.0004         34.0004
  -1578971.86946  -1611225.90843  24348380.4224                   24348381.9774
        38.7504         22.7504
   3575156.98847   2793863.05146  22942529.4774                   22942529.9654
        43.2504         38.2504
  -1168192.39547   -887802.81246  20827803.4224                   20827800.6134
        47.5004         38.2504
  -5745514.48847  -4446474.20747  20697046.9694                   20697043.3484
        47.5004         46.0004
   3905535.85947   3049692.05947  22441878.0164                   22441877.4574
        47.2504         44.0004
   -409742.87946    753745.71943  24539093.4304                   24539095.0234
        36.0004         19.5004
   3210026.79745   2545204.12144  24921535.3284                   24921540.4024
        34.7504         25.5004
 25  7 15 23 17  0.0000000  0 10G01G02G03G25G10G28G31G32G04G26
  -5149463.15247  -3967808.19145  21557945.6484                   21557942.9264
        46.7504         34.2504
   -731322.12148   -549189.52346  21379535.2974                   21379530.7074
        48.5004         37.7504
  -5812817.23046  -4723114.31245  23043352.0234                   23043352.9924
        39.5004         34.0004
  -1686845.81646  -1695283.47344  24327853.0634                   24327854.5234
        39.0004         27.0004
   3548008.86747   2772708.62146  22937363.1884                   22937364.0944
        42.2504         38.2504
  -1251288.86348   -952553.29746  20811990.7274                   20811988.2304
        48.0004         38.0004
  -5897751.90647  -4565100.73447  20668076.7734                   20668073.4574
        47.2504         46.0004
   3877701.13347   3028002.64547  22436581.3754                   22436580.1604
        46.5004         43.5004
   -581717.22746    619739.88343  24506369.1724                   24506370.0124
        37.2504         19.2504
   3029481.98045   2404520.05943  24887177.4614                   24887183.9264
        32.5004         22.5004
 25  7 15 23 17 30.0000000  0 10G01G02G03G25G10G28G31G32G04G26
  -5291897.58247  -4078796.04745  21530841.4304                   21530838.5864
        46.2504         33.5004
   -809070.90648   -609773.01246  21364740.4774                   21364735.6214
        48.5004         37.5004
  -5991439.98446  -4862300.82845  23009362.1884                   23009362.5824
        40.2504         35.0004
  -1794132.57046  -1778883.53944  24307437.3364                   24307438.7464
        40.0004         26.2504
   3521207.75447   2751824.57846  22932262.8984                   22932263.8674
        42.5004         38.2504
  -1333710.98848  -1016778.32846  20796306.7814                   20796303.5704
        48.0004         37.5004
  -6049356.02048  -4683233.79747  20639227.7584                   20639224.3364
        48.0004         46.2504
   3850031.41447   3006441.80147  22431315.8594                   22431314.4454
        47.0004         43.0004
   -753472.93446    485904.37143  24473683.7734                   24473685.4224
        37.7504         19.0004
   2848910.48855   2263815.20753  24852816.0784                   24852821.5084
        30.5004         22.0004
 25  7 15 23 18  0.0000000  0 10G01G02G03G25G10G28G31G32G04G26
  -5433737.70347  -4189320.82045  21503849.7344                   21503847.1294
        46.7504         33.5004
   -886216.82048   -669886.73046  21350060.1644                   21350055.0864
        48.2504         37.0004
  -6169940.97046  -5001392.47045  22975394.4144                   22975394.4144
        41.5004         35.7504
  -1900830.47346  -1862024.70844  24287132.9224                   24287134.5434
        39.2504         24.7504
   3494753.85247   2731211.09446  22927228.8204                   22927229.6484
        43.0004         38.2504
  -1415459.23048  -1080478.25846  20780750.5634                   20780746.8714
        48.0004         38.2504
  -6200324.71948  -4800871.71147  20610499.1884                   20610496.3594
        48.0004         46.2504
   3822525.87947   2985008.89847  22426081.4844                   22426080.9144
        45.7504         42.7504
   -925009.50446    352239.64542  24441040.8284                   24441042.6604
        37.0004         17.7504
                                  24818450.4384                   24818455.1644
        29.7504         22.0004
 25  7 15 23 18 30.0000000  0 10G01G02G03G25G10G28G31G32G04G26
  -5574984.82847  -4299383.49645  21476971.3834                   21476969.3244
        46.2504         33.2504
   -962763.45348   -729533.46946  21335493.8364                   21335488.7304
        48.2504         36.7504
  -6348322.23047  -5140390.82845  22941449.3834                   22941449.6994
        42.0004         35.7504
  -2006941.39146  -1944708.50443  24266941.3054                   24266942.1414
        39.5004         22.7504
   3468643.86746   2710865.59846  22922260.1564                   22922260.5274
        41.2504         38.0004
  -1496537.50848  -1143656.13346  20765321.7814                   20765318.7774
        48.7504         37.7504
  -6350659.21947  -4918015.44547  20581891.5084                   20581888.1214
        47.5004         46.5004
   3795180.41047   2963700.71547  22420877.9694                   22420877.0784
        46.5004         42.5004
  -1096329.97346    218743.26242  24408439.8754                   24408441.9144
        36.5004         17.7504
   2487695.43055   1982349.32454  24784081.1564                   24784084.0354
        33.0004         24.5004
 25  7 15 23 19  0.0000000  0 10G01G02G03G25G10G28G31G32G04G26
  -5715638.73047  -4408983.92645  21450205.8364                   21450203.7074
        46.7504         33.7504
  -1038713.12948   -788715.05546  21321040.9384                   21321036.0004
        49.0004         37.7504
  -6526584.10246  -5279296.14846  22907526.8834                   22907527.3634
        41.5004         36.5004
  -2112465.42646  -2026934.96944  24246860.0634                   24246861.7664
        38.5004         24.5004
   3442876.12147   2690786.79346  22917357.4144                   22917357.6374
        42.2504         37.7504
  -1576948.24248  -1206313.85246  20750019.6804                   20750016.9734
        48.2504         38.2504
  -6500359.34847  -5034664.86747  20553404.4694                   20553401.2544
        47.7504         46.5004
   3767992.35947   2942515.19147  22415704.1644                   22415703.3914
        46.5004         43.2504
  -1267435.75846     85414.18442  24375879.1804                   24375881.8204
        36.2504         17.2504
   2307052.19545   1841588.54343  24749704.6484                   24749708.3284
        32.5004         22.5004
 25  7 15 23 19 30.0000000  0 10G01G02G03G25G10G28G31G32G04G26
  -5855695.23447  -4518118.85545  21423554.2194                   21423551.9144
        47.0004         34.0004
  -1114064.17248   -847430.17246  21306702.0004                   21306696.8404
        48.0004         37.5004
  -6704723.01247  -5418105.65645  22873628.3524                   22873628.7624
        43.0004         35.5004
  -2217398.89846  -2108701.28143  24226892.0864                   24226893.9804
        36.5004         22.5004
   3417452.82047   2670976.37146  22912518.9144                   22912519.6844
        43.2504         37.7504
  -1656689.91047  -1268450.21546  20734845.5474                   20734842.9144
        47.5004         38.0004
  -6649420.80547  -5150816.62547  20525038.9774                   20525035.9344
        47.5004         46.5004
   3740963.08647   2921453.40247  22410560.7194                   22410560.1604
        46.5004         43.0004
  -1438324.35945    -47745.69142  24343360.3054                   24343362.7894
        35.0004         16.2504
   2126389.42655   1700812.30553  24715324.5314                   24715329.1564
        32.0004         22.2504
 25  7 15 23 20  0.0000000  0 10G01G02G03G25G10G28G31G32G04G26
  -5995152.55547  -4626786.88345  21397015.8984                   21397013.6844
        47.0004         34.0004
  -1188816.80548   -905678.99246  21292477.1564                   21292472.6644
        49.0004         37.0004
  -6882737.66046  -5556818.34445  22839753.2114                   22839753.1844
        41.2504         35.7504
  -2321740.26246  -2190006.19544  24207035.7894                   24207038.0824
        37.5004         27.2504
   3392373.91847   2651434.31646  22907746.8444                   22907747.2464
        42.5004         37.5004
  -1735763.23848  -1330065.79346  20719798.4454                   20719795.6564
        48.0004         37.7504
  -6797841.69948  -5266469.24247  20496795.7344                   20496792.0394
        48.7504         46.5004
   3714091.70347   2900514.64147  22405447.3754                   22405446.4884
        46.7504         42.5004
  -1608995.52746   -180736.07042  24310882.8674                   24310884.6024
        36.0004         15.5004
   1945711.96945   1560024.80543  24680943.7814                   24680947.1994
        33.2504         23.0004
 25  7 15 23 20 30.0000000  0 10G01G02G03G25G10G28G31G32G04G26
  -6134007.73447  -4734985.72745  21370593.0004                   21370590.3674
        47.5004         34.5004
  -1262971.00048   -963461.50846  21278366.3364                   21278361.3754
        49.0004         37.2504
  -7060625.77347  -5695432.41845  22805902.4304                   22805902.3714
        42.5004         35.5004
  -2425487.23046  -2270847.98444  24187294.4064                   24187295.6644
        38.2504         24.7504
   3367640.41847   2632161.41046  22903040.8524                   22903041.4414
        42.0004         37.7504
  -1814168.02048  -1391160.42246  20704878.3134                   20704875.3714
        48.0004         37.7504
  -6945619.39548  -5381620.66847  20468674.7194                   20468670.8984
        48.2504         46.7504
   3687378.26247   2879698.96147  22400363.7664                   22400363.3794
        45.5004         42.5004
  -1779448.03945   -313556.10542  24278445.8444                   24278449.0044
        35.5004         17.2504
   1765022.36745   1419227.86344  24646558.6024                   24646563.6804
        33.2504         25.2504
 25  7 15 23 21  0.0000000  0 10G01G02G03G25G10G28G31G32G04G26
  -4696836.37147  -3615111.91445  21644077.4844                   21644075.2154
        47.0004         34.2504
    238893.41448    206822.43846  21564161.3594                   21564155.9304
        49.2504         37.2504
  -5662962.00446  -4606343.73046  23071869.0864                   23071869.1564
        41.0004         36.0004
   -953216.88346  -1123624.35244  24467458.2194                   24467459.8554
        38.5004         28.5004
   4918671.05947   3840756.64546  23198191.7504                   23198192.0664
        42.7504         37.5004
   -316484.42248   -224134.25046  20989878.2894                   20989874.9454
        48.2504         38.0004
  -5517328.57047  -4268666.74647  20740468.5474                   20740465.5164
        47.5004         46.5004
   5236240.90247   4086604.87147  22695102.6484                   22695101.9964
        47.0004         42.5004
   -374257.87146    781397.34443  24545845.1414                   24545846.6254
        36.5004         19.0004
   3159747.46945   2506026.78544  24911967.4844                   24911971.3134
        35.5004         27.7504
 25  7 15 23 21 30.0000000  0 10G01G02G03G25G10G28G31G32G04G26
  -4834487.03947  -3722372.16845  21617883.7344                   21617881.4804
        47.5004         34.0004
    165929.84848    149967.68846  21550277.2344                   21550271.7774
        48.7504         37.7504
  -5840598.11346  -4744761.44545  23038066.1884                   23038065.7304
        40.7504         35.5004
  -1055775.96546  -1203540.53544  24447941.2194                   24447943.8404
        38.2504         26.2504
   4894622.94147   3822017.79746  23193615.8754                   23193616.0204
        43.2504         37.5004
   -393559.69548   -284192.89146  20975211.1954                   20975208.4144
        48.0004         38.0004
  -5663818.68748  -4382814.86747  20712592.8204                   20712588.9414
        48.0004         46.5004
   5209835.63347   4066029.30547  22690077.7734                   22690077.9844
        47.0004         42.7504
   -544277.43746    648914.66442  24513490.9924                   24513493.9844
        37.2504         17.2504
   2979036.80546   2365213.38744  24877578.1024                   24877582.5864
        36.0004         28.2504
 25  7 15 23 22  0.0000000  0 10G01G02G03G25G10G28G31G32G04G26
  -4971534.28547  -3829162.21545  21591804.4454                   21591801.9774
        46.7504         34.2504
     93558.85948     93574.69146  21536505.0314                   21536500.3444
        48.7504         36.5004
  -6018107.73446  -4883080.58645  23004286.8984                   23004286.9844
        40.2504         35.0004
  -1157740.65646  -1282993.52043  24428538.1174                   24428539.8754
        37.5004         22.2504
   4870915.93846   3803544.75446  23189104.7664                   23189104.9734
        41.5004         37.0004
   -469973.02047   -343735.73846  20960670.3204                   20960667.1844
        47.7504         38.2504
  -5809663.89548  -4496460.45747  20684839.3594                   20684835.6414
        48.2504         46.5004
   5183581.65247   4045571.62947  22685081.9064                   22685081.7734
        45.2504         42.5004
   -714081.78546    516599.71143  24481178.3594                   24481180.3284
        39.0004         18.5004
   2798318.19146   2224393.81644  24843189.2424                   24843193.0274
        37.5004         27.7504
 25  7 15 23 22 30.0000000  0 10G01G02G03G25G10G28G31G32G04G26
  -5107974.60947  -3935479.34045  21565840.2734                   21565837.9454
        47.0004         34.5004
     21781.69948     37644.41446  21522846.4924                   21522841.4064
        48.5004         37.2504
  -6195487.85546  -5021298.83245  22970532.0474                   22970532.2274
        40.0004         34.5004
  -1259107.90246  -1361980.94944  24409248.7974                   24409250.7234
        38.5004         24.5004
   4847551.56347   3785338.68446  23184658.5634                   23184659.0514
        42.7504         36.7504
   -545723.55547   -402762.12546  20946255.3134                   20946252.8134
        47.7504         38.0004
  -5954860.75848  -4609600.84847  20657209.3284                   20657205.8634
        48.0004         46.7504
   5157479.75447   4025232.46947  22680114.9694                   22680114.5204
        45.5004         42.0004
   -883668.98446    384453.92243  24448907.6484                   24448908.9304
        39.2504         19.7504
   2617595.96145   2083571.43844  24808798.1094                   24808802.7814
        35.0004         27.7504
 25  7 15 23 23  0.0000000  0 10G01G02G03G25G10G28G31G32G04G26
  -5243805.41047  -4041321.51645  21539992.9384                   21539990.4224
        46.5004         34.0004
    -49401.48848    -17823.02046  21509300.9454                   21509296.1214
        49.0004         37.2504
  -6372736.23846  -5159414.42245  22936803.3834                   22936803.3984
        39.0004         34.5004
  -1359875.44746  -1440501.09644  24390072.8754                   24390074.7234
        38.5004         24.0004
   4824530.70747   3767400.28946  23180277.4924                   23180278.4024
        43.0004         36.7504
   -620811.32447   -461272.07446  20931967.1024                   20931963.8714
        47.5004         38.0004
  -6099406.43048  -4722233.82047  20629703.0234                   20629699.6174
        48.0004         47.0004
   5131529.94147   4005011.80947  22675177.0634                   22675176.6764
        46.2504         42.0004
  -1053037.94146    252478.20343  24416677.3364                   24416678.6604
        39.7504         19.7504
   2436873.82046   1942749.13744  24774408.4384                   24774412.0984
        36.7504         27.7504
 25  7 15 23 23 30.0000000  0 10G01G02G03G25G10G28G31G32G04G26
  -5379028.23847  -4146689.94945  21514260.8364                   21514258.2274
        46.7504         34.0004
   -119994.56648    -72830.62946  21495867.2424                   21495862.3324
        48.0004         37.7504
  -6549854.88746  -5297428.91045  22903098.6024                   22903098.8014
        39.5004         34.0004
  -1460045.53546  -1518555.67244  24371011.3364                   24371012.7194
        39.5004         24.7504
   4801849.87147   3749726.86346  23175961.4224                   23175962.5904
        42.7504         37.7504
   -695240.59048   -519268.89846  20917803.5084                   20917800.5234
        48.5004         37.5004
  -6243302.68048  -4834360.73847  20602320.5314                   20602317.3674
        48.2504         47.0004
   5105728.07447   3984906.41847  22670267.2114                   22670266.3484
        45.7504         42.0004
  -1222191.80546    120670.06643  24384488.2344                   24384489.5664
        40.0004         20.0004
   2256151.16846   1801926.39544  24740017.7504                   24740021.3554
        37.2504         27.5004
 25  7 15 23 24  0.0000000  0 10G01G02G03G25G10G28G31G32G04G26
  -5513638.16847  -4251580.79345  21488645.0474                   21488642.3594
        46.5004         33.7504
   -189995.30548   -127376.68446  21482546.6954                   21482541.6334
        48.7504         38.5004
  -6726839.11746  -5435338.65645  22869419.0234                   22869419.6524
        39.7504         34.0004
  -1559613.65646  -1596141.18444  24352064.7344                   24352065.4184
        37.5004         25.2504
   4779512.20347   3732320.82846  23171710.8834                   23171711.3794
        43.0004         36.7504
   -769009.10247   -576750.85546  20903765.4064                   20903762.7584
        47.5004         38.0004
  -6386544.61748  -4945977.81647  20575062.7114                   20575058.9024
        48.2504         46.7504
   5080076.44147   3964918.10946  22665385.9144                   22665384.9804
        45.5004         41.7504
  -1391127.13346    -10967.76243  24352341.6254                   24352342.7074
        39.0004         20.0004
   2075434.02746   1661107.98444  24705627.4454                   24705631.8834
        37.0004         26.5004
 25  7 15 23 24 30.0000000  0 10G01G02G03G25G10G28G31G32G04G26
  -5647635.61747  -4355994.38345  21463145.9694                   21463143.9774
        47.5004         34.7504
   -259406.56248   -181463.38746  21469338.5004                   21469333.4574
        48.2504         37.5004
  -6903689.77046  -5573144.31245  22835765.0004                   22835766.3164
        39.0004         33.2504
  -1658580.68046  -1673258.36344  24333231.6804                   24333232.5944
        38.2504         26.0004
   4757515.39847   3715180.40246  23167524.7504                   23167525.5084
        42.5004         36.0004
   -842119.98448   -633720.37146  20889853.1174                   20889850.1454
        48.0004         38.0004
  -6529132.53948  -5057085.26247  20547929.2974                   20547925.5474
        49.0004         46.7504
   5054572.14547   3945044.59846  22660532.3524                   22660531.9574
        45.5004         41.7504
  -1559845.87546   -142436.82043  24320234.0704                   24320236.1604
        39.2504         21.2504
   1894723.02746   1520294.34044  24671239.5394                   24671243.5864
        37.7504         28.2504
 25  7 15 23 25  0.0000000  0 10G01G02G03G25G10G28G31G32G04G26
  -5781021.71547  -4459931.59445  21437763.8674                   21437761.4104
        46.2504         34.2504
   -328231.76248   -235093.43746  21456240.8984                   21456236.3134
        48.0004         37.2504
  -7080408.09446  -5710846.84845  22802137.2894                   22802137.5984
        40.5004         33.5004
  -1756948.17646  -1749908.36744  24314512.7894                   24314514.0704
        37.5004         26.2504
   4735856.57447   3698303.34046  23163404.0784                   23163404.1134
        43.5004         37.2504
   -914576.96148   -690180.35246  20876065.2584                   20876061.8364
        48.0004         37.5004
  -6671067.51248  -5167683.91447  20520919.4774                   20520916.4454
        48.5004         47.0004
   5029211.55147   3925283.07046  22655706.8914                   22655705.8834
        46.0004         41.7504
  -1728350.62546   -273739.13743  24288169.4064                   24288170.6954
        38.7504         20.0004
   1714018.17246   1379485.53144  24636852.1804                   24636856.3594
        36.5004         26.5004
 25  7 15 23 25 30.0000000  0 10G01G02G03G25G10G28G31G32G04G26
  -5913793.35247  -4563390.00845  21412497.9694                   21412495.6134
        46.5004         34.2504
   -396470.27748   -288266.32846  21443255.9614                   21443251.0474
        48.5004         36.7504
  -7256991.39846  -5848444.18445  22768533.5864                   22768534.1954
        40.0004         32.7504
  -1854713.56246  -1826089.19143  24295908.6884                   24295910.1334
        37.2504         23.2504
   4714536.97747   3681690.59446  23159347.4304                   23159347.3204
        44.0004         36.7504
   -986379.69148   -746130.52746  20862401.3754                   20862398.5904
        48.0004         38.5004
  -6812346.35548  -5277771.29747  20494034.9304                   20494031.6524
        48.7504         47.0004
   5003995.22347   3905633.94547  22650908.2584                   22650907.8404
        46.5004         42.2504
  -1896639.81246   -404873.48443  24256145.2664                   24256146.5204
        39.0004         20.2504
   1533323.67246   1238684.76244  24602467.0634                   24602471.3014
        36.5004         24.5004
 25  7 15 23 26  0.0000000  0 10G01G02G03G25G10G28G31G32G04G26
  -6045943.38747  -4666364.05145  21387351.2814                   21387348.5044
        45.7504         33.7504
   -464117.16848   -340978.20746  21430383.5234                   21430378.0664
        48.7504         37.0004
  -7433432.71146  -5985930.89845  22734958.5704                   22734958.7814
        40.0004         33.5004
  -1951870.25046  -1901795.63743  24277420.0234                   24277421.3834
        36.0004         23.5004
   4693561.96147   3665346.37546  23155356.0944                   23155355.6254
        44.7504         37.0004
  -1057523.68747   -801567.41046  20848862.7504                   20848860.0314
        47.2504         37.7504
  -6952961.94948  -5387341.87147  20467276.7034                   20467273.2704
        48.2504         47.0004
   4978927.89147   3886100.94146  22646137.8834                   22646136.9694
        45.7504         41.7504
  -2064707.71546   -535835.38343  24224162.3134                   24224164.5044
        37.5004         19.7504
   1352647.88746   1097898.59444  24568086.2274                   24568089.5124
        37.2504         24.7504
 25  7 15 23 26 30.0000000  0 10G01G02G03G25G10G28G31G32G04G26
  -6177477.16447  -4768857.89845  21362320.8364                   21362318.5664
        47.0004         34.2504
   -531180.69148   -393235.51246  21417621.2664                   21417616.2544
        49.0004         37.0004
  -7609737.59846  -6123311.28145  22701409.4844                   22701409.5004
        40.5004         35.2504
  -2048423.92246  -1977032.25843  24259046.6644                   24259047.6684
        37.0004         22.7504
   4672924.44947   3649265.12546  23151428.0164                   23151428.0554
        42.7504         36.5004
  -1128016.97748   -856497.24646  20835448.6254                   20835445.6524
        48.0004         37.5004
  -7092919.95748  -5496400.03147  20440643.6414                   20440639.9924
        49.0004         47.2504
   4954001.77347   3866677.97346  22641394.4694                   22641394.1564
        46.2504         41.7504
  -2232561.14146   -666630.18743  24192221.3674                   24192222.7934
        37.0004         19.5004
   1171986.49246    957123.65644  24533706.8364                   24533710.6684
        37.2504         25.0004
 25  7 15 23 27  0.0000000  0 10G01G02G03G25G10G28G31G32G04G26
  -6308391.86747  -4870869.35245  21337408.6644                   21337405.5634
        47.0004         33.7504
   -597660.20748   -445037.75446  21404970.5944                   21404965.8094
        48.5004         37.0004
  -7785903.40246  -6260583.27345  22667885.5634                   22667885.8204
        40.2504         34.7504
  -2144372.44546  -2051797.37144  24240787.7194                   24240789.8594
        36.5004         25.2504
   4652625.40647   3633447.63746  23147565.8204                   23147565.7774
        43.5004         36.5004
  -1197859.43748   -910919.95346  20822158.1954                   20822155.0434
        48.0004         37.7504
  -7232217.32048  -5604943.40247  20414136.0784                   20414133.2304
        48.7504         47.2504
   4929217.28547   3847365.35946  22636678.3444                   22636677.8164
        45.2504         41.0004
  -2400198.74246   -797256.77743  24160320.9694                   24160322.2624
        36.7504         19.7504
    991343.60546    816363.12544  24499331.5314                   24499335.1254
        37.5004         25.7504
 25  7 15 23 27 30.0000000  0 10G01G02G03G25G10G28G31G32G04G26
  -6438688.25847  -4972399.00845  21312613.7814                   21312611.3134
        46.0004         34.0004
   -663559.03948   -496387.52746  21392430.4224                   21392425.4924
        48.7504         37.5004
  -7961931.05146  -6397747.63345  22634388.6884                   22634389.2074
        41.2504         35.5004
  -2239717.06646  -2126091.86744  24222644.4774                   24222646.3134
        36.7504         25.7504
   4632662.32847   3617891.93046  23143767.1564                   23143767.0984
        42.5004         37.2504
  -1267054.54747   -964838.22746  20808990.8054                   20808988.2504
        47.5004         37.7504
  -7370854.93448  -5712972.69547  20387754.6484                   20387750.9304
        48.0004         47.2504
   4904571.29347   3828160.64546  22631988.4454                   22631988.0234
        46.0004         41.0004
  -2567622.71145   -927716.93743  24128460.0314                   24128461.8284
        35.7504         19.0004
    810719.68446    675617.38744  24464960.1334                   24464963.9184
        38.2504         26.5004
 25  7 15 23 28  0.0000000  0 10G01G02G03G25G10G28G31G32G04G26
  -6568363.67647  -5073444.78545  21287937.8134                   21287934.8634
        45.7504         34.2504
   -728877.01648   -547284.66846  21380000.9694                   21379996.2424
        48.7504         37.0004
  -8137818.01647  -6534802.36346  22600918.8524                   22600918.9024
        42.0004         37.0004
  -2334455.48846  -2199914.02344  24204616.9224                   24204617.9924
        38.2504         26.0004
   4613036.11347   3602598.70746  23140032.5784                   23140032.6884
        42.2504         36.7504
  -1335602.37147  -1018252.10946  20795946.3754                   20795943.5634
        47.0004         38.0004
  -7508830.09848  -5820485.78147  20361498.7194                   20361495.2154
        48.5004         47.2504
   4880064.06347   3809064.06646  22627324.5314                   22627324.1374
        45.7504         41.0004
  -2734831.83245  -1058009.62943  24096641.9144                   24096643.0594
        35.7504         18.2504
    630118.67246    534889.50444  24430593.5314                   24430596.8324
        37.5004         26.5004
 25  7 15 23 28 30.0000000  0 10G01G02G03G25G10G28G31G32G04G26
  -6697416.80147  -5174005.66445  21263379.6484                   21263377.1214
        46.5004         34.0004
   -793614.96948   -597729.84046  21367681.9384                   21367676.9304
        48.5004         37.5004
  -8313562.83647  -6671746.34046  22567475.7114                   22567476.5164
        42.2504         38.5004
  -2428587.03146  -2273263.28944  24186703.8524                   24186705.8954
        37.0004         24.7504
   4593746.41847   3587567.72746  23136361.9384                   23136362.3014
        42.2504         36.0004
  -1403504.10947  -1071162.56246  20783025.3444                   20783022.0784
        47.2504         37.5004
  -7646141.31648  -5927481.52047  20335369.2424                   20335365.4344
        48.7504         47.5004
   4855694.76647   3790074.96546  22622687.6954                   22622687.3674
        45.5004         41.0004
  -2901825.97345  -1188134.82443  24064863.9454                   24064865.5434
        35.5004         18.2504
    449543.35946    394181.62144  24396229.7734                   24396233.7504
        37.5004         26.2504
 25  7 15 23 29  0.0000000  0 10G01G02G03G25G10G28G31G32G04G26
  -6825844.84047  -5274079.46145  21238940.7274                   21238938.3554
        46.5004         34.0004
   -857772.85547   -647723.02346  21355472.9774                   21355467.9964
        46.5004         36.7504
  -8489163.15647  -6808577.70346  22534060.0554                   22534060.2664
        42.5004         38.0004
  -2522109.39846  -2346137.86744  24168907.4454                   24168908.6724
        38.0004         25.0004
   4574794.12946   3572799.64546  23132755.1954                   23132755.7894
        41.5004         36.2504
  -1470759.94547  -1123569.71146  20770226.7504                   20770223.9414
        46.0004         37.5004
  -7782786.27348  -6033958.07847  20309366.2424                   20309362.8634
        49.5004         47.5004
   4831463.60547   3771193.50846  22618076.4774                   22618076.3204
        45.7504         41.0004
  -3068604.13746  -1318091.72342  24033126.9064                   24033128.4774
        36.5004         16.7504
    268997.41846    253496.58644  24361873.4064                   24361876.5784
        38.5004         24.5004
 25  7 15 23 29 30.0000000  0 10G01G02G03G25G10G28G31G32G04G26
  -6953649.85947  -5373667.78545  21214619.6174                   21214617.7034
        46.2504         34.0004
   -921355.00848   -697267.57846  21343373.9304                   21343368.9264
        48.2504         37.2504
  -8664620.89847  -6945297.98446  22500671.5164                   22500671.6684
        42.7504         38.5004
  -2615025.26646  -2418539.78544  24151225.5314                   24151227.1844
        36.2504         25.0004
   4556175.52047   3558291.57045  23129212.1334                   23129212.6214
        43.0004         35.5004
  -1537374.54347  -1175477.19546  20757550.6094                   20757547.4264
        47.7504         37.5004
  -7918767.03148  -6139917.09447  20283490.1884                   20283486.3874
        48.7504         47.5004
   4807366.40247   3752416.43846  22613490.9064                   22613490.8954
        45.7504         40.7504
  -3235169.59845  -1447882.89842  24001430.8594                   24001431.7114
        35.7504         17.7504
     88480.43045    112834.15644  24327521.6174                   24327525.2234
        35.0004         25.5004
 25  7 15 23 30  0.0000000  0 10G01G02G03G25G10G28G31G32G04G26
  -5505403.76247  -4245164.32845  21490212.0004                   21490209.6994
        46.2504         33.5004
    591061.76247    481238.96946  21631176.9144                   21631171.9344
        47.5004         37.0004
  -7264506.32447  -5854299.57446  22767104.4224                   22767105.2194
        42.7504         39.0004
  -1131908.17646  -1262864.11744  24433454.0234                   24433455.0234
        38.7504         25.0004
   6113313.33647   4771645.65246  23425525.4144                   23425526.0124
        42.5004         36.0004
    -27924.55548       717.60246  21044789.2734                   21044786.6374
        48.0004         37.2504
  -6478654.96948  -5017751.82447  20557534.4774                   20557530.5434
        49.5004         47.5004
   6358825.58247   4961345.64146  22908723.7114                   22908723.3094
        45.5004         40.2504
  -1826094.22345   -349901.94542  24269569.2504                   24269570.0204
        35.5004         17.7504
   1483423.63346   1199803.05944  24592970.5704                   24592974.7194
        36.7504         27.2504
 25  7 15 23 30 30.0000000  0 10G01G02G03G25G10G28G31G32G04G26
  -5631956.08247  -4343776.51645  21466129.9224                   21466127.5744
        46.0004         33.7504
    528629.95747    432590.78146  21619297.0394                   21619292.2424
        47.0004         37.0004
  -7439672.13747  -5990792.38746  22733771.2424                   22733772.0514
        44.0004         39.2504
  -1223605.84846  -1334316.84844  24416004.5234                   24416006.4494
        37.5004         25.7504
   6095363.59447   4757658.76645  23422110.3524                   23422110.4264
        42.5004         35.5004
    -93258.10947    -50191.66446  21032356.7814                   21032353.8324
        47.7504         37.5004
  -6613300.29748  -5122670.23847  20531912.2274                   20531908.4224
        49.0004         47.5004
   6334996.33247   4942777.35546  22904189.2814                   22904188.8204
        45.0004         40.0004
  -1992231.50046   -479359.39843  24237953.8054                   24237954.6644
        36.7504         18.2504
   1302975.36346   1059194.19144  24558632.3914                   24558636.3524
        37.0004         28.0004
 25  7 15 23 31  0.0000000  0 10G01G02G03G25G10G28G31G32G04G26
  -5757881.41047  -4441900.15245  21442166.9224                   21442164.8484
        46.0004         34.0004
    466770.31647    384388.44946  21607525.5704                   21607520.7234
        47.2504         37.5004
  -7614691.33647  -6127170.94546  22700466.6724                   22700466.9774
        43.7504         39.0004
  -1314694.60945  -1405295.03944  24398670.4534                   24398671.7774
        35.5004         24.2504
   6077746.44147   4743931.05946  23418757.3594                   23418757.8594
        42.5004         36.0004
   -157954.59048   -100604.50846  21020045.5864                   21020041.9184
        48.0004         37.5004
  -6747277.46148  -5227068.00847  20506417.0004                   20506413.7814
        49.5004         47.7504
   6311298.34447   4924311.34446  22899679.6804                   22899679.3134
        45.5004         40.5004
  -2158156.10246   -608651.20743  24206379.0944                   24206380.2544
        37.7504         18.5004
   1122564.16846    918614.14144  24524301.0864                   24524305.2664
        36.5004         27.5004
 25  7 15 23 31 30.0000000  0 10G01G02G03G25G10G28G31G32G04G26
  -5883178.83647  -4539534.50045  21418323.8674                   21418321.2814
        46.0004         34.0004
    405481.57448    336630.96546  21595862.0634                   21595857.3874
        48.0004         37.5004
  -7789562.84047  -6263434.41846  22667189.7664                   22667189.6094
        44.2504         39.2504
  -1405173.94145  -1475798.44944  24381452.6954                   24381454.2544
        35.7504         24.5004
   6060461.06347   4730461.85945  23415468.5634                   23415468.3914
        43.2504         35.7504
   -222015.78547   -150522.32046  21007855.4144                   21007851.9024
        47.5004         37.2504
  -6880585.46948  -5330944.35947  20481049.6954                   20481045.8714
        50.2504         47.5004
   6287730.41847   4905946.68846  22895194.8754                   22895193.9884
        45.5004         39.7504
  -2323868.40646   -737777.54343  24174845.2424                   24174845.2464
        37.5004         19.7504
    942192.49246    778064.96944  24489977.6484                   24489981.2704
        37.2504         28.0004
 25  7 15 23 32  0.0000000  0 10G01G02G03G25G10G28G31G32G04G26
  -6007847.01247  -4636678.52345  21394600.0634                   21394597.6764
        46.5004         33.5004
    344762.12147    289317.08246  21584308.1254                   21584302.9454
        47.7504         36.5004
  -7964285.20747  -6399581.68446  22633941.0394                   22633941.0634
        44.5004         39.2504
  -1495043.26246  -1545826.46944  24364351.6954                   24364353.3164
        36.7504         27.0004
   6043507.13747   4717250.93845  23412242.2584                   23412242.2504
        43.2504         35.0004
   -285443.09447   -199946.19546  20995785.0704                   20995782.0744
        46.7504         37.0004
  -7013223.14148  -5434298.36747  20455809.3594                   20455805.8204
        49.5004         47.5004
   6264291.75847   4887682.76246  22890734.9144                   22890734.1454
        45.5004         40.5004
  -2489368.32846   -866738.39843  24143351.1174                   24143352.2544
        37.0004         20.2504
    761863.08246    637548.69944  24455661.6724                   24455665.3094
        37.5004         28.2504
 25  7 15 23 32 30.0000000  0 10G01G02G03G25G10G28G31G32G04G26
  -6131885.25047  -4733331.69545  21370996.7424                   21370994.1484
        46.5004         33.5004
    284610.56647    242445.72746  21572861.2344                   21572857.0004
        46.2504         37.2504
  -8138857.67247  -6535612.15646  22600721.2894                   22600720.6804
        44.5004         39.5004
  -1584302.41045  -1615379.05144  24347365.9534                   24347367.9344
        35.7504         25.2504
   6026883.65247   4704297.50845  23409078.7274                   23409079.1094
        43.5004         34.7504
   -348238.48047   -248877.65646  20983835.3054                   20983832.4614
        46.0004         36.7504
  -7145189.94548  -5537129.62547  20430696.8284                   20430693.2344
        49.2504         47.7504
   6240980.97347   4869518.48046  22886298.8204                   22886299.2114
        45.5004         39.7504
  -2654656.54746   -995534.27343  24111898.5084                   24111899.2424
        39.0004         21.7504
    581578.24646    497067.15244  24421354.9064                   24421358.4614
        36.2504         27.0004
 25  7 15 23 33  0.0000000  0 10G01G02G03G25G10G28G31G32G04G26
  -6255291.67247  -4829492.53945  21347513.0554                   21347510.5354
        45.5004         33.5004
    225026.41447    196016.48846  21561523.1254                   21561518.4964
        46.5004         37.0004
  -8313278.03947  -6671524.09446  22567530.1174                   22567529.9264
        44.0004         39.0004
  -1672949.96146  -1684455.05144  24330497.7584                   24330498.7974
        36.7504         27.0004
   6010590.89147   4691601.77345  23405978.7034                   23405979.0274
        43.0004         34.7504
   -410402.77347   -297317.36746  20972006.3134                   20972002.7854
        46.0004         37.5004
  -7276484.01648  -5639436.66847  20405712.5164                   20405708.5354
        49.7504         47.7504
   6217797.88347   4851453.71146  22881887.2274                   22881886.7624
        44.7504         39.5004
  -2819732.35946  -1124164.68743  24080485.1804                   24080486.1994
        39.2504         21.5004
    401341.33646    356622.93044  24387056.5784                   24387059.9614
        36.0004         27.7504
 25  7 15 23 33 30.0000000  0 10G01G02G03G25G10G28G31G32G04G26
  -6378064.87547  -4925159.95745  21324150.3594                   21324147.4654
        45.5004         34.2504
    166008.29348    150028.32046  21550292.1564                   21550287.3244
        48.0004         37.2504
  -8487544.80547  -6807316.33546  22534367.7974                   22534368.1684
        43.7504         39.0004
  -1760985.01646  -1753053.78944  24313744.1174                   24313745.9774
        37.0004         25.0004
   5994628.66847   4679163.61745  23402941.2974                   23402941.6884
        42.5004         34.7504
   -471937.30947   -345266.36346  20960296.5234                   20960293.2734
        46.2504         37.0004
  -7407103.74648  -5741218.25447  20380856.4924                   20380852.7854
        50.0004         47.7504
   6194741.87147   4833487.95346  22877500.0394                   22877499.1024
        45.5004         40.0004
  -2984595.60546  -1252629.47743  24049112.7504                   24049113.2734
        39.7504         22.5004
    221155.46546    216218.49644  24352768.7344                   24352771.9064
        36.0004         27.2504
 25  7 15 23 34  0.0000000  0 10G01G02G03G25G10G28G31G32G04G26
  -6500207.21147  -5020335.79745  21300907.2034                   21300904.7034
        45.0004         34.5004
    107551.37947    104477.45346  21539168.4844                   21539163.7774
        46.2504         37.0004
  -8661660.00047  -6942990.48446  22501234.8054                   22501234.9414
        43.0004         38.7504
  -1848410.65246  -1821177.62944  24297108.1484                   24297109.2854
        36.2504         25.7504
   5978992.85947   4666979.80545  23399965.6644                   23399965.7894
        43.0004         34.7504
   -532847.21147   -392728.62546  20948705.5394                   20948702.7384
        45.7504         37.0004
  -7537051.91448  -5842476.54348  20356128.1644                   20356124.4774
        49.0004         48.0004
   6171808.51647   4815617.77346  22873135.9454                   22873135.5044
        45.5004         40.0004
  -3149249.94546  -1380931.43443  24017779.3594                   24017780.6134
        39.7504         21.7504
     41019.75045     75853.12544  24318488.9844                   24318492.5984
        35.5004         27.0004
 25  7 15 23 34 30.0000000  0 10G01G02G03G25G10G28G31G32G04G26
  -6621714.92647  -5115017.12945  21277785.3984                   21277782.9184
        45.7504         34.7504
     49657.19547     59365.07846  21528151.3984                   21528146.8674
        47.2504         37.0004
  -8835619.68447  -7078543.44546  22468131.1094                   22468131.9224
        42.7504         38.0004
  -1935223.59446  -1888824.08644  24280587.3134                   24280589.5314
        36.0004         27.0004
   5963685.67247   4655052.04745  23397053.1484                   23397053.9964
        42.5004         34.7504
   -593131.37147   -439703.29746  20937234.1724                   20937231.0394
        46.7504         37.0004
  -7666324.78948  -5943208.63747  20331527.9694                   20331524.5164
        50.0004         47.7504
   6148999.64147   4797844.59046  22868795.1804                   22868795.0274
        45.5004         40.0004
  -3313692.78546  -1509068.62543  23986487.0634                   23986488.1564
        39.5004         22.5004
   -139060.35246    -64468.88344  24284222.9694                   24284224.7624
        37.0004         26.0004
 25  7 15 23 35  0.0000000  0 10G01G02G03G25G10G28G31G32G04G26
  -6742586.87547  -5209203.05945  21254783.9304                   21254781.3554
        45.2504         34.0004
     -7675.61747     14690.13346  21517241.5864                   21517236.2274
        46.7504         37.0004
  -9009422.28147  -7213974.00446  22435058.1334                   22435058.3324
        42.5004         38.0004
  -2021423.20745  -1955992.61744  24264184.2194                   24264185.6054
        35.5004         24.5004
   5948706.68447   4643380.03145  23394202.2194                   23394203.7384
        43.0004         34.5004
   -652791.35247   -486191.60246  20925881.1724                   20925878.1994
        47.2504         38.0004
  -7794921.41448  -6043413.77048  20307057.0634                   20307053.3244
        49.5004         48.0004
   6126314.40647   4780167.73846  22864478.9144                   22864478.1524
        46.2504         40.0004
  -3477924.18746  -1637041.03143  23955234.7974                   23955235.6174
        39.2504         22.0004
   -319081.94946   -204745.33244  24249964.1254                   24249967.9534
        36.5004         28.0004
 25  7 15 23 35 30.0000000  0 10G01G02G03G25G10G28G31G32G04G26
  -6862822.05547  -5302892.80545  21231903.9774                   21231901.8284
        46.2504         34.2504
    -64448.48447    -29548.48846  21506438.1334                   21506433.1024
        47.0004         36.7504
  -9183066.44946  -7349281.10546  22402013.8754                   22402014.2774
        41.7504         38.0004
  -2107009.11346  -2022682.91444  24247898.0704                   24247898.8444
        36.0004         25.5004
   5934055.34447   4631963.33645  23391414.7504                   23391415.5784
        43.0004         35.0004
   -711828.81647   -532194.82846  20914646.7734                   20914643.8324
        46.5004         37.0004
  -7922840.52348  -6143090.98048  20282714.6094                   20282711.0004
        49.7504         48.0004
   6103751.96547   4762586.59846  22860185.4304                   22860185.1954
        46.2504         40.7504
  -3641944.21546  -1764848.76243  23924022.6024                   23924023.8244
        39.2504         22.0004
   -499042.41845   -344974.12944  24215718.5704                   24215721.9884
        35.7504         27.7504
 25  7 15 23 36  0.0000000  0 10G01G02G03G25G10G28G31G32G04G26
  -6982421.25847  -5396086.98045  21209144.7584                   21209142.6724
        46.0004         35.2504
   -120664.73447    -73353.38346  21495740.2664                   21495735.4414
        46.5004         36.7504
  -9356552.75846  -7484465.22346  22369000.4144                   22369001.1214
        41.5004         38.0004
  -2191982.71146  -2088896.08244  24231727.9144                   24231728.6134
        37.0004         24.5004
   5919729.18847   4620800.02345  23388688.0864                   23388689.2424
        42.2504         34.5004
   -770247.38347   -577715.78946  20903530.0164                   20903527.1254
        46.0004         37.0004
  -8050083.30148  -6242241.18448  20258501.3674                   20258497.6604
        50.0004         48.0004
   6081309.53947   4745098.95746  22855914.9844                   22855914.5084
        45.7504         40.2504
  -3805755.02746  -1892493.43443  23892850.5474                   23892851.3914
        38.5004         22.7504
   -678940.90245   -485154.57844  24181485.1094                   24181489.2114
        33.5004         27.2504
 25  7 15 23 36 30.0000000  0 10G01G02G03G25G10G28G31G32G04G26
  -7101379.74647  -5488781.89145  21186508.0634                   21186505.3674
        46.5004         35.0004
   -176321.82047   -116722.57046  21485149.1644                   21485144.2544
        47.5004         37.0004
  -9529875.94547  -7619522.20346  22336018.8364                   22336019.0554
        42.0004         37.7504
  -2276339.80946  -2154628.83243  24215675.4064                   24215676.0744
        36.7504         22.5004
   5905731.40647   4609892.59845  23386024.5234                   23386025.9344
        42.7504         35.5004
   -828044.88347   -622752.81646  20892531.6024                   20892528.4184
        47.0004         37.5004
  -8176645.04748  -6340860.69948  20234417.5554                   20234413.7934
        49.2504         48.0004
   6058990.09047   4727707.14846  22851668.0634                   22851666.7774
        45.5004         40.7504
  -3969352.85946  -2019972.15643  23861718.5554                   23861719.7854
        37.7504         21.5004
   -858770.75045   -625281.60544  24147264.8364                   24147267.6024
        35.7504         28.5004
 25  7 15 23 37  0.0000000  0 10G01G02G03G25G10G28G31G32G04G26
  -7219702.52047  -5580981.45345  21163992.0084                   21163989.4804
        46.2504         35.0004
   -231427.42247   -159662.02046  21474662.8984                   21474658.1684
        46.7504         37.2504
  -9703040.64847  -7754455.69046  22303066.3984                   22303066.6024
        42.0004         37.5004
  -2360085.98846  -2219885.60544  24199739.9614                   24199740.8204
        37.0004         25.7504
   5892055.43646   4599235.94345  23383422.3594                   23383423.4574
        41.0004         34.2504
   -885229.07447   -667311.92646  20881649.5864                   20881646.6414
        46.0004         37.7504
  -8302530.89148  -6438953.55148  20210462.0004                   20210458.3204
        49.5004         48.0004
   6036786.74647   4710405.80946  22847442.4384                   22847442.0594
        45.7504         40.7504
  -4132743.92246  -2147289.79343  23830627.2034                   23830627.4104
        38.0004         21.5004
  -1038535.18445   -765357.66044  24113056.1564                   24113059.3484
        35.5004         26.5004
 25  7 15 23 37 30.0000000  0 10G01G02G03G25G10G28G31G32G04G26
  -7337386.83247  -5672683.50845  21141597.2814                   21141594.9494
        45.2504         35.0004
   -285981.44947   -202171.68046  21464281.5084                   21464276.8324
        47.0004         36.5004
  -9876043.51647  -7889263.08346  22270144.8134                   22270144.7854
        43.0004         37.5004
  -2443219.09046  -2284664.65644  24183919.0784                   24183921.1914
        36.2504         26.5004
   5878702.61747   4588831.07045  23380881.3054                   23380882.4304
        42.0004         35.5004
   -941799.87947   -711393.07846  20870884.4694                   20870881.8324
        46.2504         37.2504
  -8427738.01648  -6536517.52348  20186636.1174                   20186632.5314
        49.5004         48.0004
   6014700.48447   4693195.71146  22843239.5234                   22843238.6644
        44.0004         39.7504
  -4295926.53146  -2274444.96143  23799574.3834                   23799575.0634
        38.2504         22.0004
  -1218229.73845   -905379.24644  24078861.6174                   24078864.0434
        35.2504         26.7504
 25  7 15 23 38  0.0000000  0 10G01G02G03G25G10G28G31G32G04G26
  -7454431.46147  -5763887.12545  21119324.5944                   21119322.2974
        45.7504         34.7504
   -339984.72747   -244252.16846  21454005.4144                   21454000.3794
        47.5004         37.0004
 -10048883.03547  -8023943.18746  22237254.9614                   22237254.7234
        42.2504         37.2504
  -2525738.41846  -2348965.46144  24168217.0394                   24168218.2344
        37.5004         28.0004
   5865672.46947   4578677.64845  23378401.8834                   23378402.6024
        42.2504         35.0004
   -997758.78147   -754997.41846  20860236.1334                   20860232.9844
        47.2504         37.0004
  -8552265.54748  -6633551.94948  20162939.0784                   20162935.5944
        49.0004         48.0004
   5992730.75447   4676076.40246  22839058.7194                   22839058.9494
        44.5004         40.5004
  -4458900.57846  -2401437.62943  23768561.1564                   23768561.6414
        38.0004         21.0004
  -1397851.32046  -1045343.93744  24044680.3754                   24044683.4614
        36.0004         28.0004
 25  7 15 23 38 30.0000000  0 10G01G02G03G25G10G28G31G32G04G26
  -5995412.45347  -4626989.18745  21396966.7194                   21396964.4224
        46.5004         34.7504
   1181982.19147    941696.05546  21743625.6564                   21743620.9414
        46.7504         36.5004
  -8646132.62147  -6930890.89146  22504189.1884                   22504188.8404
        42.5004         37.7504
  -1032221.72745  -1185186.22344  24452424.1564                   24452425.9184
        35.7504         28.0004
   7428384.15247   5796374.99245  23675775.7274                   23675776.7934
        42.0004         34.5004
    522313.49647    429474.47746  21149496.3674                   21149493.1994
        47.0004         36.5004
  -7100689.18048  -5502453.46548  20439165.0084                   20439161.2504
        50.0004         48.0004
   7546296.65647   5886647.20346  23134692.1954                   23134692.4654
        44.0004         39.7504
  -3046241.53146  -1300664.25043  24037381.5784                   24037381.4414
        38.7504         20.2504
     -1971.84846     42354.50845  24310307.4144                   24310310.8634
        38.0004         30.7504
 25  7 15 23 39  0.0000000  0 10G01G02G03G25G10G28G31G32G04G26
  -6111178.44947  -4717196.46545  21374936.9774                   21374934.3284
        45.5004         34.2504
   1129072.14547    900467.41446  21733557.2734                   21733552.7624
        46.0004         36.0004
  -8818644.26646  -7065315.50846  22471361.2034                   22471360.7034
        41.7504         36.5004
  -1113515.99245  -1248532.40244  24436952.6884                   24436955.5554
        35.5004         26.7504
   7415994.27347   5786720.47345  23673418.1414                   23673419.4384
        42.2504         35.0004
    467569.61347    386816.91446  21139078.6174                   21139075.8914
        45.7504         37.0004
  -7223858.30148  -5598429.38748  20415726.5314                   20415722.7894
        49.0004         48.2504
   7524554.05147   5869704.88746  23130555.0864                   23130555.2234
        44.2504         40.0004
  -3208802.34446  -1427334.91043  24006446.1094                   24006446.8794
        39.0004         20.2504
   -181442.46146    -97492.60245  24276155.3834                   24276158.1884
        38.5004         30.5004
 25  7 15 23 39 30.0000000  0 10G01G02G03G25G10G28G31G32G04G26
  -6226302.46547  -4806903.49245  21353029.6254                   21353027.2304
        45.5004         35.0004
   1076707.76647    859663.98446  21723592.5944                   21723588.2504
        46.7504         36.5004
  -8990988.47347  -7199609.64846  22438565.1254                   22438564.9654
        42.0004         37.2504
  -1194195.98045  -1311399.94144  24421601.2034                   24421602.9534
        34.7504         27.2504
   7403924.96547   5777315.73445  23671121.5474                   23671122.4964
        42.0004         35.2504
    413431.86747    344631.64546  21128776.6484                   21128774.0354
        47.0004         37.7504
  -7346345.85548  -5693874.21948  20392417.8364                   20392414.1954
        48.2504         48.2504
   7502925.15647   5852851.16046  23126439.8204                   23126438.8794
        44.2504         39.7504
  -3371155.43046  -1553843.73443  23975552.0394                   23975552.0274
        39.0004         20.2504
   -360832.08246   -237276.59844  24242018.6644                   24242021.3674
        38.7504         29.5004
 25  7 15 23 40  0.0000000  0 10G01G02G03G25G10G28G31G32G04G26
  -6340785.02747  -4896110.67645  21331244.2814                   21331241.3794
        46.0004         34.7504
   1024886.06647    819283.41846  21713731.6564                   21713726.9654
        47.2504         36.5004
  -9163165.13747  -7333773.24646  22405801.0084                   22405801.0044
        42.2504         37.2504
  -1274262.82845  -1373789.69544  24406364.0864                   24406366.1374
        35.0004         26.7504
   7392174.18047   5768159.19945  23668886.5394                   23668886.4804
        42.5004         34.5004
    359897.12147    302916.25046  21118589.7424                   21118586.2974
        47.0004         38.0004
  -7468152.35948  -5788788.36348  20369238.8984                   20369235.1024
        49.0004         48.5004
   7481407.77347   5836084.34046  23122344.4924                   23122344.2344
        43.7504         40.0004
  -3533302.41446  -1680191.94943  23944696.2344                   23944696.2584
        39.7504         21.0004
   -540139.20346   -376996.30945  24207897.6334                   24207900.3244
        37.5004         30.0004
 25  7 15 23 40 30.0000000  0 10G01G02G03G25G10G28G31G32G04G26
  -6454627.14547  -4984818.82445  21309580.8914                   21309578.3634
        46.5004         35.0004
    973603.77747    779323.15646  21703972.8984                   21703967.8754
        46.0004         36.2504
  -9335174.57847  -7467806.55146  22373068.8914                   22373068.2304
        43.0004         37.2504
  -1353718.13345  -1435702.93444  24391245.2274                   24391246.5904
        35.0004         27.5004
   7380739.47746   5759248.95345  23666709.8364                   23666710.9804
        41.2504         35.0004
    306961.60947    261667.79746  21108516.5704                   21108513.3754
        45.7504         37.0004
  -7589278.99248  -5883172.73848  20346189.2664                   20346185.7274
        48.0004         48.5004
   7459999.30547   5819402.37146  23118270.8054                   23118270.4104
        44.2504         39.7504
  -3695245.19546  -1806381.02343  23913878.9454                   23913879.6174
        39.0004         19.7504
   -719362.86746   -516650.99645  24173792.3134                   24173794.1524
        39.5004         30.2504
 25  7 15 23 41  0.0000000  0 10G01G02G03G25G10G28G31G32G04G26
  -6567822.29747  -5073022.83245  21288040.4694                   21288037.7774
        46.0004         34.7504
    922864.85947    739786.32046  21694317.6094                   21694312.5004
        47.5004         36.2504
  -9507009.62547  -7601703.94146  22340369.8364                   22340369.4694
        42.7504         37.2504
  -1432556.03945  -1497135.05544  24376242.5314                   24376243.8834
        35.0004         27.5004
   7369625.91047   5750588.97745  23664595.5474                   23664595.8714
        42.0004         34.7504
    254629.21947    220889.30146  21098557.5474                   21098554.7734
        47.2504         38.0004
  -7709719.39848  -5977022.38348  20323270.2274                   20323266.5274
        48.7504         48.2504
   7438704.68047   5802809.12146  23114218.6254                   23114218.1094
        43.2504         39.2504
  -3856978.27046  -1932406.67243  23883102.9774                   23883102.5314
        40.5004         20.0004
   -898494.47746   -656233.93445  24139705.0784                   24139707.3444
        39.0004         31.2504
 25  7 15 23 41 30.0000000  0 10G01G02G03G25G10G28G31G32G04G26
  -6680378.44547  -5160728.93045  21266621.6644                   21266619.3954
        46.0004         34.7504
    872658.97747    700664.83246  21684763.6094                   21684759.1374
        46.2504         36.0004
  -9678677.49247  -7735471.09046  22307702.0394                   22307701.7894
        43.0004         38.0004
  -1510784.95745  -1558092.64844  24361356.2114                   24361357.3204
        35.5004         26.0004
   7358824.14147   5742171.92245  23662539.5164                   23662540.8404
        42.0004         35.2504
    202889.35547    180572.51246  21088711.9614                   21088709.2234
        45.7504         37.5004
  -7829481.68748  -6070343.63348  20300479.9614                   20300475.9384
        49.2504         48.2504
   7417514.39547   5786297.16446  23110186.3134                   23110185.7734
        43.5004         39.0004
  -4018510.65646  -2058275.98043  23852363.6644                   23852364.0204
        40.0004         20.0004
  -1077539.95346   -795749.75445  24105633.3364                   24105636.0704
        38.7504         31.5004
 25  7 15 23 42  0.0000000  0 10G01G02G03G25G10G28G31G32G04G26
  -6792292.83247  -5247934.93745  21245325.3914                   21245322.5514
        47.0004         35.5004
    822986.50047    661958.97746  21675311.3834                   21675306.6094
        46.0004         36.5004
  -9850174.69147  -7869105.22746  22275067.3524                   22275067.4494
        42.5004         38.5004
  -1588402.78146  -1618574.08244  24346585.4534                   24346586.7464
        36.0004         27.0004
   7348335.44946   5733998.83245  23660543.6724                   23660544.5904
        41.7504         35.2504
    151742.07447    140717.49646  21078978.7034                   21078976.0704
        45.7504         37.0004
  -7948563.29348  -6163134.47348  20277819.6644                   20277815.7734
        49.5004         48.5004
   7396429.65647   5769867.46946  23106173.5394                   23106173.8054
        43.2504         38.7504
  -4179840.37946  -2183987.36343  23821663.7114                   23821664.1414
        39.7504         20.5004
  -1256494.56246   -935194.74645  24071579.3364                   24071581.4614
        38.0004         30.5004
 25  7 15 23 42 30.0000000  0 10G01G02G03G25G10G28G31G32G04G26
  -6903562.60947  -5334638.66445  21224151.2894                   21224148.6524
        46.5004         34.7504
    773847.85247    623669.08645  21665960.8054                   21665956.0004
        46.7504         35.7504
 -10021497.59047  -8002603.55546  22242465.6564                   22242465.5234
        43.0004         38.2504
  -1665407.25045  -1678577.60944  24331932.9384                   24331933.9344
        34.5004         25.2504
   7338161.27747   5726070.84445  23658607.9144                   23658608.4884
        42.7504         35.5004
    101187.61748    101324.41046  21069358.5164                   21069355.5554
        48.0004         37.0004
  -8066961.45348  -6255392.76248  20255289.5314                   20255285.3834
        48.7504         48.2504
   7375451.80547   5753521.05146  23102182.1254                   23102181.9224
        43.2504         39.0004
  -4340965.59846  -2309539.41043  23791002.4614                   23791003.0554
        40.5004         19.5004
  -1435353.25846  -1074565.02044  24037543.0944                   24037546.0234
        37.0004         29.2504
 25  7 15 23 43  0.0000000  0 10G01G02G03G25G10G28G31G32G04G26
  -7014186.37947  -5420839.00845  21203100.2344                   21203097.8634
        46.2504         34.7504
    725242.14147    585794.48446  21656711.3364                   21656706.6914
        46.0004         36.0004
 -10192643.93047  -8135964.31646  22209897.4924                   22209897.3164
        43.0004         38.7504
  -1741797.62146  -1738102.56644  24317396.3444                   24317397.6484
        36.5004         28.0004
   7328301.66047   5718387.92645  23656731.6804                   23656732.7424
        42.5004         35.7504
     51224.71947     62392.26246  21059850.9694                   21059848.2664
        46.2504         37.2504
  -8184674.91448  -6347117.52348  20232889.0704                   20232885.4654
        49.2504         48.2504
   7354580.79747   5737257.88346  23098210.3914                   23098210.3484
        43.5004         39.0004
  -4501885.78546  -2434931.64143  23760380.7274                   23760380.8634
        39.2504         19.0004
  -1614112.44946  -1213857.75045  24003526.2114                   24003529.4494
        37.2504         30.2504
 25  7 15 23 43 30.0000000  0 10G01G02G03G25G10G28G31G32G04G26
  -7124169.22747  -5506539.93445  21182171.4384                   21182168.6054
        46.5004         34.7504
    677161.63347    548329.13346  21647561.7114                   21647556.9184
        46.0004         36.0004
 -10363618.00047  -8269190.83646  22177362.2584                   22177362.4494
        42.7504         39.0004
  -1817579.56245  -1797153.44544  24302975.4384                   24302976.2584
        35.7504         27.5004
   7318750.07847   5710945.04746  23654914.6094                   23654915.1024
        43.2504         36.5004
      1845.66447     23915.07446  21050454.4774                   21050451.7664
        46.7504         36.7504
  -8301708.83648  -6438312.76248  20210618.2034                   20210614.6024
        48.0004         48.2504
   7333810.16447   5721072.92646  23094257.7194                   23094257.7234
        43.0004         39.0004
  -4662606.90246  -2560168.78943  23729795.9844                   23729796.7504
        39.2504         19.0004
  -1792775.14146  -1353075.30144  23969527.7344                   23969530.7934
        36.5004         29.7504
 25  7 15 23 44  0.0000000  0 10G01G02G03G25G10G28G31G32G04G26
  -7233501.67247  -5591734.05145  21161366.0004                   21161363.6294
        45.7504         35.0004
    629613.61347    511278.70345  21638513.7194                   21638509.0474
        47.2504         35.5004
 -10534409.42247  -8402275.01646  22144861.7664                   22144861.8404
        42.5004         38.5004
  -1892744.11746  -1855723.23044  24288671.6644                   24288672.7814
        36.5004         27.5004
   7309514.69147   5703748.57045  23653157.1644                   23653158.1134
        42.7504         34.5004
    -46942.71547    -14101.85246  21041170.2734                   21041167.5124
        47.0004         37.0004
  -8418053.93448  -6528971.27048  20188478.3674                   20188474.8984
        48.7504         48.2504
   7313147.95747   5704972.46546  23090326.6024                   23090325.6884
        42.5004         39.0004
  -4823120.34846  -2685244.10943  23699251.1884                   23699252.0664
        39.0004         18.2504
  -1971329.60246  -1492208.51244  23935549.6804                   23935552.1914
        37.5004         29.5004
 25  7 15 23 44 30.0000000  0 10G01G02G03G25G10G28G31G32G04G26
  -7342188.63747  -5676425.19145  21140683.6094                   21140680.9064
        46.5004         34.7504
    582591.01647    474637.69146  21629565.4144                   21629561.1524
        47.7504         36.7504
 -10705022.11347  -8535219.93446  22112395.2424                   22112395.1804
        43.0004         39.2504
  -1967296.91045  -1913816.33644  24274485.2584                   24274486.7114
        34.5004         26.7504
   7300589.32047   5696793.65245  23651458.7034                   23651459.8484
        42.5004         35.5004
    -95147.86747    -51664.32446  21031997.4924                   21031994.4144
        47.7504         37.0004
  -8533715.19148  -6619096.91448  20166468.6484                   20166465.1484
        48.5004         48.2504
   7292587.89547   5688951.57446  23086413.8524                   23086413.7304
        43.5004         38.5004
  -4983431.79746  -2810162.00843  23668745.0704                   23668746.0554
        39.7504         19.5004
  -2149778.44546  -1631259.45745  23901592.4844                   23901594.8364
        37.7504         30.0004
 25  7 15 23 45  0.0000000  0 10G01G02G03G25G10G28G31G32G04G26
  -7450229.15247  -5760612.60545  21120123.8754                   21120121.4844
        46.5004         34.2504
    536092.18447    438404.80946  21620717.3134                   21620712.5164
        46.0004         36.0004
 -10875454.22347  -8668024.13746  22079963.0554                   22079963.0634
        43.0004         40.0004
  -2041237.55145  -1971432.39544  24260413.6644                   24260415.5944
        35.5004         27.0004
   7291973.50047   5690079.94545  23649819.1644                   23649820.2034
        43.0004         35.2504
   -142771.55147    -88773.69546  21022934.5704                   21022932.2344
        46.2504         37.2504
  -8648692.17648  -6708689.35948  20144589.7814                   20144585.8204
        48.7504         48.2504
   7272129.59047   5673010.02046  23082520.6564                   23082520.0744
        43.5004         39.0004
  -5143541.19946  -2934922.49643  23638277.3524                   23638277.7304
        38.7504         19.5004
  -2328118.53546  -1770225.66444  23867654.4224                   23867656.8524
        37.2504         28.5004
 25  7 15 23 45 30.0000000  0 10G01G02G03G25G10G28G31G32G04G26
  -7557625.75847  -5844298.27745  21099687.1414                   21099684.0824
        45.7504         34.5004
    490112.18847    402576.21545  21611967.5234                   21611962.8284
        47.5004         35.2504
 -11045707.27347  -8800688.81646  22047565.0864                   22047565.0664
        43.0004         40.2504
  -2114569.20745  -2028573.97744  24246459.5004                   24246461.3794
        35.7504         26.7504
   7283663.36747   5683604.44545  23648237.6024                   23648238.9654
        42.2504         35.5004
   -189818.80947   -125433.91046  21013982.0704                   21013979.0164
        46.7504         37.0004
  -8762987.18047  -6797750.38748  20122839.5784                   20122836.2424
        47.7504         48.2504
   7251769.28147   5657144.81346  23078646.6254                   23078645.8134
        43.0004         38.7504
  -5303451.88746  -3059528.14843  23607846.8674                   23607847.3954
        39.5004         19.2504
  -2506349.98446  -1909107.23044  23833738.2504                   23833741.2544
        37.7504         28.2504
 25  7 15 23 46  0.0000000  0 10G01G02G03G25G10G28G31G32G04G26
  -7664374.27747  -5927478.94545  21079373.7194                   21079371.3364
        46.5004         35.0004
    444652.84048    367153.31346  21603316.8134                   21603312.1844
        48.5004         36.0004
 -11215776.10547  -8933209.94546  22015202.2274                   22015202.3134
        43.7504         40.2504
  -2187288.25846  -2085238.18044  24232621.7194                   24232622.6094
        36.5004         24.7504
   7275661.82847   5677369.41445  23646715.2424                   23646716.1254
        42.2504         34.0004
   -236288.11347   -161643.77346  21005139.2344                   21005136.3674
        47.7504         37.0004
  -8876596.30948  -6886276.96548  20101220.8524                   20101217.2074
        48.5004         48.5004
   7231509.78547   5641358.16046  23074790.9534                   23074790.6414
        43.5004         38.7504
  -5463160.41046  -3183976.22743  23577454.8914                   23577456.0004
        39.0004         19.5004
  -2684466.41046  -2047899.11744  23799844.0234                   23799847.2544
        37.5004         29.2504
 25  7 15 23 46 30.0000000  0 10G01G02G03G25G10G28G31G32G04G26
  -7770476.32847  -6010155.86745  21059182.8834                   21059180.3794
        47.0004         34.5004
    399710.31348    332133.12946  21594764.6334                   21594759.8324
        48.0004         36.0004
 -11385661.28147  -9065587.95346  21982873.7424                   21982873.6564
        43.5004         41.0004
  -2259397.02346  -2141426.83644  24218900.5704                   24218901.8404
        37.5004         27.0004
   7267965.95746   5671372.54745  23645250.6254                   23645251.6524
        41.0004         33.5004
   -282183.69148   -197406.55946  20996405.3754                   20996402.7234
        48.0004         36.7504
  -8989521.57448  -6974270.66448  20079731.4064                   20079727.8484
        48.2504         48.5004
   7211348.29347   5625647.87546  23070954.3754                   23070953.7034
        43.0004         38.5004
  -5622669.11346  -3308268.67243  23547101.5004                   23547102.1484
        38.2504         20.0004
  -2862466.97346  -2186600.78144  23765971.0944                   23765973.7894
        39.0004         28.0004
 25  7 15 23 47  0.0000000  0 10G01G02G03G25G10G28G31G32G04G26
  -7875932.95347  -6092329.87945  21039115.3674                   21039113.1094
        47.0004         35.0004
    355281.17248    297512.99246  21586309.8674                   21586305.5634
        48.2504         36.2504
 -11555362.70747  -9197822.79346  21950580.7034                   21950580.3634
        44.5004         40.7504
  -2330896.98445  -2197141.11344  24205293.8984                   24205295.9694
        35.5004         26.2504
   7260573.44147   5665612.07045  23643844.1804                   23643844.1374
        43.0004         33.0004
   -327509.15647   -232725.12146  20987780.1724                   20987777.4804
        47.5004         36.2504
  -9101764.01648  -7061732.30148  20058373.0084                   20058368.8874
        49.0004         48.5004
   7191282.53947   5610012.17246  23067136.1174                   23067135.6564
        43.5004         38.0004
  -5781979.85246  -3432406.81243  23516786.4614                   23516786.6684
        38.5004         19.5004
  -3040350.39546  -2325211.15644  23732121.7664                   23732123.5864
        37.7504         27.5004
 25  7 15 23 47 30.0000000  0 10G01G02G03G25G10G28G31G32G04G26
  -6405320.29347  -4946397.93045  21318963.2974                   21318961.2194
        47.0004         34.5004
   1886785.06647   1490892.62145  21877746.0004                   21877740.8094
        47.7504         35.5004
 -10149453.24247  -8102308.88346  22218116.6414                   22218116.3014
        44.5004         41.0004
   -826366.14145  -1024779.38744  24491596.2034                   24491598.5474
        35.0004         27.2504
   8828903.64146   6887687.48045  23942287.6884                   23942288.0664
        41.5004         32.5004
   1203154.81648    960000.03946  21279055.9534                   21279053.1724
        48.2504         36.2504
  -7637899.66048  -5921058.76248  20336936.9224                   20336933.0784
        48.2504         48.5004
   8746732.39847   6822050.99246  23363128.3524                   23363127.9734
        44.5004         38.7504
  -4365667.66446  -2328786.91043  23786301.1564                   23786301.5904
        36.7504         19.2504
  -1642687.87946  -1236123.40644  23998087.2664                   23998089.9344
        37.2504         28.2504
 25  7 15 23 48  0.0000000  0 10G01G02G03G25G10G28G31G32G04G26
  -6509484.87947  -5027565.14545  21299141.7274                   21299139.0984
        47.5004         34.2504
   1843376.77748   1457067.94545  21869485.2344                   21869480.5164
        48.5004         35.7504
 -10318782.57447  -8234253.77346  22185894.1174                   22185893.7074
        44.5004         40.7504
   -896649.33646  -1079545.52344  24478222.3594                   24478224.3284
        36.0004         27.5004
   8822115.27046   6882397.77045  23940995.6174                   23940996.3874
        41.5004         31.5004
   1158963.13348    925564.95346  21270646.4844                   21270643.9964
        48.0004         36.7504
  -7748775.81648  -6007455.75848  20315837.7664                   20315834.1564
        49.5004         48.5004
   8726855.85247   6806562.74646  23359345.9614                   23359345.8404
        44.7504         38.5004
  -4524583.31646  -2452617.22343  23756060.6954                   23756060.4964
        37.5004         18.2504
  -1820328.42246  -1374544.50844  23964283.6804                   23964285.7034
        36.7504         27.2504
 25  7 15 23 48 30.0000000  0 10G01G02G03G25G10G28G31G32G04G26
  -6613002.03547  -5108227.86345  21279442.8984                   21279440.5514
        47.5004         35.0004
   1800476.99248   1423639.50845  21861321.8524                   21861317.2114
        48.5004         35.5004
 -10487922.84047  -8366051.34046  22153707.7344                   22153707.6094
        45.0004         41.2504
   -966323.74245  -1133837.25444  24464963.2974                   24464965.2774
        35.2504         26.0004
   8815628.46546   6877343.02345  23939761.6644                   23939762.0164
        41.2504         31.2504
   1115335.83248    891569.64846  21262344.7974                   21262341.9964
        48.5004         37.0004
  -7858967.71548  -6093319.56248  20294868.8444                   20294865.1604
        49.5004         48.5004
   8707073.56647   6791147.96146  23355581.7734                   23355581.5594
        45.2504         39.0004
  -4683301.08246  -2576293.31243  23725856.7504                   23725858.0634
        36.2504         19.7504
  -1997842.44546  -1512867.04344  23930502.9774                   23930506.3634
        37.5004         27.0004
 25  7 15 23 49  0.0000000  0 10G01G02G03G25G10G28G31G32G04G26
  -6715871.24648  -5188385.70745  21259867.5394                   21259865.2344
        48.0004         35.5004
   1758083.66848   1390605.72345  21853254.5554                   21853249.8324
        48.2504         35.7504
 -10656872.08647  -8497700.05946  22121557.4924                   22121557.0664
        45.2504         40.5004
  -1035389.35245  -1187654.64844  24451821.3674                   24451823.0314
        35.5004         25.5004
   8809442.66046   6872522.85945  23938583.8984                   23938585.2344
        41.5004         31.0004
   1072271.00848    858012.62946  21254149.4454                   21254146.6294
        48.2504         36.0004
  -7968475.10248  -6178649.98848  20274030.1804                   20274026.5904
        49.5004         48.5004
   8687385.14847   6775806.29746  23351834.8984                   23351834.5084
        44.5004         37.7504
  -4841821.05146  -2699815.29743  23695692.0004                   23695692.5354
        36.2504         19.2504
  -2175226.87146  -1651088.59044  23896749.5164                   23896751.2544
        37.5004         28.5004
 25  7 15 23 49 30.0000000  0 10G01G02G03G25G10G28G31G32G04G26
  -6818094.34848  -5268040.06645  21240415.1174                   21240412.6684
        48.0004         34.7504
   1716192.94548   1357963.56645  21845283.1644                   21845278.4144
        48.0004         35.5004
 -10825631.02747  -8629200.50046  22089443.9844                   22089443.5634
        45.5004         40.7504
  -1103848.61345  -1240999.52044  24438793.6884                   24438795.6484
        35.0004         25.0004
   8803554.74646   6867934.78545  23937463.6644                   23937464.8524
        40.5004         30.2504
   1029764.22748    824890.44946  21246060.9534                   21246058.0084
        48.5004         36.5004
  -8077299.96148  -6263448.56648  20253321.5394                   20253318.2974
        49.7504         48.5004
   8667787.56347   6760535.41846  23348106.0234                   23348105.2114
        45.0004         38.0004
  -5000145.74646  -2823185.11343  23665563.4614                   23665564.2274
        36.0004         21.0004
  -2352480.96146  -1789208.56644  23863019.0164                   23863021.0164
        37.5004         29.7504
 25  7 15 23 50  0.0000000  0 10G01G02G03G25G10G28G31G32G04G26
  -6919673.67647  -5347192.79345  21221085.4454                   21221083.3094
        47.2504         35.0004
   1674800.12548   1325709.40245  21837406.2734                   21837401.5164
        48.7504         35.5004
 -10994200.68047  -8760553.43746  22057365.7194                   22057365.6724
        45.0004         40.7504
  -1171704.53145  -1293874.28944  24425880.7814                   24425882.2974
        35.0004         24.5004
   8797961.17646   6863576.09845  23936399.3284                   23936400.3094
        40.0004         31.2504
    987810.61748    792199.30946  21238077.6254                   21238074.0234
        48.0004         36.2504
  -8185444.44148  -6347716.98448  20232742.5864                   20232738.8594
        49.2504         48.5004
   8648277.51647   6745332.77346  23344392.9064                   23344392.4774
        45.0004         37.7504
  -5158278.09046  -2946405.03943  23635472.1024                   23635472.3054
        36.0004         21.2504
  -2529604.55946  -1927226.84445  23829312.9774                   23829315.1604
        38.0004         30.0004
 25  7 15 23 50 30.0000000  0 10G01G02G03G25G10G28G31G32G04G26
  -7020605.85547  -5425841.24645  21201878.7274                   21201875.9454
        47.5004         34.5004
   1633906.21148   1293843.98045  21829624.5084                   21829619.8054
        48.0004         35.2504
 -11162576.34047  -8891755.21546  22025325.0234                   22025325.2894
        45.0004         40.7504
  -1238954.27745  -1346276.68743  24413084.3284                   24413085.4184
        34.2504         22.2504
   8792664.18046   6859448.46545  23935391.5474                   23935392.5434
        39.7504         30.0004
    946411.06648    759939.91446  21230199.6804                   21230196.5824
        48.0004         36.5004
  -8292905.57848  -6431452.92248  20212293.3754                   20212289.5594
        49.2504         48.5004
   8628857.41847   6730200.18446  23340698.0394                   23340697.6524
        44.7504         37.5004
  -5316215.24246  -3069472.87543  23605417.3914                   23605417.7074
        36.5004         21.5004
  -2706591.64546  -2065138.75845  23795633.2894                   23795635.6564
        39.5004         30.0004
 25  7 15 23 51  0.0000000  0 10G01G02G03G25G10G28G31G32G04G26
  -7120892.14147  -5503986.41445  21182794.9774                   21182791.9804
        47.2504         35.2504
   1593507.79348   1262364.67245  21821937.1414                   21821932.2974
        48.0004         35.7504
 -11330757.94947  -9022805.77346  21993321.3134                   21993321.0314
        44.0004         40.7504
  -1305599.79745  -1398208.32043  24400401.4454                   24400403.0904
        34.5004         23.0004
   8787661.30146   6855550.03145  23934439.7114                   23934440.7774
        38.5004         30.2504
    905561.80148    728109.30546  21222426.1954                   21222423.1524
        48.0004         36.2504
  -8399685.06648  -6514657.70748  20191973.4844                   20191970.2114
        49.5004         48.5004
   8609525.05147   6715135.99646  23337018.7274                   23337018.5594
        43.2504         37.2504
  -5473959.07446  -3192390.07443  23575399.7734                   23575400.1294
        37.5004         22.5004
  -2883440.80146  -2202943.19945  23761980.0634                   23761982.3594
        39.2504         31.0004
 25  7 15 23 51 30.0000000  0 10G01G02G03G25G10G28G31G32G04G26
  -7220531.80947  -5581627.70745  21163834.3444                   21163831.2504
        47.0004         35.5004
   1553603.21948   1231270.16845  21814343.3524                   21814338.7234
        48.5004         35.5004
 -11498743.30147  -9153703.43446  21961355.0634                   21961354.0594
        43.7504         40.0004
  -1371640.93045  -1449668.96543  24387834.9224                   24387835.1524
        33.2504         23.0004
   8782952.14846   6851880.44045  23933543.0394                   23933544.5664
        39.7504         30.0004
    865261.08647    696706.14146  21214756.8984                   21214753.9734
        47.5004         36.0004
  -8505782.25048  -6597330.83248  20171784.2424                   20171780.8244
        49.2504         48.5004
   8590280.23047   6700140.00446  23333356.9924                   23333356.4964
        43.7504         37.2504
  -5631509.37546  -3315156.47743  23545419.1094                   23545419.1414
        38.2504         22.5004
  -3060148.76246  -2340637.60545  23728353.4924                   23728355.5234
        39.5004         30.0004
 25  7 15 23 52  0.0000000  0 10G01G02G03G25G10G28G31G32G04G26
  -7319528.32047  -5658767.84045  21144995.6724                   21144993.3954
        47.2504         34.7504
   1514186.85548   1200556.09046  21806843.1024                   21806838.0204
        48.5004         36.2504
 -11666534.50847  -9284449.79346  21929425.2344                   21929424.4494
        44.5004         40.0004
  -1437081.69545  -1500661.76244  24375381.8284                   24375383.0394
        34.5004         24.0004
   8778532.28946   6848436.32045  23932702.8054                   23932703.5594
        40.0004         30.0004
    825502.98048    665725.78946  21207191.1724                   21207188.1524
        48.0004         36.0004
  -8611200.87948  -6679475.21948  20151723.6414                   20151719.9064
        49.0004         48.5004
   8571118.60547   6685208.82446  23329710.5634                   23329709.8094
        44.7504         37.2504
  -5788870.04746  -3437775.10944  23515474.1804                   23515474.4184
        39.5004         24.2504
  -3236716.15246  -2478222.50845  23694753.7814                   23694755.7034
        39.5004         31.2504
 25  7 15 23 52 30.0000000  0 10G01G02G03G25G10G28G31G32G04G26
  -7417880.83647  -5735406.17645  21126279.5314                   21126277.1254
        47.0004         35.0004
   1475256.93847   1170221.06646  21799434.8914                   21799430.0514
        47.7504         36.0004
 -11834129.23847  -9415043.07846  21897532.9144                   21897532.2384
        44.0004         40.2504
  -1501921.88745  -1551186.59044  24363043.0474                   24363044.1374
        35.2504         25.0004
   8774401.33246   6845217.32844  23931916.0234                   23931917.3054
        38.2504         29.0004
    786285.85547    635166.96946  21199728.7974                   21199725.9804
        47.5004         36.5004
  -8715940.26648  -6761090.31248  20131792.7034                   20131788.9884
        49.5004         48.5004
   8552040.19947   6670342.49246  23326080.2114                   23326079.7624
        45.0004         37.7504
  -5946040.85246  -3560245.79344  23485566.5004                   23485565.0824
        40.0004         24.2504
  -3413139.50446  -2615695.14545  23661182.0004                   23661183.5984
        40.5004         31.5004
 25  7 15 23 53  0.0000000  0 10G01G02G03G25G10G28G31G32G04G26
  -7515586.36347  -5811540.34045  21107687.0314                   21107684.6024
        47.0004         35.2504
   1436814.69547   1140266.03145  21792119.6414                   21792114.5824
        47.7504         35.0004
 -12001523.06647  -9545479.80946  21865678.7814                   21865678.2544
        43.7504         40.0004
  -1566159.22745  -1601241.64143  24350819.5864                   24350820.1954
        34.7504         23.5004
   8770561.20346   6842224.89845  23931185.9614                   23931187.1294
        38.5004         30.7504
    747610.22347    605030.10545  21192368.8834                   21192365.8244
        47.2504         35.7504
  -8819997.42648  -6842173.80148  20111990.9694                   20111987.4964
        49.2504         48.5004
   8533047.16047   6655542.68046  23322465.9774                   23322465.7504
        45.0004         37.2504
  -6103019.23046  -3682566.52044  23455694.1804                   23455693.8284
        41.0004         26.0004
  -3589413.00846  -2753051.05945  23627638.0944                   23627640.2934
        40.5004         31.5004
 25  7 15 23 53 30.0000000  0 10G01G02G03G25G10G28G31G32G04G26
  -7612648.66847  -5887173.30545  21089216.7114                   21089214.6054
        46.5004         35.2504
   1398854.18847   1110686.38345  21784895.8444                   21784890.6954
        47.5004         35.0004
 -12168718.16447  -9675761.67246  21833862.7344                   21833861.8014
        44.2504         39.7504
  -1629797.94945  -1650830.25843  24338708.4064                   24338709.6564
        33.2504         21.5004
   8767007.08646   6839455.31645  23930509.4534                   23930510.8754
        39.5004         30.5004
    709469.93447    575310.38746  21185111.2194                   21185108.3324
        47.5004         36.0004
  -8923376.42648  -6922728.85548  20092318.4924                   20092315.2154
        49.5004         48.5004
   8514134.96547   6640805.87946  23318866.8984                   23318866.7854
        44.5004         37.2504
  -6259809.44946  -3804740.64144  23425857.2504                   23425857.2034
        40.7504         25.7504
  -3765537.63346  -2890290.93445  23594122.0944                   23594123.9534
        39.5004         33.0004
 25  7 15 23 54  0.0000000  0 10G01G02G03G25G10G28G31G32G04G26
  -7709067.24247  -5962304.66845  21070868.9694                   21070866.5314
        46.5004         35.2504
   1361373.29347   1081480.46145  21777762.8444                   21777758.8954
        47.7504         35.5004
 -12335712.51647  -9805887.11746  21802084.5554                   21802084.1884
        44.5004         40.2504
  -1692838.17245  -1699952.56243  24326712.3524                   24326713.5664
        33.5004         22.7504
   8763738.24646   6836908.10945  23929887.1724                   23929888.8134
        38.7504         31.2504
    671862.99247    546006.26246  21177954.7424                   21177951.6914
        47.5004         36.0004
  -9026077.03948  -7002755.30548  20072775.4694                   20072771.4144
        49.7504         48.7504
   8495303.30547   6626131.81646  23315283.9144                   23315283.3094
        44.5004         37.0004
  -6416411.37947  -3926768.03144  23396057.2504                   23396056.8054
        42.0004         26.2504
  -3941510.11346  -3027412.23045  23560635.1644                   23560637.8444
        40.2504         33.2504
 25  7 15 23 54 30.0000000  0 10G01G02G03G25G10G28G31G32G04G26
  -7804846.39847  -6036937.77345  21052642.6564                   21052640.1954
        46.7504         35.0004
   1324365.71547   1052643.35245  21770721.3284                   21770716.4144
        47.5004         35.5004
 -12502508.80947  -9935858.21546  21770344.5314                   21770344.0474
        45.0004         40.7504
  -1755284.99245  -1748612.41443  24314828.3984                   24314830.3324
        32.5004         22.2504
   8760749.59446   6834579.18445  23929318.7034                   23929320.6294
        39.0004         33.0004
    634782.73447    517112.54746  21170898.4614                   21170896.0904
        47.7504         36.2504
  -9128103.90648  -7082256.75048  20053360.6334                   20053356.5984
        50.0004         48.7504
   8476547.23447   6611516.64546  23311714.3284                   23311713.9654
        44.0004         37.2504
  -6572829.77047  -4048652.41844  23366291.9694                   23366291.4104
        42.0004         26.7504
  -4117331.80546  -3164416.07845  23527177.7974                   23527180.0204
        40.7504         33.0004
 25  7 15 23 55  0.0000000  0 10G01G02G03G25G10G28G31G32G04G26
  -7899980.55147  -6111068.29345  21034539.5864                   21034536.9104
        46.2504         35.0004
   1287834.84047   1024177.70345  21763769.5084                   21763765.3164
        47.5004         35.0004
 -12669099.80147 -10065669.36746  21738642.9384                   21738642.9774
        45.2504         41.0004
  -1817133.25845  -1796805.91844  24303059.8444                   24303061.6484
        34.7504         24.5004
   8758045.55946   6832472.04345  23928804.3134                   23928806.2344
        39.0004         32.2504
    598232.27347    488631.64546  21163943.0784                   21163940.2974
        47.2504         36.2504
  -9229451.48848  -7161228.88748  20034074.3754                   20034071.0394
        49.7504         48.7504
   8457871.60947   6596964.16046  23308160.3444                   23308160.0394
        43.7504         36.5004
  -6729059.45346  -4170389.76644  23336562.1254                   23336561.9184
        41.5004         26.5004
  -4292994.37146  -3301295.88745  23493750.1724                   23493752.1524
        40.2504         32.2504
 25  7 15 23 55 30.0000000  0 10G01G02G03G25G10G28G31G32G04G26
  -7994469.86347  -6184696.33245  21016558.5164                   21016555.9494
        46.0004         35.0004
   1251778.28147    996081.63345  21756908.0944                   21756903.7584
        47.0004         34.2504
 -12835484.05147 -10195319.39546  21706981.3594                   21706980.9344
        45.5004         41.5004
  -1878383.78545  -1844533.58644  24291403.5394                   24291406.5394
        34.0004         25.0004
   8755624.95346   6830585.75045  23928343.9614                   23928345.8164
        39.2504         33.5004
    562209.12547    460561.65246  21157088.2814                   21157085.7544
        47.0004         36.2504
  -9330120.09048  -7239671.94548  20014918.0554                   20014914.2854
        49.7504         48.7504
   8439275.63347   6582473.73446  23304621.7894                   23304621.8014
        42.5004         37.0004
  -6885100.90246  -4291980.43044  23306868.2504                   23306867.9104
        41.7504         27.7504
  -4468494.96946  -3438049.52045  23460353.5394                   23460355.3984
        39.7504         33.5004
 25  7 15 23 56  0.0000000  0 10G01G02G03G25G10G28G31G32G04G26
  -8088317.27747  -6257824.18045  20998700.0314                   20998697.4574
        45.0004         34.7504
   1216191.07447    968351.30145  21750136.2584                   21750131.8204
        46.7504         35.0004
 -13001662.78947 -10324809.30546  21675358.4694                   21675357.9144
        45.5004         41.0004
  -1939040.05145  -1891798.23843  24279862.2034                   24279863.8054
        32.7504         22.5004
   8753483.86746   6828917.28145  23927936.8054                   23927937.8834
        40.7504         34.2504
    526707.93847    432898.36745  21150332.3674                   21150329.8914
        47.2504         35.7504
  -9430113.01248  -7317588.50448  19995889.6724                   19995886.1914
        49.7504         48.7504
   8420755.71147   6568042.57846  23301097.4614                   23301097.7934
        43.0004         36.0004
  -7040957.43046  -4413426.98044  23277209.7974                   23277209.5744
        40.7504         26.2504
  -4643833.68446  -3574676.97345  23426987.7034                   23426989.4184
        38.7504         32.2504
 25  7 15 23 56 30.0000000  0 10G01G02G03G25G10G28G31G32G04G26
  -6606097.10247  -5102847.43045  21280756.7194                   21280754.3834
        45.7504         35.0004
   2756494.50847   2168587.70745  22043246.3754                   22043241.7974
        47.2504         35.2504
 -11592206.12147  -9226531.35247  21943569.4534                   21943568.7774
        45.7504         42.0004
   -423678.12945   -710996.71944  24568226.1024                   24568228.0514
        33.2504         24.0004
  10327044.05146   8055067.97345  24227374.8914                   24227377.3324
        39.2504         34.5004
   2067150.10947   1633242.91046  21443469.0234                   21443466.3444
        46.7504         36.7504
  -7954004.56648  -6167374.11748  20276783.7424                   20276780.1684
        49.7504         48.7504
   9977734.50846   7781272.76246  23597380.3524                   23597381.7624
        41.0004         36.7504
  -5621201.51246  -3307123.58644  23547380.4454                   23547380.2704
        40.0004         25.7504
  -3243579.02346  -2483569.32845  23693447.1254                   23693449.1254
        39.5004         33.0004
 25  7 15 23 57  0.0000000  0 10G01G02G03G25G10G28G31G32G04G26
  -6698657.18447  -5174972.16845  21263143.7584                   21263141.4654
        45.5004         35.2504
   2721842.43047   2141586.05945  22036652.2194                   22036647.6954
        46.0004         35.0004
 -11757965.03547  -9355694.11746  21912026.0704                   21912025.6684
        45.0004         41.5004
   -483144.40245   -757334.08643  24556909.3204                   24556912.4694
        32.0004         23.7504
  10325462.68046   8053835.61345  24227074.6334                   24227076.0634
        40.2504         34.7504
   2032689.32047   1606390.32845  21436911.1804                   21436908.5234
        46.0004         35.5004
  -8052643.21548  -6244235.39548  20258013.3364                   20258009.8204
        49.5004         48.7504
   9959368.61746   7766961.62946  23593885.5234                   23593886.2934
        41.5004         36.2504
  -5776685.45346  -3428279.81644  23517792.7034                   23517792.7194
        39.7504         25.5004
  -3418581.33646  -2619934.65245  23660145.4144                   23660147.1454
        38.2504         32.7504
 25  7 15 23 57 30.0000000  0 10G01G02G03G25G10G28G31G32G04G26
  -6790578.19547  -5246598.93745  21245651.4454                   21245648.6914
        45.5004         34.7504
   2687650.37947   2114942.85545  22030145.6484                   22030140.8134
        46.5004         35.0004
 -11923516.00447  -9484694.84047  21880522.9144                   21880522.5594
        45.2504         42.0004
   -542021.00845   -803211.99643  24545706.2034                   24545708.1134
        34.0004         22.5004
  10324155.11346   8052816.62145  24226825.5474                   24226827.4804
        41.0004         35.7504
   1998740.60247   1579936.77046  21430451.3284                   21430448.6484
        46.2504         36.0004
  -8150609.90648  -6320573.06248  20239371.3674                   20239367.3834
        49.5004         48.7504
   9941074.30147   7752706.25446  23590404.6414                   23590404.4534
        42.5004         36.0004
  -5931988.22746  -3549294.89544  23488239.4694                   23488239.3094
        39.7504         25.5004
  -3593415.66046  -2756169.04745  23626874.9304                   23626877.2384
        39.0004         33.0004
 25  7 15 23 58  0.0000000  0 10G01G02G03G25G10G28G31G32G04G26
  -6881860.31247  -5317727.87945  21228281.0314                   21228278.9064
        46.2504         35.0004
   2653915.96547   2088656.25045  22023726.6644                   22023721.7344
        45.7504         34.7504
 -12088857.31247  -9613532.20346  21849059.3914                   21849058.7384
        45.7504         41.5004
   -600308.90645   -848631.16043  24534614.3444                   24534616.7934
        34.2504         22.7504
  10323120.27046   8052010.14145  24226628.4694                   24226630.7234
        40.5004         35.5004
   1965301.48047   1553880.28945  21424087.9924                   21424084.9694
        45.7504         35.5004
  -8247904.57848  -6396387.09048  20220856.7734                   20220852.9414
        48.7504         49.0004
   9922850.92247   7738506.16846  23586936.9534                   23586936.3164
        43.2504         36.7504
  -6087110.18046  -3670169.06644  23458720.3594                   23458720.4064
        39.5004         25.0004
  -3768078.97346  -2892270.24245  23593638.4304                   23593639.7734
        39.5004         32.5004
 25  7 15 23 58 30.0000000  0 10G01G02G03G25G10G28G31G32G04G26
  -6972502.85547  -5388358.43745  21211032.2504                   21211029.8324
        46.2504         35.0004
   2620637.90647   2062725.25045  22017394.2034                   22017389.4264
        46.5004         34.5004
 -12253986.48047  -9742204.25447  21817636.7424                   21817636.4804
        45.5004         43.0004
   -658007.88345   -893591.41843  24523633.8674                   24523636.6254
        33.5004         23.2504
  10322357.94546   8051416.04745  24226483.8444                   24226485.7814
        40.0004         34.2504
   1932370.33247   1528219.65646  21417821.3134                   21417818.5164
        46.5004         36.0004
  -8344527.03148  -6471677.30948  20202469.8674                   20202466.0274
        49.5004         48.7504
   9904698.69947   7724361.52746  23583482.2664                   23583482.3954
        42.5004         36.5004
  -6242050.83646  -3790901.97343  23429235.9304                   23429235.3954
        39.0004         22.5004
  -3942567.62146  -3028235.29345  23560434.2664                   23560436.1024
        39.0004         32.2504
 25  7 15 23 59  0.0000000  0 10G01G02G03G25G10G28G31G32G04G26
  -7062506.16047  -5458490.89845  21193905.5394                   21193903.0394
        46.0004         35.5004
   2587813.44947   2037147.71145  22011147.5554                   22011142.8524
        46.0004         34.7504
 -12418901.92247  -9870709.75046  21786254.2424                   21786253.0864
        45.7504         41.7504
   -715118.94145   -938093.52343  24512767.0944                   24512767.8754
        34.2504         21.5004
  10321866.83646   8051033.25845  24226390.6804                   24226392.5904
        41.2504         34.7504
   1899944.46547   1502952.73045  21411650.9534                   21411647.9734
        45.7504         35.2504
  -8440477.89848  -6546444.21548  20184210.9304                   20184207.0314
        49.0004         49.0004
   9886616.89847   7710271.73846  23580041.3754                   23580041.0434
        42.2504         36.2504
  -6396810.71146  -3911494.02043  23399786.8364                   23399786.0434
        39.0004         22.2504
  -4116878.75846  -3164062.05145  23527263.3444                   23527264.9774
        39.5004         32.5004
 25  7 15 23 59 30.0000000  0 10G01G02G03G25G10G28G31G32G04G26
  -7151871.16847  -5528125.97745  21176899.8134                   21176897.6684
        46.5004         35.2504
   2555439.61747   2011921.32845  22004987.1254                   22004982.4774
        45.7504         34.7504
 -12583602.66047  -9999047.96147  21754912.7424                   21754912.3554
        46.7504         42.7504
   -771643.65255   -982138.79753  24502009.0004                   24502010.9614
        32.5004         19.2504
  10321645.23446   8050860.47345  24226347.4694                   24226349.9844
        39.2504         32.2504
   1868020.72347   1478077.07445  21405576.2114                   21405573.1564
        46.5004         35.2504
  -8535757.88348  -6620688.35548  20166080.1414                   20166076.2704
        48.5004         49.0004
   9868604.16847   7696235.78946  23576614.3524                   23576614.3484
        42.0004         36.7504
  -6551391.00446  -4031946.11743  23370370.1724                   23370370.1094
        38.5004         22.5004
  -4291010.13346  -3299748.73845  23494126.3674                   23494128.6764
        38.5004         32.7504
 25  7 16  0  0  0.0000000  0 10G01G02G03G25G10G28G31G32G04G26
  -7240597.40247  -5597263.30545  21160015.6254                   21160012.9414
        45.7504         35.0004
   2523514.95747   1987044.93845  21998911.9384                   21998907.3054
        46.0004         34.5004
 -12748086.25447 -10127216.96546  21723612.6884                   21723611.4224
        47.0004         41.7504
   -827582.05555  -1025727.16452  24491365.3984                   24491365.6334
        32.7504         16.7504
  10321692.62146   8050897.32845  24226357.5704                   24226359.5044
        40.5004         34.0004
   1836597.35547   1453591.32045  21399596.3914                   21399593.1524
        45.7504         35.5004
  -8630367.22748  -6694409.91848  20148076.0944                   20148072.5554
        49.2504         49.0004
   9850660.59847   7682253.75846  23573199.5554                   23573199.8164
        42.7504         37.0004
  -6705791.30546  -4152257.96143  23340989.1954                   23340988.5984
        38.2504         21.5004
  -4464958.23446  -3435292.60245  23461025.6954                   23461028.0984
        38.7504         31.7504
