     2.11           OBSERVATION DATA    G (GPS)             RINEX VERSION / TYPE
teqc  2019Feb25     K Rivera            20250728 19:48:41UTCPGM / RUN BY / DATE
Linux 2.6.32-573.12.1.x86_64|x86_64|gcc -static|Linux 64|=+ COMMENT
teqc  2019Feb25                         20250728 19:46:53UTCCOMMENT
BIT 2 OF LLI FLAGS DATA COLLECTED UNDER A/S CONDITION       COMMENT
HECT                                                        MARKER NAME
                                                            MARKER NUMBER
K Baraggiotta, K RivUniversity of California, Riverside     OBSERVER / AGENCY
0220340422          TRIMBLE 5700        2.32                REC # / TYPE / VERS
60179255            TRM41249.00                             ANT # / TYPE
 -2333615.6799 -4696775.2857  3618643.5689                  APPROX POSITION XYZ
        1.0801        0.0000        0.0000                  ANTENNA: DELTA H/E/N
     1     1                                                WAVELENGTH FACT L1/2
     7    L1    L2    C1    P1    P2    S1    S2            # / TYPES OF OBSERV
    18                                                      LEAP SECONDS
 SNR is mapped to RINEX snr flag value [0-9]                COMMENT
  L1 & L2: min(max(int(snr_dBHz/6), 0), 9)                  COMMENT
  2025     7    16     0     0   30.0000000     GPS         TIME OF FIRST OBS
                                                            END OF HEADER
 25  7 16  0  0 30.0000000  0  5G01G02G10G28G31
     -9504.11357     -6377.92655  21118527.8674                   21118526.5784
        46.2504         34.7504
     74583.85557     50544.77055  21957419.0784                   21957416.0904
        46.2504         34.7504
    123048.85956     71144.85555  24138304.4534                   24138307.7034
        39.5004         32.0004
     79162.89557     51450.69955  21330747.2504                   21330745.7194
        45.7504         35.0004
    -18182.04758    -11740.30558  20071291.4384                   20071289.4144
        48.0004         48.2504
 25  7 16  0  1  0.0000000  0 10G01G02G32G10G03G04G28G31G26G25
    -15139.44147    -10769.10245  21117455.4844                   21117454.3164
        46.0004         34.5004
    125314.08647     90074.76245  21967072.6724                   21967069.4694
        46.2504         34.7504
     88596.40657     54287.80956  23506906.2734                   23506908.6524
        42.5004         36.7504
    205679.93446    135532.59445  24154027.6724                   24154032.2854
        37.5004         31.7504
   -106255.09057    -75050.95757  21655099.0164                   21655100.4924
        46.5004         42.0004
    -98812.46956    -50831.18754  23284749.4144                   23284751.0594
        40.0004         25.5004
    130853.32447     91728.93845  21340583.5164                   21340581.8954
        46.0004         35.0004
    -29271.74648    -20381.62948  20069181.4144                   20069179.4184
        49.0004         48.5004
   -126848.81256    -65672.09455  23329152.0634                   23329155.7854
        39.7504         33.2504
     35849.12556     21485.20354  24417347.4454                   24417349.1804
        36.5004         26.5004
 25  7 16  0  1 30.0000000  0 10G01G02G32G10G03G04G28G31G26G25
    -20215.58247    -14724.56245  21116489.6414                   21116488.6484
        46.2504         35.0004
    176408.05547    129888.18445  21976795.5704                   21976792.1374
        46.2504         34.0004
    152293.98447    103922.20746  23519027.6334                   23519029.4844
        43.0004         36.2504
    288501.52746    200068.73844  24169789.2504                   24169792.4614
        39.2504         29.2504
   -188645.59847   -139251.32047  21639420.6644                   21639421.8244
        47.0004         42.2504
   -170646.59446   -106805.77344  23271079.8364                   23271081.4654
        39.7504         25.2504
    182956.12547    132328.50445  21350498.2814                   21350497.1174
        46.5004         35.0004
    -39771.83648    -28563.52048  20067183.4614                   20067181.3404
        49.5004         48.5004
   -218329.12945   -136955.34844  23311743.1254                   23311747.7194
        34.7504         26.2504
     64291.27746     43647.75443  24422759.7894                   24422763.5664
        36.5004         22.5004
 25  7 16  0  2  0.0000000  0 10G01G02G32G10G03G04G28G31G26G25
    -24697.23047    -18216.77045  21115636.8134                   21115636.0354
        46.5004         34.7504
    227898.27347    170010.39545  21986594.2664                   21986590.9534
        46.2504         33.2504
    216016.92647    153576.41046  23531154.0314                   23531155.9184
        43.5004         37.0004
    371548.05146    264780.22744  24185591.6254                   24185595.5394
        37.5004         28.0004
   -270856.02747   -203311.36347  21623776.3674                   21623777.7734
        46.7504         43.0004
   -242348.32846   -162677.15643  23257435.3754                   23257436.7624
        39.2504         22.5004
    235504.37547    173275.14846  21360498.1414                   21360497.0124
        46.5004         36.2504
    -49647.44948    -36258.80948  20065303.9774                   20065302.0664
        48.5004         48.5004
                                  23294364.6254                   23294368.5704
        28.2504         22.5004
     93273.18045     66231.13344  24428275.5704                   24428279.0744
        34.7504         27.7504
 25  7 16  0  2 30.0000000  0 10G01G02G32G10G03G04G28G31G26G25
    -28572.73447    -21236.65245  21114899.3444                   21114898.1094
        46.2504         34.5004
    279794.74247    210449.14545  21996469.4924                   21996466.8594
        46.7504         34.0004
    279776.74647    203259.36346  23543287.0864                   23543288.3364
        43.7504         37.2504
    454830.56346    329675.62945  24201439.7664                   24201444.0634
        37.5004         31.2504
   -352872.53547   -267220.34047  21608169.5234                   21608170.5824
        46.5004         42.5004
   -313905.99246   -218436.33243  23243818.1414                   23243820.1804
        38.7504         22.0004
    288507.52047    214576.30145  21370584.3674                   21370583.2504
        46.5004         34.7504
    -58886.96148    -43458.44148  20063545.9304                   20063544.0514
        49.0004         48.2504
   -400809.16046   -279147.45345  23277018.7894                   23277021.9304
        40.5004         33.5004
    122805.87555     89243.67653  24433894.2664                   24433895.6174
        35.7504         22.5004
 25  7 16  0  3  0.0000000  0 10G01G02G32G10G03G04G28G31G26G25
    -31840.30947    -23782.83245  21114277.4534                   21114276.2504
        46.0004         34.7504
    332097.17647    251204.23445  22006422.4064                   22006419.4924
        46.7504         34.5004
    343575.05547    252972.27346  23555427.1174                   23555429.3674
        43.2504         36.7504
    538349.77746    394755.37144  24217334.5784                   24217337.1374
        38.5004         29.2504
   -434691.22747   -330975.14547  21592599.9774                   21592600.9064
        46.2504         42.5004
   -385317.86746   -274081.87943  23230228.8674                   23230230.5314
        39.5004         22.7504
    341965.11347    256231.54345  21380756.6094                   21380755.8014
        46.0004         35.5004
    -67489.09048    -50161.39848  20061909.0234                   20061907.1094
        48.5004         48.5004
   -491788.80546   -350040.57445  23259705.4064                   23259708.9654
        39.2504         32.2504
    152890.53546    112686.19143  24439620.2344                   24439621.6994
        37.0004         23.0004
 25  7 16  0  3 30.0000000  0 10G01G02G32G10G03G04G28G31G26G25
    -34501.90247    -25856.82045  21113771.1724                   21113770.1994
        47.7504         34.5004
    384801.60947    292272.57845  22016451.6334                   22016448.5744
        46.2504         35.0004
    407409.83247    302713.62145  23567574.9454                   23567575.9614
        44.2504         35.5004
    622103.21946    460017.68845  24233271.6804                   24233275.0704
        37.2504         30.0004
   -516311.78147   -394575.54747  21577067.5554                   21577068.6564
        46.5004         42.7504
   -456585.89146   -329615.32444  23216667.1954                   23216668.7854
        41.0004         24.5004
    395873.18047    298237.80545  21391015.2734                   21391014.0514
        46.0004         35.0004
    -75456.13348    -56369.48448  20060392.6564                   20060390.2504
        48.0004         48.5004
   -582591.67346   -420795.97445  23242426.5554                   23242430.0124
        38.5004         32.2504
    183524.66445    136556.84044  24445449.3204                   24445452.5274
        35.5004         25.7504
 25  7 16  0  4  0.0000000  0 10G01G02G32G10G03G04G28G31G26G25
    -36557.71147    -27458.76245  21113379.7814                   21113378.8914
        46.0004         34.7504
    437905.76647    333652.37945  22026557.3134                   22026554.3634
        46.0004         34.5004
    471280.81347    352483.16445  23579728.7584                   23579730.3324
        43.7504         35.2504
    706089.94945    525461.78544  24249252.5234                   24249257.1954
        35.7504         28.2504
   -597732.16447   -458019.98047  21561574.0474                   21561575.2544
        47.0004         42.5004
   -527710.12546   -385036.72343  23203132.5704                   23203134.0164
        41.0004         23.2504
    450229.35947    340593.25046  21401358.4304                   21401357.5314
        46.2504         36.0004
    -82788.20748    -62082.78548  20058997.5314                   20058995.4734
        48.5004         48.5004
   -673214.55946   -491411.12145  23225181.0554                   23225185.1604
        39.7504         33.0004
    214707.49245    160855.11743  24451383.6804                   24451384.4734
        35.2504         22.0004
 25  7 16  0  4 30.0000000  0 10G01G02G32G10G03G04G28G31G26G25
    -38007.11747    -28588.19545  21113103.9774                   21113103.2854
        47.2504         34.7504
    491408.50047    375342.77745  22036738.3594                   22036735.1884
        46.5004         34.0004
    535188.55947    402281.36345  23591890.5554                   23591891.4964
        43.5004         35.0004
    790309.73046    591087.46544  24265279.8284                   24265283.4654
        36.7504         27.2504
   -678949.46547   -521306.17247  21546118.5944                   21546119.8954
        47.2504         42.5004
   -598689.99246   -440345.66844  23189625.5314                   23189627.0164
        40.5004         24.0004
    505032.12147    383296.67245  21411787.5234                   21411786.3054
        46.0004         35.0004
    -89484.97748    -67301.05548  20057722.8594                   20057720.8404
        49.0004         48.5004
   -763653.41446   -561882.89845  23207971.2664                   23207975.0314
        40.5004         33.0004
    246439.00845    185580.78543  24457419.6094                   24457425.4344
        31.7504         21.7504
 25  7 16  0  5  0.0000000  0 10G01G02G32G10G03G04G28G31G26G25
    -38853.06247    -29247.38345  21112943.1174                   21112942.3284
        46.5004         34.5004
    545304.72747    417339.78945  22046994.5314                   22046991.6644
        47.2504         34.5004
    599130.17647    452105.96146  23604058.2034                   23604059.6454
        43.7504         36.0004
    874759.10546    656892.07044  24281349.5784                   24281354.3364
        37.0004         27.2504
   -759964.28547   -584434.59447  21530701.9694                   21530703.1884
        47.0004         42.7504
   -669528.27746   -495544.23444  23176145.4224                   23176146.9144
        41.0004         25.2504
    560276.46947    426344.19145  21422300.4304                   21422299.3204
        46.5004         35.0004
    -95549.81247    -72026.90248  20056569.0944                   20056566.7194
        47.7504         48.5004
   -853907.69146   -632210.84445  23190796.5704                   23190799.7234
        41.0004         32.2504
    278715.80945    210731.57444  24463562.6644                   24463568.4344
        33.5004         24.0004
 25  7 16  0  5 30.0000000  0 10G01G02G32G10G03G04G28G31G26G25
    -39103.57447    -29442.60945  21112895.1884                   21112894.1054
        47.7504         34.5004
    599584.98847    459636.04745  22057323.4534                   22057320.8554
        46.5004         34.0004
    663097.59447    501950.66045  23616230.9844                   23616231.7934
        44.0004         35.2504
    959429.18746    722868.62444  24297464.7344                   24297466.7194
        39.0004         29.5004
   -840782.39147   -647409.72347  21515323.3754                   21515323.8794
        47.7504         42.7504
   -740232.98046   -550638.75443  23162691.1884                   23162691.8754
        40.7504         23.0004
    615952.26247    469727.91045  21432894.9384                   21432893.7854
        46.2504         35.0004
   -100990.64548    -76266.51648  20055533.6884                   20055531.8134
        48.0004         48.5004
   -943981.94546   -702398.50445  23173655.5554                   23173659.5984
        39.5004         32.5004
    311529.11345    236300.47343  24469805.9144                   24469810.0704
        33.0004         19.0004
 25  7 16  0  6  0.0000000  0 10G01G02G32G10G03G04G28G31G26G25
    -38760.78947    -29175.51645  21112960.9774                   21112959.8484
        47.5004         35.2504
    654244.54747    502227.86345  22067725.1804                   22067722.1804
        46.5004         34.0004
    727088.73047    551813.84045  23628408.1884                   23628409.5474
        42.7504         35.0004
   1044317.30546    789015.12144  24313617.7894                   24313620.2814
        38.5004         28.0004
   -921403.47347   -710231.32447  21499981.6174                   21499982.1684
        47.0004         43.0004
   -810806.02746   -605630.66844  23149261.1484                   23149262.0474
        41.0004         25.2504
    672055.31347    513444.54345  21443570.9224                   21443569.7894
        45.7504         35.0004
   -105810.19148    -80022.01648  20054616.5634                   20054614.4304
        48.2504         48.5004
  -1033874.82046   -772444.80145  23156550.1804                   23156553.2034
        40.0004         32.0004
    344876.16045    262285.23043  24476152.8914                   24476156.4654
        34.2504         19.5004
 25  7 16  0  6 30.0000000  0 10G01G02G32G10G03G04G28G31G26G25
    -37831.45347    -28451.38345  21113137.2344                   21113136.6524
        47.2504         34.5004
    709274.90247    545108.60945  22078197.1484                   22078194.2034
        45.7504         34.0004
    791096.97347    601690.33645  23640588.1804                   23640589.9224
        42.5004         35.2504
   1129416.07046    855325.70744  24329811.3204                   24329813.4614
        38.2504         29.2504
  -1001831.87547   -772902.78547  21484676.2814                   21484677.4264
        47.5004         43.0004
   -881254.10546   -660525.19544  23135855.2974                   23135856.6914
        41.5004         24.7504
    728576.78147    557487.21945  21454326.6174                   21454325.3484
        45.7504         34.5004
   -110015.48048    -83298.87548  20053816.4534                   20053814.2584
        48.0004         48.5004
  -1123589.50846   -842352.26645  23139478.1414                   23139481.2624
        39.5004         32.2504
    378749.66845    288680.16043  24482598.3524                   24482602.3674
        31.2504         20.0004
 25  7 16  0  7  0.0000000  0 10G01G02G32G10G03G04G28G31G26G25
    -36320.13348    -27273.74645  21113424.8914                   21113424.0704
        48.0004         35.0004
    764669.68847    588273.33245  22088738.4614                   22088735.5314
        46.7504         33.5004
    855117.87547    651576.68845  23652771.2274                   23652772.9844
        42.5004         35.5004
   1214720.17246    921796.34844  24346043.3524                   24346047.1524
        37.5004         28.7504
  -1082069.73447   -835425.78147  21469407.4304                   21469408.7034
        47.2504         43.0004
   -951581.46146   -715325.67644  23122471.8914                   23122473.8094
        41.2504         24.5004
    785510.17647    601850.89145  21465160.2194                   21465159.4414
        45.7504         35.0004
   -113611.37948    -86100.87548  20053132.2974                   20053129.5434
        48.0004         48.5004
  -1213126.98846   -912121.65645  23122439.5704                   23122442.7814
        40.0004         33.5004
    413144.91055    315481.77353  24489142.9534                   24489147.7854
        31.5004         22.0004
 25  7 16  0  7 30.0000000  0 10G01G02G32G10G03G04G28G31G26G25
    -34226.42247    -25642.30545  21113823.5634                   21113822.3554
        46.2504         35.0004
    820427.53947    631720.96145  22099349.0634                   22099346.2624
        46.2504         33.7504
    919151.94147    701473.28545  23664956.2974                   23664958.1054
        42.2504         35.5004
   1300229.48846    988426.85944  24362316.4064                   24362318.8324
        39.7504         29.0004
  -1162114.16847   -897798.04347  21454175.7974                   21454176.8484
        47.5004         43.0004
  -1021787.60946   -770031.68443  23109112.4614                   23109113.1214
        41.2504         23.5004
    842853.80147    646534.20745  21476072.7424                   21476071.4024
        45.7504         35.2504
   -116597.54347    -88427.76648  20052564.1414                   20052561.6954
        47.7504         48.5004
  -1302483.21946   -981749.83245  23105435.9454                   23105438.5944
        40.5004         32.5004
    448061.05545    342689.02343  24495788.3444                   24495792.2274
        32.5004         21.2504
 25  7 16  0  8  0.0000000  0 10G01G02G32G10G03G04G28G31G26G25
    -31553.75847    -23559.72745  21114332.4224                   21114330.9064
        47.5004         35.0004
    876542.82847    675447.10945  22110027.4304                   22110024.4804
        46.7504         34.2504
    983195.96947    751377.63745  23677143.2894                   23677145.3554
        42.0004         35.5004
   1385939.93846   1055214.05944  24378625.3594                   24378629.2934
        36.7504         26.0004
  -1241966.10948   -960020.31247  21438980.5164                   21438981.3324
        48.0004         43.2504
  -1091875.75046   -824645.78143  23095774.8754                   23095776.3324
        41.0004         23.5004
    900602.26647    691532.98845  21487062.3134                   21487060.5474
        46.5004         34.7504
   -118977.66048    -90282.39848  20052111.3364                   20052108.8324
        48.0004         48.5004
  -1391658.09846  -1051236.70345  23088466.0394                   23088468.9024
        39.7504         33.5004
    483494.39145    370299.33644  24502531.0704                   24502536.3594
        33.2504         25.2504
 25  7 16  0  8 30.0000000  0 10G01G02G32G10G03G04G28G31G26G25
    -28302.54748    -21026.34045  21114950.8364                   21114949.6564
        48.0004         35.0004
    933013.53547    719450.21545  22120773.6254                   22120770.6914
        45.7504         34.0004
   1047249.70347    801289.55945  23689333.0554                   23689334.8204
        42.5004         35.5004
   1471850.62546   1122157.36344  24394974.4614                   24394976.6054
        37.7504         25.7504
  -1321623.44147  -1022090.94147  21423822.3204                   21423823.1564
        47.2504         43.2504
  -1161845.99246   -879167.98444  23082460.2894                   23082461.4654
        41.5004         24.0004
    958753.16047    736845.35545  21498127.5784                   21498126.3794
        46.0004         34.5004
   -120752.51648    -91665.40648  20051773.4384                   20051771.2344
        48.7504         48.2504
  -1480648.32446  -1120579.66845  23071531.3594                   23071534.2274
        39.7504         33.0004
                                  24509371.9064                   24509376.2624
        32.5004         22.5004
 25  7 16  0  9  0.0000000  0 10G01G02G32G10G03G04G28G31G26G25
    -24471.90247    -18041.44545  21115679.6724                   21115679.2934
        47.7504         34.7504
    989838.65647    763729.49645  22131586.9534                   22131584.1764
        45.7504         33.7504
   1111314.42647    851210.05946  23701524.0554                   23701525.6644
        43.0004         36.0004
   1557961.78546   1189256.92244  24411360.9614                   24411364.0314
        38.2504         28.7504
  -1401082.64847  -1084007.18447  21408701.2664                   21408702.2854
        47.2504         43.5004
  -1231697.13747   -933597.38344  23069168.1334                   23069169.1914
        42.0004         24.2504
   1017305.50447    782470.53145  21509270.0314                   21509268.8484
        45.2504         34.5004
   -121921.40648    -92576.23048  20051550.7504                   20051548.5704
        48.0004         48.5004
  -1569449.32446  -1189775.19545  23054633.2504                   23054636.1564
        39.5004         33.5004
    555909.87144    426726.99243  24516309.3914                   24516313.8714
        27.5004         20.0004
 25  7 16  0  9 30.0000000  0 10G01G02G32G10G03G04G28G31G26G25
    -20068.77348    -14610.45345  21116517.4224                   21116516.5864
        48.5004         34.5004
   1047009.35247    808278.04345  22142466.3364                   22142463.5664
        46.0004         33.2504
   1175383.32847    901133.82846  23713716.1024                   23713717.6844
        43.5004         36.2504
   1644265.83646   1256506.71945  24427784.3674                   24427787.5514
        40.0004         30.5004
  -1480348.12948  -1145772.47347  21393617.8054                   21393618.6374
        48.0004         43.5004
  -1301435.91846   -987939.23844  23055897.1644                   23055897.7974
        41.0004         25.2504
   1076250.32847    828401.53945  21520486.2814                   21520485.3484
        45.2504         34.7504
   -122491.22348    -93020.24248  20051442.5944                   20051440.3674
        48.2504         48.5004
  -1658064.36746  -1258825.81245  23037770.2814                   23037773.3444
        39.7504         33.2504
    592884.95755    455538.62553  24523347.6414                   24523351.2544
        32.0004         21.7504
 25  7 16  0 10  0.0000000  0 10G01G02G32G10G03G04G28G31G26G25
    -15096.81247    -10736.22345  21117463.7734                   21117462.6724
        47.5004         34.5004
   1104520.19547    853091.64545  22153410.3364                   22153407.4224
        45.5004         34.0004
   1239453.13347    951058.30945  23725908.4924                   23725909.4964
        43.0004         34.7504
   1730758.80146   1323903.68045  24444242.4774                   24444246.7894
        39.0004         31.0004
  -1559420.82047  -1207387.53547  21378570.5234                   21378571.3444
        47.5004         43.5004
  -1371065.52747  -1042196.04744  23042647.2894                   23042647.8054
        42.5004         24.2504
   1135582.13747    874634.09045  21531777.3364                   21531776.2544
        45.5004         34.2504
   -122466.30547    -93000.82448  20051447.1884                   20051444.8524
        47.7504         48.2504
  -1746493.30146  -1327731.40245  23020943.0864                   23020945.6524
        40.7504         34.0004
    630364.83245    484743.77344  24530478.8984                   24530483.6724
        33.7504         25.7504
 25  7 16  0 10 30.0000000  0 10G01G02G32G10G03G04G28G31G26G25
     -9556.09847     -6418.80545  21118518.2114                   21118517.1294
        47.2504         34.7504
   1162369.09847    898168.66445  22164418.3054                   22164415.5044
        45.5004         33.2504
   1303524.14547   1000983.71545  23738100.5164                   23738101.8914
        42.5004         35.5004
   1817439.98846   1391447.40645  24460739.5084                   24460741.6644
        40.7504         31.5004
  -1638298.21947  -1268850.41847  21363560.6724                   21363561.6524
        47.7504         43.7504
  -1440585.79747  -1096367.62144  23029417.6564                   23029418.1334
        42.0004         26.5004
   1195298.87547    921166.59045  21543140.7814                   21543139.3134
        45.2504         34.5004
   -121847.09048    -92518.33248  20051564.9144                   20051562.9304
        48.0004         48.2504
  -1834732.43746  -1396489.12145  23004151.4224                   23004154.7814
        40.2504         34.0004
    668348.88346    514341.75043  24537708.1804                   24537708.8404
        36.5004         23.0004
 25  7 16  0 11  0.0000000  0 10G01G02G32G10G03G04G28G31G26G25
     -3448.29747     -1659.50045  21119680.4064                   21119679.1724
        47.5004         34.7504
   1220552.71147    943506.48845  22175490.2584                   22175487.1914
        45.2504         34.0004
   1367594.99646   1050909.00045  23750292.4774                   23750294.1484
        41.2504         33.5004
   1904307.19546   1459136.03144  24477267.9304                   24477272.2814
        37.5004         28.2504
  -1716979.30147  -1330160.33247  21348588.0864                   21348589.2854
        47.2504         43.7504
  -1509997.99647  -1150455.01644  23016208.8594                   23016209.9384
        42.2504         25.7504
   1255397.03547    967996.30545  21554577.1884                   21554575.9534
        45.5004         34.7504
   -120635.30947    -91574.08648  20051795.3134                   20051793.1844
        47.7504         48.2504
  -1922779.77346  -1465097.36745  22987395.9224                   22987399.1724
        40.5004         33.7504
    706834.78946    544330.67644  24545032.2034                   24545036.1844
        36.7504         28.5004
 25  7 16  0 11 30.0000000  0 10G01G02G32G10G03G04G28G31G26G25
      3224.80948      3540.30945  21120950.5864                   21120949.3954
        48.0004         34.5004
   1279067.57447    989102.42645  22186625.2114                   22186622.2734
        45.7504         33.2504
   1431664.41846   1100833.16845  23762484.9924                   23762486.2624
        40.7504         34.0004
   1991358.41846   1526967.95744  24493832.6804                   24493837.2814
        36.7504         28.7504
  -1795463.00447  -1391316.44547  21333653.0944                   21333653.9964
        47.0004         44.0004
  -1579303.44946  -1204459.21144  23003020.2034                   23003021.1414
        41.5004         25.7504
   1315873.03147   1015120.43445  21566085.3674                   21566083.9064
        45.2504         34.0004
   -118832.77348    -90169.52348  20052138.5474                   20052136.6254
        48.5004         48.5004
  -2010633.15646  -1533554.45745  22970678.8444                   22970681.6254
        40.0004         34.2504
    745820.28146    574709.02744  24552451.2274                   24552453.7274
        37.5004         29.2504
 25  7 16  0 12  0.0000000  0 10G01G02G32G10G03G04G28G31G26G25
     10459.07048      9177.37545  21122326.9064                   21122325.8244
        48.0004         34.5004
   1337908.03547   1034952.06645  22197822.2894                   22197819.4534
        45.2504         33.2504
   1495728.62946   1150753.25045  23774674.9534                   23774677.6214
        40.2504         33.5004
   2078588.69946   1594939.44544  24510434.4064                   24510437.2544
        39.5004         29.7504
  -1873750.82447  -1452319.92647  21318756.0084                   21318756.6724
        47.7504         44.0004
  -1648505.93747  -1258383.19144  22989851.7974                   22989852.4384
        42.0004         25.2504
   1376720.80147   1062534.25445  21577664.3054                   21577663.2154
        45.7504         34.7504
   -116444.23448    -88308.32048  20052593.1334                   20052590.8634
        48.2504         48.2504
  -2098292.93746  -1601860.73045  22953997.6564                   22953999.9144
        41.0004         34.2504
    785300.68046    605472.94944  24559963.2504                   24559966.6334
        37.2504         28.5004
 25  7 16  0 12 30.0000000  0 10G01G02G32G10G03G04G28G31G26G25
     18257.07847     15253.72745  21123810.8594                   21123809.8524
        47.7504         34.2504
   1397074.60547   1081055.82445  22209081.6414                   22209078.9654
        45.0004         33.0004
   1559790.73846   1200671.72745  23786866.1804                   23786867.6804
        41.0004         33.0004
   2166000.40246   1663052.44545  24527067.7274                   24527070.8324
        40.2504         30.5004
  -1951837.31247  -1513166.52047  21303896.3204                   21303897.3834
        47.2504         44.0004
  -1717602.32446  -1312224.48444  22976702.4384                   22976703.7774
        40.7504         25.5004
   1437941.19547   1110238.44145  21589314.1644                   21589313.3714
        45.2504         34.2504
   -113467.23448    -85988.57848  20053159.4924                   20053157.4614
        48.2504         48.0004
  -2185752.66046  -1670011.11745  22937354.3364                   22937357.1454
        41.5004         35.0004
    825278.17646    636624.14144  24567571.3364                   24567574.6884
        37.5004         29.7504
 25  7 16  0 13  0.0000000  0 10G01G02G32G10G03G04G28G31G26G25
     26612.90647     21764.73845  21125400.7814                   21125400.0394
        47.5004         34.7504
   1456559.63347   1127407.73445  22220401.2734                   22220398.5554
        45.7504         33.0004
   1623845.34046   1250584.33245  23799055.3444                   23799057.5004
        40.0004         33.0004
   2253587.09446   1731301.69945  24543735.7344                   24543738.5234
        41.7504         32.0004
  -2029725.54747  -1573858.62947  21289074.4224                   21289075.7234
        47.0004         44.5004
  -1786598.14846  -1365987.41844  22963573.8054                   22963574.3014
        41.7504         25.2504
   1499526.44547   1158226.91845  21601034.0164                   21601032.8134
        45.5004         34.2504
   -109907.77047    -83214.96548  20053836.9224                   20053834.9264
        47.7504         48.2504
  -2273014.39846  -1738007.20745  22920748.6884                   22920751.9224
        41.2504         34.7504
    865746.23446    668157.69545  24575272.5784                   24575275.2344
        37.2504         30.0004
 25  7 16  0 13 30.0000000  0 10G01G02G32G10G03G04G28G31G26G25
     35525.25447     28709.40245  21127097.1254                   21127096.1844
        47.2504         34.7504
   1516360.00447   1174005.36745  22231781.0704                   22231778.5474
        46.0004         32.7504
   1687891.61346   1300490.44545  23811243.1954                   23811244.9224
        39.5004         32.0004
   2341347.07046   1799686.02345  24560434.7974                   24560438.4574
        39.0004         31.2504
  -2107414.01647  -1634395.08647  21274291.2114                   21274291.9024
        47.2504         44.0004
  -1855494.18446  -1419672.57844  22950463.1564                   22950464.0514
        41.7504         24.2504
   1561473.48447   1206497.32445  21612821.8364                   21612820.7304
        46.0004         34.5004
   -105767.68748    -79988.93048  20054624.9454                   20054622.8284
        49.7504         48.2504
  -2360075.49246  -1805846.96145  22904181.2584                   22904185.2934
        40.7504         34.7504
    906702.87546    700071.93844  24583066.6954                   24583068.0314
        37.2504         27.7504
 25  7 16  0 14  0.0000000  0 10G01G02G32G10G03G04G28G31G26G25
     44991.44147     36085.63345  21128898.6724                   21128897.5744
        47.5004         34.7504
   1576471.58247   1220845.50445  22243219.8834                   22243216.7194
        46.0004         32.5004
   1751927.49646   1350388.48845  23823428.6724                   23823430.3204
        40.5004         33.2504
   2429277.40246   1868202.99645  24577166.6094                   24577172.5514
        37.5004         30.7504
  -2184902.49247  -1694775.69547  21259545.3834                   21259546.3524
        47.2504         44.0004
  -1924292.59447  -1473281.71144  22937370.8754                   22937371.6334
        42.5004         25.5004
   1623777.89847   1255046.19545  21624677.9534                   21624677.0824
        45.5004         35.0004
   -101049.69548    -76312.57048  20055522.5084                   20055520.1914
        48.7504         48.2504
  -2446934.70346  -1873529.40245  22887652.7114                   22887656.0354
        41.0004         34.5004
    948145.06646    732364.53944  24590951.6564                   24590954.9224
        36.5004         29.2504
 25  7 16  0 14 30.0000000  0 11G01G02G32G10G03G04G28G31G26G25G16
     55007.59447     43890.39545  21130804.6094                   21130803.7734
        47.2504         34.5004
   1636888.60247   1267923.64545  22254716.6644                   22254714.2814
        46.0004         33.0004
   1815949.68846   1400275.85245  23835612.2274                   23835613.9184
        40.7504         34.5004
   2517373.75446   1936849.32444  24593931.5474                   24593935.8134
        37.5004         28.0004
  -2262191.97347  -1755001.25047  21244837.6094                   21244838.5984
        47.0004         44.2504
  -1992996.64546  -1526817.27044  22924296.2974                   22924298.2114
        41.5004         25.5004
   1686434.05947   1303869.16045  21636600.8674                   21636599.9654
        45.5004         35.0004
    -95757.98048    -72189.16048  20056529.2814                   20056527.0984
        48.7504         48.0004
  -2533591.94946  -1941054.47345  22871162.3834                   22871165.3554
        40.5004         34.7504
    990068.28946    765031.97345  24598929.8284                   24598933.2234
        38.5004         30.0004
   -227776.21955    -91014.33652  25102538.9534                   25102539.4494
        30.5004         16.2504
 25  7 16  0 15  0.0000000  0 10G01G02G32G10G03G04G28G31G26G25
     65560.27047     52113.23845  21132812.5784                   21132811.9384
        46.2504         35.0004
   1697596.18447   1315228.20745  22266268.9144                   22266266.6294
        46.0004         32.5004
   1879945.38746   1450142.55945  23847790.2974                   23847791.9384
        40.7504         35.0004
   2605622.23446   2005614.25444  24610725.7974                   24610728.9884
        38.0004         29.0004
  -2339292.86747  -1815079.85247  21230165.3594                   21230166.5594
        46.2504         44.5004
  -2061619.18746  -1580289.34844  22911238.3134                   22911239.9064
        41.7504         26.5004
   1749426.82847   1352954.41445  21648588.3134                   21648587.3134
        46.0004         34.5004
    -89906.22748    -67629.35248  20057643.1954                   20057641.0274
        48.5004         48.2504
  -2620056.60946  -2008429.48045  22854708.7424                   22854711.6914
        40.5004         34.5004
   1032458.62546    798063.44144  24606996.1724                   24606999.5944
        37.5004         29.7504
 25  7 16  0 15 30.0000000  0 11G01G02G32G10G03G04G28G31G26G25G16
     76651.78947     60755.94945  21134922.8524                   21134922.1724
        47.0004         34.2504
   1758594.98047   1362759.68845  22277876.8594                   22277874.3834
        45.0004         33.0004
   1943917.56646   1499990.96146  23859963.8594                   23859965.5084
        41.5004         36.2504
   2694025.05546   2074499.32044  24627549.3054                   24627551.2704
        38.5004         28.5004
  -2416199.91447  -1875007.40647  21215530.6644                   21215531.8954
        46.5004         44.2504
  -2130157.39147  -1633695.67644  22898196.5394                   22898196.9384
        42.5004         25.5004
   1812756.81347   1402302.43445  21660639.6644                   21660638.2584
        45.7504         33.7504
    -83492.26648    -62631.46548  20058863.7504                   20058861.4574
        49.0004         48.2504
  -2706322.42246  -2075649.53545  22838292.9924                   22838295.5474
        41.0004         35.0004
   1075317.98445    831460.27744  24615152.1884                   24615155.8364
        35.5004         25.2504
                                  25063412.359
        26.750
 25  7 16  0 16  0.0000000  0 11G01G02G32G10G03G04G28G31G26G25G16
     88281.20747     69817.81645  21137136.0474                   21137135.3484
        47.0004         34.5004
   1819882.27747   1410515.97345  22289539.8134                   22289536.7384
        45.0004         31.5004
   2007866.01247   1549820.86745  23872132.3754                   23872134.4924
        42.7504         35.5004
   2782580.53145   2143503.69944  24644396.6954                   24644402.2344
        34.7504         27.2504
  -2492911.05947  -1934782.31247  21200932.6884                   21200934.4024
        46.5004         44.5004
  -2198611.46147  -1687036.46144  22885169.6724                   22885170.6374
        42.0004         25.7504
   1876421.38347   1451911.18045  21672754.4304                   21672753.2664
        45.7504         33.7504
    -76517.64548    -57196.69548  20060190.9304                   20060188.4024
        49.0004         48.0004
  -2792386.25846  -2142712.22345  22821914.9694                   22821918.0594
        41.5004         35.2504
   1118644.72755    865221.45354  24623398.6174                   24623398.6914
        35.5004         25.0004
   -536492.56615                  25043793.383
        30.750
 25  7 16  0 16 30.0000000  0 11G01G02G32G10G03G04G28G31G26G25G16
    100453.89147     79302.99645  21139452.4614                   21139451.8094
        47.5004         34.2504
   1881461.81347   1458499.96945  22301257.9064                   22301254.9534
        45.5004         32.2504
   2071796.75846   1599636.96145  23884298.2034                   23884300.3874
        41.5004         35.5004
   2871294.09446   2212630.99645  24661279.6884                   24661285.3094
        36.2504         30.7504
  -2569417.89547  -1994398.00847  21186374.2194                   21186375.5704
        47.2504         44.7504
  -2266975.47747  -1740307.10244  22872160.0864                   22872160.7464
        42.0004         24.5004
   1940424.30547   1501783.54745  21684933.5864                   21684932.6954
        47.0004         34.0004
    -68976.93448    -51320.82447  20061625.6954                   20061623.0984
        49.2504         47.7504
  -2878238.77046  -2209610.21945  22805578.6094                   22805581.3754
        40.7504         35.0004
   1162440.93455    899347.52753  24631733.2114                   24631735.6214
        34.5004         22.5004
   -639812.37945   -175465.05552  25024128.0784                   25024131.9144
        33.0004         16.2504
 25  7 16  0 17  0.0000000  0 11G01G02G32G10G03G04G28G31G26G25G16
    113171.78947     89213.02045  21141872.6804                   21141871.5704
        47.0004         34.5004
   1943333.89147   1506711.91845  22313031.6564                   22313028.8404
        46.2504         32.2504
   2135712.60546   1649441.46145  23896461.3834                   23896463.3014
        41.5004         34.5004
   2960167.33246   2281882.70344  24678194.2974                   24678196.9264
        38.2504         29.2504
  -2645715.34847  -2053850.55947  21171855.4924                   21171856.3284
        47.7504         44.7504
  -2335246.76247  -1793505.45744  22859168.4384                   22859170.3014
        42.2504         26.2504
   2004765.87147   1551919.81645  21697177.6024                   21697176.2704
        46.2504         33.7504
    -60868.36748    -45002.47348  20063168.9844                   20063166.4774
        49.5004         48.0004
  -2963873.77346  -2276338.73845  22789282.7584                   22789285.0904
        41.5004         35.7504
   1206713.85555    926957.98852  24640158.0164                   24640158.8914
        33.2504         17.7504
   -743329.87145   -256127.83642  25004430.8594                   25004433.8634
        32.5004         16.2504
 25  7 16  0 17 30.0000000  0 11G01G02G32G10G03G04G28G31G26G25G16
    126433.07047     99546.46945  21144396.1644                   21144395.7384
        47.7504         34.5004
   2005495.39147   1555149.40245  22324860.6334                   22324858.0004
        45.2504         32.0004
   2199612.50046   1699233.51245  23908621.0634                   23908623.0234
        41.7504         34.2504
   3049198.21555   2351257.23054  24695133.9384                   24695138.7384
        34.7504         25.2504
  -2721802.18048  -2113138.98047  21157376.6804                   21157377.5084
        48.0004         45.0004
  -2403426.43747  -1846632.43444  22846194.6334                   22846195.1484
        42.0004         27.0004
   2069442.68847   1602317.31645  21709485.0394                   21709484.1414
        46.5004         33.0004
    -52194.27348    -38243.44548  20064819.4064                   20064817.1684
        49.5004         48.2504
  -3049289.13347  -2342896.11345  22773028.5634                   22773031.3284
        42.0004         35.5004
   1251458.40255    955533.77053  24648672.4614                   24648672.7584
        35.5004         20.7504
   -847043.36745   -336943.19142  24984694.2194                   24984697.7544
        33.2504         15.5004
 25  7 16  0 18  0.0000000  0 10G01G02G32G10G03G04G28G31G26G16
    140236.17247    110302.11345  21147023.0704                   21147021.8054
        47.7504         34.2504
   2067942.97747   1603809.78145  22336744.0634                   22336741.2814
        45.2504         32.5004
   2263495.63346   1749012.50845  23920777.2584                   23920779.5514
        40.5004         33.7504
   3138384.53545   2420753.03144  24712107.9844                   24712111.1644
        34.7504         25.7504
  -2797676.82048  -2172262.06647  21142938.1644                   21142938.8404
        48.2504         45.5004
  -2471515.32847  -1899688.66844  22833237.9064                   22833238.5204
        42.0004         25.5004
   2134451.55947   1652973.56345  21721855.7734                   21721854.9844
        47.0004         33.2504
    -42956.39848    -31045.09448  20066577.5004                   20066575.3054
        49.7504         48.0004
  -3134482.22346  -2409280.30145  22756816.1564                   22756819.0864
        41.0004         35.5004
   -950950.85246   -417909.92242  24964920.9924                   24964925.5084
        36.7504         16.7504
 25  7 16  0 18 30.0000000  0 11G01G02G32G10G03G04G28G31G26G25G16
    154582.06348    121480.69545  21149752.2974                   21149751.6764
        48.2504         34.7504
   2130675.75847   1652692.41845  22348681.6484                   22348679.3484
        45.5004         32.7504
   2327363.85246   1798779.89145  23932930.9384                   23932932.9844
        40.0004         32.7504
   3227728.74656   2477839.90653  24729109.2424                   24729110.8674
        38.2504         21.5004
  -2873335.12947  -2231216.58247  21128540.5784                   21128541.8594
        47.5004         45.0004
  -2539511.68046  -1952672.79744  22820298.1884                   22820299.4104
        41.7504         25.5004
   2199791.89847   1703888.09045  21734289.7894                   21734288.6684
        47.0004         33.7504
    -33153.71148    -23406.64848  20068442.7114                   20068440.4184
        49.2504         48.0004
  -3219447.91846  -2475487.28945  22740648.0474                   22740651.1524
        41.7504         35.5004
   1342350.97755   1016195.06353  24665970.1094                   24665970.8094
        33.2504         21.0004
  -1055047.91845   -499024.27742  24945111.6484                   24945116.0354
        35.5004         17.7504
 25  7 16  0 19  0.0000000  0 11G01G02G32G10G03G04G28G31G26G25G16
    169470.78147    133082.28145  21152586.2274                   21152585.3284
        47.7504         34.2504
   2193692.54347   1701796.34045  22360673.8444                   22360670.7854
        45.0004         33.0004
   2391218.06646   1848536.36345  23945082.3524                   23945083.7734
        40.2504         33.0004
   3317227.93846   2547579.49244  24746138.7734                   24746143.3054
        37.0004         28.7504
  -2948773.91047  -2290000.03147  21114184.9454                   21114186.5234
        47.5004         45.0004
  -2607414.78947  -2005584.26244  22807376.4924                   22807378.0274
        42.0004         25.5004
   2265462.16847   1755059.71145  21746786.4384                   21746785.1994
        45.0004         33.7504
    -22786.71548    -15328.46548  20070415.6564                   20070413.1094
        49.5004         48.0004
  -3304181.96146  -2541513.77345  22724523.7344                   22724526.4964
        41.5004         35.5004
   1388504.28114                  24674751.250
        29.500
  -1159331.25046   -580283.78942  24925267.2584                   24925270.8634
        37.7504         17.2504
 25  7 16  0 19 30.0000000  0 10G01G02G32G10G03G04G28G31G26G16
    184901.30947    145106.03545  21155522.4924                   21155522.0514
        47.7504         35.0004
   2256991.02347   1751119.77045  22372719.1564                   22372716.3404
        46.2504         32.2504
   2455058.27746   1898281.91045  23957229.9384                   23957232.8984
        40.2504         32.0004
   3406882.37946   2617439.77343  24763201.3284                   24763205.1294
        37.7504         22.7504
  -3023990.87147  -2348610.63347  21099871.9774                   21099872.9184
        47.2504         45.2504
  -2675224.71146  -2058423.11744  22794472.8914                   22794473.5744
        41.7504         26.2504
   2331459.90247   1806486.49645  21759345.5474                   21759344.5274
        47.0004         34.0004
    -11856.59448     -6811.49248  20072495.5314                   20072493.5004
        48.7504         48.0004
  -3388681.17647  -2607357.27045  22708444.2424                   22708446.8404
        42.0004         35.7504
  -1263797.72745   -661686.05142  24905387.7894                   24905392.0204
        35.7504         16.2504
 25  7 16  0 20  0.0000000  0 11G01G02G32G10G03G04G28G31G26G25G16
    200871.64847    157550.43445  21158561.6414                   21158560.7734
        47.7504         34.0004
   2320567.50847   1800659.83645  22384817.0864                   22384814.4964
        46.5004         32.5004
   2518883.30946   1948015.65245  23969376.5394                   23969377.1954
        40.7504         32.2504
   3496689.67646   2687419.52043  24780289.3444                   24780294.7034
        36.5004         22.5004
  -3098984.84447  -2407047.47747  21085600.7194                   21085601.7974
        47.2504         45.5004
  -2742942.70347  -2111190.35244  22781586.2114                   22781587.3324
        42.0004         26.7504
   2397781.57447   1858165.69545  21771965.7894                   21771965.1294
        46.5004         33.7504
      -365.64548      2142.49648  20074682.0944                   20074679.9804
        49.5004         48.2504
  -3472943.39146  -2673016.09446  22692409.9064                   22692412.0004
        41.7504         36.5004
     25163.31655   1060730.94553  24692583.2664                   24692587.8714
        34.0004         22.2504
  -1368446.22346   -743230.05942  24885474.3594                   24885477.9454
        38.7504         16.2504
 25  7 16  0 20 30.0000000  0 11G01G02G32G10G03G04G28G31G26G25G16
    217381.75847    170415.42645  21161703.5314                   21161702.6844
        47.0004         34.5004
   2384420.63747   1850415.46545  22396968.2424                   22396965.6994
        46.7504         33.0004
   2582694.12546   1997738.32845  23981518.9614                   23981521.1254
        41.0004         33.0004
   3586648.82816                  24797410.500
        36.000
  -3173752.54747  -2465308.00847  21071373.1414                   21071373.8874
        47.0004         45.5004
  -2810567.95747  -2163885.31244  22768718.0634                   22768718.6954
        42.5004         25.7504
   2464425.64547   1910096.11345  21784647.7814                   21784647.0084
        45.7504         33.0004
     11686.05548     11533.43048  20076975.0944                   20076972.7934
        49.0004         48.0004
  -3556964.40647  -2738486.96946  22676420.5004                   22676423.4654
        42.0004         36.5004
     72713.01255   1091119.18053  24701631.5314                   24701636.9804
        32.0004         19.5004
  -1473272.89546   -824913.03142  24865526.2194                   24865530.1414
        38.0004         12.5004
 25  7 16  0 21  0.0000000  0 10G01G02G32G10G03G04G28G31G26G16
    234430.12947    183699.84445  21164947.5394                   21164946.6764
        46.7504         34.5004
   2448546.95747   1900383.95745  22409170.7734                   22409168.3954
        45.5004         32.2504
   2646490.17647   2047449.49245  23993659.4454                   23993660.4804
        42.0004         33.7504
   3676759.74646   2816041.37154  24814557.3674                   24814561.7274
        41.2504         29.5004
  -3248292.19947  -2523390.83247  21057188.6724                   21057189.4454
        46.5004         45.5004
  -2878101.09847  -2216508.48044  22755867.0554                   22755867.4224
        42.5004         26.0004
   2531389.18847   1962275.48045  21797390.7734                   21797389.8014
        45.0004         33.2504
     24296.71548     21359.91048  20079375.0394                   20079372.7934
        49.2504         48.0004
  -3640741.38747  -2803767.68446  22660478.2814                   22660481.3244
        42.2504         36.2504
  -1578275.45746   -861455.12953  24845544.1024                   24845546.7194
        38.0004         19.0004
 25  7 16  0 21 30.0000000  0 10G01G02G32G10G03G04G28G31G26G16
    252021.29347    197407.21945  21168294.8444                   21168293.9264
        47.2504         34.2504
   2512949.71547   1950567.86345  22421426.5474                   22421423.8554
        46.2504         32.2504
   2710277.08647   2097153.54345  24005797.6644                   24005799.2074
        43.5004         34.7504
   3767026.19545   2886378.86344  24831733.8914                   24831738.6254
        34.5004         26.0004
  -3322595.95747  -2581289.84047  21043049.0084                   21043050.2074
        46.7504         45.5004
  -2945536.68746  -2269055.66444  22743034.2274                   22743034.8674
        41.2504         26.7504
   2598675.23847   2014706.14545  21810194.9224                   21810194.1844
        47.0004         33.0004
     37470.59048     31625.26248  20081882.0944                   20081879.5274
        49.0004         48.0004
  -3724265.56646  -2868851.40646  22644584.3834                   22644587.1954
        41.2504         36.0004
  -1683445.945 6                  24825530.211
        36.000
 25  7 16  0 22  0.0000000  0 10G01G02G32G10G03G04G28G31G26G16
    270159.68447    211541.00045  21171746.6884                   21171745.8984
        47.5004         33.7504
   2577632.00447   2000969.59445  22433734.8284                   22433732.4344
        44.7504         31.2504
   2774060.29747   2146854.68045  24017935.0704                   24017937.0864
        42.0004         35.0004
   3857452.59446   2956840.79744  24848940.5084                   24848946.4344
        37.7504         28.7504
  -3396655.89547  -2638998.85547  21028956.1174                   21028957.5044
        47.5004         45.5004
  -3012869.30946  -2321522.58644  22730221.1954                   22730222.3594
        41.7504         26.5004
   2666286.87947   2067390.51645  21823061.0394                   21823059.9344
        46.5004         33.5004
     51211.74648     42332.65647  20084497.0234                   20084494.8014
        49.5004         47.7504
  -3807528.16846  -2933731.30545  22628739.7114                   22628742.9774
        41.5004         35.7504
  -1788775.656 6                  24805487.484
        36.250
 25  7 16  0 22 30.0000000  0 10G01G02G32G10G03G04G28G31G26G16
    288847.94547    226103.25445  21175302.7974                   21175302.2544
        46.0004         33.5004
   2642595.17247   2051590.18445  22446096.5784                   22446094.6024
        44.2504         31.5004
   2837843.61746   2196555.90645  24030073.1414                   24030073.8634
        41.5004         33.2504
   3948041.18846   3027429.12544  24866178.7664                   24866184.7774
        38.0004         28.2504
  -3470466.15247  -2696513.32047  21014910.3914                   21014911.2734
        46.5004         45.7504
  -3080095.44946  -2373906.56244  22717428.0234                   22717428.7774
        41.5004         27.5004
   2734225.34447   2120329.54745  21835989.3754                   21835988.4344
        46.5004         33.5004
     65522.68448     53484.03547  20087220.2504                   20087217.9844
        48.5004         47.7504
  -3890522.25047  -2998401.97745  22612946.5084                   22612949.2384
        42.0004         35.7504
  -1894258.195 6                  24785415.047
        36.250
 25  7 16  0 23  0.0000000  0 10G01G02G32G10G03G04G28G31G26G16
    308082.81647    241091.43845  21178963.4384                   21178962.1134
        46.5004         34.0004
   2707834.34847   2102425.84445  22458511.8984                   22458509.2584
        46.0004         31.7504
   2901624.86746   2246255.54345  24042209.4924                   24042212.6024
        41.5004         33.7504
   4038788.82846   3098141.46543  24883448.7034                   24883453.8554
        37.5004         22.5004
  -3544026.50447  -2753833.06647  21000912.3914                   21000913.0354
        46.7504         45.7504
  -3147217.35246  -2426209.29344  22704654.9224                   22704656.5164
        41.2504         27.0004
   2802486.00847   2173519.65245  21848978.9064                   21848977.9224
        45.7504         32.5004
     80400.11748     65076.83247  20090051.5084                   20090049.1954
        49.2504         47.7504
  -3973246.78546  -3062862.61345  22597204.5234                   22597207.6804
        41.5004         35.5004
  -1999893.64845   -959957.99652  24765313.3204                   24765312.5274
        32.0004         16.2504
 25  7 16  0 23 30.0000000  0 10G01G02G32G10G03G04G28G31G26G16
    327853.70747    256497.30145  21182725.4694                   21182724.5904
        46.7504         34.5004
   2773337.60247   2153467.27045  22470976.2664                   22470974.3054
        45.5004         31.5004
   2965394.68046   2295946.19545  24054345.1414                   24054347.2154
        41.0004         33.2504
   4129684.72347   3168969.38745  24900746.2584                   24900749.6804
        42.7504         30.2504
  -3617344.03547  -2810963.59047  20986960.3594                   20986961.4064
        47.5004         45.5004
  -3214244.55547  -2478438.25844  22691900.8524                   22691901.1604
        42.0004         27.0004
   2871056.92247   2226951.51245  21862027.8134                   21862026.5824
        45.7504         33.2504
     95833.08648     77102.52347  20092987.9144                   20092985.7304
        48.2504         47.5004
  -4055707.84447  -3127117.93746  22581512.9454                   22581515.6454
        42.2504         36.2504
  -2105688.027 5                  24745181.094
        33.750
 25  7 16  0 24  0.0000000  0 10G01G02G32G10G03G04G28G31G26G16
    348161.44547    272321.48445  21186589.9614                   21186589.1484
        45.7504         34.5004
   2839104.50047   2204714.12945  22483491.6094                   22483489.2074
        44.0004         31.5004
   3029154.95346   2345629.47745  24066477.8674                   24066479.9734
        40.0004         32.5004
   4220729.68846   3239913.35945  24918070.8674                   24918075.9804
        38.0004         30.2504
  -3690414.51247  -2867901.60247  20973055.8134                   20973056.5664
        47.0004         46.0004
  -3281175.29346  -2530592.03944  22679164.1414                   22679164.9304
        41.5004         26.5004
   2939937.66447   2280624.78545  21875134.9844                   21875134.0434
        44.7504         33.5004
    111822.17248     89561.54747  20096030.7584                   20096028.2704
        48.5004         47.7504
  -4137900.33647  -3191164.00045  22565871.8204                   22565874.7664
        42.0004         35.7504
  -2211636.68745  -1064444.16052  24725019.1954                   24725021.0664
        34.7504         16.2504
 25  7 16  0 24 30.0000000  0 10G01G02G32G10G03G04G28G31G26G16
    369000.27347    288559.50445  21190555.7664                   21190554.7584
        47.0004         34.2504
   2905127.78547   2256160.78545  22496055.7344                   22496053.3834
        44.0004         31.7504
   3092901.22346   2395301.78945  24078608.1414                   24078611.2074
        40.5004         32.2504
   4311918.26615                  24935425.422
        35.500
  -3763240.16447  -2924648.84447  20959197.2114                   20959198.5984
        47.5004         46.0004
  -3348014.22346  -2582674.28944  22666445.0474                   22666445.8754
        41.5004         26.2504
   3009121.09847   2334533.93045  21888300.1334                   21888299.1484
        45.0004         32.5004
    128361.46548    102449.30547  20099178.1484                   20099175.9734
        49.0004         47.5004
  -4219825.53547  -3255001.77346  22550282.2504                   22550284.8244
        42.5004         36.2504
  -2317741.24245  -1147122.85242  24704827.5864                   24704830.5204
        33.5004         16.2504
 25  7 16  0 25  0.0000000  0 10G01G02G32G10G03G04G28G31G26G16
    390368.62547    305210.13345  21194621.7894                   21194620.9774
        46.7504         34.2504
   2971404.41447   2307804.84045  22508667.5084                   22508665.4064
        44.0004         30.5004
   3156633.13746   2444962.95745  24090736.7814                   24090738.7894
        40.2504         32.0004
   4403248.27346   3319043.63354  24952803.5634                   24952808.0634
        40.7504         28.0004
  -3835819.00448  -2981203.76247  20945385.6334                   20945386.9884
        48.0004         45.7504
  -3414761.84046  -2634685.37144  22653743.1804                   22653744.5824
        41.5004         26.5004
   3078604.40247   2388676.73845  21901522.1254                   21901521.3324
        44.5004         32.7504
    145449.16048    115764.38747  20102429.9774                   20102427.6684
        48.5004         47.7504
  -4301480.59447  -3318629.05146  22534743.4454                   22534746.0164
        42.7504         36.0004
  -2423999.86745  -1229921.52343  24684607.2274                   24684610.8484
        35.2504         18.2504
 25  7 16  0 25 30.0000000  0 10G01G02G32G10G03G04G28G31G26G16
    412261.42647    322269.43045  21198787.8204                   21198787.5514
        46.7504         34.0004
   3037928.36347   2359641.59845  22521326.7974                   22521324.4804
        45.0004         31.0004
   3220346.89146   2494609.94945  24102861.3524                   24102863.1414
        39.7504         32.2504
   4494714.99645   3390316.25043  24970207.9614                   24970213.6134
        34.2504         22.2504
  -3908152.59448  -3037567.58247  20931621.0554                   20931622.0744
        48.7504         46.0004
  -3481422.07446  -2686628.36744  22641058.5084                   22641059.1414
        41.5004         27.0004
   3148381.28547   2443048.30545  21914800.9224                   21914799.9024
        45.7504         33.0004
    163080.03948    129502.73047  20105784.8914                   20105782.3484
        48.5004         47.5004
  -4382866.13347  -3382046.30946  22519256.5084                   22519258.9224
        42.2504         37.0004
  -2530412.97746  -1312840.64843  24664356.8364                   24664360.0004
        37.2504         19.0004
 25  7 16  0 26  0.0000000  0 10G01G02G32G10G03G04G28G31G26G16
    434682.48447    339740.34845  21203054.3914                   21203053.8714
        46.7504         34.2504
   3104701.93447   2411672.89145  22534033.6954                   22534030.9024
        46.0004         31.5004
   3284047.52746   2544246.76645  24114983.0474                   24114985.2234
        40.5004         31.0004
   4586322.36746   3461698.50044  24987641.1724                   24987645.5124
        38.5004         25.2504
  -3980233.52048  -3093734.52747  20917904.5234                   20917905.5984
        48.2504         46.2504
  -3547990.05947  -2738499.49244  22628391.0314                   22628391.5204
        42.5004         26.0004
   3218454.27347   2497650.60945  21928135.1484                   21928134.1844
        45.7504         32.2504
    181257.68848    143667.12547  20109244.0234                   20109241.7344
        49.0004         47.5004
  -4463973.86746  -3445247.09846  22503822.3914                   22503824.8794
        41.7504         36.5004
  -2636973.02046  -1395874.20743  24644079.9924                   24644082.3244
        37.5004         21.0004
 25  7 16  0 26 30.0000000  0 10G01G02G32G10G03G04G28G31G26G16
    457626.66047    357618.89545  21207420.7344                   21207419.7234
        45.5004         34.5004
   3171718.64847   2463893.62945  22546786.3134                   22546783.6804
        45.2504         31.5004
   3347731.32446   2593870.37944  24127100.5634                   24127103.4144
        40.7504         29.7504
   4678065.05146   3533186.21144  25005099.7584                   25005103.3444
        41.5004         29.5004
  -4052063.29348  -3149705.76647  20904236.0474                   20904236.8754
        48.0004         46.2504
  -3614469.69547  -2790301.77744  22615740.1484                   22615740.8324
        42.0004         27.0004
   3288817.03147   2552478.69545  21941525.0394                   21941523.0514
        46.0004         32.5004
    199976.71548    158253.36747  20112805.9144                   20112803.8954
        48.0004         47.5004
  -4544804.48047  -3508231.94946  22488440.5704                   22488443.1214
        42.2504         36.0004
  -2743681.06246  -1479023.19942  24623774.5474                   24623775.8324
        37.5004         16.7504
 25  7 16  0 27  0.0000000  0 10G01G02G32G10G03G04G28G31G26G16
    481092.67247    375904.07045  21211886.4304                   21211885.6954
        46.0004         34.2504
   3238976.11747   2516301.96945  22559585.1334                   22559582.5124
        44.5004         31.7504
   3411398.28546   2643480.96544  24139216.7504                   24139218.3324
        41.0004         29.5004
   4769941.86746   3604778.43444  25022582.7734                   25022587.8524
        39.7504         29.0004
  -4123639.61348  -3205479.50447  20890615.7584                   20890616.4884
        48.5004         46.2504
  -3680861.19947  -2842035.38344  22603106.1254                   22603106.8754
        42.0004         27.5004
   3359467.12147   2607530.69145  21954968.9454                   21954967.9184
        46.0004         32.5004
    219235.64848    173260.32447  20116470.6724                   20116468.1134
        48.5004         47.5004
  -4625354.74246  -3570998.34046  22473112.1414                   22473114.9924
        41.7504         36.2504
  -2850534.31646  -1562285.18743  24603439.6254                   24603442.8754
        39.0004         19.0004
 25  7 16  0 27 30.0000000  0 10G01G02G32G10G03G04G28G31G26G16
    505076.86347    394593.02345  21216449.9384                   21216449.5354
        47.5004         34.2504
   3306469.36347   2568894.03945  22572428.7504                   22572426.2704
        45.2504         31.2504
   3475046.19546   2693076.66844  24151328.4774                   24151330.6294
        39.7504         29.7504
   4861949.34046   3676472.47745  25040092.3984                   25040096.3204
        39.7504         30.5004
  -4194962.40247  -3261055.69147  20877043.4384                   20877044.0664
        47.7504         46.2504
  -3747166.96947  -2893702.18744  22590488.7504                   22590489.4024
        42.0004         26.2504
   3430399.72747   2662802.82045  21968467.0554                   21968466.1214
        46.0004         32.2504
    239030.67248    188685.01247  20120237.6564                   20120235.5744
        48.0004         47.2504
  -4705623.73847  -3633545.56646  22457837.6724                   22457840.0594
        42.0004         36.0004
  -2957532.02346  -1645659.91842  24583078.8984                   24583081.1724
        36.0004         17.2504
 25  7 16  0 28  0.0000000  0  9G01G02G32G03G04G28G31G26G16
    529579.85247    413686.22745  21221113.3204                   21221112.4344
        46.2504         34.5004
   3374197.91447   2621669.46545  22585316.6644                   22585314.4494
        45.0004         31.2504
   3538677.05146   2742659.08645  24163437.4454                   24163439.4264
        41.5004         30.2504
  -4266027.41847  -3316431.02047  20863519.9144                   20863521.2894
        47.7504         46.5004
  -3813385.14846  -2945300.73844  22577888.0554                   22577887.8634
        41.5004         26.7504
   3501614.30947   2718294.67645  21982018.6174                   21982017.8634
        46.5004         33.0004
    259362.07447    204527.64847  20124106.4844                   20124104.4104
        47.7504         47.2504
  -4785606.33246  -3695869.61746  22442617.3834                   22442619.7504
        41.7504         36.0004
  -3064669.605 5                  24562690.180
        34.250
 25  7 16  0 28 30.0000000  0  9G01G02G32G03G04G28G31G26G16
    554601.07447    433183.25445  21225874.4614                   21225873.8014
        47.2504         34.5004
   3442159.74247   2674626.65645  22598249.9774                   22598246.9304
        45.0004         31.0004
   3602291.75846   2792228.92245  24175542.1954                   24175545.3714
        39.7504         30.0004
  -4336831.48447  -3371603.00447  20850046.3674                   20850047.3914
        47.5004         46.5004
  -3879515.09046  -2996830.53544  22565303.7894                   22565304.3874
        41.5004         26.0004
   3573109.19547   2774004.94545  21995623.5554                   21995622.9734
        45.2504         32.0004
    280229.02747    220787.61347  20128077.6564                   20128075.1764
        47.5004         47.2504
  -4865298.56647  -3757967.42645  22427452.1254                   22427454.9184
        42.0004         35.5004
  -3171943.328 6                  24542278.016
        38.000
 25  7 16  0 29  0.0000000  0  9G01G02G32G03G04G28G31G26G16
    580153.84447    453094.47745  21230736.7034                   21230736.0634
        47.0004         34.0004
   3510366.94547   2727775.04745  22611229.2814                   22611227.0234
        46.2504         30.2504
   3665905.01246   2841797.59845  24187647.8204                   24187650.7304
        40.2504         30.0004
  -4407357.59448  -3426558.40247  20836625.5234                   20836626.8094
        48.2504         46.5004
  -3945542.21946  -3048280.22344  22552738.8364                   22552739.6414
        41.5004         26.5004
   3644896.54747   2829943.11345  22009284.4774                   22009283.4924
        46.0004         31.7504
    301644.98047    237475.35947  20132152.8134                   20132150.6214
        47.5004         47.2504
  -4944682.53947  -3819825.02346  22412346.5944                   22412348.8484
        42.2504         36.7504
  -3279335.71516                  24521842.125
        36.250
 25  7 16  0 29 30.0000000  0  8G01G02G32G03G04G28G31G26
    606241.41447    473422.43045  21235701.0944                   21235700.3834
        46.0004         34.2504
   3578822.19947   2781116.73045  22624255.9304                   22624253.5124
        45.0004         30.5004
   3729521.69146   2891368.95745  24199753.2894                   24199756.0084
        39.5004         30.2504
  -4477598.66448  -3481291.69547  20823259.2974                   20823260.3524
        48.0004         46.7504
  -4011461.88747  -3099646.16444  22540194.7814                   22540195.4654
        42.0004         26.5004
   3716978.66447   2886110.97345  22023000.9844                   22023000.4884
        45.5004         32.0004
    323613.06347    254593.34447  20136333.2194                   20136331.2704
        47.5004         47.2504
  -5023750.32447  -3881436.24646  22397299.9844                   22397302.4494
        42.7504         36.5004
 25  7 16  0 30  0.0000000  0  8G01G02G32G03G04G28G31G26
    632857.09047    494161.89145  21240766.1954                   21240765.3014
        46.0004         34.5004
   3647516.89847   2834645.00044  22637328.0164                   22637325.5434
        45.2504         29.2504
   3793136.57446   2940938.93845  24211858.8984                   24211862.5044
        39.0004         31.0004
  -4547557.57847  -3535805.12547  20809946.7504                   20809947.6604
        47.0004         46.7504
  -4077279.58647  -3150932.66044  22527670.5234                   22527670.9654
        42.2504         27.0004
   3789347.70347   2942502.40245  22036772.5704                   22036771.4384
        45.5004         32.0004
    346126.07447    272135.93847  20140617.3134                   20140615.0124
        47.5004         47.2504
  -5102504.12147  -3942802.80546  22382314.1804                   22382316.6054
        42.5004         37.0004
 25  7 16  0 30 30.0000000  0  9G01G02G32G03G04G28G31G26G16
    660001.65647    515313.46145  21245931.3594                   21245930.6684
        47.0004         34.5004
   3716451.00047   2888359.81345  22650445.9694                   22650443.2894
        45.0004         30.0004
   3856751.97346   2990509.27045  24223964.6024                   24223968.3134
        37.7504         30.5004
  -4617229.82447  -3590095.17647  20796688.3984                   20796689.0664
        47.0004         46.7504
  -4142993.08247  -3202137.94944  22515165.6954                   22515166.0084
        42.0004         26.5004
   3862003.50847   2999117.28945  22050598.3914                   22050597.4884
        46.0004         31.7504
    369184.61748    290103.62947  20145005.3204                   20145002.9224
        48.5004         47.2504
  -5180938.39847  -4003920.38746  22367388.1804                   22367390.3594
        43.5004         37.5004
   -183207.60915                  24460405.680
        31.000
 25  7 16  0 31  0.0000000  0  9G01G02G32G03G04G28G31G26G16
    687671.89547    536874.66045  21251197.2734                   21251196.5704
        46.5004         34.0004
   3785619.84847   2942257.53545  22663608.3754                   22663605.7504
        45.5004         30.5004
   3920366.29346   3040078.78944  24236070.2274                   24236072.6334
        38.5004         29.7504
  -4686614.79347  -3644161.37547  20783484.5784                   20783485.5124
        47.2504         46.7504
  -4208604.33647  -3253263.57444  22502680.4924                   22502680.2034
        43.0004         26.5004
   3934941.75847   3055952.25845  22064478.0944                   22064477.0204
        45.5004         32.2504
    392785.57047    308493.97347  20149496.0234                   20149494.0354
        47.5004         47.0004
  -5259051.87547  -4064788.00846  22352523.7894                   22352526.3094
        43.5004         37.5004
   -291039.25845  -1789095.85553  24439884.7894                   24439885.8634
        34.5004         18.2504
 25  7 16  0 31 30.0000000  0  9G01G02G32G03G04G28G31G26G16
    715862.77747    558841.54745  21256561.4844                   21256560.8794
        47.0004         34.5004
   3855017.60547   2996333.65645  22676814.7344                   22676812.0204
        46.0004         30.2504
   3983976.03146   3089644.71545  24248175.2344                   24248178.2464
        39.5004         31.0004
  -4755713.56647  -3698004.55547  20770335.6174                   20770336.8874
        47.7504         47.0004
  -4274116.88747  -3304312.28544  22490213.4064                   22490213.3594
        43.0004         26.7504
   4008156.54347   3113002.70745  22078410.8834                   22078409.5394
        45.5004         32.0004
    416923.50848    327302.75847  20154089.6724                   20154087.2234
        48.2504         47.0004
  -5336844.77747  -4125405.81646  22337719.7664                   22337722.2704
        43.2504         37.7504
   -398978.25046  -1873203.99643  24419344.9224                   24419347.3674
        36.7504         19.0004
 25  7 16  0 32  0.0000000  0  9G01G02G32G03G04G28G31G26G16
    744568.33248    581209.48445  21262024.2114                   21262023.8594
        48.0004         34.5004
   3924637.12147   3050582.55144  22690062.5704                   22690060.0864
        44.5004         29.7504
   4047576.89146   3139203.73845  24260277.9614                   24260281.7304
        38.7504         31.0004
  -4824528.29747  -3751626.41447  20757240.7114                   20757241.7504
        47.0004         46.7504
  -4339535.34447  -3355287.67244  22477764.7274                   22477764.6684
        42.0004         26.0004
   4081640.87947   3170263.20345  22092394.7814                   22092393.3984
        44.7504         32.7504
    441592.44547    346525.30147  20158783.8524                   20158781.6884
        47.7504         47.0004
  -5414318.47747  -4185774.90246  22322977.1484                   22322979.5124
        43.0004         37.0004
   -507026.41446  -1957397.18443  24398784.3914                   24398786.0164
        39.2504         20.0004
 25  7 16  0 32 30.0000000  0  9G01G02G32G03G04G28G31G26G16
    773792.85947    603981.80945  21267585.3984                   21267584.9694
        47.0004         34.0004
   3994481.65647   3105006.78945  22703353.7274                   22703351.3524
        44.5004         30.5004
   4111174.86746   3188760.50445  24272380.4144                   24272383.2384
        40.7504         31.0004
  -4893050.73847  -3805020.52047  20744201.3834                   20744202.1214
        47.7504         47.0004
  -4404853.93747  -3406185.23044  22465334.8674                   22465335.4924
        43.5004         27.0004
   4155398.19547   3227736.40245  22106429.6884                   22106428.7304
        44.2504         31.7504
    466796.70348    366164.97747  20163579.9454                   20163577.4924
        48.2504         47.0004
  -5491463.93747  -4245888.21546  22308296.7194                   22308299.3444
        43.0004         37.2504
   -615174.88346  -2041668.50843  24378204.6484                   24378206.0314
        39.0004         20.7504
 25  7 16  0 33  0.0000000  0  9G01G02G32G03G04G28G31G26G16
    803531.21947    627154.52345  21273244.3594                   21273243.6484
        47.5004         34.0004
   4064545.15247   3159601.65245  22716686.8204                   22716683.9614
        44.5004         31.0004
   4174766.39146   3238312.32445  24284482.1094                   24284484.1024
        40.2504         30.7504
  -4961282.12147  -3858187.82047  20731217.3914                   20731218.4574
        47.7504         47.0004
  -4470076.35247  -3457007.85244  22452922.9774                   22452923.9494
        43.0004         28.0004
   4229422.40647   3285417.58245  22120515.9224                   22120515.3984
        44.5004         31.0004
    492530.52348    386217.29747  20168477.1254                   20168474.9064
        48.0004         47.0004
  -5568281.65647  -4305746.14146  22293678.9844                   22293681.2664
        43.5004         37.5004
   -723424.41846  -2126018.61343  24357604.0164                   24357606.5354
        37.2504         20.2504
 25  7 16  0 33 30.0000000  0  9G01G02G32G03G04G28G31G26G16
    833777.96547    650723.38345  21279000.3594                   21278999.6454
        47.5004         34.2504
   4134820.92247   3214361.91045  22730059.2344                   22730057.5234
        45.2504         30.5004
   4238347.85546   3287856.23845  24296581.1644                   24296583.4924
        41.5004         32.2504
  -5029223.96947  -3911129.50047  20718288.3054                   20718289.3134
        47.7504         47.0004
  -4535206.50847  -3507758.58244  22440529.3284                   22440530.0124
        43.7504         28.0004
   4303707.16047   3343301.77345  22134652.2584                   22134651.2774
        44.7504         30.5004
    518788.42648    406677.99247  20173474.1024                   20173472.0084
        48.0004         47.0004
  -5644772.30147  -4365349.19546  22279123.3204                   22279125.8484
        43.5004         37.5004
   -831775.54745  -2210447.88743  24336985.5864                   24336987.6644
        35.2504         18.5004
 25  7 16  0 34  0.0000000  0  9G01G02G32G03G04G28G31G26G16
    864534.87147    674689.78145  21284852.6024                   21284852.6054
        46.7504         34.0004
   4205309.64847   3269288.11345  22743473.1334                   22743471.0554
        44.5004         30.2504
   4301922.68046   3337395.04345  24308679.1804                   24308681.0354
        41.0004         31.0004
  -5096870.49248  -3963841.07047  20705415.6804                   20705416.5744
        48.0004         47.0004
  -4600241.19947  -3558434.92644  22428154.0004                   22428154.4024
        43.2504         28.0004
   4378253.41047   3401389.72345  22148837.9614                   22148836.4734
        45.5004         31.7504
    545571.94948    427548.27047  20178570.8594                   20178568.3634
        48.5004         47.0004
  -5720929.40647  -4424692.36746  22264631.2344                   22264633.3554
        44.0004         37.2504
   -940222.12145  -2294951.61743  24316348.2034                   24316350.9804
        33.7504         18.5004
 25  7 16  0 34 30.0000000  0  9G01G02G32G03G04G28G31G26G16
    895800.20747    699052.34045  21290802.8054                   21290801.8404
        46.7504         33.5004
   4276008.60547   3324378.14144  22756926.3674                   22756924.5944
        45.0004         29.7504
   4365490.99646   3386928.77344  24320774.7734                   24320777.0124
        40.0004         29.5004
  -5164219.43448  -4016320.74647  20692599.9924                   20692600.4304
        48.5004         47.2504
  -4665180.60247  -3609037.01244  22415795.9774                   22415796.4574
        42.5004         27.2504
   4453058.55147   3459679.41845  22163072.6484                   22163071.5314
        45.5004         32.2504
    572879.41048    448826.80947  20183767.0864                   20183764.7664
        48.2504         47.0004
  -5796749.94547  -4483773.27346  22250202.7974                   22250205.2544
        44.0004         37.5004
  -1048761.25445  -2379527.27743  24295694.1484                   24295697.1294
        34.5004         18.2504
 25  7 16  0 35  0.0000000  0  9G01G02G32G03G04G28G31G26G16
    927568.02047    723806.43845  21296848.3914                   21296847.4144
        46.2504         33.5004
   4346911.02747   3379626.69144  22770418.3834                   22770416.4104
        44.5004         29.7504
   4429048.50846   3436454.06645  24332870.8364                   24332872.6094
        41.5004         30.0004
  -5231272.75448  -4068570.07447  20679839.7114                   20679840.6954
        48.5004         47.2504
  -4730029.07047  -3659568.23444  22403455.8594                   22403455.9104
        42.2504         27.5004
   4528115.82847   3518165.58645  22177355.7424                   22177354.7544
        46.5004         31.5004
    600704.80947    470508.93047  20189062.0004                   20189059.8094
        47.5004         47.0004
  -5872235.09047  -4542592.82846  22235838.4144                   22235841.1454
        43.7504         38.0004
  -1157394.09845  -2464176.09842  24275021.5784                   24275025.0554
        35.0004         14.7504
 25  7 16  0 35 30.0000000  0  9G01G02G32G03G04G28G31G26G16
    959833.26647    748948.14845  21302987.8754                   21302987.0904
        45.5004         34.5004
   4418010.71947   3435028.97744  22783949.2114                   22783946.8914
        45.0004         29.5004
   4492592.12946   3485968.53144  24344961.1954                   24344963.9774
        38.0004         28.0004
  -5298031.40247  -4120589.78947  20667136.1564                   20667136.8404
        47.5004         47.5004
  -4794790.09447  -3710031.32044  22391132.1804                   22391132.6454
        42.0004         26.7504
   4603419.46147   3576843.70345  22191685.4694                   22191684.7814
        45.0004         31.2504
    629042.78547    492590.46947  20194454.5634                   20194452.1374
        47.5004         47.0004
  -5947385.08247  -4601151.21946  22221538.1564                   22221540.4964
        44.2504         38.5004
  -1266121.21146  -2548898.40242  24254331.9454                   24254334.0084
        36.7504         16.7504
 25  7 16  0 36  0.0000000  0  9G01G02G32G03G04G28G31G26G16
    992599.83247    774480.50845  21309223.0314                   21309222.3714
        46.5004         34.0004
   4489310.94947   3490587.50845  22797517.4454                   22797514.6884
        45.7504         30.0004
   4556127.46546   3535476.55945  24357052.6174                   24357054.5084
        40.2504         30.0004
  -5364487.50448  -4172373.75047  20654489.5634                   20654490.7504
        48.7504         47.5004
  -4859458.17247  -3760421.98044  22378826.1564                   22378826.5274
        42.7504         27.0004
   4678972.48847   3635716.14845  22206062.8674                   22206062.3244
        46.0004         31.5004
    657897.12148    515074.35947  20199945.4614                   20199942.9384
        48.2504         46.7504
  -6022191.34847  -4659441.78146  22207303.0474                   22207305.2734
        44.7504         38.0004
  -1374933.75846  -2633687.29742  24233625.6884                   24233628.2464
        38.0004         16.7504
 25  7 16  0 36 30.0000000  0  9G01G02G32G03G04G28G31G26G16
   1025859.32848    800396.96145  21315552.0784                   21315551.4654
        48.0004         34.0004
   4560802.14547   3546294.85544  22811121.1094                   22811118.9454
        45.5004         29.0004
   4619648.00446   3584972.98845  24369139.8674                   24369142.9224
        38.0004         30.0004
  -5430645.27348  -4223925.24247  20641900.5554                   20641900.9774
        49.0004         47.5004
  -4924040.09847  -3810745.50044  22366536.8204                   22366536.9344
        42.7504         27.2504
   4754765.80547   3694775.83645  22220486.1174                   22220485.2424
        46.0004         31.5004
    687259.32048    537953.98847  20205532.9844                   20205530.6134
        48.5004         46.7504
  -6096657.38347  -4717467.22346  22193132.3594                   22193134.4534
        44.2504         38.0004
  -1483835.46546  -2718545.68043  24212902.5784                   24212903.8134
        40.0004         18.2504
 25  7 16  0 37  0.0000000  0  9G01G02G32G03G04G28G31G26G16
   1059613.44147    826698.83245  21321975.5084                   21321974.5864
        47.7504         33.5004
   4632484.95747   3602151.51644  22824761.9304                   22824759.8954
        45.2504         29.5004
   4683157.40646   3634460.75045  24381225.5234                   24381227.6954
        38.5004         30.5004
  -5496499.03948  -4275239.84847  20629368.7584                   20629369.6954
        48.7504         47.2504
  -4988532.48447  -3860999.27044  22354263.9844                   22354264.1294
        42.5004         27.7504
   4830800.37547   3754023.52045  22234954.8754                   22234953.7114
        46.0004         31.0004
    717130.85948    561230.51247  20211217.1414                   20211214.9654
        49.2504         46.7504
  -6170776.75847  -4775222.53946  22179027.6254                   22179030.5204
        44.0004         38.0004
  -1592819.87146  -2803468.44143  24192163.4224                   24192164.8164
        40.5004         19.7504
 25  7 16  0 37 30.0000000  0  9G01G02G32G03G04G28G31G26G16
   1093862.16447    853386.11345  21328492.7974                   21328492.4384
        47.0004         33.5004
   4704358.57847   3658156.83645  22838438.7584                   22838436.8634
        44.5004         30.0004
   4746657.45346   3683941.26245  24393309.0704                   24393312.1484
        40.0004         34.0004
  -5562044.62548  -4326314.31247  20616895.9534                   20616896.8364
        48.5004         47.5004
  -5052933.73847  -3911182.00844  22342008.8134                   22342008.9024
        42.5004         27.5004
   4907075.43847   3813458.60945  22249469.5474                   22249468.2664
        45.5004         31.5004
    747511.77748    584903.94147  20216998.7814                   20216996.3834
        49.2504         46.5004
  -6244544.64847  -4832703.97746  22164989.8984                   22164992.7114
        44.0004         38.0004
  -1701882.27046  -2888451.95343  24171408.9454                   24171410.5004
        38.7504         19.2504
 25  7 16  0 38  0.0000000  0  9G01G02G32G03G04G28G31G26G16
   1128604.03547    880457.66845  21335104.0784                   21335103.3634
        46.0004         34.0004
   4776420.62547   3714308.99244  22852152.0944                   22852149.8554
        44.7504         29.0004
   4810148.70746   3733414.88345  24405391.1254                   24405394.6724
        38.5004         33.2504
  -5627279.30947  -4377146.52347  20604482.3134                   20604482.9064
        47.7504         47.5004
  -5117243.59846  -3961293.53944  22329770.8444                   22329771.2234
        41.5004         27.7504
   4983589.00447   3873079.53145  22264029.8054                   22264028.9654
        45.7504         31.7504
    778400.30548    608972.91047  20222876.6954                   20222874.1644
        48.0004         46.7504
  -6317957.67247  -4889908.88746  22151019.6174                   22151022.3094
        44.0004         38.0004
  -1811019.01646  -2973493.44543  24150640.9144                   24150642.4804
        39.0004         19.7504
 25  7 16  0 38 30.0000000  0  9G01G02G32G03G04G28G31G26G16
   1163835.74647    907910.90645  21341808.2734                   21341807.7704
        46.2504         33.5004
   4848666.86747   3770604.68444  22865900.1174                   22865898.4964
        45.2504         29.2504
   4873629.78946   3782880.57445  24417471.9774                   24417474.5594
        40.5004         34.5004
  -5692202.33248  -4427735.87547  20592127.6484                   20592128.6524
        48.2504         47.5004
  -5181463.60947  -4011335.05544  22317550.3284                   22317551.1994
        42.5004         27.2504
   5060336.96947   3932883.10245  22278634.6414                   22278633.5744
        45.7504         31.7504
    809793.21548    633434.91847  20228850.3284                   20228848.3554
        48.7504         46.7504
  -6391014.22747  -4946836.03546  22137118.2504                   22137120.5044
        44.5004         37.7504
  -1920228.75445  -3058591.78142  24129858.7814                   24129860.3674
        35.7504         16.7504
 25  7 16  0 39  0.0000000  0  9G01G02G32G03G04G28G31G26G16
   1199551.50847    935741.32445  21348604.8984                   21348604.0864
        46.0004         33.5004
   4921090.80947   3827038.82444  22879682.6254                   22879680.8014
        45.5004         28.0004
   4937096.82446   3832335.37545  24429549.5004                   24429552.1414
        41.5004         35.0004
  -5756815.22748  -4478083.56647  20579832.2734                   20579833.2384
        48.5004         47.5004
  -5245597.89147  -4061309.77744  22305345.6884                   22305346.2934
        42.2504         28.5004
   5137312.95747   3992864.35245  22293282.4224                   22293282.0554
        45.7504         32.2504
    841684.47348    658285.23847  20234919.0634                   20234916.9064
        48.2504         46.7504
  -6463715.38747  -5003486.24646  22123283.2664                   22123285.3714
        43.0004         37.7504
  -2029512.39845  -3143747.70343  24109062.3834                   24109064.7304
        35.5004         18.2504
 25  7 16  0 39 30.0000000  0  9G01G02G32G03G04G28G31G26G16
   1235752.50047    963949.85545  21355494.1334                   21355493.4224
        47.7504         34.0004
   4993692.84447   3883611.75445  22893498.3364                   22893496.2034
        45.2504         30.0004
   5000553.14846   3881781.78945  24441624.1334                   24441627.5554
        40.7504         35.2504
  -5821112.64548  -4528185.43047  20567596.5784                   20567597.6524
        48.2504         47.7504
  -5309643.42647  -4111215.34044  22293158.2274                   22293158.8554
        43.0004         29.0004
   5214517.57447   4053023.75445  22307974.1644                   22307973.1414
        45.0004         31.0004
    874075.42248    683524.93447  20241082.4144                   20241080.6764
        49.0004         46.5004
  -6536054.98447  -5059854.73046  22109517.6024                   22109520.2624
        45.0004         38.2504
  -2138863.91845  -3228956.50042  24088253.1484                   24088254.9534
        35.0004         16.7504
 25  7 16  0 40  0.0000000  0  9G01G02G32G03G04G28G31G26G16
   1272436.31347    992534.61345  21362474.3754                   21362473.9534
        45.5004         33.7504
   5066469.62147   3940320.84444  22907347.0474                   22907345.4734
        44.0004         28.5004
   5063998.23446   3931219.43045  24453697.6094                   24453700.5354
        41.2504         34.5004
  -5885092.86748  -4578040.12947  20555421.5784                   20555422.6214
        48.0004         47.7504
  -5373600.99247  -4161052.35944  22280988.3204                   22280988.1524
        43.2504         28.7504
   5291947.74247   4113358.91845  22322708.5554                   22322707.7194
        45.2504         31.7504
    906963.11747    709151.69947  20247341.2814                   20247338.8484
        47.5004         46.5004
  -6608030.69947  -5115939.66446  22095821.3204                   22095823.3364
        45.0004         38.2504
  -2248280.51246  -3314216.04742  24067431.7974                   24067433.7274
        36.0004         17.2504
 25  7 16  0 40 30.0000000  0  9G01G02G32G03G04G28G31G26G16
   1309595.27047   1021489.60545  21369545.6724                   21369544.9024
        45.5004         34.0004
   5139412.38347   3997159.28944  22921227.1644                   22921225.5704
        44.5004         28.2504
   5127426.56646   3980644.04745  24465767.7114                   24465770.6134
        40.7504         33.2504
  -5948759.16048  -4627650.21947  20543306.4534                   20543307.3164
        48.5004         47.7504
  -5437476.28547  -4210825.27344  22268832.1174                   22268832.7034
        43.0004         29.0004
   5369595.29747   4173863.48045  22337484.5474                   22337483.6174
        45.7504         31.7504
    940339.65647    735159.38747  20253692.5554                   20253690.1764
        47.5004         46.5004
  -6679645.14847  -5171743.10246  22082193.0004                   22082195.1804
        43.5004         39.0004
  -2357764.82446  -3399528.36742  24046598.0164                   24046600.1134
        38.7504         16.7504
 25  7 16  0 41  0.0000000  0  9G01G02G32G03G04G28G31G26G16
   1347233.69147   1050818.20745  21376707.3594                   21376707.4224
        47.5004         34.0004
   5212525.42647   4054130.37944  22935140.2274                   22935138.6024
        44.0004         28.7504
   5190844.64146   4030060.67245  24477834.4844                   24477838.2384
        39.7504         31.5004
  -6012102.95748  -4677009.00847  20531252.2974                   20531253.1724
        48.2504         47.7504
  -5501263.14147  -4260529.25844  22256693.9064                   22256694.7344
        42.5004         27.5004
   5447464.09447   4234540.44145  22352302.3754                   22352301.4494
        45.7504         32.0004
    974209.63748    761551.57447  20260137.6334                   20260135.4494
        49.7504         47.0004
  -6750889.15647  -5227257.88346  22068635.8594                   22068638.3674
        43.7504         38.5004
  -2467307.51246  -3484886.18742  24025752.9614                   24025754.3244
        38.0004         16.2504
 25  7 16  0 41 30.0000000  0  9G01G02G32G03G04G28G31G26G16
   1385350.55147   1080519.61745  21383961.2974                   21383961.0124
        47.2504         33.5004
   5285806.20347   4111232.19944  22949085.2894                   22949083.7154
        44.7504         29.7504
   5254253.37146   4079470.00445  24489901.7814                   24489905.5944
        39.0004         30.5004
  -6075121.11348  -4726114.04347  20519260.6174                   20519261.4454
        48.2504         47.7504
  -5564960.82847  -4310163.77044  22244573.1414                   22244573.7664
        42.5004         28.0004
   5525552.49247   4295388.52345  22367162.3914                   22367161.4734
        45.0004         31.2504
   1008571.87148    788327.33247  20266676.5634                   20266674.1174
        49.2504         46.5004
  -6821758.89847  -5282481.02346  22055149.7814                   22055151.9344
        43.2504         38.0004
  -2576904.83246  -3570286.58642  24004897.4304                   24004898.3204
        39.0004         17.7504
 25  7 16  0 42  0.0000000  0  9G01G02G32G03G04G28G31G26G16
   1423942.76247   1110591.43845  21391305.2894                   21391304.8014
        47.5004         33.5004
   5359251.15647   4168461.93044  22963061.1804                   22963059.6914
        45.0004         28.7504
   5317651.94446   4128871.41044  24501966.1484                   24501969.4454
        38.2504         28.2504
  -6137812.37948  -4774964.37547  20507330.8204                   20507331.5664
        48.7504         47.7504
  -5628570.58647  -4359729.77744  22232468.7504                   22232468.9384
        42.5004         29.2504
   5603856.93047   4356404.93845  22382063.1724                   22382062.0234
        45.2504         31.5004
   1043423.40648    815484.36747  20273308.7114                   20273306.2774
        49.2504         46.5004
  -6892252.51647  -5337411.07846  22041734.7814                   22041737.5164
        43.7504         38.5004
  -2686554.66446  -3655727.90242  23984031.4694                   23984032.9264
        36.5004         16.7504
 25  7 16  0 42 30.0000000  0  9G01G02G32G03G04G28G31G26G16
   1463006.80547   1141030.91845  21398738.8674                   21398738.2504
        47.7504         33.5004
   5432855.98847   4225816.25044  22977068.5474                   22977066.4734
        44.5004         28.5004
   5381038.76646   4178263.69544  24514028.7274                   24514030.8524
        39.2504         26.5004
  -6200175.98848  -4823559.38747  20495463.3674                   20495464.0904
        48.2504         47.7504
  -5692093.95747  -4409228.45744  22220380.7584                   22220380.7584
        43.2504         29.2504
   5682373.40647   4417586.57445  22397004.1174                   22397003.1994
        44.7504         31.5004
   1078760.40248    843019.68047  20280033.4924                   20280030.8244
        49.0004         46.5004
  -6962368.66847  -5392046.99646  22028392.8054                   22028394.7114
        43.7504         38.7504
  -2796255.49646  -3741208.94142  23963155.7504                   23963157.0984
        36.2504         17.2504
 25  7 16  0 43  0.0000000  0  9G01G02G32G03G04G28G31G26G16
   1502540.81347   1171836.60545  21406261.9924                   21406261.5044
        47.5004         32.7504
   5506618.13347   4283293.17244  22991105.0164                   22991102.8444
        44.5004         29.0004
   5444414.39546   4227647.23044  24526088.4694                   24526090.6024
        37.5004         27.0004
  -6262209.44548  -4871897.14147  20483658.7424                   20483659.5984
        48.5004         47.7504
  -5755530.95347  -4458659.85544  22208308.8754                   22208309.3284
        43.0004         29.0004
   5761099.63347   4478931.65645  22411985.4844                   22411984.6954
        45.0004         31.5004
   1114581.28148    870932.04347  20286849.6094                   20286847.1214
        49.5004         46.7504
  -7032104.17247  -5446386.30546  22015122.1804                   22015124.9264
        43.5004         39.0004
  -2906003.94545  -3826727.01243  23942271.2274                   23942273.0594
        35.0004         19.0004
 25  7 16  0 43 30.0000000  0  9G01G02G32G03G04G28G31G26G16
   1542543.51247   1203007.50845  21413874.1484                   21413873.7624
        47.5004         33.5004
   5580535.68447   4340891.17244  23005171.1644                   23005168.6414
        44.5004         29.0004
   5507779.60946   4277022.65245  24538146.7344                   24538149.3524
        38.0004         30.2504
  -6323909.70748  -4919975.25447  20471917.6564                   20471918.3054
        48.5004         47.7504
  -5818880.89847  -4508023.42644  22196253.6484                   22196253.9574
        43.5004         28.0004
   5840033.91847   4540438.87145  22427005.9384                   22427005.5164
        44.5004         31.5004
   1150884.07448    899219.92647  20293758.0084                   20293755.4144
        49.5004         46.5004
  -7101455.45747  -5500426.23846  22001925.2734                   22001927.1994
        44.5004         38.7504
  -3015795.95746  -3912279.09843  23921378.4224                   23921379.9734
        37.0004         18.5004
 25  7 16  0 44  0.0000000  0  9G01G02G32G03G04G28G31G26G16
   1583010.54347   1234540.23045  21421574.7664                   21421574.4184
        46.0004         33.5004
   5654603.61347   4398606.36344  23019266.2664                   23019263.2114
        44.2504         28.5004
   5571132.22346   4326388.25045  24550203.0634                   24550205.0784
        40.0004         30.2504
  -6385276.78548  -4967793.75848  20460239.7274                   20460240.4924
        48.0004         48.0004
  -5882146.18047  -4557321.00044  22184214.3984                   22184215.1134
        42.5004         28.5004
   5919171.48047   4602104.49245  22442065.6024                   22442064.7234
        44.2504         30.2504
   1187664.71548    927880.16047  20300756.6724                   20300755.1214
        48.5004         46.5004
  -7170421.96547  -5554166.34046  21988801.3594                   21988803.4184
        43.7504         38.7504
  -3125630.88746  -3997864.57043  23900476.9924                   23900478.3164
        37.5004         19.2504
 25  7 16  0 44 30.0000000  0  9G01G02G32G03G04G28G31G26G16
   1623945.75847   1266437.75845  21429364.6564                   21429363.7934
        45.5004         33.5004
   5728825.17647   4456441.25844  23033389.8054                   23033387.5744
        44.5004         27.7504
   5634478.52046   4375748.93445  24562257.0164                   24562259.5474
        41.0004         32.5004
  -6446302.39148  -5015346.17647  20448626.9454                   20448627.7114
        48.5004         47.7504
  -5945320.90647  -4606548.02344  22172192.5474                   22172193.4224
        43.0004         28.7504
   5998515.84047   4663931.23445  22457163.8444                   22457163.3874
        44.2504         31.0004
   1224927.12148    956915.78547  20307847.8054                   20307845.5744
        48.2504         46.5004
  -7238994.83247  -5607599.71146  21975751.8754                   21975754.4804
        43.7504         38.7504
  -3235499.66046  -4083476.50443  23879570.0864                   23879570.9414
        38.0004         19.5004
 25  7 16  0 45  0.0000000  0  9G01G02G32G03G04G28G31G26G16
   1665341.95747   1298694.49645  21437242.0394                   21437241.8754
        47.0004         33.2504
   5803192.41047   4514389.65644  23047541.5234                   23047539.6094
        43.2504         28.5004
   5697813.33646   4425100.68045  24574308.8444                   24574311.8094
        40.7504         32.5004
  -6506989.39848  -5062634.75047  20437078.5704                   20437079.4304
        49.0004         47.7504
  -6008410.36747  -4655708.61344  22160187.1334                   22160187.6174
        43.5004         28.0004
   6078059.38347   4725913.19545  22472300.6644                   22472299.9064
        43.2504         30.2504
   1262663.62948    986320.84447  20315029.0314                   20315026.7194
        49.0004         46.5004
  -7307176.31647  -5660728.09446  21962777.6254                   21962780.0634
        43.5004         38.5004
  -3345404.17646  -4169116.28943  23858655.9694                   23858656.6804
        39.0004         19.2504
 25  7 16  0 45 30.0000000  0  9G01G02G32G03G04G28G31G26G16
   1707200.59847   1331311.57445  21445207.6564                   21445207.3484
        47.0004         33.2504
   5877705.95747   4572452.06344  23061720.8204                   23061719.0594
        44.2504         28.5004
   5761140.54347   4474446.45745  24586360.2814                   24586363.3404
        42.0004         34.0004
  -6567331.91848  -5109654.88747  20425596.0394                   20425596.9304
        49.5004         47.7504
  -6071411.01247  -4704799.96944  22148198.6724                   22148199.0474
        44.0004         29.7504
   6157803.26247   4788051.25844  22487475.4064                   22487474.3714
        43.5004         29.7504
   1300876.00448   1016096.71147  20322300.1644                   20322298.3364
        49.5004         46.5004
  -7374960.00847  -5713546.51246  21949879.0394                   21949881.1454
        44.0004         38.7504
  -3455337.56646  -4254778.56243  23837736.5704                   23837736.8914
        39.0004         19.5004
 25  7 16  0 46  0.0000000  0  9G01G02G32G03G04G28G31G26G16
   1749519.65247   1364287.43445  21453260.7114                   21453260.2304
        45.0004         32.5004
   5952363.30147   4630626.55944  23075927.9614                   23075925.7194
        43.5004         28.0004
   5824460.30146   4523786.47345  24598410.0314                   24598412.5204
        41.0004         33.7504
  -6627327.60548  -5156404.77048  20414179.1334                   20414179.6294
        49.2504         48.0004
  -6134322.86347  -4753822.15244  22136226.8054                   22136226.9804
        44.0004         28.5004
   6237745.09847   4850343.57445  22502687.7194                   22502686.8404
        44.2504         30.0004
   1339562.03548   1046241.65647  20329662.1564                   20329660.0044
        48.2504         46.5004
  -7442343.02347  -5766052.71946  21937056.2504                   21937058.4104
        44.0004         39.2504
  -3565296.91046  -4340461.05943  23816811.2274                   23816812.4024
        37.7504         19.5004
 25  7 16  0 46 30.0000000  0  9G01G02G32G03G04G28G31G26G16
   1792295.40647   1397619.15245  21461400.6414                   21461400.0354
        46.2504         33.0004
   6027160.30947   4688909.85944  23090161.5004                   23090159.0514
        44.5004         28.5004
   5887771.37546   4573119.70745  24610457.9304                   24610460.2894
        41.0004         34.0004
  -6686975.66848  -5202883.77748  20402828.4844                   20402829.2384
        48.0004         48.0004
  -6197147.52347  -4802776.39144  22124271.8754                   22124271.8754
        43.0004         29.0004
   6317880.95347   4912787.08645  22517937.4534                   22517936.7304
        44.5004         30.2504
   1378718.09048   1076752.85547  20337113.0084                   20337110.5234
        49.5004         46.5004
  -7509324.01247  -5818245.65246  21924310.0784                   21924311.8674
        44.5004         38.7504
  -3675280.60946  -4426162.56543  23795882.2344                   23795882.3554
        38.0004         20.0004
 25  7 16  0 47  0.0000000  0  9G01G02G32G03G04G28G31G26G16
   1835527.50047   1431306.45345  21469627.5554                   21469627.2664
        45.5004         33.0004
   6102095.93847   4747301.18844  23104421.4144                   23104418.9774
        43.7504         28.7504
   5951075.77046   4622447.69545  24622504.6644                   24622506.7664
        41.2504         33.2504
  -6746271.96948  -5249088.67648  20391544.8594                   20391545.1994
        48.5004         48.0004
  -6259883.25447  -4851661.32044  22112333.1484                   22112333.8404
        43.7504         29.0004
   6398210.21947   4975381.28945  22533223.3444                   22533222.9144
        44.5004         31.0004
   1418343.71948   1107629.96147  20344653.9454                   20344651.6214
        48.5004         46.5004
  -7575898.34447  -5870121.72746  21911641.3674                   21911643.5514
        44.5004         38.7504
  -3785283.23046  -4511878.75043  23774948.9774                   23774950.4104
        37.5004         19.0004
 25  7 16  0 47 30.0000000  0  9G01G02G32G03G04G28G31G26G16
   1879216.80947   1465350.03145  21477941.2894                   21477940.9064
        46.2504         32.7504
   6177170.38347   4805800.65244  23118707.7584                   23118705.7934
        44.2504         27.2504
   6014376.53946   4671772.91045  24634550.4844                   24634552.9654
        39.7504         31.5004
  -6805211.32448  -5295015.43748  20380328.7034                   20380329.6094
        48.7504         48.0004
  -6322527.17647  -4900474.73444  22100412.8054                   22100412.9414
        43.2504         28.7504
   6478733.44547   5038126.63745  22548546.1484                   22548545.9304
        43.7504         30.0004
   1458439.60948   1138873.49247  20352283.2584                   20352281.3484
        50.0004         46.5004
  -7642060.27747  -5921676.44946  21899051.5084                   21899053.5554
        43.7504         39.2504
  -3895298.62546  -4597604.89843  23754013.6334                   23754014.9494
        38.5004         20.5004
 25  7 16  0 48  0.0000000  0  9G01G02G32G03G04G28G31G26G16
   1923357.91847   1499745.66045  21486341.0164                   21486340.4774
        45.7504         33.2504
   6252377.72347   4864403.68044  23133018.8204                   23133017.5204
        43.0004         27.7504
   6077670.82846   4721093.03144  24646594.2424                   24646597.4064
        36.5004         28.5004
  -6863794.53948  -5340664.69148  20369180.7274                   20369181.7034
        49.5004         48.2504
  -6385082.49647  -4949219.09844  22088508.7424                   22088508.9494
        45.0004         28.2504
   6559445.07447   5101018.77044  22563905.0394                   22563904.5744
        43.2504         29.7504
   1499000.31648   1170479.22747  20360002.2504                   20360000.1094
        49.2504         46.5004
  -7707810.15247  -5972910.08246  21886539.2424                   21886541.5434
        45.0004         39.2504
  -4005326.96146  -4683341.14143  23733076.5164                   23733077.6214
        39.7504         22.0004
 25  7 16  0 48 30.0000000  0  9G01G02G32G03G04G28G31G26G16
   1967948.99247   1534491.91045  21494826.3834                   21494826.1054
        45.5004         33.5004
   6327715.53947   4923108.39144  23147355.0234                   23147352.9534
        44.0004         27.0004
   6140959.17645   4770408.52743  24658637.1644                   24658640.1684
        35.0004         22.7504
  -6922019.00448  -5386034.39548  20358100.8444                   20358101.9104
        49.0004         48.5004
  -6447548.88347  -4997894.15244  22076621.4144                   22076621.5984
        44.5004         29.5004
   6640343.03147   5164056.10945  22579299.2114                   22579299.1414
        43.7504         30.5004
   1540024.25048   1202445.91847  20367809.1254                   20367806.7734
        49.2504         46.5004
  -7773144.84847  -6023820.20346  21874106.5004                   21874108.7154
        44.5004         39.5004
  -4115364.59846  -4769084.67243  23712136.8134                   23712137.4184
        39.5004         20.7504
 25  7 16  0 49  0.0000000  0  9G01G02G32G03G04G28G31G26G16
   2012988.87947   1569587.87545  21503397.6484                   21503396.8674
        46.7504         33.5004
   6403182.36747   4981913.60944  23161716.5164                   23161714.0904
        43.2504         27.5004
   6204242.79346   4819720.36744  24670679.6414                   24670682.7734
        36.5004         24.5004
  -6979881.38348  -5431121.96148  20347089.8284                   20347091.0904
        49.7504         48.2504
  -6509925.36747  -5046499.16044  22064751.9454                   22064752.0394
        44.5004         29.0004
   6721426.01647   5227237.63345  22594729.7344                   22594728.7344
        44.0004         30.5004
   1581510.07448   1234772.51647  20375703.3984                   20375701.3714
        49.0004         46.5004
  -7838060.50047  -6074403.79746  21861753.3204                   21861755.8524
        44.0004         39.5004
  -4225407.17246  -4854832.03543  23691196.1884                   23691197.1174
        39.0004         22.2504
 25  7 16  0 49 30.0000000  0  9G01G02G32G03G04G28G31G26G16
   2058473.93047   1605030.74245  21512053.1804                   21512052.5354
        45.5004         33.0004
   6478773.82847   5040815.93044  23176100.5314                   23176099.4304
        43.5004         26.2504
   6267520.62145   4869027.65643  24682720.3914                   24682724.5124
        35.0004         21.5004
  -7037380.78948  -5475926.68048  20336148.4454                   20336149.6024
        49.2504         48.5004
  -6572213.41047  -5095035.26244  22052898.4774                   22052898.9064
        44.5004         29.2504
   6802690.19147   5290560.33644  22610193.7734                   22610192.6994
        44.0004         29.7504
   1623453.95748   1267456.05147  20383684.9774                   20383682.7854
        48.5004         46.5004
  -7902555.80947  -6124659.85246  21849480.3284                   21849482.9574
        43.5004         39.5004
  -4335453.02746  -4940581.96543  23670254.5234                   23670255.1804
        39.2504         20.0004
 25  7 16  0 50  0.0000000  0  9G01G02G32G03G04G28G31G26G16
   2104404.80147   1640820.98045  21520793.3134                   21520792.9064
        45.5004         32.5004
   6554490.21947   5099815.60544  23190509.2424                   23190507.9304
        43.2504         27.0004
   6330795.55946   4918332.75443  24694763.3914                   24694764.4304
        38.7504         22.2504
  -7094512.08248  -5520444.55548  20325276.8444                   20325277.3244
        49.5004         48.5004
  -6634410.17247  -5143500.24644  22041063.1484                   22041063.4734
        44.7504         29.0004
   6884136.03947   5354024.61345  22625692.7664                   22625691.3674
        43.5004         30.2504
   1665857.01248   1300497.38347  20391754.0634                   20391751.7734
        48.5004         46.5004
  -7966625.10547  -6174583.95746  21837288.1024                   21837290.5554
        45.0004         39.5004
  -4445495.68446  -5026329.40243  23649314.1484                   23649315.0514
        38.7504         20.5004
 25  7 16  0 50 30.0000000  0  9G01G02G32G03G04G28G31G26G16
   2150777.62547   1676955.60945  21529617.8594                   21529617.7734
        45.0004         33.0004
   6630327.19547   5158909.27344  23204940.7114                   23204939.1884
        42.5004         27.7504
   6394066.31646   4967634.67243  24706802.4454                   24706803.6214
        39.7504         23.7504
  -7151274.48848  -5564674.98448  20314475.2814                   20314476.2894
        49.7504         48.5004
  -6696517.17647  -5191895.27744  22029244.1804                   22029244.7034
        44.5004         28.7504
   6965759.70347   5417627.44144  22641224.5704                   22641223.8054
        43.5004         29.0004
   1708715.14847   1333893.32447  20399910.0314                   20399907.3874
        47.7504         46.2504
  -8030267.19547  -6224175.16446  21825177.6644                   21825179.7384
        45.5004         39.7504
  -4555534.06646  -5112073.48443  23628374.3594                   23628375.3284
        37.2504         19.0004
 25  7 16  0 51  0.0000000  0  9G01G02G32G03G04G28G31G26G16
   2197589.12147   1713432.05545  21538525.8284                   21538525.1214
        47.0004         32.7504
   6706281.03947   5218093.98044  23219394.5394                   23219392.4614
        42.2504         26.0004
   6457332.16446   5016932.66444  24718841.0394                   24718843.5744
        39.0004         26.2504
  -7207666.82448  -5608617.05148  20303744.1484                   20303744.8554
        49.5004         48.5004
  -6758535.54747  -5240221.24644  22017442.8524                   22017442.8484
        45.0004         29.2504
   7047557.75447   5481366.13745  22656790.1884                   22656789.9614
        43.5004         30.0004
   1752025.17248   1367641.39147  20408151.3284                   20408149.1214
        48.7504         46.0004
  -8093480.40647  -6273432.19146  21813148.8984                   21813150.5314
        45.2504         40.0004
  -4665565.34446  -5197812.09843  23607436.2034                   23607436.6684
        37.7504         20.0004
 25  7 16  0 51 30.0000000  0  9G01G02G32G03G04G28G31G26G16
   2244839.02047   1750250.10945  21547516.9774                   21547516.8634
        45.0004         33.0004
   6782351.09447   5277369.22344  23233870.3284                   23233868.6134
        42.0004         26.5004
   6520595.31646   5066228.56344  24730880.1564                   24730882.2504
        41.5004         27.2504
  -7263684.79348  -5652267.39848  20293084.0944                   20293085.0044
        50.0004         48.7504
  -6820463.27047  -5288476.57444  22005658.3674                   22005658.5164
        45.0004         29.0004
   7129529.87547   5545240.46944  22672389.2584                   22672388.8284
        43.7504         29.5004
   1795786.61747   1401741.20347  20416478.9844                   20416476.8794
        47.7504         46.2504
  -8156260.02047  -6322351.33646  21801202.0944                   21801203.9614
        45.5004         40.0004
  -4775584.00446  -5283540.77043  23586500.9304                   23586501.0864
        39.5004         19.7504
 25  7 16  0 52  0.0000000  0  9G01G02G32G03G04G28G31G26G16
   2292527.30547   1787409.76645  21556591.9224                   21556591.3014
        46.7504         33.0004
   6858536.68847   5336734.55144  23248367.4614                   23248366.2384
        42.5004         26.0004
   6583858.25846   5115524.35544  24742918.5004                   24742922.1024
        40.0004         29.2504
  -7319323.82448  -5695622.46948  20282496.2974                   20282496.9654
        50.2504         49.0004
  -6882298.05147  -5336659.47344  21993891.5164                   21993891.5634
        45.2504         29.2504
   7211675.98447   5609250.38344  22688021.2814                   22688020.7934
        44.5004         29.2504
   1839999.52048   1436192.80947  20424892.0474                   20424890.2464
        49.0004         46.0004
  -8218601.02347  -6370928.71946  21789338.6884                   21789341.1484
        45.5004         40.0004
  -4885584.95346  -5369255.70743  23565568.1334                   23565568.4144
        39.7504         19.0004
 25  7 16  0 52 30.0000000  0  9G01G02G32G03G04G28G31G26G16
   2340647.75047   1824906.16445  21565749.1024                   21565748.5204
        44.5004         33.0004
   6934831.44547   5396184.90244  23262886.0634                   23262884.6954
        42.2504         27.0004
   6647117.45346   5164817.16845  24754956.1254                   24754960.0904
        38.5004         31.0004
  -7374585.51648  -5738683.52048  20271980.8054                   20271981.4024
        50.0004         48.7504
  -6944043.79747  -5384773.02044  21982141.4924                   21982141.6254
        44.5004         27.7504
   7293989.84447   5673391.02345  22703684.7504                   22703684.1414
        44.0004         30.5004
   1884657.77747   1470991.44147  20433390.3754                   20433388.1524
        47.5004         46.0004
  -8280504.60947  -6419165.24646  21777558.8834                   21777561.1254
        45.7504         40.5004
  -4995568.74246  -5454957.23043  23544638.5394                   23544639.6374
        38.7504         21.5004
 25  7 16  0 53  0.0000000  0  9G01G02G32G03G04G28G31G26G16
   2389200.52747   1862739.44945  21574988.1564                   21574988.0204
        46.0004         32.5004
   7011234.66847   5455719.79344  23277425.0084                   23277423.6524
        42.0004         28.0004
   6710375.56346   5214109.09844  24766994.7034                   24766997.6454
        38.5004         29.7504
  -7429465.20348  -5781446.89548  20261537.1644                   20261537.8874
        50.2504         49.0004
  -7005698.03947  -5432815.23444  21970409.2344                   21970409.4654
        45.2504         29.0004
   7376471.62947   5737662.51244  22719381.0004                   22719380.5204
        43.0004         29.2504
   1929761.79748   1506137.42647  20441973.3984                   20441971.3404
        48.0004         46.0004
  -8341965.63747  -6467056.92246  21765863.4224                   21765865.2154
        45.2504         40.2504
  -5105529.37546  -5540640.77743  23523713.4384                   23523714.2584
        38.5004         19.5004
 25  7 16  0 53 30.0000000  0  9G01G02G32G03G04G28G31G26G16
   2438182.21547   1900906.95345  21584309.2194                   21584309.2274
        45.2504         32.5004
   7087743.29747   5515336.79744  23291983.9924                   23291983.1994
        43.0004         27.0004
   6773631.75045   5263399.57044  24779030.6804                   24779034.9024
        35.5004         27.5004
  -7483961.61348  -5823911.62148  20251166.8834                   20251167.1454
        49.7504         49.0004
  -7067261.84047  -5480786.99644  21958694.0314                   21958694.0474
        44.7504         29.2504
   7459117.94947   5802062.20344  22735107.8364                   22735106.4844
        44.0004         28.5004
   1975307.82048   1541627.82047  20450640.9144                   20450638.3164
        49.0004         46.0004
  -8402982.53547  -6514602.51646  21754252.0164                   21754254.3284
        46.0004         40.5004
  -5215464.71546  -5626304.55143  23502793.7664                   23502794.4774
        40.5004         21.7504
 25  7 16  0 54  0.0000000  0  9G01G02G32G03G04G28G31G26G16
   2487592.83647   1939408.68045  21593711.6724                   21593711.4344
        45.5004         33.5004
   7164356.55147   5575035.36344  23306563.1954                   23306562.8014
        42.0004         27.5004
   6836888.67246   5312690.56644  24791068.6954                   24791072.4924
        36.0004         28.0004
  -7538070.18048  -5866074.12948  20240870.6024                   20240871.2234
        50.0004         49.0004
  -7128732.89547  -5528686.48844  21946996.2734                   21946996.5984
        44.7504         28.7504
   7541928.77347   5866590.09844  22750866.1484                   22750865.0864
        43.0004         29.2504
   2021296.36748   1577463.05147  20459391.8754                   20459389.6484
        49.5004         45.7504
  -8463550.26647  -6561798.10946  21742726.5784                   21742728.8404
        45.2504         40.7504
  -5325369.02046  -5711944.17243  23481879.2664                   23481880.1134
        38.5004         19.5004
 25  7 16  0 54 30.0000000  0  9G01G02G32G03G04G28G31G26G16
   2537430.97747   1978243.54745  21603195.6254                   21603195.5004
        45.2504         33.0004
   7241072.81347   5634814.16844  23321162.3524                   23321160.8834
        42.0004         26.2504
   6900147.60945   5361983.11744  24803105.3754                   24803111.2304
        32.5004         27.0004
  -7591787.61348  -5907931.85548  20230648.3834                   20230649.1524
        50.2504         49.0004
  -7190110.03147  -5576512.79744  21935316.9614                   21935316.5984
        43.5004         29.2504
   7624902.91047   5931245.23044  22766655.1884                   22766654.8594
        43.2504         28.0004
   2067725.48048   1613641.57447  20468226.8914                   20468224.8634
        49.0004         45.5004
  -8523665.18047  -6608640.87546  21731286.9064                   21731288.9224
        46.5004         40.7504
  -5435237.72746  -5797556.09043  23460971.9924                   23460972.3524
        38.2504         20.0004
 25  7 16  0 55  0.0000000  0  9G01G02G32G03G04G28G31G26G16
   2587691.24247   2017407.34045  21612759.9144                   21612759.9694
        44.7504         32.7504
   7317886.22747   5694668.65644  23335779.4614                   23335779.0004
        43.0004         26.7504
   6963405.73446   5411275.09044  24815144.8204                   24815147.5514
        37.0004         29.5004
  -7645114.72348  -5949485.44148  20220500.7974                   20220501.1024
        50.5004         49.0004
  -7251396.37947  -5624268.34844  21923654.2584                   21923654.4804
        45.0004         29.0004
   7708034.96947   5996023.40644  22782475.1804                   22782474.4844
        43.7504         29.0004
   2114590.19147   1650159.52347  20477145.1644                   20477142.8404
        47.0004         45.7504
  -8583327.77347  -6655131.16846  21719933.1094                   21719935.8914
        46.2504         40.7504
  -5545070.66046  -5883140.07843  23440071.1954                   23440071.8284
        39.0004         18.5004
 25  7 16  0 55 30.0000000  0  9G01G02G32G03G04G28G31G26G16
   4213791.67247   3284498.53145  21922197.2274                   21922196.6024
        45.2504         32.7504
   8970213.83647   6982196.56344  23650207.7814                   23650205.9384
        43.2504         26.7504
   8602083.42245   6688166.68844  25126973.1884                   25126977.8914
        34.7504         27.0004
  -6122625.42248  -4763130.13348  20510220.3444                   20510221.1954
        50.2504         49.2504
  -5737167.76247  -4444349.91045  22211802.4144                   22211802.7274
        45.0004         30.2504
   9366741.99247   7288522.34444  23098116.8834                   23098116.1054
        43.2504         29.5004
   3737308.63748   2914615.44547  20785938.5554                   20785936.2774
        48.5004         45.5004
  -7067111.27747  -5473663.73846  22008460.0704                   22008462.1884
        46.0004         40.7504
  -4079438.73846  -4741089.14143  23718971.6884                   23718972.5004
        38.0004         19.5004
 25  7 16  0 56  0.0000000  0  9G01G02G32G03G04G28G31G26G16
   4264892.96947   3324317.69145  21931921.0084                   21931920.8444
        45.2504         33.0004
   9047217.55147   7042199.37144  23664860.8134                   23664859.3914
        42.5004         27.0004
   8665344.69146   6737461.11344  25139014.2734                   25139016.6134
        39.5004         28.5004
  -6175161.22748  -4804067.11748  20500223.7584                   20500223.8794
        50.0004         49.0004
  -5798268.47747  -4491960.81644  22200175.1884                   22200175.4454
        44.7504         29.5004
   9450186.97747   7353544.37944  23113996.4384                   23113995.0824
        43.5004         29.5004
   3785041.26648   2951809.69547  20795021.3364                   20795019.4144
        48.7504         45.5004
  -7125857.35247  -5519439.86746  21997281.2424                   21997283.1994
        45.5004         40.7504
  -4189186.22346  -4826606.58643  23698087.6484                   23698087.9264
        36.7504         19.7504
 25  7 16  0 56 30.0000000  0 10G01G02G32G09G03G04G28G31G26G16
   4316410.76647   3364461.37545  21941724.7034                   21941724.5164
        46.0004         32.2504
   9124312.14847   7102272.94944  23679531.5004                   23679529.8594
        42.5004         27.7504
   8728607.67646   6786756.92244  25151051.0554                   25151053.7234
        37.7504         26.5004
                                  25152876.3054                   25152878.1094
        29.0004         18.5004
  -6227298.39848  -4844693.48048  20490301.8444                   20490302.6564
        50.5004         49.2504
  -5859276.62547  -4539499.58645  22188565.8134                   22188565.7734
        44.5004         30.0004
   9533784.65647   7418685.38744  23129903.8134                   23129903.2194
        43.7504         29.2504
   3833204.18848   2989339.23447  20804186.7194                   20804184.4304
        48.0004         45.5004
  -7184141.66447  -5564856.18046  21986189.9844                   21986192.2544
        46.0004         40.7504
  -4298885.99246  -4912086.80543  23677212.6484                   23677212.6374
        38.2504         20.5004
 25  7 16  0 57  0.0000000  0 10G01G02G32G09G03G04G28G31G26G16
   4368327.00847   3404915.54745  21951604.3134                   21951604.0634
        45.7504         32.0004
   9201478.85247   7162402.75444  23694214.9064                   23694214.4304
        42.0004         25.5004
   8791856.87146   6836041.92244  25163087.0784                   25163091.0234
        40.0004         29.0004
                                  25136718.094
        33.500
  -6279050.35548  -4885019.67648  20480453.9774                   20480454.4614
        50.5004         49.2504
  -5920207.89147  -4586978.45744  22176970.5634                   22176971.1134
        45.0004         29.7504
   9617517.12147   7483931.41844  23145837.7424                   23145836.9774
        43.0004         27.2504
   3881779.37548   3027190.02747  20813429.8754                   20813427.8754
        48.5004         46.0004
  -7241977.32447  -5609922.89846  21975183.9304                   21975186.1414
        46.0004         40.7504
  -4408550.60546  -4997539.68443  23656343.3984                   23656344.0784
        38.0004         20.7504
 25  7 16  0 57 30.0000000  0 10G01G02G32G09G03G04G28G31G26G16
   4420633.46947   3445673.78545  21961557.2814                   21961557.5664
        46.0004         32.0004
   9278709.63346   7222582.47744  23708912.7814                   23708910.5984
        41.2504         25.7504
   8855086.90646   6885312.00444  25175120.2584                   25175122.5984
        40.5004         26.7504
   1464208.52046   1072842.09855  25120554.6564                   25120558.5274
        39.7504         32.5004
  -6330420.59848  -4925048.42648  20470678.4304                   20470679.5044
        50.5004         49.2504
  -5981067.92247  -4634401.80144  22165389.4454                   22165389.6414
        44.5004         29.7504
   9701376.39547   7549276.27044  23161795.6564                   23161794.8014
        43.0004         27.5004
   3930758.43447   3065355.52347  20822750.5164                   20822748.6054
        47.7504         45.5004
  -7299367.50047  -5654642.48046  21964262.9304                   21964264.9384
        45.5004         41.0004
  -4518182.55146  -5082967.08643  23635481.6254                   23635481.8674
        39.2504         20.5004
 25  7 16  0 58  0.0000000  0 10G01G02G32G09G03G04G28G31G26G16
   4473339.66447   3486743.49645  21971587.2274                   21971587.1724
        44.5004         32.2504
   9356013.74247   7282819.30144  23723623.1024                   23723622.2384
        42.5004         25.5004
   8918310.01646   6934576.77744  25187150.9694                   25187153.2504
        41.2504         26.7504
   1379239.58646   1006632.64145  25104385.5084                   25104389.5784
        36.7504         30.2504
  -6381394.96548  -4964768.71148  20460978.5394                   20460978.9884
        50.7504         49.5004
  -6041844.72747  -4681760.31644  22153823.8204                   22153824.2664
        44.7504         29.7504
   9785372.12947   7614727.46544  23177779.4144                   23177778.4024
        42.0004         27.0004
   3980151.16047   3103843.36347  20832149.7814                   20832147.4264
        47.0004         45.5004
  -7356297.71947  -5699003.65246  21953429.8914                   21953431.6724
        46.5004         41.0004
  -4627766.22746  -5168356.89543  23614628.2114                   23614628.6844
        39.5004         22.2504
 25  7 16  0 58 30.0000000  0 10G01G02G32G09G03G04G28G31G26G16
   4526441.33647   3528121.37545  21981692.2584                   21981691.8954
        45.0004         32.0004
   9433386.47746   7343109.66844  23738346.7114                   23738345.1134
        41.5004         26.2504
   8981524.70746   6983834.95745  25199180.1024                   25199182.9534
        41.2504         30.7504
                                  25088207.3054                   25088215.2974
        27.2504         21.0004
  -6431973.05148  -5004180.19948  20451353.8364                   20451354.6454
        50.0004         49.5004
  -6102540.02347  -4729055.30145  22142273.9454                   22142274.2664
        44.7504         31.5004
   9869500.32447   7680281.85544  23193788.7274                   23193787.9064
        42.0004         27.5004
   4029953.35247   3142650.25047  20841626.8444                   20841624.5634
        47.7504         45.7504
  -7412767.31647  -5743005.90246  21942682.9844                   21942685.7584
        46.0004         41.2504
  -4737299.74646  -5253707.60543  23593784.3984                   23593784.9494
        39.5004         20.7504
 25  7 16  0 59  0.0000000  0 10G01G02G32G09G03G04G28G31G26G16
   4579942.71947   3569810.72745  21991872.7814                   21991872.8094
        46.2504         31.7504
   9510831.90646   7403456.67244  23753084.0004                   23753082.6564
        41.5004         24.7504
   9044737.96146   7033091.97745  25211209.4144                   25211212.5784
        41.0004         30.0004
   1209220.57456    874150.41052  25072031.7504                   25072033.8014
        38.2504         17.7504
  -6482145.89548  -5043275.91448  20441806.1724                   20441806.8164
        50.2504         49.5004
  -6163147.00447  -4776281.47744  22130741.3204                   22130741.4144
        45.0004         29.2504
   9953765.51647   7745943.00044  23209823.9614                   23209823.0314
        42.5004         28.7504
   4080169.31347   3181779.56347  20851182.6414                   20851180.4024
        47.7504         45.5004
  -7468766.96147  -5786641.94946  21932027.4774                   21932029.7274
        46.5004         41.2504
  -4846773.20646  -5339011.50843  23572953.0474                   23572951.9654
        39.5004         20.0004
 25  7 16  0 59 30.0000000  0 10G01G02G32G09G03G04G28G31G26G16
   4633844.66047   3611812.19545  22002130.5864                   22002129.8834
        45.7504         31.7504
   9588350.90247   7463860.97744  23767834.7504                   23767833.9344
        42.0004         25.0004
   9107953.42646   7082350.71944  25223238.4144                   25223242.2664
        38.7504         28.5004
   1124180.91046    807885.88345  25055849.7814                   25055853.2934
        41.2504         31.0004
  -6531907.97748  -5082051.55948  20432336.6094                   20432337.3984
        50.5004         49.5004
  -6223662.27747  -4823436.19945  22119224.7114                   22119225.1214
        45.2504         30.2504
  10038168.71147   7811711.69944  23225884.9844                   23225884.4264
        42.5004         28.0004
   4130800.03547   3221232.06347  20860817.2424                   20860814.8554
        47.5004         45.5004
  -7524290.89547  -5829907.31246  21921461.1024                   21921463.6054
        45.7504         41.2504
  -4956179.97746  -5424263.41443  23552133.0084                   23552133.3484
        40.0004         20.0004
 25  7 16  1  0  0.0000000  0 10G01G02G32G09G03G04G28G31G26G16
   4688144.13347   3654123.42645  22012463.5314                   22012463.5354
        45.0004         32.5004
   9665939.94946   7524319.88344  23782599.8524                   23782598.7894
        41.5004         24.5004
   9171171.03146   7131611.09844  25235268.2274                   25235271.7154
        36.7504         27.7504
   1039121.60046    741606.04045  25039663.2194                   25039666.6024
        38.5004         31.2504
  -6581257.64148  -5120505.82848  20422945.6954                   20422946.4494
        50.5004         49.5004
  -6284086.31247  -4870519.82844  22107726.4774                   22107727.0004
        45.7504         29.7504
  10122707.23047   7877585.82844  23241972.3054                   23241971.7274
        42.5004         28.0004
   4181842.51648   3261005.41047  20870530.1804                   20870528.5704
        48.0004         45.5004
  -7579337.20347  -5872800.51246  21910986.2974                   21910988.6484
        45.7504         41.0004
  -5065516.69547  -5509460.82443  23531326.6724                   23531327.1994
        42.0004         20.5004
 25  7 16  1  0 30.0000000  0 10G01G02G32G09G03G04G28G31G26G16
   4742837.95347   3696741.94945  22022871.1024                   22022871.4224
        45.0004         32.0004
   9743595.81347   7584830.82444  23797377.6254                   23797376.2344
        42.0004         25.5004
   9234390.15646   7180872.71544  25247299.1334                   25247301.9064
        37.0004         29.7504
    954042.05146    675310.50044  25023472.3984                   25023476.3164
        36.0004         27.0004
  -6630193.34848  -5158637.53948  20413633.5554                   20413634.1254
        49.7504         49.5004
  -6344419.64147  -4917532.76645  22096245.4774                   22096245.8014
        45.5004         30.5004
  10207378.26247   7943563.22344  23258085.2194                   23258084.0314
        42.5004         28.0004
   4233293.80948   3301097.32047  20880321.1094                   20880318.9224
        48.0004         45.2504
  -7633904.05947  -5915320.10946  21900602.6644                   21900604.7504
        46.0004         40.7504
  -5174781.06646  -5594601.80943  23510534.8524                   23510534.6134
        41.5004         21.7504
 25  7 16  1  1  0.0000000  0 10G01G02G32G09G03G04G28G31G26G16
   4797923.48847   3739665.69145  22033353.8834                   22033353.1884
        45.5004         30.5004
   9821315.86746   7645391.78544  23812166.9694                   23812166.8674
        41.2504         25.0004
   9297611.19145   7230135.82044  25259328.6414                   25259333.4494
        33.0004         27.7504
    868942.14146    608999.09443  25007278.0004                   25007281.8554
        38.5004         22.5004
  -6678713.03548  -5196445.08248  20404400.3284                   20404401.5044
        50.5004         49.5004
  -6404662.28147  -4964475.05545  22084781.8204                   22084782.2274
        44.5004         31.2504
  10292179.41047   8009641.99244  23274221.6024                   23274221.2194
        42.0004         27.7504
   4285151.37948   3341505.80547  20890189.5634                   20890186.9414
        48.5004         45.7504
  -7687989.10947  -5957464.26646  21890310.1414                   21890312.3834
        46.0004         40.7504
  -5283969.55146  -5679683.66443  23489756.8594                   23489756.1914
        41.2504         20.7504
 25  7 16  1  1 30.0000000  0 10G01G02G32G09G03G04G28G31G26G16
   4853403.38747   3782896.73845  22043911.0864                   22043910.7074
        46.2504         31.2504
   9899102.39846   7706004.54744  23826970.0944                   23826968.9104
        41.7504         24.5004
   9360839.75044   7279404.58243  25271360.1484                   25271365.8714
        28.0004         22.5004
    783827.30946    542675.71144  24991081.7814                   24991084.7034
        40.2504         27.0004
  -6726809.35948  -5233922.73048  20395248.0944                   20395248.8324
        50.0004         49.5004
  -6464808.97747  -5011342.57445  22073336.3284                   22073336.7074
        45.7504         30.7504
  10377113.76247   8075824.56344  23290384.2114                   23290383.9144
        42.5004         28.5004
   4337418.02748   3382233.04747  20900135.2274                   20900132.9144
        48.5004         45.2504
  -7741584.82447  -5999227.12146  21880111.3524                   21880113.5124
        46.0004         41.0004
  -5393073.42246  -5764699.59043  23468995.1484                   23468994.6454
        39.7504         22.5004
 25  7 16  1  2  0.0000000  0 10G01G02G32G09G03G04G28G31G26G16
   4909274.30947   3826432.46945  22054542.9774                   22054543.1374
        45.5004         31.5004
   9976951.99246   7766666.43043  23841783.7734                   23841782.6294
        41.0004         22.5004
   9424075.00046   7328678.71945  25283395.0314                   25283398.7854
        36.5004         31.2504
    698696.55945    476340.25044  24974881.5234                   24974885.9344
        34.5004         27.2504
  -6774480.94148  -5271069.39848  20386176.4924                   20386177.3754
        50.0004         49.7504
  -6524860.42247  -5058135.87945  22061908.7814                   22061909.1094
        44.7504         30.7504
  10462178.29746   8142108.57044  23306571.7034                   23306570.9884
        41.2504         27.0004
   4390090.56648   3423276.57447  20910158.5634                   20910156.3874
        48.0004         45.2504
  -7794689.57447  -6040607.41446  21870005.7974                   21870008.0394
        46.0004         40.7504
  -5502090.07046  -5849647.55943  23448249.5474                   23448249.7504
        40.0004         21.5004
 25  7 16  1  2 30.0000000  0 10G01G02G32G09G03G04G28G31G26G16
   4965535.14547   3870272.03545  22065249.3204                   22065248.8284
        45.5004         31.7504
  10054863.57046   7827376.63344  23856610.1804                   23856609.4694
        41.5004         24.5004
   9487318.98846   7377959.67644  25295429.8444                   25295434.0234
        38.5004         29.7504
    613551.30546    409993.55944  24958678.5634                   24958683.2934
        36.2504         27.5004
  -6821724.13748  -5307882.27048  20377186.7344                   20377186.9884
        49.7504         49.5004
  -6584814.99247  -5104853.68445  22050499.8284                   22050499.8204
        45.5004         30.7504
  10547372.33247   8208493.48844  23322783.4304                   23322783.2704
        42.2504         28.5004
   4443167.99647   3464635.59847  20920258.8914                   20920256.6214
        47.7504         45.0004
  -7847299.52047  -6081602.14146  21859994.4534                   21859996.4804
        46.5004         41.0004
  -5611014.38346  -5934523.55943  23427522.4304                   23427521.7074
        39.5004         22.5004
 25  7 16  1  3  0.0000000  0 10G01G02G32G09G03G04G28G31G26G16
   5022184.69147   3914414.50045  22076029.3524                   22076028.9304
        46.0004         31.7504
  10132835.77746   7888134.10943  23871447.3834                   23871446.4884
        41.2504         23.7504
   9550573.21946   7427248.71944  25307467.4694                   25307470.1954
        38.2504         28.0004
    528393.28146    343636.73844  24942474.2194                   24942476.9534
        38.7504         25.5004
  -6868535.44148  -5344358.60548  20368278.5554                   20368279.3954
        49.7504         49.5004
  -6644671.19547  -5151494.85245  22039109.9224                   22039109.6644
        45.7504         32.2504
  10632695.03547   8274978.68044  23339020.2344                   23339019.1844
        42.0004         26.7504
   4496649.19947   3506309.25047  20930435.9454                   20930434.0474
        47.5004         45.2504
  -7899410.93047  -6122208.41446  21850077.9844                   21850080.0164
        46.0004         41.0004
  -5719841.78146  -6019324.04743  23406812.8284                   23406812.7424
        40.0004         22.2504
 25  7 16  1  3 30.0000000  0 10G01G02G32G09G03G04G28G31G26G16
   5079220.96147   3958858.28945  22086883.1024                   22086882.7114
        45.5004         31.7504
  10210866.68446   7948937.26644  23886297.1174                   23886295.6804
        41.7504         24.5004
   9613838.79346   7476546.53544  25319506.3444                   25319509.1644
        39.0004         29.0004
    443222.93846    277270.21943  24926266.1024                   24926267.9964
        36.5004         22.0004
  -6914912.19148  -5380496.32448  20359453.5784                   20359453.9734
        49.7504         49.5004
  -6704428.41847  -5198058.89845  22027738.2274                   22027738.3284
        45.0004         31.5004
  10718144.82847   8341562.89844  23355280.4924                   23355279.6994
        42.5004         27.0004
   4550532.39547   3548296.13747  20940689.5554                   20940687.2774
        47.5004         45.0004
  -7951020.85247  -6162423.91446  21840257.1954                   21840259.2274
        45.7504         41.2504
  -5828567.87146  -6104045.60243  23386122.2894                   23386122.7584
        39.7504         23.0004
 25  7 16  1  4  0.0000000  0 10G01G02G32G09G03G04G28G31G26G16
   5136639.14847   4003599.68445  22097809.4144                   22097809.0044
        44.2504         31.5004
  10288951.29346   8009782.29744  23901156.0084                   23901155.3164
        40.2504         25.5004
   9677113.70346   7525851.52745  25331546.7274                   25331550.6724
        41.2504         33.5004
    358038.05545    210892.50044  24910053.8834                   24910059.6524
        33.0004         25.2504
  -6960854.38348  -5416295.41448  20350710.6094                   20350711.3204
        50.0004         49.5004
  -6764088.63747  -5244547.34445  22016384.9694                   22016385.0434
        45.2504         31.5004
  10803717.42646   8408242.80144  23371564.2584                   23371564.5314
        41.7504         27.2504
   4604813.17247   3590592.83647  20951018.7664                   20951016.8594
        47.5004         44.7504
  -8002129.19547  -6202248.56646  21830531.3754                   21830533.3054
        46.5004         41.5004
  -5937191.43446  -6188687.24244  23365452.6334                   23365452.4414
        39.5004         24.0004
 25  7 16  1  4 30.0000000  0 10G01G02G32G09G03G04G28G31G26G16
   5194437.22747   4048637.10245  22108808.0634                   22108807.1724
        44.2504         31.5004
  10367087.53546   8070667.57043  23916025.0864                   23916023.7304
        41.2504         22.7504
   9740398.84046   7575164.55545  25343590.0634                   25343593.2304
        41.7504         34.7504
    272839.28946    144504.08244  24893843.2974                   24893847.1954
        37.5004         29.2504
  -7006359.37548  -5451753.84048  20342051.4694                   20342052.2734
        50.0004         49.5004
  -6823651.24647  -5290959.73845  22005050.8984                   22005051.0904
        44.5004         31.2504
  10889411.23847   8475017.15644  23387871.1334                   23387871.0704
        42.0004         27.7504
   4659489.44547   3633197.70747  20961423.3524                   20961421.0164
        47.7504         44.7504
  -8052733.07447  -6241680.12146  21820902.1564                   21820904.1564
        46.2504         41.2504
  -6045708.57046  -6273245.96543  23344802.2664                   23344801.9734
        39.2504         22.0004
 25  7 16  1  5  0.0000000  0 10G01G02G32G09G03G04G28G31G26G16
   5252615.54347   4093970.80545  22119878.8984                   22119878.5234
        45.0004         30.7504
  10445275.71546   8131593.31643  23930902.8054                   23930903.1804
        39.2504         23.0004
   9803697.54346   7624488.16045  25355636.3524                   25355639.5474
        40.5004         31.2504
    187629.94946     78107.23044  24877628.2424                   24877631.8874
        39.2504         26.0004
  -7051422.07448  -5486867.62948  20333476.1094                   20333476.7234
        49.7504         49.5004
  -6883113.04747  -5337293.57845  21993735.5704                   21993735.8164
        45.0004         32.0004
  10975227.09846   8541886.60544  23404201.5394                   23404201.6724
        40.7504         27.0004
   4714561.75448   3676111.18447  20971903.4774                   20971901.2664
        48.2504         45.2504
  -8102827.24247  -6280714.48846  21811369.1484                   21811371.0474
        46.5004         41.2504
  -6154112.50846  -6357716.47743  23324173.2424                   23324173.6644
        40.2504         22.5004
 25  7 16  1  5 30.0000000  0 10G01G02G32G09G03G04G28G31G26G16
   5311167.26247   4139595.46945  22131021.0474                   22131020.5984
        45.2504         31.7504
  10523508.95347   8192554.18044  23945792.0004                   23945790.0784
        42.5004         24.5004
   9867006.04745   7673819.45743  25367683.4614                   25367685.5944
        35.7504         18.2504
    102405.58245     11698.62543  24861409.6254                   24861413.2384
        33.7504         21.2504
  -7096044.56248  -5521638.37948  20324985.0474                   20324985.7894
        50.0004         49.5004
  -6942478.13747  -5383552.05945  21982438.8364                   21982438.8244
        45.0004         32.0004
  11061158.74646   8608846.28144  23420553.2274                   23420553.7814
        41.0004         26.7504
   4770023.72748   3719328.28947  20982457.1484                   20982455.2934
        48.0004         45.0004
  -8152413.57847  -6319353.15246  21801933.2814                   21801935.4844
        46.0004         41.5004
  -6262404.14846  -6442099.48043  23303565.7584                   23303565.6054
        40.5004         22.5004
 25  7 16  1  6  0.0000000  0 10G01G02G32G09G03G04G28G31G26G16
   5370092.43847   4185511.14545  22142234.1644                   22142233.7114
        45.2504         31.2504
  10601787.34446   8253550.15244  23960687.6094                   23960686.6564
        40.7504         24.5004
   9930327.50016                  25379732.172
        37.000
     17168.93846    -54719.39544  24845190.8134                   24845194.1484
        36.7504         27.2504
  -7140222.08248  -5556062.41848  20316578.0164                   20316578.6214
        49.5004         49.5004
  -7001743.72747  -5429733.02045  21971161.2814                   21971161.0864
        45.2504         31.5004
  11147206.61347   8675896.52744  23436928.2814                   23436927.8244
        42.2504         26.7504
   4825875.09048   3762848.82047  20993085.7584                   20993083.5984
        48.0004         45.0004
  -8201487.30147  -6357592.37946  21792594.9614                   21792596.5824
        46.0004         41.7504
  -6370577.48046  -6526390.29743  23282981.1884                   23282981.3094
        41.0004         22.5004
 25  7 16  1  6 30.0000000  0 10G01G02G32G09G03G04G28G31G26G16
   5429387.34847   4231714.92645  22153517.4224                   22153517.4694
        45.2504         31.2504
  10680107.10246   8314578.45744  23975591.1094                   23975590.3134
        39.7504         24.5004
   9993660.56646   7740931.16854  25391784.2734                   25391787.1214
        39.0004         28.0004
    -68080.77346   -121147.62945  24828968.0314                   24828971.6174
        38.0004         30.0004
  -7183953.63748  -5590138.94548  20308256.2814                   20308257.0434
        49.7504         49.5004
  -7060910.66047  -5475837.10545  21959901.7584                   21959901.6804
        45.2504         32.0004
  11233367.68846   8743034.98044  23453324.6414                   23453323.7544
        41.7504         26.5004
   4882112.44548   3806670.11347  21003787.2584                   21003785.7154
        48.0004         45.2504
  -8250047.17247  -6395431.21546  21783354.3984                   21783356.3594
        46.2504         41.5004
  -6478630.14146  -6610587.21144  23262419.2814                   23262419.2274
        41.0004         24.0004
 25  7 16  1  7  0.0000000  0 10G01G02G32G09G03G04G28G31G26G16
   5489052.23047   4278206.99645  22164871.2814                   22164871.2074
        46.0004         31.2504
  10758468.68046   8375639.31343  23990502.9454                   23990501.2974
        40.7504         22.7504
  10057008.82046   7790293.47744  25403839.7034                   25403842.1484
        36.7504         25.2504
   -153340.75045   -187583.84843  24812741.7584                   24812746.6804
        32.7504         22.7504
  -7227234.27348  -5623864.10248  20300020.6414                   20300021.0164
        50.0004         49.5004
  -7119975.94547  -5521861.97345  21948662.1024                   21948661.8094
        45.5004         32.2504
  11319642.60947   8810262.14144  23469741.7734                   23469742.0274
        42.2504         27.0004
   4938736.49248   3850792.73447  21014562.3204                   21014560.2584
        49.0004         44.7504
  -8298088.09847  -6432865.68046  21774212.2114                   21774214.0354
        47.0004         41.5004
  -6586554.49246  -6694683.91844  23241882.4774                   23241882.1564
        41.2504         24.5004
 25  7 16  1  7 30.0000000  0  9G01G02G09G03G04G28G31G26G16
   5549081.59847   4324983.08245  22176294.7034                   22176294.5084
        46.2504         31.2504
  10836866.39846   8436728.32844  24005421.4694                   24005420.5664
        41.0004         25.2504
   -238613.64546   -254030.21944  24796515.9304                   24796519.3754
        36.5004         25.0004
  -7270064.67248  -5657238.44148  20291869.8984                   20291870.4224
        50.0004         49.7504
  -7178942.21147  -5567809.68045  21937441.2424                   21937440.7584
        45.5004         31.7504
  11406026.64546   8877574.34044  23486180.3284                   23486179.9574
        41.7504         26.5004
   4995741.96548   3895212.57047  21025410.4304                   21025408.5314
        49.0004         45.0004
  -8345610.67647  -6469896.22346  21765169.0004                   21765171.0124
        47.0004         41.7504
  -6694350.89546  -6778680.98043  23221369.7664                   23221369.0944
        40.5004         22.7504
 25  7 16  1  8  0.0000000  0 10G01G02G32G09G03G04G28G31G26G16
   5609473.62947   4372041.75445  22187786.9694                   22187787.1684
        46.0004         30.7504
  10915298.37146   8497844.00043  24020347.1484                   24020346.2544
        41.2504         23.7504
   1607916.34856   7834400.87553  25427957.6954                   25427956.6804
        37.7504         19.5004
   -323898.50046   -320485.86744  24780287.5704                   24780290.3014
        37.0004         27.7504
  -7312442.07848  -5690259.79348  20283806.0084                   20283806.5394
        49.7504         49.5004
  -7237808.40247  -5613679.41445  21926239.2734                   21926238.9384
        45.0004         32.5004
  11492518.49246   8944970.53144  23502639.5784                   23502638.8714
        40.7504         25.7504
   5053127.20747   3939928.32047  21036330.3914                   21036328.2544
        47.5004         44.7504
  -8392611.96147  -6506520.57846  21756224.9304                   21756226.8404
        45.5004         41.7504
  -6802015.02746  -6862575.00843  23200881.5004                   23200881.4574
        40.2504         22.7504
 25  7 16  1  8 30.0000000  0  9G01G02G09G03G04G28G31G26G16
   5670230.09447   4419384.41045  22199348.8134                   22199348.2384
        46.0004         31.0004
  10993766.74246   8558988.09844  24035276.6094                   24035277.8244
        39.2504         24.0004
   -409190.85545   -386947.29344  24764056.1094                   24764059.9344
        34.5004         26.5004
  -7354359.82448  -5722922.96548  20275829.1414                   20275829.9654
        49.2504         49.5004
  -7296569.93447  -5659467.59445  21915057.5784                   21915057.4064
        45.7504         32.0004
  11579120.53146   9012452.62144  23519118.9614                   23519118.6764
        41.5004         26.2504
   5110894.00848   3984941.39847  21047323.2034                   21047320.7664
        48.0004         44.7504
  -8439085.34447  -6542733.57846  21747381.2504                   21747383.4414
        46.2504         41.7504
  -6909538.33646  -6946359.33643  23180420.3054                   23180420.1804
        41.2504         22.5004
 25  7 16  1  9  0.0000000  0  9G01G02G09G03G04G28G31G26G16
   5731352.03147   4467011.85245  22210979.7894                   22210979.7664
        46.5004         31.0004
  11072272.46546   8620161.24244  24050218.2894                   24050217.4064
        41.7504         26.2504
   -494486.93445   -453411.60544  24747824.5004                   24747828.6684
        34.5004         25.2504
  -7395812.26248  -5755223.56248  20267940.9844                   20267941.9924
        49.5004         49.5004
  -7355222.85947  -5705171.14545  21903896.1804                   21903895.9614
        45.0004         32.5004
  11665834.42246   9080021.84444  23535620.3674                   23535620.1564
        41.5004         26.0004
   5169043.67248   4030252.80947  21058388.4844                   21058386.4694
        48.0004         44.5004
  -8485024.89847  -6578530.60947  21738639.3444                   21738641.4224
        46.5004         42.0004
  -7016913.63746  -7030028.29344  23159987.5084                   23159987.2464
        41.2504         24.2504
 25  7 16  1  9 30.0000000  0  9G01G02G09G03G04G28G31G26G16
   5792845.05147   4514928.43445  22222681.8524                   22222681.9414
        46.0004         31.2504
  11150821.31646   8681367.96544  24065166.5554                   24065165.5004
        41.7504         26.0004
   -579778.16846   -519872.23444  24731595.2114                   24731598.0514
        36.5004         28.0004
  -7436788.92248  -5787153.42648  20260143.4774                   20260144.0314
        49.0004         49.5004
  -7413758.69947  -5750783.46945  21892756.9924                   21892756.9964
        45.5004         32.2504
  11752666.40647   9147683.10544  23552143.8754                   23552143.7234
        42.2504         26.2504
   5227582.41048   4075867.39847  21069528.1954                   21069526.1054
        48.0004         44.7504
  -8530420.30147  -6613903.63347  21730000.8054                   21730002.8634
        46.0004         42.0004
  -7124128.95346  -7113572.62944  23139584.8984                   23139584.6334
        41.0004         24.0004
 25  7 16  1 10  0.0000000  0  9G01G02G09G03G04G28G31G26G16
   5854714.10547   4563138.03945  22234454.8674                   22234455.0084
        46.0004         30.2504
  11229418.18446   8742612.19544  24080121.5164                   24080121.9064
        39.5004         25.0004
   -665056.98845   -586323.18444  24715366.5084                   24715370.3094
        34.5004         26.7504
  -7477280.34848  -5818705.18748  20252437.9304                   20252438.5744
        48.5004         49.5004
  -7472169.58647  -5796298.42245  21881641.7664                   21881641.3634
        45.5004         32.5004
  11839622.18047   9215440.78544  23568690.8754                   23568691.0704
        42.0004         27.2504
   5286515.14147   4121788.99247  21080742.4844                   21080740.3874
        47.5004         44.5004
  -8575261.77047  -6648845.01646  21721467.8834                   21721469.4304
        46.2504         41.7504
  -7231173.50446  -7196983.88343  23119214.4694                   23119214.4534
        39.5004         22.7504
 25  7 16  1 10 30.0000000  0  9G01G02G09G03G04G28G31G26G16
   5916953.93847   4611636.55145  22246298.8134                   22246299.0084
        45.2504         31.5004
  11308058.48046   8803890.17244  24095087.7734                   24095086.9534
        40.2504         24.5004
   -750325.71545   -652766.17644  24699140.2734                   24699144.1884
        35.0004         27.0004
  -7517286.94148  -5849879.14848  20244824.8834                   20244825.6954
        49.2504         49.5004
  -7530457.82847  -5841717.80545  21870549.5944                   21870549.5514
        44.5004         32.0004
  11926697.16847   9283291.39144  23585260.5704                   23585260.4574
        42.7504         26.5004
   5345836.87148   4168013.69947  21092031.2274                   21092029.0204
        48.0004         44.5004
  -8619549.75047  -6683355.10947  21713040.1094                   21713042.1134
        46.0004         42.0004
  -7338046.04346  -7280261.08643  23098877.0704                   23098877.3594
        40.0004         22.7504
 25  7 16  1 11  0.0000000  0  9G01G02G09G03G04G28G31G26G16
   5979556.16447   4660417.45745  22258211.3754                   22258211.7074
        45.0004         31.0004
  11386733.23046   8865195.08644  24110058.2814                   24110058.0744
        40.5004         25.7504
   -835589.78546   -719205.64144  24682915.6334                   24682917.9654
        37.7504         29.2504
  -7556812.39148  -5880678.19948  20237303.3834                   20237304.4224
        48.2504         49.5004
  -7588628.88347  -5887045.87945  21859480.0554                   21859480.3244
        44.5004         31.7504
  12013883.73846   9351228.93044  23601852.0474                   23601851.2624
        41.5004         26.5004
   5405539.68047   4214535.35547  21103391.8594                   21103389.9344
        47.5004         44.5004
  -8663287.85247  -6717436.73847  21704716.7584                   21704718.6134
        46.0004         42.0004
  -7444748.76246  -7363405.96543  23078572.6884                   23078572.5824
        41.0004         22.7504
 25  7 16  1 11 30.0000000  0  9G01G02G09G03G04G28G31G26G16
   6042513.75447   4709475.25045  22270192.0234                   22270192.2934
        45.0004         31.7504
  11465435.85246   8926521.59444  24125035.7274                   24125035.1604
        40.0004         24.2504
   -920853.60945   -785644.87544  24666688.5784                   24666693.3834
        34.0004         25.7504
  -7595859.03548  -5911104.15648  20229873.1884                   20229874.2154
        48.5004         49.5004
  -7646686.85947  -5932285.83645  21848432.0234                   21848432.1214
        45.7504         31.7504
  12101175.48446   9419248.41444  23618463.0474                   23618462.6174
        41.7504         26.7504
   5465616.47748   4261348.43847  21114824.4144                   21114822.2544
        48.0004         44.2504
  -8706478.38747  -6751091.66847  21696497.8284                   21696499.9184
        46.2504         42.0004
  -7551282.18747  -7446418.93043  23058300.1884                   23058299.8834
        42.7504         23.2504
 25  7 16  1 12  0.0000000  0  9G01G02G09G03G04G28G31G26G16
   6105823.29347   4758807.30145  22282239.8284                   22282239.8794
        45.2504         30.2504
  11544163.03146   8987867.35943  24140016.2504                   24140016.0514
        39.7504         22.7504
  -1006117.69946   -852084.31244  24650464.4224                   24650467.5744
        37.7504         28.5004
  -7634425.57048  -5941156.00048  20222534.1484                   20222534.7734
        49.0004         49.5004
  -7704632.17647  -5977438.00045  21837405.5234                   21837405.2894
        45.5004         31.7504
  12188569.77747   9487347.85544  23635093.9144                   23635092.9654
        42.0004         24.2504
   5526064.13747   4308450.49647  21126327.4144                   21126325.0004
        47.7504         44.5004
  -8749120.03947  -6784318.91047  21688383.9774                   21688385.3914
        46.0004         42.2504
  -7657643.36747  -7529297.69944  23038060.5554                   23038059.9264
        43.0004         25.0004
 25  7 16  1 12 30.0000000  0  9G01G02G09G03G04G28G31G26G16
   6169478.48047   4808408.69545  22294352.6414                   22294352.6954
        45.2504         30.5004
  11622908.68846   9049227.47343  24154999.7734                   24155001.4884
        37.5004         22.5004
  -1091385.38345   -918526.59044  24634238.8204                   24634241.9924
        35.0004         28.5004
  -7672513.60248  -5970834.97348  20215286.4534                   20215287.1374
        49.0004         49.5004
  -7762468.19147  -6022505.00045  21826400.0234                   21826399.6604
        45.0004         32.5004
  12276061.05146   9555522.85944  23651743.1564                   23651742.2774
        41.5004         24.5004
   5586876.74647   4355836.93447  21137899.6254                   21137897.2774
        47.5004         44.5004
  -8791214.34047  -6817119.62947  21680373.4694                   21680375.2624
        46.2504         42.5004
  -7763832.39147  -7612042.30143  23017853.4924                   23017852.5474
        42.2504         23.7504
 25  7 16  1 13  0.0000000  0  9G01G02G09G03G04G28G31G26G16
   6233474.78947   4858275.89145  22306530.4454                   22306530.8874
        43.5004         30.7504
  11701668.45746   9110598.66443  24169988.4304                   24169988.3594
        39.7504         22.2504
  -1176658.31645   -984972.87944  24618011.4924                   24618014.6914
        35.0004         28.2504
  -7710122.93048  -6000140.93448  20208129.5234                   20208130.1524
        48.7504         49.5004
  -7820196.35547  -6067487.96545  21815414.2114                   21815414.2034
        45.2504         32.5004
  12363645.63747   9623770.54744  23668410.2194                   23668408.8164
        42.5004         26.5004
   5648050.07847   4403504.44547  21149540.5394                   21149538.6374
        47.0004         44.2504
  -8832761.15647  -6849493.74647  21672467.2664                   21672469.0514
        46.0004         42.5004
  -7869847.20346  -7694651.18044  22997678.5784                   22997678.4454
        41.7504         24.5004
 25  7 16  1 13 30.0000000  0  9G01G02G09G03G04G28G31G26G16
   6297813.93447   4908410.23845  22318774.6024                   22318774.5044
        44.0004         30.5004
  11780444.16846   9171982.19543  24184979.7504                   24184978.4884
        40.2504         22.5004
  -1261931.99646  -1051419.82844  24601784.7034                   24601787.1684
        36.2504         29.2504
  -7747247.17648  -6029068.91848  20201065.2034                   20201065.9534
        49.2504         49.7504
  -7877812.04347  -6112383.27045  21804450.4224                   21804450.0784
        44.5004         32.2504
  12451325.98446   9692092.85544  23685095.2504                   23685094.0554
        41.7504         24.5004
   5709586.02047   4451454.52047  21161250.4384                   21161248.5394
        47.5004         44.7504
  -8873754.03947  -6881436.21947  21664666.3134                   21664668.6724
        45.5004         42.2504
  -7975680.04347  -7777118.23844  22977539.1644                   22977539.0514
        42.2504         24.5004
 25  7 16  1 14  0.0000000  0  9G01G02G09G03G04G28G31G26G16
   6362493.51647   4958809.85544  22331082.4924                   22331082.9774
        45.5004         29.7504
  11859233.88346   9233376.66443  24199972.0704                   24199971.9304
        38.5004         22.5004
  -1347205.69946  -1117866.80545  24585557.4844                   24585560.3134
        38.2504         30.7504
  -7783884.03948  -6057617.11748  20194093.5704                   20194093.9494
        49.5004         49.7504
  -7935314.59847  -6157190.43045  21793507.7894                   21793507.9224
        45.5004         31.5004
  12539100.51646   9760488.55144  23701797.6954                   23701797.3324
        41.2504         25.5004
   5771482.63748   4499685.63747  21173029.0784                   21173026.9454
        48.7504         44.5004
  -8914190.72347  -6912945.30147  21656971.4774                   21656973.3984
        45.0004         42.0004
  -8081326.64847  -7859440.19544  22957435.2814                   22957435.1094
        42.5004         24.2504
 25  7 16  1 14 30.0000000  0  9G01G02G09G03G04G28G31G26G16
   6427507.12547   5009469.75445  22343454.4144                   22343454.2154
        44.5004         30.0004
  11938031.10546   9294776.92643  24214967.3444                   24214966.4064
        39.2504         21.0004
  -1432483.10545  -1184316.61744  24569329.5234                   24569332.2074
        35.5004         27.5004
  -7820035.23848  -6085786.87548  20187214.2114                   20187214.4964
        49.0004         49.7504
  -7992707.39847  -6201912.05945  21782586.7734                   21782586.5044
        45.0004         31.5004
  12626963.67646   9828953.30544  23718517.3054                   23718516.7344
        41.0004         24.7504
   5833733.78148   4548193.01247  21184874.9924                   21184873.0004
        48.7504         44.5004
  -8954072.93747  -6944022.31647  21649381.9924                   21649384.2814
        46.0004         42.2504
  -8186787.42647  -7941617.32844  22937366.7664                   22937367.1724
        42.2504         24.2504
 25  7 16  1 15  0.0000000  0  9G01G02G09G03G04G28G31G26G16
   6492847.28547   5060384.10545  22355887.7504                   22355888.3834
        45.0004         31.7504
  12016828.58646   9356177.43043  24229962.0314                   24229961.9614
        39.0004         20.5004
  -1517768.69546  -1250772.88745  24553100.5474                   24553103.5904
        37.5004         31.7504
  -7855703.58648  -6113580.38348  20180426.5394                   20180427.2074
        48.7504         50.0004
  -8049994.84447  -6246551.60245  21771684.5944                   21771684.9104
        45.0004         31.5004
  12714908.81346   9897481.92644  23735252.6724                   23735252.6454
        40.5004         25.0004
   5896332.40648   4596971.15247  21196787.4844                   21196784.7774
        48.5004         44.5004
  -8993403.49647  -6974669.48447  21641897.8134                   21641899.6134
        45.7504         42.2504
  -8292063.06647  -8023650.22343  22917333.6884                   22917333.4024
        43.0004         23.7504
 25  7 16  1 15 30.0000000  0  9G01G02G09G03G04G28G31G26G16
   6558513.76247   5111552.72345  22368383.7814                   22368384.0864
        44.5004         30.2504
  12095626.45346   9417578.28143  24244956.2814                   24244956.1564
        38.2504         22.0004
  -1603059.73445  -1317233.31244  24536867.8364                   24536873.6294
        33.5004         28.2504
  -7890884.68048  -6140994.21148  20173731.9534                   20173732.5824
        48.5004         50.0004
  -8107174.14547  -6291106.88345  21760804.1804                   21760803.8364
        46.2504         31.5004
  12802936.56346   9966074.93044  23752004.1024                   23752003.7154
        41.5004         24.0004
   5959278.32448   4646019.91047  21208765.2344                   21208763.1174
        48.2504         44.5004
  -9032178.04347  -7004883.37947  21634519.4304                   21634521.0944
        45.0004         42.5004
  -8397147.56247  -8105534.16844  22897336.5314                   22897336.1454
        42.0004         24.7504
 25  7 16  1 16  0.0000000  0  9G01G02G09G03G04G28G31G26G16
   6624507.34447   5162976.23445  22380942.1564                   22380942.2344
        44.7504         30.5004
  12174425.75446   9478980.10243  24259952.7034                   24259952.1604
        39.7504         21.5004
  -1688352.58246  -1383695.12945  24520639.1334                   24520641.9264
        38.0004         30.2504
  -7925573.01248  -6168024.07848  20167130.7504                   20167131.5514
        49.2504         50.0004
  -8164241.41047  -6335574.86345  21749944.6094                   21749944.3634
        45.2504         32.7504
  12891048.54346  10034733.57044  23768771.4844                   23768771.2894
        40.7504         24.5004
   6022572.85248   4695340.30147  21220810.2504                   21220807.9694
        48.7504         44.7504
  -9070391.17647  -7034659.81647  21627247.1804                   21627249.1524
        46.0004         42.2504
  -8502033.52047  -8187263.40244  22877377.3754                   22877376.9064
        43.0004         24.0004
 25  7 16  1 16 30.0000000  0  9G01G02G09G03G04G28G31G26G16
   6690825.17247   5214652.39845  22393561.8524                   22393562.1334
        43.5004         30.5004
  12253223.85946   9540381.12143  24274946.1644                   24274946.7194
        38.0004         19.2504
  -1773646.97745  -1450158.23844  24504406.0554                   24504410.7774
        34.2504         28.5004
  -7959766.84448  -6194668.62148  20160623.9224                   20160624.7034
        49.7504         50.0004
  -8221196.49647  -6379955.42645  21739106.2344                   21739106.2704
        45.5004         32.0004
  12979242.83646  10103456.36344  23785554.0474                   23785554.1374
        40.5004         25.5004
   6086213.21148   4744930.17247  21232920.1564                   21232918.3914
        48.0004         44.5004
  -9108041.09847  -7063997.39147  21620082.7814                   21620084.6484
        46.5004         42.7504
  -8606717.36747  -8268835.15644  22857456.9224                   22857456.5354
        42.7504         25.2504
 25  7 16  1 17  0.0000000  0  9G01G02G09G03G04G28G31G26G16
   6757465.26647   5266579.68444  22406243.4454                   22406243.5704
        44.5004         29.5004
  12332019.03146   9601779.83243  24289941.1484                   24289941.4344
        38.5004         21.2504
  -1858942.16446  -1516621.89144  24488176.7664                   24488179.6134
        37.0004         29.7504
  -7993463.46148  -6220925.72348  20154211.5314                   20154212.6094
        48.2504         50.0004
  -8278038.18447  -6424247.63745  21728289.6564                   21728289.9844
        45.7504         32.5004
  13067518.38346  10172242.43844  23802352.8054                   23802352.1844
        40.0004         25.5004
   6150198.15648   4794788.55547  21245096.5314                   21245094.4304
        48.5004         44.5004
  -9145125.24647  -7092894.11747  21613026.0864                   21613027.7774
        45.2504         42.5004
  -8711194.77347  -8350246.04344  22837574.7734                   22837574.4924
        42.2504         25.2504
 25  7 16  1 17 30.0000000  0  9G01G02G09G03G04G28G31G26G16
   6824424.78547   5318755.86345  22418985.7194                   22418985.6414
        44.2504         30.0004
  12410808.69546   9663174.21943  24304934.3914                   24304934.5944
        39.5004         20.5004
  -1944237.71946  -1583085.91845  24471945.6644                   24471948.5474
        38.5004         31.0004
  -8026661.09848  -6246794.01248  20147894.4224                   20147895.2114
        50.0004         50.0004
  -8334766.23847  -6468451.29745  21717494.8054                   21717494.4304
        45.5004         32.0004
  13155873.28546  10241090.35243  23819165.2344                   23819164.9694
        39.5004         22.2504
   6214525.07448   4844913.41447  21257337.3134                   21257335.4804
        49.0004         44.5004
  -9181641.88347  -7121348.60547  21606077.3984                   21606078.7894
        46.0004         42.5004
  -8815462.35947  -8431493.43444  22817733.6174                   22817733.0434
        43.2504         25.2504
 25  7 16  1 18  0.0000000  0  9G01G02G09G03G04G28G31G26G16
   6891700.17647   5371178.19144  22431787.6724                   22431787.8404
        45.0004         29.7504
  12489589.65246   9724561.82043  24319926.4224                   24319926.6174
        40.7504         20.2504
  -2029534.39846  -1649550.76245  24455714.0084                   24455717.1174
        37.5004         30.0004
  -8059358.64848  -6272272.62148  20141672.2114                   20141672.9184
        49.5004         50.0004
  -8391381.12147  -6512566.76245  21706721.0704                   21706721.0904
        45.0004         32.7504
  13244304.90246  10309998.05944  23835993.8204                   23835993.4264
        40.5004         25.2504
   6279190.53148   4895302.06347  21269642.6564                   21269640.8984
        48.0004         44.0004
  -9217590.03147  -7149360.12547  21599236.2894                   21599238.0944
        46.7504         42.7504
  -8919516.94147  -8512574.85944  22797932.7424                   22797931.8404
        42.0004         26.0004
 25  7 16  1 18 30.0000000  0  9G01G02G09G03G04G28G31G26G16
   6959290.10247   5423845.60545  22444649.4224                   22444649.8794
        45.0004         30.0004
  12568361.01646   9785941.98443  24334916.3364                   24334916.6254
        39.5004         21.2504
  -2114830.35546  -1716015.11744  24439482.7894                   24439484.6914
        38.7504         29.5004
  -8091552.75048  -6297358.93448  20135545.5164                   20135546.7154
        50.2504         50.0004
  -8447880.91847  -6556592.55945  21695969.6644                   21695969.3054
        45.2504         32.0004
  13332812.86346  10378965.25044  23852836.7734                   23852836.3094
        40.7504         25.2504
   6344193.76248   4945953.91447  21282012.3204                   21282010.0234
        48.0004         44.0004
  -9252966.42247  -7176926.11747  21592504.6414                   21592506.1644
        45.5004         42.5004
  -9023353.28947  -8593486.24243  22778173.9224                   22778172.7154
        43.2504         23.5004
 25  7 16  1 19  0.0000000  0  9G01G02G09G03G04G28G31G26G16
   7027194.16447   5476757.80545  22457571.3054                   22457571.2664
        43.5004         30.5004
  12647122.39846   9847314.35243  24349905.5234                   24349904.1414
        41.5004         22.5004
  -2200123.16846  -1782476.95744  24423252.1254                   24423254.8984
        37.7504         29.2504
  -8123239.35948  -6322049.79748  20129516.3594                   20129516.4494
        48.7504         50.0004
  -8504263.04347  -6600526.66045  21685240.3984                   21685240.3794
        46.0004         32.2504
  13421397.69546  10447992.34444  23869693.8204                   23869693.2704
        41.5004         26.0004
   6409534.50447   4996868.75847  21294446.3134                   21294444.2894
        47.0004         44.2504
  -9287767.05147  -7204043.46147  21585882.3364                   21585883.8914
        45.2504         42.7504
  -9126965.53546  -8674222.98044  22758456.2734                   22758455.4494
        41.7504         25.7504
 25  7 16  1 19 30.0000000  0  9G01G02G09G03G04G28G31G26G16
   7095406.26647   5529910.02744  22470551.5164                   22470551.8874
        44.7504         29.5004
  12725868.21546   9908674.58243  24364888.9844                   24364889.5274
        40.2504         22.5004
  -2285415.72746  -1848938.61745  24407021.8054                   24407023.5594
        39.2504         30.2504
  -8154419.85548  -6346346.29348  20123582.8524                   20123583.5634
        50.5004         50.0004
  -8560530.32047  -6644371.27345  21674533.0474                   21674533.0704
        46.0004         33.0004
  13510054.39546  10517075.43844  23886564.6804                   23886564.3954
        41.7504         27.0004
   6475207.08647   5048042.18447  21306943.5784                   21306941.5204
        47.5004         44.0004
  -9321993.60947  -7230713.48447  21579368.9224                   21579370.8914
        47.0004         42.5004
  -9230353.36746  -8754784.85944  22738782.3594                   22738781.5904
        41.7504         26.5004
 25  7 16  1 20  0.0000000  0  9G01G02G09G03G04G28G31G26G16
   7163924.35547   5583300.68044  22483590.3444                   22483590.7704
        45.7504         29.5004
  12804596.62546   9970021.31643  24379870.7504                   24379870.1414
        40.2504         22.0004
  -2370707.14146  -1915399.36744  24390790.5234                   24390792.9964
        37.0004         29.5004
  -8185091.68748  -6370246.43748  20117746.0474                   20117746.4884
        50.0004         50.2504
  -8616681.60947  -6688125.50445  21663847.6644                   21663847.6484
        45.7504         32.5004
  13598781.85246  10586213.66444  23903449.1954                   23903448.6054
        41.0004         24.2504
   6541209.90647   5099472.92647  21319503.2504                   21319501.3444
        47.0004         43.7504
  -9355643.35247  -7256934.05147  21572965.9064                   21572967.5554
        46.2504         42.7504
  -9333512.16047  -8835168.26244  22719152.1884                   22719151.2194
        43.0004         25.7504
 25  7 16  1 20 30.0000000  0  9G01G02G09G03G04G28G31G26G16
   7232747.99247   5636929.43844  22496686.7734                   22496687.0984
        45.0004         29.5004
  12883307.59446  10031354.32444  24394849.1174                   24394849.6954
        41.5004         24.7504
  -2455994.73046  -1981857.12545  24374561.0634                   24374563.8054
        38.5004         30.0004
  -8215250.73448  -6393746.99648  20112007.2114                   20112007.5784
        49.0004         50.2504
  -8672714.24647  -6731787.27745  21653185.2664                   21653184.5594
        45.0004         32.2504
  13687580.67246  10655407.47343  23920345.8054                   23920346.0394
        38.7504         23.0004
   6607542.99648   5151161.03547  21332126.3444                   21332124.2814
        48.5004         44.0004
  -9388712.41047  -7282702.12947  21566672.6094                   21566674.5234
        45.2504         42.7504
  -9436436.01247  -8915368.60544  22699566.1724                   22699565.1454
        43.0004         25.5004
 25  7 16  1 21  0.0000000  0  9G01G02G09G03G04G28G31G26G16
   7301870.13747   5690790.77744  22509840.2664                   22509840.5664
        45.0004         29.2504
  12961994.56346  10092668.73043  24409822.5944                   24409822.5514
        40.0004         22.0004
  -2541282.57446  -2048315.09444  24358329.9064                   24358333.5234
        36.5004         27.2504
  -8244899.48448  -6416849.92248  20106364.9774                   20106365.6724
        48.7504         50.2504
  -8728632.07447  -6775359.60245  21642544.3364                   21642544.0864
        45.5004         32.2504
  13776444.82046  10724652.19944  23937256.5314                   23937256.9344
        40.0004         24.2504
   6674199.61347   5203101.23447  21344810.4454                   21344808.5204
        47.5004         43.5004
  -9421203.47347  -7308019.81647  21560490.2584                   21560491.9024
        45.2504         42.7504
  -9539125.31247  -8995386.17644  22680024.6804                   22680023.9964
        42.7504         26.0004
 25  7 16  1 21 30.0000000  0  9G01G02G09G03G04G28G31G26G16
   7371291.03947   5744884.93044  22523051.0474                   22523051.0314
        43.2504         29.5004
  13040657.90646  10153964.74244  24424792.2344                   24424791.8834
        40.7504         24.5004
  -2626567.30146  -2114770.61745  24342101.9694                   24342104.8954
        36.5004         30.0004
  -8274033.08648  -6439551.43448  20100821.1334                   20100821.9884
        49.5004         50.0004
  -8784431.57447  -6818839.71945  21631926.0164                   21631925.9964
        44.5004         32.5004
  13865375.60946  10793948.82843  23954180.5234                   23954179.9384
        39.2504         22.7504
   6741180.32847   5255293.97347  21357556.8834                   21357554.5594
        47.0004         43.7504
  -9453111.75847  -7332883.40647  21554418.1954                   21554419.9654
        47.5004         42.5004
  -9641573.40247  -9075215.78144  22660529.8054                   22660528.4304
        43.0004         25.0004
 25  7 16  1 22  0.0000000  0  9G01G02G09G03G04G28G31G26G16
   7441007.94947   5799209.74644  22536317.6334                   22536317.7154
        43.7504         29.5004
  13119295.77746  10215240.85543  24439757.2664                   24439756.1764
        41.2504         21.2504
  -2711848.47746  -2181223.36744  24325872.7584                   24325875.4494
        37.5004         29.0004
  -8302649.68448  -6461850.08248  20095375.5004                   20095376.3594
        49.0004         50.2504
  -8840112.30547  -6862227.27745  21621330.1414                   21621330.0434
        44.7504         32.7504
  13954371.32846  10863296.11744  23971115.6174                   23971115.4024
        40.0004         24.5004
   6808483.02347   5307737.61347  21370363.7274                   21370361.6524
        47.7504         43.5004
  -9484435.68447  -7357291.62547  21548457.1804                   21548458.8284
        47.0004         43.0004
  -9743776.46547  -9154854.47344  22641080.8594                   22641080.2584
        43.2504         25.5004
 25  7 16  1 22 30.0000000  0  9G01G02G09G03G04G28G31G26G16
   7511016.13747   5853761.50844  22549639.9774                   22549640.1764
        44.7504         28.2504
  13197903.05546  10276493.11343  24454715.3834                   24454714.8874
        40.5004         22.5004
  -2797127.94545  -2247674.78544  24309644.2194                   24309648.2814
        35.7504         29.5004
  -8330749.54748  -6483746.07448  20090028.6564                   20090029.3404
        48.5004         50.2504
  -8895675.78147  -6905523.47345  21610756.7344                   21610756.8634
        44.7504         33.5004
  14043428.36746  10932691.16843  23988062.4774                   23988062.3594
        41.5004         23.2504
   6876103.08248   5360428.54747  21383231.3834                   21383229.6024
        48.7504         43.5004
  -9515175.57847  -7381244.77747  21542607.3524                   21542609.0354
        46.7504         42.7504
  -9845732.70747  -9234300.82044  22621679.6564                   22621678.7814
        42.7504         26.5004
 25  7 16  1 23  0.0000000  0  9G01G02G09G03G04G28G31G26G16
   7581314.46547   5908539.36744  22563017.6094                   22563017.6484
        44.5004         29.5004
  13276479.52746  10337721.41844  24469666.5234                   24469668.5984
        39.0004         24.5004
  -2882403.59846  -2314123.25444  24293417.6484                   24293420.3634
        36.7504         29.7504
  -8358329.20748  -6505236.71948  20084779.9614                   20084780.9104
        48.7504         50.0004
  -8951119.84847  -6948726.61345  21600205.8914                   21600206.1684
        45.0004         32.7504
  14132546.72346  11002133.98444  24005020.5554                   24005020.5824
        40.5004         26.0004
   6944040.24247   5413366.57047  21396159.6024                   21396157.9414
        47.7504         43.5004
  -9545328.22347  -7404740.31647  21536869.6254                   21536871.4494
        46.5004         42.7504
  -9947436.82447  -9313550.70744  22602325.4304                   22602325.3164
        43.0004         26.2504
 25  7 16  1 23 30.0000000  0 10G01G02G06G09G03G04G28G31G26G16
   7651893.95747   5963536.30544  22576448.4924                   22576448.4454
        45.2504         29.0004
  13355016.70346  10398919.07443  24484613.2114                   24484613.0704
        39.7504         22.0004
   1455912.69556   1151167.69554  25494928.1254                   25494931.7664
        37.5004         28.2504
  -2967681.43446  -2380573.37144  24277189.9304                   24277191.5864
        36.5004         29.2504
  -8385393.19948  -6526325.55148  20079629.8914                   20079630.8244
        49.0004         50.2504
  -9006450.27747  -6991841.21545  21589677.1724                   21589677.1454
        45.2504         33.2504
  14221718.40646  11071618.37144  24021990.3444                   24021990.0554
        41.0004         25.5004
   7012285.50847   5466544.68447  21409146.4694                   21409144.1454
        47.5004         43.5004
  -9574898.30147  -7427781.91447  21531242.7504                   21531244.5274
        46.5004         42.5004
 -10048891.45347  -9392606.18744  22583019.1024                   22583018.4064
        43.2504         27.7504
 25  7 16  1 24  0.0000000  0 10G01G02G06G09G03G04G28G31G26G16
   7722738.36747   6018739.68044  22589929.8204                   22589930.1564
        43.5004         28.2504
  13433498.34046  10460073.44143  24499546.0784                   24499547.9694
        37.5004         21.2504
   1385352.34846   1096185.71144  25481501.2274                   25481504.8364
        37.7504         28.0004
  -3052974.38746  -2447035.34844  24260958.3444                   24260961.1994
        36.5004         29.0004
  -8411953.19948  -6547021.65248  20074575.9694                   20074576.3594
        48.5004         50.2504
  -9061680.03547  -7034877.36745  21579167.5234                   21579166.6054
        45.0004         33.0004
  14310928.43046  11141132.62144  24038966.0944                   24038965.9614
        41.0004         24.5004
   7080822.91847   5519950.43847  21422188.4384                   21422186.4384
        47.5004         43.5004
  -9603897.68447  -7450378.82847  21525724.4694                   21525726.0124
        45.5004         42.7504
 -10150105.84447  -9471474.47344  22563758.8204                   22563758.3554
        42.5004         26.5004
 25  7 16  1 24 30.0000000  0 10G01G02G06G09G03G04G28G31G26G16
   7793839.99247   6074143.48044  22603459.7584                   22603459.6174
        45.0004         28.2504
  13511917.39846  10521179.07043  24514470.0084                   24514470.9414
        38.2504         22.2504
   1315190.87946   1041514.43043  25468149.1724                   25468152.5434
        38.2504         22.5004
  -3138287.26246  -2513512.77744  24244724.1094                   24244726.5594
        37.7504         29.5004
  -8438012.42648  -6567327.54748  20069616.8914                   20069617.4694
        49.5004         50.2504
  -9116813.53547  -7077838.51645  21568675.5004                   21568675.2854
        45.0004         33.0004
  14400170.16046  11210671.56343  24055948.0784                   24055948.6134
        40.5004         22.5004
   7149645.47348   5573578.37947  21435284.7274                   21435282.9534
        48.0004         43.2504
  -9632329.79347  -7472533.69947  21520313.6724                   21520315.4384
        45.5004         42.7504
 -10251081.37147  -9550156.62544  22544543.6254                   22544543.5984
        42.7504         28.5004
 25  7 16  1 25  0.0000000  0 10G01G02G06G09G03G04G28G31G26G16
   7865201.32047   6129749.66044  22617039.0554                   22617039.4694
        43.7504         28.7504
  13590276.66046  10582238.09843  24529381.0004                   24529381.9494
        38.5004         22.2504
   1245435.47746    987159.47743  25454876.1094                   25454878.2974
        38.0004         23.7504
  -3223614.16846  -2580001.22344  24228487.9694                   24228489.2114
        36.5004         28.0004
  -8463563.93748  -6587237.82048  20064754.7114                   20064754.8554
        48.7504         50.2504
  -9171845.05947  -7120720.19945  21558203.5004                   21558203.4184
        45.0004         32.7504
  14489447.24646  11280238.07843  24072937.4384                   24072936.9264
        40.5004         22.2504
   7218756.22747   5627430.88747  21448436.5944                   21448434.4734
        47.5004         43.5004
  -9660187.90647  -7494241.30147  21515012.9224                   21515014.2734
        45.5004         43.0004
 -10351809.10247  -9628645.70344  22525375.7664                   22525375.0824
        43.0004         27.2504
 25  7 16  1 25 30.0000000  0 10G01G02G06G09G03G04G28G31G26G16
   7936822.39147   6185558.22744  22630668.6484                   22630668.7974
        43.5004         28.2504
  13668576.96946  10643251.19143  24544282.4304                   24544282.5864
        39.0004         22.7504
   1176091.20346    933125.11744  25441679.8134                   25441684.1414
        38.0004         27.5004
  -3308952.31246  -2646498.36344  24212247.3204                   24212250.0434
        37.2504         28.5004
  -8488603.21548  -6606748.95348  20059990.0554                   20059990.4694
        49.2504         50.2504
  -9226771.20347  -7163519.76645  21547751.3134                   21547750.9304
        45.5004         33.0004
  14578760.90646  11349833.05543  24089932.8674                   24089933.1214
        39.7504         22.7504
   7288155.55947   5681508.26247  21461642.3984                   21461640.4614
        47.7504         43.0004
  -9687467.71547  -7515498.28547  21509821.4924                   21509823.2734
        45.7504         43.0004
 -10452282.35547  -9706936.48044  22506256.4064                   22506255.8444
        43.2504         26.2504
 25  7 16  1 26  0.0000000  0 10G01G02G06G09G03G04G28G31G26G16
   8008704.52747   6241570.21544  22644347.3594                   22644348.0044
        44.5004         29.2504
  13746820.03546  10704219.60943  24559171.0704                   24559171.4264
        38.5004         20.7504
   1107164.29346    879415.76643  25428563.5634                   25428565.0784
        37.2504         21.5004
  -3394296.81646  -2713000.50844  24196007.5084                   24196009.2304
        36.2504         28.5004
  -8513124.40648  -6625856.37148  20055323.3914                   20055324.3834
        49.7504         50.2504
  -9281587.40247  -7206233.67245  21537320.0944                   21537320.2504
        45.5004         33.5004
  14668113.59446  11419458.45743  24106937.2424                   24106936.3484
        41.2504         22.7504
   7357845.37947   5735811.99247  21474904.1484                   21474902.2154
        47.5004         43.0004
  -9714163.59847  -7536300.24647  21504741.4694                   21504743.2974
        47.5004         43.0004
 -10552493.26647  -9785022.84444  22487187.1174                   22487186.2704
        43.7504         28.7504
 25  7 16  1 26 30.0000000  0 10G01G02G06G09G03G04G28G31G26G16
   8080848.81347   6297786.46544  22658075.8984                   22658076.4104
        42.5004         29.2504
  13825007.24246  10765144.60543  24574049.7114                   24574049.0004
        38.0004         18.5004
   1038660.65246    826036.39544  25415528.6094                   25415531.2344
        39.5004         29.2504
  -3479643.69146  -2779504.47745  24179766.6484                   24179768.1884
        37.2504         30.0004
  -8537122.03548  -6644555.81248  20050756.7814                   20050757.7424
        48.7504         50.2504
  -9336289.21147  -7248858.43045  21526910.9304                   21526910.8484
        45.2504         33.2504
  14757507.60546  11489116.06643  24123947.2344                   24123947.5554
        41.2504         22.5004
   7427826.95747   5790343.07047  21488221.3134                   21488219.7114
        46.7504         43.2504
  -9740270.40247  -7556643.18747  21499773.7344                   21499774.9414
        45.7504         43.0004
 -10652434.24647  -9862898.86344  22468168.4064                   22468167.8914
        42.5004         27.2504
 25  7 16  1 27  0.0000000  0 10G01G02G06G09G03G04G28G31G26G16
   8153252.63347   6354204.96944  22671853.3524                   22671854.4414
        43.5004         29.2504
  13903136.63345  10826024.37943  24588917.0084                   24588918.0704
        35.0004         20.2504
    970582.63346    772988.48843  25402572.9694                   25402575.0824
        37.2504         19.0004
  -3564992.23846  -2846009.74644  24163524.7504                   24163527.1644
        37.0004         27.7504
  -8560594.29348  -6662845.87548  20046290.1254                   20046290.9384
        49.5004         50.2504
  -9390875.89547  -7291393.48845  21516523.2194                   21516523.1484
        45.7504         33.2504
  14846941.59446  11558804.83644  24140966.7664                   24140966.4024
        41.7504         24.0004
   7498098.38747   5845099.99647  21501593.4304                   21501591.4964
        47.2504         43.0004
  -9765786.40248  -7576525.77347  21494918.0554                   21494919.5704
        48.0004         43.5004
 -10752101.29747  -9940561.43444  22449202.7424                   22449201.6374
        43.5004         27.5004
 25  7 16  1 27 30.0000000  0 10G01G02G06G09G03G04G28G31G26G16
   8225916.78947   6410826.31344  22685681.1254                   22685681.9844
        43.5004         28.0004
  13981209.11345  10886860.00443  24603772.4304                   24603774.1684
        34.7504         19.2504
    902935.84446    720276.81645  25389701.4384                   25389704.2934
        40.7504         30.7504
  -3650338.59446  -2912513.35944  24147283.9534                   24147285.7344
        37.5004         29.7504
  -8583535.97748  -6680722.52048  20041924.7114                   20041925.3984
        48.5004         50.0004
  -9445343.39147  -7333835.67645  21506158.7424                   21506158.4304
        45.7504         34.0004
  14936417.48446  11628526.23843  24157993.1174                   24157992.4964
        41.5004         22.0004
   7568660.77747   5900083.64547  21515021.0784                   21515019.0204
        47.5004         42.7504
  -9790706.81647  -7595944.26247  21490175.5944                   21490177.5594
        45.5004         43.0004
 -10851487.35247 -10018005.04744  22430289.8364                   22430288.6954
        43.0004         27.5004
 25  7 16  1 28  0.0000000  0 10G01G02G06G09G03G04G28G31G26G16
   8298834.28147   6467645.07044  22699557.0784                   22699557.9964
        44.0004         28.5004
  14059218.62946  10947646.53543  24618618.8754                   24618619.6094
        38.2504         21.5004
    835718.24245    667899.64143  25376908.5474                   25376912.5744
        35.2504         21.2504
  -3735686.50045  -2979018.12544  24131041.6884                   24131045.2894
        35.5004         28.7504
  -8605949.69148  -6698187.74648  20037659.3834                   20037660.0864
        49.5004         50.2504
  -9499695.31647  -7376187.78945  21495815.6954                   21495815.3714
        45.7504         34.0004
  15025929.56346  11698275.86743  24175026.5394                   24175026.6914
        40.2504         22.5004
   7639507.86747   5955289.15647  21528502.9224                   21528500.7074
        47.5004         42.7504
  -9815034.41047  -7614900.81247  21485546.2584                   21485547.9924
        47.0004         43.0004
 -10950592.45747 -10095229.73844  22411431.0634                   22411430.0164
        43.2504         27.7504
 25  7 16  1 28 30.0000000  0 10G01G02G06G09G03G04G28G31G26G16
   8372006.44547   6524662.25844  22713481.1174                   22713482.0044
        43.5004         28.5004
  14137166.82446  11008385.09043  24633452.3284                   24633453.0394
        36.7504         18.5004
    768935.93446    630449.28954  25364200.5864                   25364204.8754
        37.5004         27.2504
  -3821031.38746  -3045520.55545  24114802.2734                   24114803.9344
        37.0004         30.2504
  -8627829.60948  -6715237.03948  20033495.9304                   20033496.3874
        49.7504         50.2504
  -9553926.91047  -7418446.15645  21485495.4144                   21485495.3524
        45.2504         33.2504
  15115480.46946  11768055.75443  24192067.0634                   24192067.3134
        40.0004         21.0004
   7710640.98847   6010717.53547  21542039.3364                   21542037.0474
        47.0004         42.7504
  -9838763.66047  -7633391.12147  21481030.6024                   21481032.4844
        46.7504         42.7504
 -11049408.93447 -10172229.54344  22392626.7584                   22392626.0554
        43.7504         28.5004
 25  7 16  1 29  0.0000000  0 10G01G02G06G09G03G04G28G31G26G16
   8445429.54747   6581874.99244  22727453.3674                   22727454.0594
        42.5004         29.0004
  14215050.39546  11069073.50443  24648273.7974                   24648273.5594
        39.2504         18.5004
    702590.02745    578751.35244  25351574.6804                   25351579.3324
        35.5004         24.0004
  -3906373.83246  -3112021.10945  24098561.7344                   24098564.3634
        37.5004         30.5004
  -8649175.21148  -6731869.97348  20029433.8364                   20029434.3444
        50.0004         50.5004
  -9608038.69547  -7460611.16045  21475198.6484                   21475198.4384
        46.0004         33.7504
  15205067.66446  11837863.88743  24209115.2274                   24209114.7584
        39.7504         21.0004
   7782057.14147   6066366.45347  21555628.9844                   21555627.2624
        46.5004         42.5004
  -9861894.29747  -7651414.98047  21476629.1334                   21476630.8134
        47.0004         43.0004
 -11147933.94947 -10249002.20344  22373878.0314                   22373876.8834
        44.7504         27.2504
 25  7 16  1 29 30.0000000  0 10G01G02G06G09G03G04G28G31G26G16
   8519104.52047   6639283.98844  22741473.7584                   22741473.5904
        42.5004         29.0004
  14292871.02745  11129712.80943  24663080.0554                   24663082.9064
        34.0004         19.0004
    636686.37546    527397.76244  25339034.3984                   25339035.7344
        37.2504         24.2504
  -3991709.75846  -3178516.54744  24082322.2504                   24082324.8874
        38.0004         29.2504
  -8669981.18748  -6748082.41848  20025474.9064                   20025475.2934
        49.7504         50.5004
  -9662026.27047  -7502679.38345  21464924.8834                   21464924.7814
        45.7504         33.7504
  15294693.30946  11907701.96143  24226171.0164                   24226170.1804
        40.0004         21.0004
   7853757.77347   6122237.05547  21569273.1564                   21569271.3444
        46.0004         42.5004
  -9884421.33247  -7668968.49647  21472342.1884                   21472344.1884
        46.5004         43.0004
 -11246159.94947 -10325541.90244  22355185.6254                   22355185.5004
        44.2504         27.2504
 25  7 16  1 30  0.0000000  0 10G01G02G06G09G03G04G28G31G26G16
   8593021.28147   6696881.37944  22755539.5164                   22755539.5824
        43.7504         28.7504
  14370619.19946  11190295.68443  24677877.4064                   24677877.8594
        39.2504         18.5004
    571219.53145    476384.65244  25326575.2974                   25326579.9654
        33.7504         25.5004
  -4077045.80146  -3245012.09045  24066083.7424                   24066086.0634
        37.7504         30.0004
  -8690253.18048  -6763878.76648  20021616.8054                   20021617.6374
        49.0004         50.5004
  -9715896.25447  -7544655.97345  21454673.9454                   21454674.0004
        45.5004         33.7504
  15384348.78946  11977563.30943  24243231.6024                   24243231.2114
        39.7504         21.5004
   7925733.44147   6178321.96147  21582969.9844                   21582967.7734
        46.5004         42.5004
  -9906350.73847  -7686056.32447  21468169.1954                   21468170.8134
        45.7504         43.0004
 -11344090.37947 -10401851.25444  22336550.7814                   22336549.2774
        44.5004         28.2504
 25  7 16  1 30 30.0000000  0 10G01G02G06G09G03G04G28G31G26G16
   8667180.47747   6754667.68444  22769651.4144                   22769651.8524
        42.7504         28.2504
  14448295.66046  11250822.64143  24692657.9224                   24692659.4454
        38.2504         19.0004
    506195.10946    425716.42644  25314203.8364                   25314206.1604
        36.7504         28.0004
  -4162378.28546  -3311504.86345  24049845.5394                   24049847.6214
        38.0004         30.2504
  -8709986.34848  -6779255.25848  20017861.8284                   20017862.7974
        48.5004         50.2504
  -9769644.77747  -7586537.91845  21444446.4064                   21444445.3834
        46.5004         33.7504
  15474035.78146  12047449.19143  24260298.8134                   24260299.0864
        40.2504         22.0004
   7997985.16047   6234621.97747  21596718.8834                   21596716.8554
        46.7504         42.5004
  -9927677.97747  -7702674.93747  21464111.1174                   21464112.4924
        45.5004         43.0004
 -11441718.31247 -10477924.93744  22317972.3134                   22317971.4304
        44.0004         28.5004
 25  7 16  1 31  0.0000000  0 10G01G02G06G09G03G04G28G31G26G16
   8741583.82047   6812644.23044  22783810.6484                   22783810.3524
        42.5004         27.5004
  14525903.24646  11311295.83642  24707426.3984                   24707428.2464
        39.0004         17.7504
    441619.63345    375397.64843  25301914.5234                   25301915.3714
        34.0004         20.0004
  -4247702.19146  -3377990.94544  24033608.5394                   24033611.1454
        37.0004         28.7504
  -8729174.62148  -6794207.15648  20014210.6024                   20014211.3134
        50.0004         50.5004
  -9823266.60547  -7628321.14845  21434242.4614                   21434241.5274
        46.2504         34.0004
  15563757.51246  12117362.19143  24277371.9454                   24277372.0864
        40.0004         22.2504
   8070515.12947   6291138.81347  21610520.9614                   21610518.8674
        45.7504         42.5004
  -9948397.23047  -7718819.79747  21460167.9534                   21460169.5124
        46.7504         43.2504
 -11539035.16847 -10553756.16844  22299453.7814                   22299452.8954
        44.2504         28.5004
 25  7 16  1 31 30.0000000  0 10G01G02G06G09G03G04G28G31G26G16
   8816225.41847   6870806.43844  22798013.9844                   22798014.1844
        42.5004         28.2504
  14603436.10546  11371711.09842  24722180.5004                   24722181.1254
        37.5004         15.5004
    377491.69556    325428.08655  25289712.2114                   25289715.1334
        37.5004         32.2504
  -4333020.25446  -3444472.45345  24017373.7274                   24017375.5004
        37.5004         30.2504
  -8747819.61748  -6808735.72748  20010662.5704                   20010663.3364
        48.5004         50.2504
  -9876764.27747  -7670007.62545  21424061.5634                   21424061.4804
        46.5004         34.0004
  15653509.32846  12187298.59043  24294451.7274                   24294451.7034
        40.7504         22.2504
   8143318.01247   6347868.30947  21624374.7274                   21624372.9184
        46.5004         42.5004
  -9968510.46147  -7734492.42647  21456340.3524                   21456342.2894
        45.2504         43.5004
 -11636040.51647 -10629344.69144  22280993.7974                   22280993.5124
        43.7504         28.7504
 25  7 16  1 32  0.0000000  0  9G01G02G09G03G04G28G31G26G16
   8891098.40647   6929148.95744  22812261.5164                   22812262.6294
        42.5004         27.7504
  14680888.32447  11432063.11343  24736920.5784                   24736921.8134
        42.0004         23.0004
  -4418336.02346  -3510952.21145  24001138.3674                   24001140.5084
        38.2504         30.5004
  -8765923.89848  -6822842.97348  20007217.2734                   20007217.9304
        49.0004         50.2504
  -9930141.18747  -7711600.00845  21413904.6334                   21413904.7194
        46.7504         33.7504
  15743285.70746  12257254.14143  24311534.6484                   24311535.8164
        40.2504         22.0004
   8216387.73047   6404805.73447  21638279.4924                   21638277.6604
        45.7504         42.5004
  -9988020.59047  -7749695.10547  21452627.8364                   21452629.8164
        46.0004         43.0004
 -11732734.54347 -10704690.61344  22262594.0314                   22262593.0824
        43.7504         28.5004
 25  7 16  1 32 30.0000000  0 10G01G02G06G09G03G04G28G31G26G16
   8966203.12547   6987672.03544  22826554.3134                   22826554.4064
        42.0004         27.7504
  14758260.75146  11492353.16543  24751643.1884                   24751645.0084
        39.5004         18.2504
   1538722.05956    265349.31354  25265561.4454                   25265563.4964
        36.2504         29.0004
  -4503645.91046  -3577427.36745  23984904.4224                   23984906.4534
        37.7504         30.0004
  -8783482.95348  -6836525.36748  20003875.8594                   20003876.9144
        49.5004         50.2504
  -9983393.65647  -7753095.41845  21403770.8364                   21403770.8094
        47.0004         33.7504
  15833088.31646  12327230.14843  24328624.1564                   24328623.6484
        40.2504         22.5004
   8289724.96147   6461951.60547  21652234.6644                   21652233.1294
        46.0004         42.5004
 -10006923.38747  -7764424.53947  21449031.1024                   21449032.6684
        47.2504         43.0004
 -11829110.17247 -10779788.46544  22244253.7584                   22244253.4024
        43.5004         28.5004
 25  7 16  1 33  0.0000000  0  9G01G02G09G03G04G28G31G26G16
   9041535.84847   7046372.78944  22840888.8524                   22840890.3484
        42.0004         27.7504
  14835550.26646  11552578.66042  24766350.3204                   24766352.4884
        38.2504         16.2504
  -4588950.29746  -3643898.24245  23968670.5314                   23968672.7464
        38.0004         30.7504
  -8800496.13748  -6849782.41448  20000638.5474                   20000639.2234
        49.2504         50.5004
 -10036521.85947  -7794494.01245  21393660.8834                   21393660.7194
        46.2504         34.2504
  15922914.59046  12397224.45343  24345717.3594                   24345717.2194
        39.7504         21.2504
   8363326.33647   6519303.30547  21666241.1094                   21666239.2464
        46.2504         42.2504
 -10025218.61347  -7778680.54347  21445549.3364                   21445551.3014
        45.7504         43.0004
 -11925164.82047 -10854636.17644  22225975.4534                   22225974.3594
        44.5004         28.0004
 25  7 16  1 33 30.0000000  0  9G01G02G09G03G04G28G31G26G16
   9117092.94947   7105248.40244  22855267.1174                   22855267.9344
        42.0004         26.2504
  14912753.71947  11612737.03543  24781043.2424                   24781043.4734
        42.0004         22.0004
  -4674249.73446  -3710365.23845  23952439.2584                   23952441.4884
        37.0004         31.7504
  -8816963.01648  -6862613.75848  19997504.7584                   19997505.7584
        50.0004         50.2504
 -10089526.11747  -7835796.01645  21383574.6174                   21383574.5234
        47.0004         34.0004
  16012762.86746  12467236.10943  24362815.0234                   24362815.5904
        41.0004         22.7504
   8437189.05547   6576858.65647  21680297.2034                   21680294.7664
        46.0004         42.0004
 -10042906.16047  -7792463.02747  21442183.5314                   21442185.3444
        47.0004         43.0004
 -12020895.74647 -10929231.62944  22207758.3754                   22207757.6214
        44.2504         28.5004
 25  7 16  1 34  0.0000000  0 10G01G02G06G09G03G04G28G31G26G16
   9192876.25446   7164300.25844  22869688.3754                   22869688.8134
        41.7504         27.5004
  14989873.75445  11672830.38742  24795716.9614                   24795719.7704
        35.5004         17.7504
   1514350.96154    209005.43053  25229980.6334                   25229983.3674
        29.5004         21.7504
  -4759538.95346  -3776824.31245  23936208.9144                   23936211.1294
        37.7504         31.7504
  -8832877.41448  -6875014.60548  19994476.3594                   19994477.1174
        48.7504         50.5004
 -10142401.04747  -7876997.24245  21373512.6644                   21373512.5204
        46.5004         34.2504
  16102635.96146  12537267.10543  24379917.0474                   24379917.6954
        40.5004         22.5004
   8511315.23847   6634619.29747  21694402.6564                   21694400.5084
        46.2504         42.2504
 -10059980.27347  -7805767.52047  21438934.5164                   21438935.9534
        46.0004         43.2504
 -12116294.52047 -11003568.28544  22189604.6254                   22189603.6524
        43.5004         28.2504
 25  7 16  1 34 30.0000000  0  9G01G02G09G03G04G28G31G26G16
   9268879.85247   7223523.76644  22884151.3284                   22884151.6684
        42.0004         27.5004
  15066904.68846  11732854.44542  24810377.2974                   24810377.0354
        41.7504         16.2504
  -4844820.62146  -3843277.45345  23919980.8444                   23919982.5634
        37.5004         31.0004
  -8848241.10948  -6886986.32848  19991552.9534                   19991553.4654
        48.7504         50.2504
 -10195149.10547  -7918099.61345  21363475.1804                   21363474.9414
        46.5004         33.2504
  16192529.25446  12607313.75843  24397024.0944                   24397024.2424
        41.2504         23.0004
   8585699.74247   6692581.22747  21708557.0084                   21708555.5234
        47.0004         42.0004
 -10076443.03147  -7818595.62947  21435801.2504                   21435803.3634
        45.2504         43.2504
 -12211360.23047 -11077645.39844  22171514.3524                   22171512.7114
        44.2504         28.7504
 25  7 16  1 35  0.0000000  0 10G01G02G06G09G03G04G28G31G26G16
   9345103.71147   7282918.91044  22898656.6094                   22898656.9344
        42.7504         26.7504
  15143847.31346  11792809.53143  24825018.7664                   24825019.1374
        39.5004         20.2504
   1527117.97756    155923.15255  25206698.0234                   25206700.5044
        37.2504         32.7504
  -4930091.41446  -3909722.14845  23903753.7194                   23903756.3014
        38.5004         32.5004
  -8863049.93448  -6898525.68048  19988735.1094                   19988735.8834
        48.7504         50.5004
 -10247766.85947  -7959100.44945  21353462.4144                   21353461.8954
        47.0004         34.0004
  16282444.28546  12677377.35243  24414134.7424                   24414134.6524
        41.0004         22.5004
   8660342.95747   6750744.75047  21722761.5314                   21722759.7664
        46.5004         42.0004
 -10092290.67247  -7830944.42647  21432785.5474                   21432787.5124
        45.2504         43.0004
 -12306086.41847 -11151457.94944  22153488.1644                   22153487.1334
        45.0004         29.0004
 25  7 16  1 35 30.0000000  0  9G01G02G09G03G04G28G31G26G16
   9421544.00047   7342482.68844  22913202.7034                   22913203.9844
        42.2504         27.5004
  15220698.56346  11852693.34843  24839642.5554                   24839643.7234
        38.0004         19.5004
  -5015351.91446  -3976158.81645  23887529.7894                   23887531.2894
        40.0004         32.5004
  -8877303.60948  -6909632.44948  19986022.4224                   19986023.0784
        48.7504         50.5004
 -10300254.65247  -8000000.01645  21343474.3444                   21343474.2464
        46.7504         34.2504
  16372378.59446  12747455.98843  24431247.5784                   24431248.9774
        39.2504         22.2504
   8735241.70347   6809107.39847  21737014.0704                   21737012.2344
        46.7504         42.0004
 -10107523.35547  -7842814.03547  21429886.9844                   21429888.8984
        45.2504         43.2504
 -12400470.56247 -11225003.98444  22135527.9144                   22135526.5984
        44.5004         29.7504
 25  7 16  1 36  0.0000000  0 10G01G02G06G09G03G04G28G31G26G16
   9498195.96547   7402211.40644  22927789.5474                   22927790.6214
        43.5004         28.7504
  15297454.40646  11912503.02043  24854249.4304                   24854250.5084
        40.7504         19.7504
   1520202.73455    101451.36354  25183766.6884                   25183769.3524
        34.5004         29.2504
  -5100603.57446  -4042588.62145  23871306.6884                   23871308.4304
        39.7504         32.5004
  -8891002.70348  -6920307.07048  19983415.9144                   19983416.4344
        48.7504         50.2504
 -10352613.76247  -8040799.30545  21333510.4144                   21333510.0704
        46.0004         33.7504
  16462328.89146  12817547.09043  24448365.3364                   24448364.9694
        40.7504         21.2504
   8810391.89547   6867665.96546  21751314.8054                   21751313.0704
        46.5004         41.7504
 -10122141.95347  -7854205.13747  21427105.4924                   21427107.1094
        45.5004         43.0004
 -12494510.52047 -11298281.80144  22117632.5554                   22117631.2544
        44.7504         28.2504
 25  7 16  1 36 30.0000000  0 10G01G02G06G09G03G04G28G31G26G16
   9575057.18047   7462103.21544  22942416.1254                   22942415.8834
        42.0004         27.7504
  15374112.79746  11972236.56343  24868836.9534                   24868838.4304
        38.7504         20.5004
   1460649.14546     55045.98445  25172433.7274                   25172436.0124
        37.0004         31.2504
  -5185845.52046  -4109010.84845  23855085.6334                   23855087.1884
        39.5004         32.5004
  -8904145.59848  -6930548.28548  19980914.8754                   19980915.6294
        49.2504         50.2504
 -10404843.12547  -8081497.50045  21323571.6414                   21323571.5944
        46.5004         34.0004
  16552294.21946  12887649.86743  24465485.8914                   24465485.0164
        40.5004         22.7504
   8885791.66447   6926419.01646  21765663.3364                   21765661.2504
        46.0004         41.7504
 -10136145.31247  -7865116.82447  21424440.7194                   21424442.3794
        46.0004         43.2504
 -12588202.43447 -11371288.43044  22099802.6724                   22099802.0514
        44.2504         28.5004
 25  7 16  1 37  0.0000000  0 10G01G02G06G09G03G04G28G31G26G16
   9652124.60947   7522155.67644  22957081.3674                   22957081.2274
        42.7504         27.5004
  15450671.53546  12031892.54743  24883405.6094                   24883407.6724
        36.7504         18.2504
   1401562.68846      9004.64845  25161189.8444                   25161192.6054
        38.2504         33.0004
  -5271077.46546  -4175425.26245  23838866.4224                   23838869.0234
        39.7504         33.0004
  -8916731.29348  -6940355.32048  19978519.8054                   19978520.6174
        48.5004         50.0004
 -10456942.34847  -8122094.28145  21313657.5864                   21313656.9534
        46.2504         34.7504
  16642272.78946  12957762.98443  24482606.3594                   24482607.7274
        38.7504         21.2504
   8961438.41447   6985364.51247  21780058.2584                   21780056.5984
        45.5004         42.2504
 -10149532.82847  -7875548.64547  21421892.8674                   21421894.9224
        45.7504         43.2504
 -12681542.99647 -11444021.27745  22082041.0394                   22082040.1024
        44.0004         30.5004
 25  7 16  1 37 30.0000000  0 10G01G02G06G09G03G04G28G31G26G16
   9729392.19146   7582364.07844  22971784.1094                   22971784.9774
        41.7504         27.0004
  15527125.10546  12091466.55943  24897955.3674                   24897956.1254
        39.0004         20.7504
   1342942.21545    -36673.68044  25150033.4454                   25150036.6174
        35.0004         29.0004
  -5356302.13346  -4241834.03145  23822648.4844                   23822649.9494
        39.2504         32.5004
  -8928761.70348  -6949729.66848  19976230.5004                   19976231.0004
        48.5004         50.2504
 -10508913.88347  -8162591.57045  21303767.6334                   21303766.9774
        47.0004         34.0004
  16732260.23446  13027883.03543  24499730.7814                   24499731.9304
        39.0004         22.0004
   9037326.89147   7044498.37146  21794499.1564                   21794497.2074
        46.0004         41.7504
 -10162306.77347  -7885502.35547  21419462.1884                   21419463.9614
        45.7504         43.5004
 -12774531.71147 -11516479.94944  22064345.5234                   22064345.0004
        44.7504         28.5004
 25  7 16  1 38  0.0000000  0 10G01G02G06G09G03G04G28G31G26G16
   9806857.76247   7642726.78144  22986525.8444                   22986526.9574
        42.0004         28.5004
  15603471.94945  12150957.41842  24912481.6804                   24912485.8754
        30.5004         17.2504
   1284789.94546    -81987.08245  25138967.9384                   25138971.4344
        39.5004         34.0004
  -5441518.36346  -4308236.20345  23806432.2894                   23806434.0124
        39.7504         32.5004
  -8940234.93748  -6958669.84848  19974046.9924                   19974048.1804
        48.5004         50.2504
 -10560756.39847  -8202988.32045  21293902.2814                   21293901.9144
        46.5004         33.7504
  16822255.70346  13098009.31643  24516857.9144                   24516857.4694
        40.7504         21.2504
   9113455.23047   7103819.14146  21808985.7664                   21808984.2074
        46.2504         41.7504
 -10174465.74647  -7894976.88347  21417148.6254                   21417150.0984
        46.2504         43.0004
 -12867163.85247 -11588660.77744  22046718.0554                   22046717.4024
        44.2504         29.0004
 25  7 16  1 38 30.0000000  0 10G01G02G06G09G03G04G28G31G26G16
   9884524.72747   7703246.41444  23001305.5394                   23001307.0084
        42.5004         27.0004
  15679716.45345  12210368.39143  24926991.6334                   24926995.0744
        31.7504         20.0004
   1227113.86346   -126929.50045  25127992.5394                   25127995.0634
        38.5004         30.7504
  -5526719.37946  -4374626.53145  23790219.4694                   23790220.9414
        39.7504         31.5004
  -8951143.60248  -6967170.10548  19971971.2894                   19971972.0204
        48.5004         50.2504
 -10612463.01247  -8243279.17645  21284062.9304                   21284062.4454
        47.2504         34.0004
  16912264.12546  13168145.66443  24533985.0394                   24533986.1804
        39.5004         21.5004
   9189827.87147   7163330.26646  21823519.2734                   21823517.6724
        45.5004         41.5004
 -10186002.78547  -7903966.77747  21414953.2274                   21414954.6994
        45.5004         43.2504
 -12959429.99247 -11660556.43744  22029160.7344                   22029159.4654
        44.2504         29.2504
 25  7 16  1 39  0.0000000  0 10G01G02G06G09G03G04G28G31G26G16
   9962385.37546   7763916.98844  23016121.6174                   23016122.5784
        41.5004         27.7504
  15755851.30556  12269693.96153  24941481.5394                   24941483.1374
        36.0004         18.2504
   1169910.84846   -171503.22345  25117105.3754                   25117110.7154
        37.0004         31.7504
  -5611909.52346  -4441008.38745  23774007.8594                   23774009.5744
        40.0004         31.7504
  -8961491.33648  -6975233.26648  19970002.2894                   19970003.0864
        49.0004         50.2504
 -10664037.80147  -8283467.31245  21274248.5704                   21274248.2854
        47.2504         34.0004
  17002279.33646  13238287.33643  24551113.5864                   24551114.8134
        38.0004         22.0004
   9266437.59447   7223026.12546  21838097.4534                   21838096.0864
        45.7504         41.5004
 -10196921.94547  -7912475.20747  21412875.1884                   21412876.9064
        45.5004         43.2504
 -13051330.87547 -11732167.45744  22011672.7194                   22011671.4614
        44.7504         29.5004
 25  7 16  1 39 30.0000000  0  9G01G06G09G03G04G28G31G26G16
  10040437.31646   7824736.61344  23030974.8054                   23030975.1884
        41.7504         26.5004
   1113183.03146   -215706.76645  25106312.6644                   25106315.2704
        39.0004         33.2504
  -5697087.98846  -4507381.15245  23757798.8134                   23757800.5354
        39.5004         32.7504
  -8971276.68448  -6982858.21548  19968140.2974                   19968140.8674
        50.0004         50.2504
 -10715479.79747  -8323551.96545  21264459.3524                   21264459.2034
        47.5004         34.2504
  17092300.31646  13308433.45743  24568245.6174                   24568246.0514
        38.5004         21.5004
   9343282.12947   7282904.95746  21852720.6334                   21852719.2704
        45.7504         41.2504
 -10207222.14147  -7920501.31647  21410915.3754                   21410917.0164
        45.5004         43.2504
 -13142862.73447 -11803490.93744  21994254.9304                   21994253.6094
        45.0004         29.5004
 25  7 16  1 40  0.0000000  0 10G01G02G06G09G03G04G28G31G26G16
  10118677.40646   7885702.82444  23045863.6954                   23045864.0204
        41.2504         25.0004
   1620578.06656  12340750.41453  24970393.3524                   24970393.9494
        36.2504         21.2504
   1056931.61346   -259538.98045  25095607.9304                   25095611.4144
        40.0004         32.0004
  -5782254.40246  -4573744.52045  23741591.8054                   23741594.1914
        39.2504         31.2504
  -8980498.70748  -6990044.21148  19966385.3054                   19966385.9494
        50.0004         50.2504
 -10766788.44548  -8363532.71145  21254696.0084                   21254695.7894
        48.0004         34.5004
  17182325.59846  13378582.95743  24585376.3524                   24585377.1094
        38.5004         21.2504
   9420359.47347   7342965.19946  21867387.8984                   21867386.1414
        46.2504         41.0004
 -10216902.95747  -7928044.79347  21409072.9774                   21409074.5984
        47.0004         43.5004
 -13234022.14547 -11874524.20344  21976907.2034                   21976906.8134
        45.2504         29.7504
 25  7 16  1 40 30.0000000  0  9G01G06G09G03G04G28G31G26G16
  10197102.85546   7946813.48044  23060787.5394                   23060787.8324
        41.5004         27.7504
   1001158.49646   -302998.56645  25084993.7894                   25084998.0474
        38.2504         30.7504
  -5867408.25446  -4640098.09845  23725387.9924                   23725390.0204
        39.7504         32.0004
  -8989156.29748  -6996790.38748  19964737.8524                   19964738.6454
        50.2504         50.2504
 -10817963.06647  -8403409.03145  21244957.2584                   21244957.2154
        47.0004         34.2504
  17272353.83246  13448734.79743  24602509.6334                   24602508.8134
        39.5004         21.0004
   9497667.41447   7403205.12946  21882099.1414                   21882097.5864
        46.5004         41.5004
 -10225963.77747  -7935105.15647  21407348.6804                   21407350.4844
        47.0004         43.7504
 -13324805.40647 -11945264.34845  21959632.0004                   21959630.8014
        44.5004         30.0004
 25  7 16  1 41  0.0000000  0 10G01G02G06G09G03G04G28G31G26G16
  10275711.30146   8008066.73844  23075746.6174                   23075747.3874
        41.5004         28.2504
   1615079.94916                  24999218.078
        39.500
    945865.73846   -346083.81645  25074472.4144                   25074476.0784
        40.0004         31.5004
  -5952548.56646  -4706441.12545  23709186.6024                   23709187.5594
        40.0004         31.7504
  -8997247.91048  -7003095.53948  19963197.8134                   19963198.6724
        50.5004         50.2504
 -10869002.45747  -8443179.96945  21235245.0314                   21235244.6954
        47.7504         34.5004
  17362384.24646  13518888.30143  24619640.2194                   24619641.6884
        38.2504         19.7504
   9575204.11747   7463623.31346  21896854.4144                   21896852.4614
        46.0004         41.2504
 -10234403.44548  -7941681.52047  21405742.3444                   21405744.3324
        48.0004         43.5004
 -13415208.20747 -12015708.03944  21942428.9304                   21942427.8244
        45.2504         29.2504
 25  7 16  1 41 30.0000000  0 10G01G02G06G09G03G04G28G31G26G16
  10354498.93046   8069459.64144  23090738.6724                   23090739.2854
        41.0004         26.0004
   1690636.07045  12447668.84053  25013594.7194                   25013596.5124
        33.5004         19.0004
    891053.98446   -388794.23445  25064042.8914                   25064045.3164
        39.5004         31.5004
  -6037675.68446  -4772773.87945  23692986.9774                   23692988.9534
        40.0004         31.5004
  -9004773.40248  -7008959.55948  19961765.8444                   19961766.5824
        50.5004         50.2504
 -10919906.82447  -8482845.70345  21225558.2274                   21225557.8754
        47.5004         34.0004
  17452414.50046  13589041.71143  24636771.7734                   24636773.3244
        36.0004         18.2504
   9652966.57047   7524217.40646  21911651.6644                   21911649.7194
        46.2504         41.2504
 -10242222.33647  -7947774.15647  21404254.4304                   21404256.1604
        47.7504         43.5004
 -13505228.03947 -12085853.30944  21925298.5314                   21925297.4574
        45.5004         29.2504
 25  7 16  1 42  0.0000000  0 10G01G02G06G09G03G04G28G31G26G16
  10433466.11346   8130992.41444  23105766.2194                   23105766.6094
        41.5004         26.0004
   1766073.22345  12506450.60243  25027950.9064                   25027952.4574
        35.2504         19.7504
    836727.97746   -431126.14544  25053704.5004                   25053706.3914
        38.2504         26.7504
  -6122785.98046  -4839093.52745  23676791.2424                   23676792.7114
        40.7504         33.0004
  -9011728.58648  -7014379.19548  19960442.3594                   19960442.7624
        50.7504         50.0004
 -10970672.30547  -8522403.20345  21215898.1094                   21215897.4844
        47.5004         34.2504
  17542446.54746  13659196.48043  24653906.6254                   24653905.8404
        39.7504         19.7504
   9730955.46947   7584987.94546  21926492.4844                   21926490.8444
        46.0004         41.2504
 -10249416.71147  -7953380.16447  21402885.7584                   21402887.3554
        47.0004         43.2504
 -13594858.16847 -12155694.93044  21908243.1724                   21908241.5314
        44.5004         29.2504
 25  7 16  1 42 30.0000000  0 10G01G02G06G09G03G04G28G31G26G16
  10512604.35546   8192658.48044  23120825.1334                   23120826.7384
        41.7504         27.0004
   1841382.77346  12565133.03943  25042281.4144                   25042283.5124
        36.7504         21.5004
    782883.77346   -473082.68445  25043458.0394                   25043461.9024
        38.2504         30.2504
  -6207884.41046  -4905403.92645  23660597.8054                   23660599.4534
        40.7504         32.5004
  -9018118.05548  -7019358.01648  19959226.8204                   19959227.1134
        51.0004         50.2504
 -11021303.72347  -8561856.25445  21206262.9384                   21206262.3984
        47.5004         34.2504
  17632473.42246  13729347.30543  24671034.6884                   24671036.7304
        37.0004         19.0004
   9809163.26247   7645929.05946  21941374.6484                   21941373.1524
        45.5004         41.0004
 -10255991.66047  -7958503.49647  21401634.6174                   21401636.2664
        47.2504         43.5004
 -13684100.42247 -12225234.29345  21891260.2974                   21891259.3134
        45.2504         30.0004
 25  7 16  1 43  0.0000000  0 10G01G02G06G09G03G04G28G31G26G16
  10591913.81646   8254457.93844  23135917.5234                   23135918.4964
        41.0004         26.2504
   1916566.09846  12623717.34443  25056589.2034                   25056590.3094
        40.7504         18.2504
    729525.68046   -514660.31244  25033305.2114                   25033306.8524
        38.5004         29.2504
  -6292967.50846  -4971702.37545  23644405.6174                   23644409.0664
        38.7504         32.7504
  -9023937.85948  -7023892.94148  19958119.1094                   19958119.8244
        50.2504         50.2504
 -11071797.38347  -8601201.95745  21196654.4924                   21196653.9384
        47.5004         34.5004
  17722496.89146  13799495.30942  24688169.5004                   24688167.7814
        41.2504         17.2504
   9887590.75447   7707041.35946  21956299.4384                   21956297.2384
        45.5004         41.0004
 -10261943.69147  -7963141.42247  21400501.7424                   21400503.6134
        45.5004         43.5004
 -13772948.28147 -12294466.34444  21874353.5634                   21874351.9844
        46.0004         29.5004
 25  7 16  1 43 30.0000000  0 10G01G02G06G09G03G04G28G31G26G16
  10671390.46546   8316387.69544  23151041.4614                   23151042.5704
        41.2504         26.7504
   1991619.87545  12682200.56642  25070871.3594                   25070873.9774
        34.5004         17.7504
    676654.20346   -555858.80944  25023243.9454                   25023246.0274
        38.0004         28.7504
  -6378035.90246  -5037989.36345  23628217.7034                   23628220.2624
        39.0004         31.7504
  -9029188.19548  -7027984.11348  19957120.0704                   19957120.6604
        49.0004         50.2504
 -11122153.74647  -8640440.67245  21187072.1174                   21187071.3484
        47.0004         34.2504
  17812514.48446  13869638.94543  24705298.2584                   24705297.4184
        39.2504         20.0004
   9966234.53547   7768322.19146  21971264.6954                   21971263.1414
        45.2504         41.0004
 -10267273.53147  -7967294.54347  21399487.7584                   21399489.2114
        46.5004         43.0004
 -13861399.36747 -12363389.21945  21857521.1254                   21857519.9064
        45.0004         30.0004
 25  7 16  1 44  0.0000000  0 11G01G02G06G09G03G04G28G31G26G07G16
  10751029.16047   8378443.72744  23166196.6094                   23166197.1844
        42.0004         26.5004
   2066540.06646  12740579.49243  25085128.8834                   25085130.7894
        40.5004         22.5004
    624268.44146   -596678.84044  25013274.1564                   25013278.7154
        36.0004         26.2504
  -6463091.36746  -5104266.27045  23612032.3364                   23612034.4774
        38.0004         31.0004
  -9033870.45348  -7031632.63748  19956228.9534                   19956229.7704
        49.0004         50.2504
 -11172374.36747  -8679573.62145  21177515.1804                   21177514.6454
        47.7504         35.0004
  17902522.65646  13939775.13343  24722425.4844                   24722426.5124
        37.0004         19.7504
  10045089.85547   7829767.86346  21986270.7504                   21986268.7974
        46.2504         40.7504
 -10271983.07847  -7970964.30547  21398591.6804                   21398593.1994
        47.2504         43.7504
                                  25260805.8444                   25260807.7304
        31.5004         24.0004
 -13949452.68047 -12432002.12145  21840765.8054                   21840764.1094
        45.0004         30.5004
 25  7 16  1 44 30.0000000  0 11G01G02G06G09G03G04G28G31G26G07G16
  10830814.80946   8440614.25444  23181379.3134                   23181380.6994
        41.2504         27.0004
   2141311.82846  12798842.97343  25099357.3674                   25099359.6724
        41.5004         23.0004
    572357.79346   -637128.68044  25003397.7814                   25003399.2114
        38.7504         28.0004
  -6548145.59446  -5170542.22745  23595847.1094                   23595848.6134
        39.0004         31.5004
  -9037995.94548  -7034847.31248  19955443.8204                   19955444.5514
        48.5004         50.2504
 -11222470.71147  -8718609.73045  21167982.2114                   21167981.7894
        47.5004         34.2504
  17992507.89146  14009893.44143  24739550.2344                   24739550.7424
        39.7504         18.5004
  10124143.00447   7891367.69146  22001314.4774                   22001312.1604
        45.7504         40.5004
 -10276084.12147  -7974159.91047  21397810.9384                   21397812.8794
        46.2504         43.5004
   1368364.82445   1086229.27744  25243231.2194                   25243233.9064
        35.7504         27.0004
 -14037116.29347 -12500311.37945  21824083.2584                   21824082.1484
        45.5004         30.5004
 25  7 16  1 45  0.0000000  0 11G01G02G06G09G03G04G28G31G26G07G16
  10910738.81646   8502892.63344  23196588.7584                   23196589.4774
        41.2504         25.2504
   2215927.39546  12856984.72743  25113556.2424                   25113557.9924
        39.7504         18.5004
    520917.68046   -677211.78944  24993607.0784                   24993610.8984
        36.7504         26.7504
  -6633203.75846  -5236821.23845  23579661.3134                   23579663.2974
        39.7504         32.5004
  -9041569.56648  -7037631.96148  19954763.6094                   19954764.3874
        50.0004         50.2504
 -11272447.85547  -8757552.95745  21158472.0234                   21158471.5864
        47.5004         34.2504
  18082463.27745  14079988.52342  24756666.4614                   24756668.5434
        35.7504         17.7504
  10203385.39847   7953114.98046  22016393.1334                   22016391.3094
        45.7504         40.7504
 -10279582.07447  -7976885.58647  21397145.7584                   21397147.1054
        47.7504         43.5004
                                  25225682.4224                   25225683.8404
        25.7504         19.5004
 -14124393.19947 -12568319.28145  21807475.4224                   21807473.7384
        46.0004         30.5004
 25  7 16  1 45 30.0000000  0 10G01G02G06G09G03G04G28G31G26G16
  10990798.45746   8565276.72344  23211822.9614                   23211823.4414
        41.0004         26.7504
   2290385.12546  12915003.41442  25127725.5234                   25127728.2424
        38.5004         15.5004
    469950.16445   -716926.71143  24983908.7274                   24983912.2344
        34.0004         22.5004
  -6718265.03946  -5303102.69545  23563474.3444                   23563476.5274
        39.7504         33.0004
  -9044590.21148  -7039985.71948  19954188.8204                   19954189.9144
        50.0004         50.2504
 -11322304.73448  -8796402.48045  21148984.3674                   21148984.2384
        48.0004         34.5004
  18172387.50446  14150059.21143  24773780.3984                   24773781.3594
        36.5004         19.0004
  10282815.39847   8015008.45346  22031507.8594                   22031506.4184
        45.2504         40.5004
 -10282476.38347  -7979140.89147  21396594.4924                   21396596.4344
        47.2504         43.5004
 -14211278.97747 -12636022.42645  21790941.5314                   21790940.2704
        46.0004         31.0004
 25  7 16  1 46  0.0000000  0 11G01G02G06G09G03G04G28G31G26G07G16
  11071000.09846   8627771.40244  23227085.1414                   23227086.5514
        41.5004         26.7504
   2364692.04746  12972904.61343  25141865.4844                   25141868.6884
        40.0004         18.2504
    419465.32845   -756265.50844  24974301.1094                   24974304.7584
        34.2504         26.5004
  -6803319.78946  -5369379.05545  23547289.4924                   23547290.9344
        40.5004         32.7504
  -9047047.94948  -7041900.85548  19953721.1024                   19953722.1884
        50.0004         50.2504
 -11372031.52747  -8835150.61745  21139521.5474                   21139521.3554
        47.2504         34.5004
  18262288.63745  14220112.07442  24790886.0704                   24790888.6484
        33.5004         16.7504
  10362440.07047   8077053.60946  22046660.1254                   22046658.6054
        46.5004         41.0004
 -10284757.61747  -7980918.47747  21396160.6254                   21396162.4924
        46.7504         43.0004
   1485902.30555    962296.21554  25190655.2734                   25190659.1484
        33.5004         26.7504
 -14297760.94147 -12703410.91845  21774484.0864                   21774483.1174
        45.7504         31.2504
 25  7 16  1 46 30.0000000  0 11G01G02G06G09G03G04G28G31G26G07G16
  11151341.12547   8690374.71944  23242373.5314                   23242375.2974
        42.0004         26.0004
   2438846.05946  13030686.63343  25155976.7424                   25155979.0784
        41.2504         21.0004
    369465.12945   -795226.65244  24964786.4614                   24964789.4064
        35.5004         26.7504
  -6888367.17246  -5435649.66845  23531105.2424                   23531107.2034
        40.0004         32.5004
  -9048941.65648  -7043376.48848  19953360.7974                   19953362.2194
        50.5004         50.2504
 -11421627.11747  -8873796.52745  21130083.9534                   21130083.6254
        47.0004         35.0004
  18352165.79745  14290146.05542  24807990.4064                   24807993.2304
        35.0004         17.7504
  10442257.15247   8139248.70346  22061848.7194                   22061847.2504
        46.0004         41.0004
 -10286425.20347  -7982217.89547  21395843.3204                   21395844.5434
        47.0004         43.0004
   1394081.35946    890747.53544  25173183.1174                   25173185.8364
        38.0004         28.5004
 -14383835.73047 -12770482.11745  21758104.8204                   21758103.3914
        46.5004         30.2504
 25  7 16  1 47  0.0000000  0 11G01G02G06G09G03G04G28G31G26G07G16
  11231821.19946   8753086.37944  23257688.2114                   23257689.8954
        41.5004         27.7504
   2512847.97746  13088350.10543  25170059.1334                   25170062.0634
        40.7504         22.0004
    319953.37546   -833807.09444  24955364.5004                   24955367.5234
        36.2504         26.0004
  -6973403.99646  -5501912.05545  23514922.6804                   23514924.9104
        39.5004         32.7504
  -9050268.01648  -7044410.02748  19953108.4614                   19953108.8984
        50.2504         50.0004
 -11471088.28148  -8912337.68745  21120671.3444                   21120671.4144
        48.0004         35.2504
  18442020.559 6                  24825088.461
        36.000
  10522267.29747   8201594.23446  22077074.8134                   22077072.6644
        45.7504         41.0004
 -10287476.32848  -7983036.96147  21395643.2664                   21395644.6374
        48.0004         43.0004
   1302402.87955    819309.93853  25155735.5634                   25155739.7734
        31.5004         20.5004
 -14469497.05147 -12837231.14145  21741804.0084                   21741802.6094
        45.7504         31.0004
 25  7 16  1 47 30.0000000  0 10G01G06G09G03G04G28G31G26G07G16
  11312444.05547   8815909.26644  23273030.9614                   23273031.8954
        43.0004         26.2504
    270938.16446   -872000.82844  24946038.0784                   24946041.0314
        37.0004         27.5004
  -7058423.20346  -5568160.71545  23498744.5234                   23498746.2154
        40.7504         33.0004
  -9051019.73448  -7044995.79348  19952965.2734                   19952966.0904
        50.5004         50.2504
 -11520407.62147  -8950768.33245  21111286.6414                   21111286.3284
        47.5004         34.7504
  18531857.70746  14346621.81353  24842184.8674                   24842189.4144
        39.2504         19.7504
  10602475.04347   8264093.74246  22092337.7814                   22092336.2814
        45.2504         40.7504
 -10287904.22347  -7983370.38347  21395561.4534                   21395563.3204
        47.5004         43.2504
   1210874.44556    747989.10554  25138319.7894                   25138321.9884
        38.0004         27.0004
 -14554734.91847 -12903650.20345  21725583.7664                   21725582.5664
        46.0004         30.5004
 25  7 16  1 48  0.0000000  0 10G01G06G09G03G04G28G31G26G07G16
  11393202.27347   8878837.64544  23288398.6174                   23288400.0864
        42.0004         27.0004
    222415.88346   -909810.31245  24936805.6804                   24936807.3834
        38.5004         30.7504
  -7143428.76646  -5634398.74645  23482568.7344                   23482570.5124
        41.0004         33.0004
  -9051200.62548  -7045136.75048  19952930.8834                   19952931.7304
        50.2504         50.2504
 -11569589.00447  -8989091.46945  21101928.0474                   21101927.4344
        47.0004         34.5004
  18621671.87246  14416606.73142  24859275.9454                   24859279.0084
        39.5004         15.5004
  10682873.28947   8326741.68846  22107636.6564                   22107635.3404
        44.7504         40.7504
 -10287713.30947  -7983221.60947  21395597.8444                   21395599.5984
        47.0004         43.5004
   1119492.53146    676782.51644  25120930.2504                   25120933.3164
        38.2504         29.2504
 -14639550.43447 -12969740.14845  21709443.4304                   21709442.2304
        46.0004         30.5004
 25  7 16  1 48 30.0000000  0 10G01G06G09G03G04G28G31G26G07G16
  11474110.72746   8941883.11344  23303794.5234                   23303795.9654
        41.5004         27.0004
    174405.85246   -947220.62544  24927668.6024                   24927671.0004
        38.5004         29.7504
  -7228402.36746  -5700611.88345  23466397.8984                   23466399.9454
        39.7504         33.0004
  -9050792.26648  -7044818.55148  19953008.4614                   19953009.6764
        50.0004         50.2504
 -11618613.88747  -9027292.66845  21092598.8444                   21092598.3524
        47.7504         35.0004
  18711479.37946  14486586.67243  24876365.3984                   24876367.9384
        39.0004         20.0004
  10763477.78947   8389550.35246  22122975.6254                   22122973.3554
        44.7504         40.0004
 -10286885.62148  -7982576.66047  21395755.3204                   21395756.9574
        48.0004         43.2504
   1028275.77055    605704.71553  25103570.6024                   25103575.0274
        31.0004         22.5004
 -14723922.46547 -13035484.53945  21693388.5234                   21693386.9184
        46.0004         31.0004
 25  7 16  1 49  0.0000000  0 10G01G06G09G03G04G28G31G26G07G16
  11555173.15247   9005048.53144  23319220.8984                   23319221.6484
        42.0004         24.7504
    126915.75046   -984225.84445  24918630.8674                   24918634.3984
        37.5004         30.7504
  -7313336.80946  -5766794.47345  23450235.5634                   23450237.9844
        39.5004         32.5004
  -9049787.34048  -7044035.50448  19953200.3134                   19953200.4844
        50.2504         50.2504
 -11667474.83247  -9065366.10945  21083300.7344                   21083300.2154
        47.5004         35.0004
  18801285.71546  14556565.48443  24893455.4064                   24893456.5984
        37.2504         20.7504
  10844292.99647   8452523.20746  22138354.1954                   22138352.3284
        45.5004         40.2504
 -10285414.52747  -7981430.34047  21396035.5704                   21396036.8524
        46.2504         43.2504
    937232.22746    534761.87143  25086246.4844                   25086250.0704
        37.5004         22.5004
 -14807840.87147 -13100875.45345  21677418.9924                   21677417.5744
        45.7504         31.5004
 25  7 16  1 49 30.0000000  0 10G01G06G09G03G04G28G31G26G07G16
  11636383.81646   9068329.47344  23334674.5784                   23334675.5744
        41.5004         25.2504
     79944.27046  -1020827.02044  24909692.9304                   24909696.0204
        38.0004         29.5004
  -7398234.32046  -5832948.28945  23434080.5704                   23434081.6914
        39.5004         33.0004
  -9048188.05148  -7042789.30148  19953504.2894                   19953505.0434
        49.0004         50.0004
 -11716173.94147  -9103313.46145  21074034.0084                   21074033.2934
        46.7504         35.2504
  18891086.96145  14626540.59043  24910543.6094                   24910545.4654
        35.7504         18.5004
  10925314.22747   8515656.59446  22153771.9454                   22153769.8954
        45.2504         40.0004
 -10283302.68447  -7979784.74647  21396437.5944                   21396439.3054
        45.5004         43.2504
    846360.18046    463952.38744  25068954.3524                   25068957.0204
        38.0004         25.7504
 -14891305.27047 -13165912.60245  21661536.2194                   21661534.7074
        45.5004         31.7504
 25  7 16  1 50  0.0000000  0 10G01G06G09G03G04G28G31G26G07G16
  11717738.58246   9131722.71544  23350155.7034                   23350157.1764
        41.2504         25.2504
     33491.01246  -1057024.29345  24900853.2664                   24900856.5944
        38.0004         30.5004
  -7483095.59446  -5899073.88345  23417931.5784                   23417933.4494
        39.0004         33.5004
  -9045995.05148  -7041080.46548  19953922.0704                   19953922.3134
        48.7504         50.2504
 -11764711.68747  -9141135.06645  21064797.1724                   21064796.6414
        47.5004         35.0004
  18980880.45746  14696509.41443  24927631.0944                   24927632.1954
        37.5004         20.5004
  11006537.84447   8578947.68446  22169228.1644                   22169226.7854
        46.2504         40.7504
 -10280551.37547  -7977640.86747  21396960.8134                   21396962.4414
        45.5004         43.2504
    755658.96546    393276.49644  25051694.3054                   25051698.1134
        36.5004         27.0004
 -14974313.57047 -13230594.34845  21645740.3054                   21645738.7234
        46.0004         31.5004
 25  7 16  1 50 30.0000000  0 10G01G06G09G03G04G28G31G26G07G16
  11799226.43047   9195219.64144  23365662.6644                   23365663.1884
        42.0004         24.7504
    -12450.81246  -1092823.14145  24892109.7974                   24892113.0084
        37.0004         30.0004
  -7567928.23446  -5965177.15645  23401788.4614                   23401790.1254
        39.5004         33.2504
  -9043215.93748  -7038914.91848  19954450.8364                   19954451.4414
        50.5004         50.2504
 -11813095.48447  -9178836.71545  21055590.3914                   21055589.5234
        47.0004         35.5004
  19070656.97745  14766465.03543  24944713.8914                   24944716.6414
        34.5004         18.2504
  11087953.43447   8642388.36746  22184721.3364                   22184719.4104
        45.7504         40.5004
 -10277168.73047  -7975005.03147  21397604.8594                   21397606.1374
        47.2504         43.0004
    665121.48046    322727.78143  25034465.8134                   25034466.2384
        40.0004         23.2504
 -15056870.00447 -13294923.98845  21630030.0164                   21630029.0004
        45.2504         31.0004
 25  7 16  1 51  0.0000000  0 10G01G06G09G03G04G28G31G26G07G16
  11880846.22347   9258819.30944  23381194.7194                   23381195.4264
        42.0004         25.0004
    -57878.25846  -1128221.11344  24883465.8834                   24883468.7424
        37.2504         29.7504
  -7652729.89146  -6031256.30545  23385650.8834                   23385652.5554
        39.0004         33.2504
  -9039848.38748  -7036290.84848  19955091.5944                   19955092.4774
        49.0004         50.2504
 -11861322.75847  -9216416.39145  21046412.3524                   21046412.2074
        46.5004         35.0004
  19160417.23846  14836408.09443  24961796.4844                   24961797.1564
        38.5004         18.2504
  11169560.71947   8705978.42646  22200250.7194                   22200249.0274
        46.2504         40.7504
 -10273152.98447  -7971875.87947  21398368.8204                   21398370.5824
        45.5004         43.0004
    574750.62146    252309.11343  25017267.8134                   25017270.0394
        38.7504         23.7504
 -15138969.71547 -13358897.74245  21614407.3204                   21614405.7774
        45.2504         31.2504
 25  7 16  1 51 30.0000000  0 10G01G06G09G03G04G28G31G26G07G16
  11962592.49246   9322517.62944  23396751.2344                   23396751.8444
        41.7504         24.5004
   -102792.90646  -1163219.50045  24874919.7344                   24874922.4184
        38.7504         30.5004
  -7737502.65246  -6097312.96145  23369519.1484                   23369520.7664
        39.7504         34.2504
  -9035894.50448  -7033209.89848  19955843.9064                   19955844.5514
        49.5004         50.2504
 -11909395.41847  -9253875.59045  21037264.5704                   21037264.1484
        46.2504         33.5004
  19250157.16846  14906335.34443  24978871.6254                   24978873.5434
        37.7504         19.5004
  11251355.10547   8769714.28146  22215815.7974                   22215813.9304
        46.0004         40.0004
 -10268506.89547  -7968255.54747  21399252.9144                   21399254.5514
        46.0004         43.2504
    484544.70346    182018.92944  25000102.3984                   25000106.3204
        38.7504         26.7504
 -15220611.89847 -13422514.98445  21598871.4144                   21598869.6724
        45.7504         30.5004
 25  7 16  1 52  0.0000000  0 10G01G06G09G03G04G28G31G26G07G16
  12044459.12547   9386309.69944  23412329.1334                   23412331.0274
        42.0004         25.2504
   -147196.69946  -1197819.87145  24866468.8984                   24866471.3054
        38.0004         30.0004
  -7822249.01246  -6163349.00445  23353392.5864                   23353394.4064
        40.7504         34.0004
  -9031356.97348  -7029674.16848  19956707.5394                   19956707.8794
        50.7504         50.0004
 -11957315.74647  -9291216.09445  21028145.6414                   21028145.0434
        46.7504         34.5004
  19339872.55146  14976243.25043  24995945.3284                   24995946.5124
        37.7504         19.2504
  11333331.16847   8833591.69946  22231415.3284                   22231413.5944
        45.7504         39.7504
 -10263233.61747  -7964146.50047  21400256.3364                   21400257.9104
        47.5004         43.0004
    394501.88746    111855.98044  24982967.7194                   24982971.1604
        40.5004         25.7504
 -15301796.30147 -13485775.51245  21583422.1804                   21583420.7544
        45.2504         31.7504
 25  7 16  1 52 30.0000000  0 10G01G06G09G03G04G28G31G26G07G16
  12126443.73447   9450193.72344  23427930.7974                   23427931.5004
        42.0004         24.5004
   -191088.26646  -1232021.00844  24858117.1724                   24858120.7034
        38.2504         29.7504
  -7906967.94546  -6229363.70345  23337271.2344                   23337273.0474
        41.0004         34.2504
  -9026234.80948  -7025682.87548  19957682.1484                   19957683.0944
        50.5004         50.0004
 -12005082.55147  -9328436.96545  21019055.8204                   21019055.3244
        46.2504         35.0004
  19429562.80146  15046131.77343  25013013.5704                   25013013.1094
        39.7504         20.0004
  11415487.15247   8897609.31346  22247048.8364                   22247047.3714
        45.5004         39.5004
 -10257332.85247  -7959548.49647  21401379.5234                   21401380.6724
        46.2504         43.0004
    304622.87546     41820.35244  24965864.2894                   24965867.6604
        39.0004         26.5004
 -15382519.37547 -13548676.55145  21568061.2034                   21568059.9884
        45.0004         30.7504
 25  7 16  1 53  0.0000000  0 10G01G06G09G03G04G28G31G26G07G16
  12208539.54346   9514164.39544  23443552.8984                   23443553.9804
        41.5004         25.5004
   -234470.19546  -1265825.15244  24849862.1254                   24849863.4534
        38.7504         28.2504
  -7991662.69546  -6295359.54745  23321154.2974                   23321155.8364
        40.5004         34.7504
  -9020531.38348  -7021238.64848  19958767.4454                   19958768.0234
        49.0004         50.0004
 -12052698.82447  -9365540.53945  21009994.6644                   21009994.3594
        47.0004         35.0004
  19519222.82846  15115996.71143  25030075.1254                   25030074.1094
        40.0004         19.0004
  11497817.31347   8961762.64846  22262715.4614                   22262714.0434
        45.0004         39.2504
 -10250808.53547  -7954464.61347  21402620.5554                   21402622.2424
        45.5004         43.0004
    214905.30146    -28089.21143  24948791.3834                   24948794.5864
        38.7504         23.5004
 -15462781.67647 -13611218.55945  21552788.0084                   21552786.2504
        44.7504         32.0004
 25  7 16  1 53 30.0000000  0 10G01G06G09G03G04G28G31G26G07G16
  12290745.10947   9578220.53543  23459195.8134                   23459197.0634
        42.0004         22.7504
   -277340.16046  -1299230.30144  24841704.0554                   24841707.1214
        37.5004         29.7504
  -8076331.21546  -6361334.96945  23305042.9774                   23305044.1214
        40.7504         35.0004
  -9014244.94148  -7016340.11748  19959963.5164                   19959964.1644
        48.5004         50.0004
 -12100162.45747  -9402525.17245  21000963.0554                   21000962.5744
        46.7504         34.7504
  19608852.87146  15185838.24643  25047129.8594                   25047130.7894
        37.7504         18.5004
  11580320.75047   9026051.01246  22278415.5164                   22278413.9574
        45.0004         39.0004
 -10243659.46547  -7948893.90647  21403981.3054                   21403982.7814
        45.5004         43.0004
    125351.25446    -97871.44544  24931749.5634                   24931752.8634
        40.5004         27.0004
 -15542578.43447 -13673397.79745  21537603.0474                   21537601.1994
        44.7504         32.5004
 25  7 16  1 54  0.0000000  0 10G01G06G09G03G04G28G31G26G07G16
  12373057.59847   9642360.01644  23474859.7734                   23474860.8244
        42.2504         24.2504
   -319697.07045  -1332235.67244  24833642.6414                   24833645.1454
        34.7504         24.7504
  -8160973.02046  -6427289.56645  23288935.2194                   23288936.7894
        40.0004         34.5004
  -9007375.08648  -7010986.98848  19961270.9304                   19961271.6914
        48.7504         50.0004
 -12147472.62147  -9439390.21945  20991959.9694                   20991959.5004
        46.0004         35.2504
  19698451.73846  15255655.63343  25064180.8284                   25064181.4574
        40.0004         19.2504
  11662995.59447   9090472.94946  22294148.5084                   22294146.5004
        45.7504         39.5004
 -10235885.87547  -7942836.56247  21405460.4844                   21405462.4654
        45.5004         43.0004
     35961.78546   -167525.44543  24914739.4224                   24914741.3674
        37.7504         21.2504
 -15621906.75847 -13735212.02345  21522507.2274                   21522505.5514
        45.0004         31.2504
 25  7 16  1 54 30.0000000  0 10G01G06G09G03G04G28G31G26G07G16
  12455475.89846   9706581.98043  23490543.6884                   23490544.9414
        41.2504         22.2504
   -361538.15646  -1364839.18744  24825681.9224                   24825684.4614
        36.7504         28.5004
  -8245585.62946  -6493221.43445  23272834.0704                   23272835.9924
        39.7504         35.0004
  -8999919.62548  -7005177.54748  19962689.5164                   19962690.3634
        50.2504         50.0004
 -12194626.71547  -9476133.65245  20982986.9454                   20982986.7154
        46.2504         35.0004
  19788020.14845  15325449.14843  25081223.2194                   25081226.1334
        34.2504         20.5004
  11745841.39847   9155028.09446  22309913.7424                   22309911.9694
        44.7504         39.7504
 -10227486.19547  -7936291.35547  21407058.8754                   21407060.7114
        46.5004         43.0004
    -53260.41446   -237049.09843  24897761.8594                   24897762.3674
        38.0004         21.0004
 -15700761.00047 -13796656.84445  21507501.8054                   21507500.2584
        45.5004         31.5004
 25  7 16  1 55  0.0000000  0 10G01G06G09G03G04G28G31G26G07G16
  12537992.35546   9770880.43844  23506245.1414                   23506247.2704
        40.0004         24.0004
   -402867.28546  -1397043.57845  24817817.5634                   24817819.8524
        37.7504         30.0004
  -8330173.12946  -6559133.72345  23256737.6254                   23256739.3204
        40.5004         35.5004
  -8991882.91448  -6998915.18448  19964219.0164                   19964219.5784
        50.7504         50.0004
 -12241628.62547  -9512758.50045  20974042.7194                   20974042.3834
        47.0004         35.2504
  19877552.29756  15395214.30953  25098263.5164                   25098264.7854
        37.0004         20.5004
  11828851.20747   9219711.03946  22325709.3204                   22325707.9534
        45.7504         39.7504
 -10218465.37547  -7929262.13347  21408775.7194                   21408776.9534
        46.0004         43.2504
   -142319.05546   -306445.29344  24880813.6414                   24880816.2154
        38.2504         26.2504
 -15779142.64147 -13857733.39845  21492585.9384                   21492584.5784
        44.5004         32.0004
 25  7 16  1 55 30.0000000  0 10G01G06G09G03G04G28G31G26G07G16
  12620611.44947   9835258.84044  23521968.0474                   23521969.4494
        42.2504         24.5004
   -443676.00445  -1428842.60944  24810049.7274                   24810052.8014
        32.0004         25.0004
  -8414727.59046  -6625020.26245  23240647.4924                   23240648.6994
        41.5004         35.0004
  -8983257.33648  -6992193.95748  19965860.3054                   19965861.1914
        50.7504         50.0004
 -12288470.22347  -9549258.43745  20965128.9844                   20965128.5824
        46.5004         35.7504
  19967054.54756  15464956.16853  25115295.1724                   25115297.8914
        38.2504         19.7504
  11912030.49247   9284526.04746  22341537.9144                   22341536.7734
        43.7504         39.7504
 -10208816.41047  -7921743.44547  21410611.4144                   21410613.4264
        46.5004         43.0004
   -231206.24646   -375707.74244  24863899.0314                   24863901.7854
        39.0004         27.5004
 -15857041.14147 -13918433.49245  21477763.0394                   21477760.7734
        45.0004         31.5004
 25  7 16  1 56  0.0000000  0 10G01G06G09G03G04G28G31G26G07G16
  12703324.97346   9899710.82843  23537708.3134                   23537708.9574
        41.5004         22.2504
   -483968.83245  -1460239.58244  24802383.1094                   24802386.5904
        35.5004         27.0004
  -8499253.75046  -6690884.75845  23224562.7344                   23224564.0944
        41.5004         34.7504
  -8974047.94148  -6985017.80548  19967612.8594                   19967613.3324
        50.0004         50.0004
 -12335156.04747  -9585636.98845  20956244.7894                   20956244.5594
        46.5004         35.2504
  20056520.14546  15516077.61753  25132319.8834                   25132319.0704
        39.2504         21.7504
  11995371.68847   9349467.18846  22357397.0234                   22357395.9924
        44.0004         39.0004
 -10198544.97347  -7913739.73047  21412566.3284                   21412567.4344
        45.7504         43.0004
   -319925.91846   -444839.94144  24847016.3054                   24847017.7774
        37.5004         24.5004
 -15934459.03547 -13978759.07445  21463030.5004                   21463028.6564
        44.7504         31.7504
 25  7 16  1 56 30.0000000  0 10G01G06G09G03G04G28G31G26G07G16
  12786132.43446   9964235.96944  23553465.6254                   23553467.1954
        40.5004         24.5004
   -523742.46145  -1491231.96144  24794813.4224                   24794816.7854
        35.2504         26.0004
  -8583748.53147  -6756724.80545  23208483.7974                   23208485.3054
        42.0004         35.2504
  -8964252.02348  -6977384.61748  19969476.6484                   19969477.6804
        49.7504         50.0004
 -12381682.80547  -9621891.59045  20947391.2424                   20947391.0274
        45.7504         35.5004
  20145950.53146  15585763.71143  25149337.0314                   25149338.5394
        38.0004         20.2504
  12078875.37547   9414534.95346  22373287.7814                   22373286.3874
        45.0004         39.2504
 -10187648.97747  -7905249.34047  21414639.3444                   21414641.2664
        45.5004         43.0004
   -408475.01246   -513839.01244  24830164.7814                   24830168.5744
        37.0004         27.2504
 -16011390.27347 -14038705.46545  21448390.5784                   21448389.2734
        45.5004         32.0004
 25  7 16  1 57  0.0000000  0 10G01G06G09G03G04G28G31G26G07G16
  12869031.98446  10028832.93844  23569241.1564                   23569242.4614
        41.0004         26.0004
   -562994.84846  -1521818.25844  24787346.5314                   24787348.3914
        36.2504         27.5004
  -8668210.25846  -6822539.07845  23192410.7734                   23192413.2584
        41.0004         35.0004
  -8953868.33248  -6969293.43748  19971453.1094                   19971453.3324
        49.5004         49.7504
 -12428048.66047  -9658020.81645  20938568.3674                   20938567.6214
        46.2504         35.0004
  20235345.90255  15655422.30952  25166346.0004                   25166349.7704
        32.5004         14.7504
  12162540.66047   9479728.64846  22389208.9924                   22389206.8954
        44.5004         39.5004
 -10176127.77747  -7896271.78147  21416831.8364                   21416833.4454
        45.5004         43.0004
   -496851.41446   -582703.61744  24813348.1804                   24813350.2304
        39.2504         27.0004
 -16087830.85947 -14098269.50845  21433844.5084                   21433842.9144
        45.0004         31.5004
 25  7 16  1 57 30.0000000  0 10G01G06G09G03G04G28G31G26G07G16
  12952019.01247  10093498.04344  23585033.4454                   23585034.6644
        42.0004         24.5004
   -601727.14145  -1551999.25444  24779973.8364                   24779976.2934
        34.0004         24.2504
  -8752640.08246  -6888328.48846  23176345.0554                   23176346.8444
        41.7504         36.0004
  -8942898.44148  -6960745.47748  19973540.5004                   19973541.0474
        48.5004         49.7504
 -12474254.59847  -9694025.43045  20929775.4064                   20929775.0784
        45.5004         35.5004
  20324702.85246  15725051.11742  25183352.9694                   25183354.6024
        39.7504         17.7504
  12246362.98447   9545044.71546  22405159.7814                   22405157.9964
        45.5004         39.0004
 -10163983.58647  -7886808.77047  21419143.0234                   21419144.7234
        45.2504         43.0004
   -585056.60546   -651434.92243  24796562.8444                   24796564.0984
        36.7504         22.7504
 -16163779.57847 -14157450.28145  21419391.8284                   21419390.3284
        45.2504         31.5004
 25  7 16  1 58  0.0000000  0 10G01G06G09G03G04G28G31G26G07G16
  13035088.71146  10158227.58244  23600840.3364                   23600841.9064
        40.0004         24.5004
   -639940.34046  -1581775.73844  24772703.7814                   24772706.6604
        37.2504         29.2504
  -8837039.33247  -6954094.09045  23160284.3594                   23160285.5744
        42.2504         35.5004
  -8931344.11748  -6951742.12148  19975739.0084                   19975740.0984
        48.7504         49.5004
 -12520301.70747  -9729906.28145  20921013.0234                   20921012.5314
        45.5004         35.5004
  20414018.77745  15794647.93443  25200347.8984                   25200349.7384
        35.0004         18.5004
  12330338.70347   9610480.32446  22421139.5084                   22421138.0474
        45.2504         38.7504
 -10151218.78147  -7876862.16447  21421571.8594                   21421573.8524
        45.5004         43.0004
   -673091.52746   -720033.27745  24779810.4224                   24779813.1564
        39.0004         30.7504
 -16239235.00447 -14216246.67245  21405033.4614                   21405031.6334
        45.0004         32.0004
 25  7 16  1 58 30.0000000  0 10G01G06G09G03G04G28G31G26G07G16
  13118235.61346  10223017.22344  23616662.6564                   23616665.3874
        39.5004         24.2504
   -677636.21545  -1611149.10544  24765529.0314                   24765532.5474
        35.0004         27.5004
  -8921409.85246  -7019837.30545  23144229.3594                   23144230.4414
        41.5004         35.2504
  -8919207.69948  -6942285.19148  19978048.5784                   19978049.0394
        48.5004         49.5004
 -12566191.62147  -9765664.63345  20912280.3984                   20912280.0784
        45.7504         35.5004
  20503289.06356  15864208.90252  25217338.4774                   25217338.5394
        37.7504         16.2504
  12414463.29347   9676031.93046  22437147.8524                   22437146.4494
        44.5004         39.0004
 -10137836.33247  -7866434.27747  21424118.5864                   21424120.3834
        45.7504         43.0004
   -760957.61346   -788500.26644  24763090.0784                   24763090.5354
        39.2504         24.5004
 -16314196.41447 -14274658.11745  21390768.3204                   21390766.7584
        45.5004         32.0004
 25  7 16  1 59  0.0000000  0 10G01G06G09G03G04G28G31G26G07G16
  13201460.24646  10287867.53144  23632500.0004                   23632501.8284
        40.5004         25.0004
   -714810.57846  -1640116.15244  24758455.9224                   24758458.1524
        37.2504         29.7504
  -9005747.60547  -7085554.98445  23128179.9144                   23128182.1334
        42.0004         35.5004
  -8906485.67648  -6932371.93448  19980469.6724                   19980470.3444
        48.2504         49.7504
 -12611920.16847  -9801297.24645  20903578.8284                   20903578.0354
        46.0004         35.7504
  20592517.80546  15933737.78942  25234317.4844                   25234319.3954
        37.5004         16.2504
  12498738.19947   9741700.64846  22453184.6644                   22453183.4304
        43.7504         38.7504
 -10123833.34047  -7855522.84447  21426782.5784                   21426784.8794
        45.5004         42.7504
   -848650.87546   -856832.53144  24746400.8834                   24746403.5514
        36.2504         25.0004
 -16388657.44147 -14332679.64145  21376598.9774                   21376597.5084
        45.5004         32.0004
 25  7 16  1 59 30.0000000  0 10G01G06G09G03G04G28G31G26G07G16
  13284758.64546  10352775.21144  23648351.9924                   23648353.2074
        41.2504         25.5004
   -751463.80546  -1668677.10944  24751480.2424                   24751483.8164
        36.2504         28.5004
  -9090053.08246  -7151247.52745  23112137.5634                   23112138.2504
        41.7504         35.5004
  -8893179.02748  -6922003.13748  19983001.5314                   19983002.6804
        48.2504         49.7504
 -12657487.56647  -9836804.30146  20894907.1334                   20894906.9774
        45.7504         36.0004
  20681702.05144  16003231.90242  25251284.8134                   25251291.6374
        27.2504         15.5004
  12583160.24647   9807484.01246  22469249.7734                   22469248.4064
        44.0004         39.2504
 -10109211.52047  -7844129.22347  21429565.7114                   21429568.0204
        45.2504         43.0004
   -936171.23846   -925030.04344  24729747.9144                   24729750.8404
        38.7504         29.0004
 -16462616.27047 -14390309.85245  21362524.9304                   21362523.0984
        44.5004         31.7504
 25  7 16  2  0  0.0000000  0 10G01G06G09G03G04G28G31G26G07G16
  13368126.12546  10417736.77043  23664215.9064                   23664217.6374
        40.2504         23.5004
   -787597.03946  -1696832.85945  24744605.6724                   24744609.2774
        38.0004         31.0004
  -9174327.48046  -7216915.83645  23096099.7424                   23096101.8554
        41.0004         35.5004
  -8879289.60248  -6911180.21548  19985645.0164                   19985645.6254
        50.0004         49.7504
 -12702894.91047  -9872186.63345  20886266.5784                   20886266.1454
        46.5004         35.5004
  20770839.08215                  25268247.430
        32.250
  12667725.30547   9873378.81646  22485342.3834                   22485340.7854
        44.0004         39.0004
 -10093973.23847  -7832255.23047  21432465.6644                   21432467.5744
        46.7504         42.7504
  -1023520.07445   -993093.90644  24713123.9924                   24713127.0044
        35.0004         24.0004
 -16536071.68047 -14447547.79745  21348547.1484                   21348545.2304
        45.2504         32.5004
 25  7 16  2  0 30.0000000  0 10G01G06G09G03G04G28G31G26G07G16
  13451562.83246  10482752.30544  23680093.0864                   23680095.3954
        40.7504         24.2504
   -823206.57845  -1724580.54744  24737827.8284                   24737828.3874
        35.7504         26.7504
  -9258567.08246  -7282557.04745  23080069.6484                   23080071.3714
        41.7504         35.0004
  -8864814.21548  -6899900.69148  19988399.3054                   19988400.0784
        49.0004         49.7504
 -12748138.21547  -9907441.12946  20877657.4384                   20877656.7194
        47.0004         36.2504
  20859930.48846  16044885.21153  25285203.2114                   25285202.6764
        36.7504         19.5004
  12752434.73447   9939386.12146  22501461.9454                   22501460.8954
        44.7504         39.0004
 -10078116.03547  -7819898.95747  21435483.3284                   21435484.7544
        46.7504         43.2504
  -1110693.03946  -1061020.86744  24696537.5234                   24696537.6414
        39.7504         25.5004
 -16609017.06247 -14504388.29745  21334666.3914                   21334664.5474
        45.0004         31.7504
 25  7 16  2  1  0.0000000  0 10G01G06G09G03G04G28G31G26G07G16
  13535066.07046  10547819.62544  23695983.5004                   23695984.9304
        40.0004         25.0004
   -858291.42246  -1751919.38745  24731152.6644                   24731157.8164
        38.7504         31.5004
  -9342770.99646  -7348170.43445  23064046.0704                   23064047.9304
        41.5004         35.2504
  -8849752.73848  -6888164.48848  19991265.3914                   19991266.4264
        49.5004         49.5004
 -12793216.48447  -9942567.04345  20869078.8444                   20869078.5124
        46.2504         35.7504
  20948975.46146  16114270.87943  25302147.7894                   25302148.2424
        40.0004         22.0004
  12837286.35947  10005504.23446  22517608.8524                   22517607.4104
        45.0004         39.0004
 -10061640.38747  -7807060.78547  21438617.9384                   21438619.7734
        46.5004         43.0004
  -1197690.00046  -1128810.41844  24679981.6334                   24679984.7624
        37.7504         28.2504
 -16681449.65647 -14560829.23045  21320882.3444                   21320880.5944
        45.0004         32.5004
 25  7 16  2  1 30.0000000  0 10G01G06G09G03G04G28G31G26G07G16
  13618633.91046  10612937.32843  23711885.9924                   23711887.5514
        39.2504         23.5004
   -892850.11346  -1778848.18044  24724576.3204                   24724576.2734
        38.2504         28.0004
  -9426937.62547  -7413754.78145  23048030.3524                   23048031.4304
        42.0004         35.5004
  -8834104.18448  -6875970.82048  19994243.1884                   19994244.2934
        48.7504         49.5004
 -12838127.89547  -9977562.92245  20860532.2584                   20860532.2974
        46.0004         35.0004
  21037974.03546  16183620.39543  25319084.1334                   25319084.2464
        40.0004         22.5004
  12922279.41047  10071732.55546  22533782.4694                   22533780.4924
        43.7504         38.5004
 -10044545.99247  -7793740.46947  21441871.5164                   21441872.9884
        46.5004         43.0004
  -1284508.58646  -1196461.21545  24663462.1174                   24663462.6334
        40.2504         30.5004
 -16753365.51247 -14616867.52045  21307197.3524                   21307195.1484
        45.0004         32.0004
 25  7 16  2  2  0.0000000  0 10G01G06G09G03G04G28G31G26G07G16
  13702267.59046  10678106.27344  23727801.9694                   23727803.3914
        41.0004         24.2504
   -926877.99646  -1805363.43745  24718099.6954                   24718104.3984
        37.2504         31.5004
  -9511062.29747  -7479306.43745  23032021.6564                   23032022.9654
        42.0004         35.5004
  -8817864.60548  -6863316.61348  19997333.3134                   19997334.6414
        48.7504         49.5004
 -12882867.58647 -10012425.00445  20852018.7274                   20852018.4414
        46.2504         35.7504
  21126929.21146  16252936.19943  25336011.0784                   25336011.8674
        36.7504         19.0004
  13007415.80147  10138072.57046  22549983.2974                   22549981.4184
        43.5004         38.0004
 -10026829.51247  -7779935.41047  21445242.7504                   21445244.0594
        46.0004         43.0004
  -1371144.33646  -1263969.45344  24646974.2114                   24646976.1454
        38.5004         29.2504
 -16824757.69947 -14672497.75445  21293611.3284                   21293609.7114
        45.0004         32.5004
 25  7 16  2  2 30.0000000  0 10G01G06G09G03G04G28G31G26G07G16
  13785959.41046  10743320.57043  23743727.1174                   23743729.2544
        39.5004         22.0004
   -960379.21146  -1831468.21145  24711726.4064                   24711726.6134
        39.5004         30.0004
  -9595149.04346  -7544828.55145  23016020.5474                   23016021.8164
        41.5004         35.5004
  -8801038.77048  -6850205.57448  20000535.7344                   20000536.4104
        48.2504         49.5004
 -12927439.39547 -10047156.27346  20843537.1804                   20843536.6724
        45.7504         36.0004
  21215835.49646  16322213.77343  25352928.9224                   25352930.2344
        36.0004         18.2504
  13092688.88347  10204519.09846  22566210.2034                   22566208.3594
        43.5004         37.2504
 -10008496.39147  -7765649.86347  21448731.7584                   21448732.9924
        45.5004         43.0004
  -1457601.09046  -1331338.05945  24630523.2424                   24630524.9104
        40.5004         31.2504
 -16895627.83647 -14727721.20345  21280125.3984                   21280123.4534
        45.0004         32.0004
 25  7 16  2  3  0.0000000  0 10G01G06G09G03G04G28G31G26G07G16
  13869707.85546  10808578.97743  23759665.1484                   23759666.0744
        40.5004         23.7504
   -993351.75446  -1857161.13345  24705450.3204                   24705454.5394
        37.2504         31.2504
  -9679195.84847  -7610319.52745  23000026.9694                   23000028.1914
        42.0004         35.5004
  -8783625.37548  -6836636.70748  20003848.9454                   20003849.8634
        48.5004         49.5004
 -12971841.15647 -10081755.03946  20835087.3444                   20835087.2774
        46.5004         36.0004
  21304692.87546  16391453.26243  25369839.6884                   25369839.6334
        41.2504         22.7504
  13178097.71147  10271071.40246  22582463.2344                   22582461.1254
        44.0004         36.7504
  -9989545.98047  -7750883.30947  21452337.0394                   21452339.2584
        45.7504         43.0004
  -1543876.97746  -1398565.93744  24614105.2974                   24614106.0984
        39.0004         29.0004
 -16965971.39847 -14782534.32845  21266739.4064                   21266737.6604
        45.0004         32.7504
 25  7 16  2  3 30.0000000  0 10G01G06G09G03G04G28G31G26G07G16
  13953511.69946  10873880.52043  23775610.0634                   23775613.4844
        36.7504         22.7504
  -1025793.67646  -1882440.50045  24699278.0784                   24699280.4614
        39.7504         32.5004
  -9763200.47747  -7675777.64545  22984041.0004                   22984043.0274
        42.0004         35.7504
  -8765623.08648  -6822608.94148  20007274.7194                   20007275.9534
        48.2504         49.5004
 -13016070.43747 -10116219.41446  20826671.6954                   20826671.0204
        46.2504         36.0004
  21393501.84446  16460655.15243  25386739.1884                   25386738.7384
        38.5004         21.2504
  13263642.21147  10337729.42646  22598741.5314                   22598740.0474
        42.7504         37.0004
  -9969977.59047  -7735635.20747  21456061.1094                   21456062.3714
        46.0004         43.2504
  -1629969.41047  -1465650.77345  24597722.6334                   24597724.1134
        43.0004         35.0004
 -17035784.20747 -14836933.89145  21253454.9694                   21253452.9384
        45.0004         33.2504
 25  7 16  2  4  0.0000000  0  9G01G06G09G03G04G31G26G07G16
  14037367.27046  10939222.43444  23791569.5784                   23791571.0434
        40.2504         25.2504
  -1057705.12546  -1907306.57845  24693205.2344                   24693207.2504
        38.7504         30.7504
  -9847162.91447  -7741202.88346  22968063.5084                   22968064.8914
        42.2504         36.0004
  -8747032.69548  -6808122.93048  20010812.4224                   20010813.3794
        48.2504         49.5004
 -13060127.06247 -10150549.24646  20818287.3914                   20818286.9144
        46.0004         36.2504
  13349319.32047  10404490.77346  22615045.6644                   22615043.9694
        43.5004         38.0004
  -9949792.65247  -7719906.66847  21459902.3524                   21459903.7344
        45.2504         43.0004
  -1715878.60246  -1532592.85944  24581373.2194                   24581373.4304
        39.5004         25.5004
 -17105063.89147 -14890918.01645  21240271.0784                   21240269.9064
        45.2504         33.0004
 25  7 16  2  4 30.0000000  0  9G01G06G09G03G04G31G26G07G16
  14121267.87946  11004599.36343  23807534.1954                   23807536.9574
        38.0004         22.5004
  -1089089.57846  -1931761.98845  24687232.5234                   24687235.6994
        37.5004         31.0004
  -9931086.47746  -7806597.82046  22952092.7734                   22952094.2664
        41.7504         36.0004
  -8727858.39848  -6793181.93448  20014461.4614                   20014461.9654
        49.5004         49.5004
 -13104014.06647 -10184746.90245  20809935.7894                   20809935.7624
        46.2504         35.5004
  13435123.44147  10471351.08246  22631373.3834                   22631371.7034
        43.5004         38.0004
  -9928995.95747  -7703701.45347  21463859.8134                   21463861.5704
        46.0004         42.7504
  -1801607.71947  -1599394.62545  24565060.3134                   24565061.1414
        43.0004         32.5004
 -17173811.67647 -14944487.68045  21227188.7424                   21227187.0004
        45.2504         32.7504
 25  7 16  2  5  0.0000000  0  9G01G06G09G03G04G31G26G07G16
  14205221.04746  11070017.28143  23823511.2814                   23823513.1254
        39.2504         22.5004
  -1119936.05946  -1955798.16845  24681362.6724                   24681365.5394
        38.5004         30.7504
 -10014960.00847  -7871953.77745  22936132.9384                   22936134.1294
        43.0004         35.5004
  -8708089.84048  -6777777.87548  20018222.8984                   20018224.2344
        49.2504         49.5004
 -13147720.12947 -10218803.56646  20801619.0554                   20801618.4024
        47.0004         36.2504
  13521062.89547  10538316.86346  22647726.9304                   22647725.7734
        44.2504         37.5004
  -9907577.98447  -7687012.11347  21467935.3364                   21467937.2114
        47.0004         42.7504
  -1887145.59446  -1666047.28545  24548782.1644                   24548784.5704
        41.5004         32.0004
 -17242014.05547 -14997632.35245  21214210.4924                   21214208.5824
        45.7504         32.5004
 25  7 16  2  5 30.0000000  0  9G01G06G09G03G04G31G26G07G16
  14289234.56346  11135482.25443  23839498.7974                   23839500.5234
        39.0004         22.7504
  -1150233.51646  -1979406.60545  24675597.5234                   24675600.1214
        38.2504         31.0004
 -10098772.08646  -7937261.83646  22920184.2734                   22920185.0594
        41.7504         36.0004
  -8687716.64848  -6761902.66448  20022100.2664                   20022100.9144
        48.2504         49.5004
 -13191233.75847 -10252710.28946  20793338.5704                   20793337.9414
        47.5004         36.2504
  13607146.35547  10605394.85246  22664108.2664                   22664106.9414
        44.0004         37.0004
  -9885528.90247  -7669831.01247  21472130.9694                   21472132.8954
        45.2504         42.7504
  -1972480.81646  -1732542.25445  24532543.4844                   24532545.5474
        41.0004         33.0004
 -17309657.66447 -15050341.62145  21201338.2424                   21201336.3954
        45.5004         33.0004
 25  7 16  2  6  0.0000000  0  9G01G06G09G03G04G31G26G07G16
  14373303.49246  11200990.32443  23855495.3054                   23855498.8054
        37.5004         23.0004
  -1179983.76646  -2002588.55144  24669935.2664                   24669939.0554
        36.7504         28.7504
 -10182524.23047  -8002523.21546  22904246.5314                   22904247.9414
        42.7504         36.7504
  -8666741.22348  -6745558.18748  20026091.3594                   20026092.1454
        48.2504         49.2504
 -13234556.19147 -10286468.02346  20785094.6024                   20785094.2664
        46.2504         36.0004
  13693369.82447  10672581.94546  22680515.6564                   22680514.5394
        44.0004         36.5004
  -9862851.80147  -7652160.54347  21476446.1174                   21476448.1254
        45.5004         42.7504
  -2057615.21947  -1798880.55545  24516343.0004                   24516343.7274
        42.5004         32.2504
 -17376742.02047 -15102615.10545  21188572.1334                   21188570.2704
        46.0004         32.5004
 25  7 16  2  6 30.0000000  0  9G01G06G09G03G04G31G26G07G16
  14457418.80946  11266534.62543  23871501.9534                   23871504.7154
        37.5004         21.5004
  -1209192.40246  -2025348.54745  24664377.3134                   24664381.5004
        37.0004         30.5004
 -10266221.73847  -8067741.99646  22888319.0164                   22888320.5594
        42.0004         36.2504
  -8645169.95348  -6728749.41048  20030196.5084                   20030197.2934
        49.2504         49.5004
 -13277692.62947 -10320080.82446  20776885.9844                   20776885.6454
        46.7504         36.0004
  13779725.21547  10739871.83646  22696948.8364                   22696947.3284
        43.2504         36.0004
  -9839553.71147  -7634006.18747  21480880.0634                   21480881.7154
        46.0004         43.0004
  -2142553.98847  -1865066.41844  24500179.9224                   24500178.6484
        42.2504         26.0004
 -17443269.96947 -15154455.02745  21175912.4144                   21175910.7584
        45.5004         33.0004
 25  7 16  2  7  0.0000000  0  9G01G06G09G03G04G31G26G07G16
  14541581.12546  11332115.55143  23887518.3444                   23887520.0514
        39.5004         21.7504
  -1237855.68046  -2047683.56244  24658924.6414                   24658925.2114
        39.5004         29.7504
 -10349860.52347  -8132915.02346  22872402.9064                   22872404.5124
        43.0004         36.5004
  -8622999.68448  -6711473.88748  20034415.3364                   20034415.7464
        48.5004         49.2504
 -13320638.78947 -10353545.36345  20768713.6414                   20768713.4844
        47.0004         35.0004
  13866213.83247  10807265.53545  22713406.8914                   22713405.4264
        42.5004         35.7504
  -9815632.15247  -7615366.01247  21485432.2974                   21485434.0204
        45.5004         43.0004
  -2227293.10247  -1931096.75445  24484053.9694                   24484055.0904
        42.0004         31.5004
 -17509235.52047 -15205856.72745  21163359.7034                   21163357.6484
        45.5004         33.0004
 25  7 16  2  7 30.0000000  0  9G01G06G09G03G04G31G26G07G16
  14625780.91846  11397725.64143  23903539.9144                   23903543.6564
        36.5004         20.7504
  -1265980.07046  -2069598.63344  24653570.9064                   24653574.6254
        36.7504         29.5004
 -10433446.56647  -8198046.94946  22856497.4454                   22856498.5084
        43.2504         37.0004
  -8600237.54348  -6693737.17648  20038746.6884                   20038747.2894
        48.2504         49.5004
 -13363400.41847 -10386866.09846  20760576.1644                   20760575.6914
        47.0004         36.0004
  13952827.01647  10874756.29346  22729889.3364                   22729887.4884
        42.5004         37.0004
  -9791094.86747  -7596246.05547  21490101.4064                   21490103.2774
        45.5004         42.7504
  -2311838.46546  -1996976.07445  24467965.3054                   24467967.7734
        41.0004         30.0004
 -17574642.82447 -15256823.41845  21150912.8674                   21150910.5784
        45.5004         33.7504
 25  7 16  2  8  0.0000000  0  9G01G06G09G03G04G31G26G07G16
  14710012.47346  11463360.45743  23919572.1174                   23919571.4184
        40.2504         21.0004
  -1293568.04746  -2091095.79744  24648321.8134                   24648323.7774
        36.2504         28.7504
 -10516982.05147  -8263139.47746  22840601.2194                   22840602.5004
        42.7504         36.5004
  -8576886.69548  -6675541.72748  20043190.4144                   20043191.0314
        48.5004         49.5004
 -13405979.52047 -10420044.61346  20752473.9694                   20752473.6134
        47.0004         36.5004
  14039560.25447  10942340.59846  22746393.8754                   22746392.3754
        43.0004         37.2504
  -9765945.80947  -7576649.39547  21494886.7584                   21494889.1484
        46.5004         42.7504
  -2396192.64547  -2062706.53145  24451913.6254                   24451915.7234
        42.0004         33.5004
 -17639492.04747 -15307355.24645  21138572.2584                   21138570.3134
        45.5004         33.5004
 25  7 16  2  8 30.0000000  0  9G01G06G09G03G04G31G26G07G16
  14794268.99646  11529014.78143  23935603.9774                   23935605.7974
        38.2504         21.0004
  -1320623.03546  -2112177.62544  24643173.6484                   24643176.3404
        37.0004         28.0004
 -10600469.90647  -8328194.89146  22824713.5004                   22824714.9774
        43.5004         37.0004
  -8552951.27748  -6656890.77748  20047745.1954                   20047746.1604
        48.7504         49.5004
 -13448378.93047 -10453083.09846  20744405.4694                   20744404.8914
        47.5004         36.0004
  14126407.69147  11010013.89546  22762920.3594                   22762919.3594
        43.5004         37.2504
  -9740189.65647  -7556579.66447  21499788.4224                   21499789.7854
        46.0004         42.7504
  -2480358.55146  -2128290.19944  24435895.1094                   24435898.6024
        38.0004         28.5004
 -17703784.05947 -15357452.87545  21126337.9774                   21126336.0704
        45.2504         33.5004
 25  7 16  2  9  0.0000000  0  9G01G06G09G03G04G31G26G07G16
  14878549.24246  11594687.60243  23951640.1484                   23951642.9384
        36.5004         20.2504
  -1347143.65246  -2132843.02044  24638126.8984                   24638128.3094
        36.7504         27.7504
 -10683908.21947  -8393211.68746  22808836.0234                   22808837.2854
        42.7504         37.0004
  -8528430.51648  -6637783.72348  20052411.5084                   20052411.9694
        48.2504         49.5004
 -13490596.52747 -10485979.91446  20736371.5084                   20736371.0634
        47.2504         36.2504
  14213368.60947  11077775.60546  22779468.6174                   22779467.4774
        43.5004         38.2504
  -9713826.35247  -7536036.83247  21504805.1564                   21504806.4694
        45.2504         42.7504
  -2564334.31246  -2193725.76244  24419916.9614                   24419917.6054
        41.2504         29.5004
 -17767514.95347 -15407113.28145  21114210.3134                   21114208.5474
        45.7504         34.0004
 25  7 16  2  9 30.0000000  0  9G01G06G09G03G04G31G26G07G16
  14962847.27346  11660374.09443  23967684.0084                   23967685.9144
        39.2504         20.7504
  -1373132.63746  -2153094.20344  24633181.4144                   24633183.9344
        38.5004         29.0004
 -10767299.23847  -8458191.64846  22792966.2974                   22792968.4064
        42.5004         37.0004
  -8503327.76648  -6618223.16848  20057188.3204                   20057188.9734
        48.5004         49.2504
 -13532634.38347 -10518736.67645  20728372.2034                   20728371.9384
        47.0004         35.5004
  14300438.18847  11145621.99246  22796038.1804                   22796036.3834
        44.0004         37.2504
  -9686859.95747  -7515024.06247  21509936.4144                   21509938.0234
        46.2504         42.2504
  -2648122.53146  -2259015.07444  24403970.7584                   24403972.9574
        37.7504         28.5004
 -17830685.46947 -15456337.02345  21102189.5634                   21102187.8204
        45.7504         33.2504
 25  7 16  2 10  0.0000000  0  9G01G06G09G03G04G31G26G07G16
  15047161.01246  11726073.03543  23983726.9844                   23983729.4494
        38.7504         19.7504
  -1398588.80946  -2172930.15644  24628336.3134                   24628338.6334
        38.0004         26.7504
 -10850641.31647  -8523133.46946  22777106.9534                   22777108.6604
        42.5004         37.2504
  -8477642.60248  -6598208.76248  20062075.9534                   20062077.1214
        49.0004         49.2504
 -13574490.65248 -10551351.93045  20720407.5004                   20720406.7584
        48.0004         35.7504
  14387615.34047  11213552.18846  22812626.5634                   22812625.2894
        42.0004         36.0004
  -9659290.75847  -7493541.57047  21515182.7424                   21515184.9804
        46.5004         42.5004
  -2731721.55146  -2324157.07444  24388063.8524                   24388063.0704
        40.0004         25.2504
 -17893291.15247 -15505120.64545  21090275.8364                   21090274.0354
        46.0004         33.5004
 25  7 16  2 10 30.0000000  0  9G01G06G09G03G04G31G26G07G16
  15131489.62946  11791783.52443  23999773.8754                   23999776.6484
        38.0004         21.5004
  -1423510.20746  -2192349.45344  24623594.5164                   24623597.4144
        37.0004         27.5004
 -10933931.86747  -8588035.14546  22761257.2664                   22761258.8984
        43.2504         37.5004
  -8451373.71548  -6577739.51248  20067074.9304                   20067075.6914
        48.5004         49.2504
 -13616162.58647 -10583823.53945  20712477.1334                   20712477.1174
        47.0004         35.7504
  14474900.13347  11281566.27046  22829236.7274                   22829235.8284
        42.0004         37.0004
  -9631117.99647  -7471588.77747  21520543.8834                   21520545.7734
        46.2504         42.5004
  -2815128.91046  -2389149.64844  24372191.7974                   24372192.8914
        40.7504         29.2504
 -17955327.94547 -15553460.96945  21078470.8134                   21078469.2034
        45.5004         33.5004
 25  7 16  2 11  0.0000000  0  9G01G06G09G03G04G31G26G07G16
  15215827.17246  11857500.84843  24015823.3594                   24015826.9694
        37.5004         21.0004
  -1447899.69546  -2211354.25444  24618953.6254                   24618954.9344
        39.2504         28.0004
 -11017173.12947  -8652898.40646  22745417.4144                   22745418.6764
        42.5004         37.0004
  -8424524.68448  -6556818.19148  20072184.0004                   20072184.3484
        49.0004         49.5004
 -13657652.32447 -10616153.19145  20704581.9924                   20704581.2814
        46.7504         35.5004
  14562287.78147  11349660.49646  22845865.5864                   22845864.2424
        42.0004         36.0004
  -9602345.94147  -7449169.01247  21526019.2034                   21526020.5394
        47.0004         42.5004
  -2898347.22346  -2453994.96144  24356355.0004                   24356356.5204
        38.5004         24.5004
 -18016796.43747 -15601358.45345  21066773.7664                   21066771.9304
        46.2504         34.0004
 25  7 16  2 11 30.0000000  0  9G01G06G09G03G04G31G26G07G16
  15300174.09846  11923225.61343  24031874.5704                   24031877.4384
        38.0004         22.0004
  -1471754.09846  -2229942.11344  24614413.1564                   24614417.0864
        39.0004         29.0004
 -11100361.22347  -8717720.24646  22729586.8524                   22729588.1914
        43.0004         37.2504
  -8397092.88748  -6535442.78148  20077404.2344                   20077404.6684
        48.2504         49.2504
 -13698955.80547 -10648337.70346  20696722.6884                   20696721.7974
        47.0004         36.2504
  14649779.15247  11417835.55146  22862515.1884                   22862513.8524
        42.2504         36.5004
  -9572972.69947  -7426280.77347  21531608.3134                   21531610.3594
        45.5004         42.5004
  -2981372.94946  -2518690.19544  24340557.0554                   24340558.6374
        41.5004         29.7504
 -18077690.94547 -15648808.67245  21055186.0164                   21055183.9414
        46.5004         34.0004
