     2.11           OBSERVATION DATA    G (GPS)             RINEX VERSION / TYPE
teqc  2019Feb25     K Rivera            20250821 01:42:32UTCPGM / RUN BY / DATE
Linux 2.6.32-573.12.1.x86_64|x86_64|gcc -static|Linux 64|=+ COMMENT
teqc  2019Feb25                         20250821 01:38:15UTCCOMMENT
BIT 2 OF LLI FLAGS DATA COLLECTED UNDER A/S CONDITION       COMMENT
0705                                                        MARKER NAME
                                                            MARKER NUMBER
KMR & KMB           University of California, Riverside     OBSERVER / AGENCY
0220340422          TRIMBLE 5700        2.32                REC # / TYPE / VERS
1441040465          TRM57971.00                             ANT # / TYPE
 -2451918.9649 -4657352.9294  3592211.3998                  APPROX POSITION XYZ
        1.4868        0.0000        0.0000                  ANTENNA: DELTA H/E/N
     1     1                                                WAVELENGTH FACT L1/2
     7    L1    L2    C1    P1    P2    S1    S2            # / TYPES OF OBSERV
    18                                                      LEAP SECONDS
 SNR is mapped to RINEX snr flag value [0-9]                COMMENT
  L1 & L2: min(max(int(snr_dBHz/6), 0), 9)                  COMMENT
  2025     6    30    21    16   30.0000000     GPS         TIME OF FIRST OBS
                                                            END OF HEADER
 25  6 30 21 16 30.0000000  0  3G27G32G08
     13446.52057      6906.48057  21494881.0164                   21494880.2504
        47.7504         47.7504
    -82644.89858    -41755.55958  21001778.6644                   21001777.7894
        49.7504         51.0004
    -77039.37557    -42520.35256  22877148.1724                   22877147.8554
        42.5004         37.0004
 25  6 30 21 17  0.0000000  0  6G10G27G18G32G23G08
    -13696.21958     -9049.25058  21052857.9844                   21052856.7814
        50.5004         52.0004
     26467.80547     17052.91048  21497358.8914                   21497357.9734
        47.0004         48.0004
     96574.71557     63735.48455  22237061.4224                   22237059.8754
        44.0004         32.7504
   -141334.83648    -87487.94948  20990610.5554                   20990609.6804
        49.5004         51.0004
     51954.49257     31524.10955  21671401.1174                   21671397.8364
        46.0004         34.2504
   -126187.75046    -80817.77746  22867794.9304                   22867795.2774
        41.5004         36.7504
 25  6 30 21 17 30.0000000  0  6G10G27G18G32G23G08
    -22581.25048    -15972.65248  21051167.5704                   21051166.2114
        51.2504         52.2504
     40024.51247     27616.54347  21499938.7734                   21499937.5784
        47.7504         47.7504
    161125.79747    114034.96545  22249345.8984                   22249343.2234
        45.0004         32.5004
   -199603.60548   -132892.16448  20979522.3754                   20979521.1024
        49.5004         50.7504
     97310.93847     66866.77045  21680032.3364                   21680029.5354
        45.2504         34.0004
   -174861.71146   -118745.53946  22858533.0084                   22858532.4224
        41.2504         36.2504
 25  6 30 21 18  0.0000000  0  6G10G27G18G32G23G08
    -31331.29348    -22790.87948  21049502.3054                   21049500.6334
        51.2504         52.0004
     54124.95347     38603.89847  21502621.8364                   21502621.0354
        47.2504         47.7504
    225975.91047    164567.42645  22261686.3984                   22261684.1994
        44.0004         33.5004
   -257440.89848   -177960.14848  20968516.5234                   20968514.8284
        50.2504         51.0004
    142742.57847    102268.03145  21688677.9614                   21688674.7344
        46.5004         34.7504
   -223050.63346   -156295.35246  22849362.0474                   22849362.9574
        41.5004         36.5004
 25  6 30 21 18 30.0000000  0  7G10G27G18G32G23G24G08
    -39938.81648    -29498.03948  21047864.3134                   21047862.6764
        51.5004         52.2504
     68776.02747     50020.30147  21505409.9144                   21505408.5474
        47.7504         47.7504
    291132.50847    215338.77045  22274084.6024                   22274081.9734
        45.2504         32.2504
   -314837.81248   -222684.98048  20957594.0474                   20957592.7154
        50.2504         51.0004
    188257.01647    137733.78545  21697338.7734                   21697335.2114
        46.5004         34.2504
      6725.53956      4465.71156  23195483.7114                   23195484.0434
        41.5004         36.0004
   -270745.33647   -193460.05946  22840287.2584                   22840286.5784
        42.0004         37.7504
 25  6 30 21 19  0.0000000  0  7G10G27G18G32G23G24G08
    -48391.89548    -36084.85548  21046255.6174                   21046254.1844
        49.7504         51.7504
     83989.05148     61874.58247  21508304.6804                   21508303.7384
        48.0004         47.5004
    356607.48447    266358.17245  22286544.4384                   22286541.9654
        44.5004         32.5004
   -371780.96548   -267056.23048  20946757.9304                   20946756.8054
        50.2504         51.0004
    233866.31647    173273.45745  21706018.4844                   21706014.8284
        46.5004         34.5004
     12432.41847      8912.61745  23196570.2974                   23196570.1024
        42.7504         35.7504
   -317932.09447   -230228.96546  22831307.5314                   22831307.5554
        42.5004         37.5004
 25  6 30 21 19 30.0000000  0  7G10G27G18G32G23G24G08
    -56678.97748    -42542.32048  21044678.9454                   21044677.3204
        49.0004         51.7504
     99774.87148     74175.20347  21511309.2114                   21511307.5984
        48.0004         47.5004
    422412.31347    317634.59845  22299066.9384                   22299064.0314
        44.5004         32.7504
   -428257.41048   -311063.82048  20936010.6644                   20936009.6214
        50.0004         51.0004
    279582.17647    208896.17645  21714717.7504                   21714715.2464
        47.2504         34.7504
     18739.76246     13827.41445  23197771.4694                   23197770.0784
        41.0004         34.7504
   -364597.74247   -266591.78146  22822427.7194                   22822427.5314
        42.7504         38.2504
 25  6 30 21 20  0.0000000  0  7G10G27G18G32G23G24G08
    -64798.55948    -48869.26648  21043133.8754                   21043131.7154
        51.5004         52.0004
    116134.28148     86922.77747  21514421.8204                   21514420.6724
        48.0004         47.5004
    488548.36747    369169.10545  22311652.0084                   22311649.5824
        43.5004         32.2504
   -484264.32848   -354705.53148  20925353.0554                   20925351.7814
        50.0004         51.0004
    325406.09447    244603.11345  21723437.8444                   21723434.4654
        47.5004         34.0004
     25649.75846     19211.80145  23199085.5314                   23199085.4734
        41.5004         35.2504
   -410739.05147   -302546.01646  22813647.0394                   22813646.7814
        43.0004         37.5004
 25  6 30 21 20 30.0000000  0  7G10G27G18G32G23G24G08
    -72748.37548    -55063.91848  21041620.9614                   21041619.1724
        49.0004         51.7504
    133068.80147    100118.48447  21517643.9774                   21517643.0824
        47.0004         47.0004
    555017.71147    420963.37545  22324301.6564                   22324298.0744
        44.5004         32.2504
   -539798.12148   -397978.57848  20914785.4144                   20914783.9804
        50.2504         50.7504
    371340.48047    280396.10945  21732178.8834                   21732175.0394
        46.2504         34.7504
     33165.31347     25068.05945  23200516.1334                   23200516.0554
        42.5004         35.5004
   -456352.23447   -338088.71545  22804966.8594                   22804966.6994
        43.2504         35.7504
 25  6 30 21 21  0.0000000  0  7G10G27G18G32G23G24G08
    -80526.56648    -61124.84048  21040140.9844                   21040139.1334
        51.0004         51.5004
    150579.55547    113763.20347  21520976.2274                   21520975.0984
        46.5004         46.7504
    621822.20347    473018.73045  22337014.8444                   22337010.8794
        44.7504         32.0004
   -594855.63348   -440880.50848  20904308.3674                   20904306.6644
        50.5004         50.5004
    417387.40647    316276.78945  21740941.1564                   21740937.9144
        46.2504         34.2504
     41288.98046     31398.18445  23202061.9304                   23202061.9804
        41.5004         35.0004
   -501433.75846   -373217.11345  22796387.7194                   22796387.3094
        41.5004         34.7504
 25  6 30 21 21 30.0000000  0  7G10G27G18G32G23G24G08
    -88134.58648    -67053.15248  21038692.8674                   21038691.3204
        51.0004         51.2504
    168664.24247    127855.14547  21524418.0864                   21524417.0044
        46.2504         46.7504
    688960.12547    525333.96945  22349789.3524                   22349786.5984
        45.0004         31.7504
   -649437.02348   -483411.42648  20893921.8284                   20893920.3204
        50.2504         50.7504
    463545.40247    352244.04345  21749724.4844                   21749722.0744
        46.0004         35.0004
     50019.89846     38201.48845  23203723.1954                   23203722.9414
        41.5004         35.0004
   -545983.59846   -407931.22745  22787909.8134                   22787909.9774
        41.2504         34.0004
 25  6 30 21 22  0.0000000  0  7G10G27G18G32G23G24G08
    -95580.37548    -72855.07448  21037276.0084                   21037274.2464
        50.7504         51.0004
    187314.11347    142387.49247  21527966.4614                   21527965.8834
        46.2504         46.7504
    756423.39847    577902.68445  22362627.3984                   22362624.8714
        45.5004         31.0004
   -703549.00848   -525576.57848  20883624.5164                   20883622.6724
        50.0004         51.0004
    509806.70347    388291.78145  21758527.8984                   21758524.9734
        47.5004         34.2504
     59350.67646     45472.21545  23205499.2274                   23205497.9064
        41.7504         34.7504
   -590008.08646   -442235.98045  22779532.6564                   22779532.8794
        39.7504         34.7504
 25  6 30 21 22 30.0000000  0  7G10G27G18G32G23G24G08
   -102863.88348    -78530.52748  21035890.0634                   21035888.0944
        50.5004         51.5004
    206528.36347    157359.61747  21531622.7664                   21531622.4574
        46.0004         46.7504
    824211.89847    630724.82045  22375527.5394                   22375525.3954
        45.0004         32.7504
   -757190.25848   -567374.92648  20873416.9304                   20873415.5044
        50.0004         51.5004
    556171.50847    424420.16045  21767350.9844                   21767347.9694
        46.5004         34.0004
     69281.94146     53210.85545  23207388.1724                   23207387.9144
        40.7504         34.0004
   -633505.68446   -476130.19545  22771255.1484                   22771255.3324
        40.2504         35.0004
 25  6 30 21 23  0.0000000  0  7G10G27G18G32G23G24G08
   -109989.39848    -84082.86348  21034534.0864                   21034532.8484
        49.5004         51.7504
    226301.80947    172767.47347  21535385.8204                   21535385.1764
        45.5004         46.7504
    892321.09047    683796.86345  22388487.9144                   22388486.2664
        43.7504         31.0004
   -810363.90248   -608808.89148  20863298.5314                   20863297.0004
        51.2504         51.7504
    602635.59447    460625.93045  21776192.8204                   21776189.9224
        46.7504         35.0004
     79809.87146     61414.42245  23209391.5554                   23209391.7384
        40.5004         34.0004
   -676479.17646   -509616.01646  22763077.8444                   22763078.3834
        41.7504         37.0004
 25  6 30 21 23 30.0000000  0  7G10G27G18G32G23G24G08
   -116958.91448    -89513.64848  21033207.8134                   21033206.6884
        50.5004         51.7504
    246631.55147    188608.81347  21539254.5004                   21539253.8674
        45.5004         47.0004
    960748.81647    737117.13745  22401509.8914                   22401507.6024
        45.5004         32.5004
   -863070.72748   -649879.10548  20853268.5234                   20853266.8834
        50.2504         51.5004
    649197.10547    496907.60545  21785052.8284                   21785050.2704
        47.0004         34.2504
     90932.98446     70081.77745  23211508.7344                   23211509.1454
        40.7504         34.5004
   -718929.14847   -542693.89546  22755000.1094                   22755000.4654
        42.0004         38.7504
 25  6 30 21 24  0.0000000  0  7G10G27G18G32G23G24G08
   -123771.60548    -94822.23448  21031911.4454                   21031909.8364
        49.5004         51.2504
    267517.50047    204883.55947  21543228.8674                   21543227.9694
        45.5004         46.7504
   1029495.58647    790685.96145  22414591.8674                   22414589.2154
        45.2504         31.5004
   -915308.73048   -690584.01248  20843328.1954                   20843326.3984
        51.0004         51.2504
    695857.01247    533265.94545  21793932.2894                   21793928.9344
        46.0004         34.5004
    102652.50446     79213.87545  23213738.7034                   23213738.6684
        41.0004         34.0004
   -760853.31647   -575362.04746  22747022.1024                   22747022.2544
        43.0004         40.2504
 25  6 30 21 24 30.0000000  0  7G10G27G18G32G23G24G08
   -130428.92648   -100009.74248  21030644.2734                   21030643.0164
        49.5004         51.0004
    288957.19147    221589.78947  21547309.1094                   21547307.6214
        45.7504         46.7504
   1098559.73847    844502.14145  22427733.7344                   22427731.9924
        44.5004         31.7504
   -967078.23448   -730923.84448  20833476.5864                   20833474.4654
        50.7504         51.2504
    742613.95347    569699.91045  21802829.6484                   21802826.5864
        47.2504         34.5004
    114967.46946     88809.93845  23216081.5394                   23216081.8874
        40.7504         34.2504
   -802251.68447   -607620.48846  22739144.8134                   22739144.2854
        44.0004         41.0004
 25  6 30 21 25  0.0000000  0  7G10G27G18G32G23G24G08
   -136932.94548   -105077.82048  21029406.9774                   21029405.2464
        49.2504         51.5004
    310947.51247    238725.08647  21551493.9064                   21551492.6644
        46.0004         47.0004
   1167938.87947    898563.73445  22440936.9774                   22440934.8634
        45.2504         32.0004
  -1018380.27048   -770899.41448  20823713.9614                   20823712.3634
        50.7504         51.5004
    789465.92647    606207.93045  21811745.3594                   21811742.4614
        46.5004         34.5004
    127876.01646     98868.52045  23218538.5554                   23218538.6174
        40.5004         34.2504
   -843125.02747   -639469.81646  22731366.6724                   22731366.4104
        42.5004         41.0004
 25  6 30 21 25 30.0000000  0  9G10G27G18G32G02G23G24G28G08
   -143288.14848   -110029.91048  21028197.6334                   21028196.4384
        50.5004         52.0004
    333483.05547    256285.22747  21555782.0474                   21555780.9534
        46.5004         47.0004
   1237628.31647    952867.16445  22454197.9924                   22454195.5824
        44.2504         31.0004
  -1069218.09848   -810513.27748  20814039.8984                   20814038.0944
        51.0004         51.7504
  -1042480.82856   -774286.09053  24920653.5864                   24920649.8634
        39.7504         20.2504
    836408.69947    642786.69545  21820678.3674                   21820674.5744
        46.2504         34.2504
    141374.16446    109386.54345  23221107.3364                   23221107.2504
        40.5004         35.0004
   -304700.39556   -200462.14853  25174447.0554                   25174453.7624
        41.0004         19.0004
   -883476.32847   -670912.35946  22723687.2734                   22723688.0164
        42.0004         40.0004
 25  6 30 21 26  0.0000000  0  9G10G27G18G32G02G23G24G28G08
   -149495.62948   -114866.89848  21027016.4144                   21027014.9494
        50.5004         52.2504
    356561.56347    274268.46547  21560174.1254                   21560172.5664
        47.5004         47.0004
   1307626.52747   1007411.15645  22467518.4454                   22467515.9494
        44.7504         31.0004
  -1119591.86348   -849765.51648  20804454.0634                   20804452.9304
        51.0004         52.0004
  -1138946.72146   -849454.25543  24902296.9064                   24902293.2774
        38.2504         21.5004
    883441.15247    679435.34045  21829628.0314                   21829624.6024
        46.0004         34.0004
    155461.03147    120363.32045  23223787.4844                   23223788.1414
        42.0004         35.5004
   -407609.58646   -280650.68743  25154863.6724                   25154870.2894
        40.5004         19.2504
   -923305.50047   -701948.04746  22716108.7734                   22716108.3484
        42.0004         38.5004
 25  6 30 21 26 30.0000000  0  9G10G27G18G32G02G23G24G28G08
   -155553.84448   -119587.57848  21025863.4844                   21025861.8094
        50.2504         51.7504
    380183.53147    292675.17647  21564668.7974                   21564667.7194
        47.5004         47.0004
   1377934.85547   1062196.81345  22480897.8674                   22480894.8834
        44.7504         32.5004
  -1169498.88348   -888654.06648  20794957.2734                   20794955.4924
        51.5004         52.0004
  -1235430.98846   -924636.67643  24883936.3834                   24883933.0434
        38.7504         22.0004
    930565.09047    716155.25845  21838595.5004                   21838592.8794
        46.5004         34.7504
    170138.43846    131800.26245  23226580.6024                   23226581.6374
        41.2504         35.0004
   -510672.95346   -360959.39143  25135251.2344                   25135257.6524
        39.7504         19.0004
   -962609.57046   -732574.56646  22708628.9614                   22708629.0394
        41.2504         38.2504
 25  6 30 21 27  0.0000000  0  9G10G27G18G32G02G23G24G28G08
   -161463.43748   -124192.44948  21024739.0864                   21024736.8554
        50.5004         51.5004
    404347.25847    311504.03947  21569267.1334                   21569266.2154
        47.5004         47.0004
   1448552.19547   1117223.25045  22494335.1804                   22494334.0164
        44.5004         31.7504
  -1218938.84848   -927178.67648  20785548.8134                   20785547.1524
        51.7504         52.0004
  -1331932.16046   -999832.29743  24865572.5864                   24865569.5434
        37.5004         21.7504
    977779.93447    752946.02745  21847580.6724                   21847578.0474
        46.2504         34.2504
    185406.06346    143697.10245  23229486.2274                   23229486.6914
        40.5004         33.2504
   -613888.36346   -441386.51243  25115609.5314                   25115615.6254
        39.5004         18.2504
  -1001387.99246   -762791.49246  22701249.6254                   22701249.7504
        40.5004         37.0004
 25  6 30 21 27 30.0000000  0  9G10G27G18G32G02G23G24G28G08
   -167229.40248   -128685.41448  21023641.5394                   21023639.6414
        50.7504         51.5004
    429046.50447    330750.19547  21573967.0864                   21573966.0274
        46.5004         46.5004
   1519473.29347   1172486.40245  22507831.2194                   22507828.6524
        44.2504         31.5004
  -1267915.77748   -965342.48048  20776228.7974                   20776227.0944
        51.5004         51.7504
  -1428453.81245  -1075043.84043  24847204.8914                   24847202.1644
        33.0004         19.7504
   1025080.81347    789803.84845  21856581.2504                   21856578.3164
        47.0004         34.5004
    201259.00846    156050.03945  23232502.5864                   23232502.4264
        41.0004         33.2504
   -717257.89146   -521933.77043  25095938.4924                   25095944.0474
        39.7504         18.5004
  -1039644.50846   -792601.74646  22693969.6804                   22693969.5664
        41.7504         37.2504
 25  6 30 21 28  0.0000000  0  9G10G27G18G32G02G23G24G28G08
   -172851.27348   -133066.09448  21022571.7274                   21022569.7934
        50.2504         51.7504
    454280.65647    350413.15247  21578769.1884                   21578767.7664
        46.5004         46.7504
   1590698.21547   1227986.25845  22521384.4844                   22521382.7664
        44.0004         31.0004
  -1316428.17648  -1003144.30948  20766997.2424                   20766995.1604
        51.7504         51.5004
  -1524993.60555  -1150269.53152  24828833.0474                   24828830.9924
        31.0004         17.2504
   1072468.38347    826729.19145  21865599.3364                   21865595.7664
        46.7504         34.5004
    217698.03546    168859.66045  23235631.0864                   23235630.2584
        40.0004         33.0004
   -820778.20746   -602598.52942  25076238.9144                   25076244.3914
        39.0004         17.7504
  -1077377.38746   -822003.94946  22686789.2894                   22686789.3794
        41.5004         37.7504
 25  6 30 21 28 30.0000000  0  9G10G27G18G32G02G23G24G28G08
   -178331.43748   -137336.33648  21021528.9064                   21021527.7274
        50.7504         52.0004
    480046.03947    370490.05947  21583672.3674                   21583670.9064
        46.0004         46.7504
   1662224.06647   1283720.66845  22534995.8754                   22534993.3554
        43.7504         31.2504
  -1364477.56248  -1040585.36748  20757853.7974                   20757851.8204
        51.5004         51.5004
                                  24810459.6724                   24810456.6954
        32.5004         18.5004
   1119940.27347    863720.25845  21874632.7194                   21874629.7464
        47.0004         34.0004
    234720.78946    182124.12945  23238870.9774                   23238870.2464
        40.2504         34.0004
   -924448.96546   -683380.52342  25056510.3594                   25056515.9884
        36.7504         17.2504
  -1114587.93747   -850999.15246  22679708.8984                   22679708.9064
        42.5004         39.0004
 25  6 30 21 29  0.0000000  0  9G10G27G18G32G02G23G24G28G08
   -183669.74248   -141496.05548  21020512.9144                   21020511.3014
        50.0004         51.5004
    506341.62147    390980.10947  21588676.2274                   21588675.2504
        46.5004         47.0004
   1734050.77047   1339689.44145  22548664.7504                   22548663.1054
        44.5004         32.2504
  -1412062.81648  -1077664.75448  20748798.4384                   20748796.6914
        51.0004         51.5004
  -1718126.91446  -1300762.78143  24792081.5084                   24792078.2624
        36.5004         20.0004
   1167496.78947    900777.25445  21883682.2734                   21883678.9264
        46.5004         34.0004
    252327.50846    195843.63345  23242220.6644                   23242221.1644
        41.0004         34.0004
  -1028266.96545   -764277.19943  25036754.5394                   25036760.8674
        35.5004         18.2504
  -1151274.78546   -879586.26646  22672727.2274                   22672727.4574
        41.7504         39.0004
 25  6 30 21 29 30.0000000  0  9G10G27G18G32G02G23G24G28G08
   -188854.36348   -145536.01648  21019526.7034                   21019524.6254
        49.0004         51.0004
    533177.99647    411891.55547  21593782.9224                   21593781.6764
        45.7504         46.5004
   1806189.60247   1395901.45745  22562391.8444                   22562389.7934
        44.5004         30.7504
  -1459171.19548  -1114372.54748  20739834.0314                   20739832.4414
        50.5004         51.7504
  -1814704.63746  -1376018.03143  24773702.2814                   24773699.8634
        36.5004         22.2504
   1215150.00047    937909.60545  21892750.3834                   21892747.5164
        45.5004         34.0004
    270530.20346    210027.53545  23245684.8914                   23245685.1564
        40.5004         33.7504
  -1132217.49245   -845277.18442  25016973.2114                   25016980.1954
        34.0004         16.2504
  -1187424.89847   -907755.14546  22665847.8284                   22665848.3754
        43.0004         40.0004
 25  6 30 21 30  0.0000000  0  9G10G27G18G32G02G23G24G28G08
   -193868.30548   -149442.97748  21018572.4534                   21018570.6604
        49.2504         51.2504
    560570.82047    433236.59047  21598995.6174                   21598994.0784
        46.5004         46.7504
   1878657.15647   1452369.61745  22576182.3914                   22576181.1254
        44.5004         32.5004
  -1505784.85548  -1150694.84448  20730963.6484                   20730962.1524
        50.7504         51.7504
  -1911266.43046  -1451260.91443  24755327.9144                   24755324.6094
        37.7504         22.5004
   1262916.91447    975130.57045  21901840.1254                   21901837.5084
        46.0004         33.2504
    289345.84046    224689.05945  23249265.5704                   23249265.3874
        40.5004         33.7504
  -1236280.77745   -926365.07842  24997171.0234                   24997176.5864
        33.2504         15.5004
  -1223020.30547   -935491.78946  22659074.1174                   22659074.4384
        42.5004         40.0004
 25  6 30 21 30 30.0000000  0  9G10G27G18G32G02G23G24G28G08
   -198711.59848   -153216.97748  21017650.6724                   21017649.0634
        49.5004         51.5004
    588518.82047    455014.23447  21604313.9304                   21604312.6844
        46.7504         46.5004
   1951452.94147   1509093.51645  22590034.8054                   22590032.9694
        43.7504         30.7504
  -1551902.98448  -1186631.01648  20722187.6804                   20722186.0124
        50.2504         52.0004
  -2007810.48046  -1526489.93444  24736956.8204                   24736952.9534
        39.2504         24.5004
   1310797.68847   1012440.25045  21910951.6564                   21910948.6804
        44.7504         33.0004
    308774.40246    239828.18845  23252962.6564                   23252962.0164
        40.2504         33.5004
  -1340453.832 5                  24977347.633
        31.750
  -1258059.86747   -962795.32046  22652406.6644                   22652406.2074
        42.2504         39.5004
 25  6 30 21 31  0.0000000  0  9G10G27G18G32G02G23G24G28G08
   -203396.44948   -156867.50048  21016759.0554                   21016757.7274
        48.5004         51.5004
    617008.34047    477213.84447  21609735.1254                   21609734.5164
        46.0004         46.5004
   2024564.14847   1566063.24245  22603947.4844                   22603945.5864
        44.0004         31.0004
  -1597537.03548  -1222189.96948  20713503.7274                   20713502.1684
        50.5004         52.2504
  -2104347.25446  -1601713.30144  24718586.1334                   24718582.1644
        40.0004         24.7504
   1358780.21947   1049829.19545  21920082.5704                   21920079.6684
        45.0004         34.0004
    328803.58646    255435.35545  23256774.0634                   23256773.2194
        39.7504         34.0004
                                  24957499.688
        29.000
  -1292554.84846   -989674.50046  22645841.8754                   22645842.1644
        41.5004         39.5004
 25  6 30 21 31 30.0000000  0  9G10G27G18G32G02G23G24G28G08
   -207934.88748   -160403.93748  21015895.3134                   21015893.8054
        48.5004         51.5004
    646026.05947    499825.03147  21615257.1024                   21615255.7854
        46.2504         46.5004
   2097978.44947   1623269.10545  22617917.4924                   22617915.3244
        43.2504         30.5004
  -1642698.14148  -1257380.41048  20704909.9384                   20704908.3484
        50.5004         52.2504
  -2200886.81646  -1676938.83244  24700215.4064                   24700211.8524
        40.2504         24.5004
   1406852.57847   1087288.16845  21929230.1804                   21929227.6374
        44.5004         33.2504
    349421.37946    271501.18445  23260697.4534                   23260696.7154
        39.5004         33.7504
  -1549166.75815                  24937628.961
        31.000
  -1326516.13346  -1016137.83246  22639378.8754                   22639379.5864
        40.7504         39.0004
 25  6 30 21 32  0.0000000  0  9G10G27G18G32G02G23G24G28G08
   -212336.06648   -163833.42648  21015058.0784                   21015056.1954
        50.5004         51.5004
    675561.42247    522839.58247  21620877.4064                   21620876.1724
        46.7504         46.7504
   2171685.97747   1680703.53144  22631943.1484                   22631941.2074
        43.0004         29.5004
  -1687394.72348  -1292208.88348  20696404.3914                   20696402.8324
        50.5004         52.5004
  -2297436.68746  -1752172.38744  24681842.6174                   24681838.6724
        39.5004         25.0004
   1455005.75447   1124810.10945  21938393.6414                   21938390.8634
        44.0004         33.0004
    370618.59846    288018.46345  23264730.6094                   23264731.1174
        38.0004         33.2504
  -1653721.66055   -991342.97353  24917733.2734                   24917736.7774
        33.7504         19.5004
  -1359951.95746  -1042191.71146  22633016.7424                   22633016.9104
        40.0004         38.7504
 25  6 30 21 32 30.0000000  0  9G10G27G18G32G02G23G24G28G08
   -216598.75848   -167155.00448  21014247.0164                   21014245.3094
        51.0004         51.5004
    705614.18847    546257.29747  21626596.5474                   21626595.1564
        47.2504         47.0004
   2245687.55147   1738366.98444  22646026.0634                   22646023.5984
        44.2504         29.2504
  -1731624.82048  -1326673.85948  20687987.8754                   20687985.8244
        50.7504         52.2504
  -2393993.67246  -1827411.48443  24663467.9614                   24663464.1414
        39.0004         22.7504
   1503241.14147   1162396.09845  21947572.7814                   21947569.3164
        44.7504         33.0004
    392396.10546    304987.96145  23268874.8914                   23268874.7584
        39.0004         32.5004
  -1758407.02056  -1072915.53553  24897811.5554                   24897816.1954
        36.2504         19.2504
  -1392860.09046  -1067834.40646  22626754.3284                   22626755.0434
        40.7504         37.5004
 25  6 30 21 33  0.0000000  0  9G10G27G18G32G02G23G24G28G08
   -220728.73848   -170373.17248  21013460.7814                   21013459.7424
        49.2504         51.7504
    736177.20347    570072.60247  21632412.6174                   21632411.4734
        47.7504         47.0004
   2319976.80947   1796254.69544  22660162.3594                   22660159.6484
        42.5004         29.7504
  -1775393.44948  -1360779.25848  20679658.8524                   20679657.0904
        52.0004         52.5004
  -2490561.50446  -1902659.05543  24645091.7894                   24645088.3164
        38.5004         22.0004
   1551553.06347   1200041.74245  21956765.8914                   21956762.8094
        45.5004         32.7504
    414748.23846    322405.18845  23273128.5554                   23273128.4884
        37.7504         32.5004
  -1863225.55946  -1154591.94143  24877865.1094                   24877869.2154
        36.0004         19.2504
  -1425245.42646  -1093069.72346  22620592.0394                   22620592.1214
        41.2504         37.5004
 25  6 30 21 33 30.0000000  0  9G10G27G18G32G02G23G24G28G08
   -224723.32048   -173485.82048  21012700.9844                   21012699.5554
        50.5004         51.7504
    767251.60547    594286.39547  21638325.7734                   21638324.7074
        47.5004         47.0004
   2394555.83247   1854368.11745  22674355.1954                   22674352.8524
        43.0004         30.7504
  -1818697.27748  -1394522.46948  20671418.3594                   20671416.4654
        50.5004         52.2504
  -2587135.83646  -1977911.68043  24626713.6024                   24626710.5084
        36.7504         20.7504
   1599944.27747   1237749.16445  21965974.2974                   21965971.6334
        44.5004         34.0004
    437677.28946    340271.97745  23277491.6334                   23277491.6374
        37.7504         32.7504
  -1968171.87145  -1236367.85542  24857893.6564                   24857897.9654
        35.0004         17.2504
  -1457104.31246  -1117894.82446  22614529.5784                   22614529.2274
        40.5004         38.0004
 25  6 30 21 34  0.0000000  0  9G10G27G18G32G02G23G24G28G08
   -228582.69948   -176493.11748  21011966.3754                   21011964.9774
        51.2504         51.7504
    798835.76248    618897.39547  21644335.7504                   21644335.1954
        48.2504         47.2504
   2469423.94547   1912706.83644  22688601.4924                   22688598.6644
        42.2504         29.0004
  -1861535.77748  -1427903.07848  20663266.4304                   20663264.4654
        50.5004         52.2504
  -2683714.96946  -2053168.03543  24608335.7194                   24608332.2624
        36.7504         20.5004
   1648414.87147   1275518.42645  21975198.0314                   21975194.8134
        44.5004         32.7504
    461182.92646    358588.05945  23281965.0234                   23281964.7384
        39.0004         33.5004
  -2073242.98046  -1318241.02043  24837898.8914                   24837903.4804
        36.0004         18.5004
  -1488436.08246  -1142309.18046  22608567.1884                   22608566.7814
        41.2504         37.5004
 25  6 30 21 34 30.0000000  0  9G10G27G18G32G02G23G24G28G08
   -232313.48048   -179400.21148  21011256.5084                   21011255.0904
        49.7504         51.7504
    830921.46947    643899.22347  21650441.8674                   21650440.5904
        47.5004         47.2504
   2544573.82847   1971265.12545  22702901.8834                   22702900.9104
        43.5004         31.0004
  -1903914.96948  -1460925.78948  20655201.8594                   20655200.0784
        50.7504         52.2504
  -2780303.69146  -2128431.88743  24589955.6724                   24589951.3714
        37.5004         20.2504
   1696958.26647   1313344.42245  21984435.8524                   21984432.4454
        43.7504         32.7504
    485258.19146    377348.02745  23286545.9224                   23286545.8794
        39.2504         33.7504
  -2178442.84446  -1400214.51643  24817879.3984                   24817884.2504
        36.5004         19.2504
  -1519246.54747  -1166317.31246  22602704.6254                   22602704.2274
        42.0004         37.0004
 25  6 30 21 35  0.0000000  0  9G10G27G18G32G02G23G24G28G08
   -235916.19948   -182207.52748  21010570.8204                   21010568.9414
        50.5004         51.5004
    863506.71148    669290.29747  21656642.8914                   21656641.6294
        48.5004         47.0004
   2620004.48847   2030042.19545  22717256.5314                   22717253.2974
        43.7504         30.0004
  -1945834.68448  -1493590.46548  20647224.8284                   20647222.9924
        50.7504         52.2504
  -2876900.61346  -2203702.14543  24571573.1254                   24571569.3754
        38.5004         21.0004
   1745574.09847   1351226.87145  21993686.8134                   21993684.2344
        43.7504         33.0004
    509902.39846    396551.30145  23291235.3984                   23291236.2034
        38.5004         34.2504
  -2283768.94146  -1482286.37943  24797837.1724                   24797841.5394
        36.5004         19.7504
  -1549535.35947  -1189918.96146  22596940.1564                   22596939.9734
        43.0004         38.0004
 25  6 30 21 35 30.0000000  0  9G10G27G18G32G02G23G24G28G08
   -239390.55148   -184914.79748  21009909.4224                   21009908.3364
        49.0004         51.5004
    896590.18048    695069.60547  21662938.2814                   21662936.8444
        48.0004         46.7504
   2695715.36347   2089037.62545  22731662.7344                   22731662.2194
        42.0004         30.5004
  -1987294.04348  -1525896.42648  20639335.4224                   20639333.8754
        50.7504         52.2504
  -2973503.60546  -2278977.12143  24553190.4454                   24553186.2274
        39.0004         20.5004
   1794262.75447   1389166.05945  22002951.7114                   22002949.8364
        45.0004         32.7504
    535115.45746    416197.81345  23296033.3674                   23296034.9344
        38.7504         34.7504
  -2389218.00846  -1564454.03543  24777769.7114                   24777774.8404
        37.5004         20.5004
  -1579301.47347  -1213113.29346  22591275.7664                   22591275.3914
        42.7504         37.5004
 25  6 30 21 36  0.0000000  0  9G10G27G18G32G02G23G24G28G08
   -242740.21948   -187524.91848  21009272.4694                   21009270.7814
        49.2504         51.7504
    930166.51647    721232.96547  21669327.2664                   21669326.4264
        47.7504         46.5004
   2771702.25447   2148248.10245  22746124.0554                   22746120.7814
        43.7504         30.2504
  -2028296.24248  -1557846.15248  20631532.9224                   20631530.8164
        50.5004         52.2504
  -3070114.27346  -2354258.07043  24534806.2114                   24534801.9144
        39.0004         20.7504
   1843020.71547   1427159.26645  22012229.9534                   22012227.3484
        43.5004         31.5004
    560893.28446    436284.40745  23300938.5314                   23300939.5234
        38.7504         33.5004
  -2494790.97346  -1646718.25443  24757679.8594                   24757684.6414
        37.7504         20.7504
  -1608547.78547  -1235902.58646  22585710.5864                   22585710.2734
        44.0004         38.2504
 25  6 30 21 36 30.0000000  0  9G10G27G18G32G02G23G24G28G08
   -245965.03148   -190037.74648  21008658.7114                   21008656.8404
        51.0004         51.7504
    964234.34447    747779.30547  21675810.0004                   21675808.8284
        46.7504         46.2504
   2847964.64847   2207673.28544  22760635.1564                   22760633.4494
        42.7504         29.5004
  -2068840.49648  -1589439.05148  20623817.4144                   20623816.0004
        50.2504         52.2504
  -3166730.98846  -2429543.75043  24516420.7584                   24516416.3874
        38.0004         21.7504
   1891848.24247   1465206.67645  22021521.7344                   22021518.1054
        44.0004         32.5004
    587235.67646    456810.91445  23305951.0704                   23305951.1954
        36.5004         32.0004
  -2600484.63746  -1729076.53143  24737566.2894                   24737571.7234
        37.0004         22.0004
  -1637273.46547  -1258286.20346  22580244.1334                   22580243.5824
        43.7504         38.5004
 25  6 30 21 37  0.0000000  0  9G10G27G18G32G02G23G24G28G08
   -249064.59848   -192452.98448  21008068.8204                   21008067.3794
        50.5004         51.0004
    998792.40647    774707.64147  21682386.4144                   21682385.5234
        46.7504         46.0004
   2924502.32447   2267312.94944  22775201.0314                   22775198.5824
        42.7504         29.7504
  -2108925.80948  -1620674.33248  20616189.5944                   20616187.5044
        50.0004         52.5004
  -3263351.27746  -2504832.20343  24498034.0784                   24498029.8324
        37.5004         21.5004
   1940745.97347   1503308.77045  22030826.8134                   22030824.3954
        44.7504         33.2504
    614142.60946    477777.33145  23311071.3444                   23311071.6844
        38.0004         33.2504
  -2706295.67646  -1811526.23043  24717431.4384                   24717435.6454
        39.0004         22.7504
  -1665477.27747  -1280263.16446  22574877.4384                   22574876.7274
        44.2504         39.5004
 25  6 30 21 37 30.0000000  0  9G10G27G18G32G02G23G24G28G08
   -252040.35948   -194771.74248  21007502.3444                   21007500.8524
        50.5004         51.5004
   1033837.48847    802015.48847  21689055.2584                   21689054.4384
        46.5004         46.0004
   3001313.03547   2327165.39844  22789816.6724                   22789814.0744
        42.5004         28.5004
  -2148553.27048  -1651552.83648  20608648.6174                   20608646.8014
        50.5004         52.5004
  -3359974.99646  -2580123.30543  24479647.2814                   24479643.7424
        36.0004         21.7504
   1989712.42247   1541464.43845  22040144.7814                   22040142.3954
        44.2504         32.2504
    641612.28946    499182.23445  23316299.2034                   23316299.7584
        38.2504         33.2504
  -2812222.58646  -1894066.26644  24697274.3524                   24697277.7624
        41.2504         26.2504
  -1693160.07847  -1301834.14846  22569609.6334                   22569609.1094
        43.0004         39.2504
 25  6 30 21 38  0.0000000  0  9G10G27G18G32G02G23G24G28G08
   -254892.81248   -196994.42648  21006959.6484                   21006958.1024
        52.0004         51.5004
   1069367.42247    829701.12947  21695816.1564                   21695815.3484
        47.5004         46.0004
   3078395.54747   2387229.59845  22804485.6254                   22804484.1604
        43.2504         31.0004
  -2187722.84848  -1682074.54748  20601194.5474                   20601193.2424
        50.5004         52.5004
  -3456600.45346  -2655415.75843  24461260.6724                   24461256.3524
        36.7504         22.0004
   2038747.34047   1579673.44545  22049475.7814                   22049473.0824
        43.7504         32.2504
    669643.57446    521024.76245  23321633.7664                   23321633.6914
        38.7504         33.2504
  -2918263.00846  -1976694.73844  24677095.0164                   24677098.2704
        41.5004         25.0004
  -1720321.74247  -1322999.07046  22564440.7194                   22564440.3554
        43.0004         39.2504
 25  6 30 21 38 30.0000000  0  9G10G27G18G32G02G23G24G28G08
   -257624.55148   -199123.03548  21006439.9534                   21006438.3714
        49.7504         51.5004
   1105377.92247    857761.23047  21702669.1644                   21702668.3444
        46.7504         46.0004
   3155746.67247   2447503.13744  22819205.3754                   22819202.7624
        43.0004         29.7504
  -2226436.62948  -1712241.08648  20593827.7974                   20593826.2234
        50.2504         52.5004
  -3553228.46946  -2730710.16843  24442871.8364                   24442868.9224
        36.5004         22.5004
   2087848.30147   1617933.91445  22058819.3594                   22058816.8484
        44.5004         33.5004
    698233.36746    543302.53145  23327074.2194                   23327074.2544
        40.0004         33.7504
  -3024416.52046  -2059411.38344  24656894.2734                   24656896.9924
        41.0004         24.5004
  -1746964.19147  -1343759.40646  22559370.7424                   22559370.4654
        43.0004         39.5004
 25  6 30 21 39  0.0000000  0  9G10G27G18G32G02G23G24G28G08
   -260236.77348   -201158.52348  21005942.9064                   21005941.2194
        49.5004         51.5004
   1141865.97347    886193.46147  21709612.4774                   21709611.4694
        47.0004         46.0004
   3233364.30547   2507984.35545  22833975.0864                   22833973.5944
        44.0004         30.7504
  -2264695.43048  -1742053.10548  20586547.2814                   20586545.3324
        50.0004         52.7504
  -3649858.34046  -2806006.07843  24424483.2424                   24424480.0944
        37.2504         22.5004
   2137014.13747   1656244.92645  22068175.1334                   22068172.2384
        45.0004         33.0004
    727380.01646    566014.19545  23332620.1884                   23332621.5864
        37.5004         33.7504
  -3130681.48046  -2142214.87144  24636672.3364                   24636675.3524
        41.7504         24.0004
  -1773088.04747  -1364115.64546  22554399.6094                   22554399.2274
        42.2504         39.2504
 25  6 30 21 39 30.0000000  0  9G10G27G18G32G02G23G24G28G08
   -262728.70348   -203100.27348  21005468.5394                   21005466.8834
        49.5004         51.2504
   1178830.52747    914996.99247  21716646.3984                   21716645.6884
        47.2504         46.0004
   3311248.52347   2568673.23845  22848796.4144                   22848795.0354
        43.5004         30.2504
  -2302498.08648  -1771509.68748  20579353.6334                   20579351.8324
        51.0004         52.7504
  -3746487.39846  -2881301.36343  24406096.1414                   24406092.2814
        39.5004         22.7504
   2186245.84447   1694607.28545  22077544.1094                   22077541.0124
        44.0004         33.2504
    757083.64146    589159.85945  23338273.1884                   23338273.1374
        37.5004         34.0004
  -3237054.14546  -2225102.25844  24616430.0234                   24616433.2974
        40.2504         24.5004
  -1798692.02047  -1384066.78946  22549527.5004                   22549527.1134
        43.2504         39.0004
 25  6 30 21 40  0.0000000  0  9G10G27G18G32G02G23G24G28G08
   -265103.21548   -204950.53548  21005016.8834                   21005015.1804
        50.5004         51.5004
   1216266.95747    944168.20747  21723770.6414                   21723769.3324
        47.0004         46.2504
   3389395.62147   2629567.05544  22863667.1484                   22863665.0004
        43.0004         28.5004
  -2339847.11348  -1800612.79748  20572246.4614                   20572244.4024
        50.2504         52.7504
  -3843116.67646  -2956596.85544  24387708.3984                   24387704.0434
        40.5004         25.0004
   2235540.54347   1733018.71945  22086924.6414                   22086921.6724
        44.2504         32.5004
    787340.71546    612736.78145  23344031.0314                   23344031.3164
        39.2504         34.2504
  -3343534.46946  -2308073.54343  24596167.4844                   24596170.7734
        39.0004         22.5004
  -1823778.47747  -1403614.67646  22544753.4144                   22544752.9884
        42.5004         39.7504
 25  6 30 21 40 30.0000000  0  9G10G27G18G32G02G23G24G28G08
   -267355.07048   -206705.21548  21004587.8444                   21004586.4264
        50.5004         51.5004
   1254178.61347    973709.73047  21730985.0164                   21730984.0784
        47.2504         46.2504
   3467810.10947   2690669.12945  22878588.4844                   22878588.1844
        43.0004         30.0004
  -2376736.91448  -1829358.07048  20565226.7274                   20565224.8954
        50.2504         52.7504
  -3939738.88746  -3031886.82044  24369321.4064                   24369317.4734
        41.0004         24.2504
   2284903.71547   1771483.51645  22096318.5084                   22096315.0474
        46.0004         33.0004
    818155.87946    636748.57845  23349894.8284                   23349894.9964
        40.5004         35.2504
  -3450114.27046  -2391122.33243  24575885.5234                   24575888.5864
        39.0004         21.5004
  -1848341.62547  -1422754.79746  22540079.5394                   22540079.0664
        43.2504         40.0004
 25  6 30 21 41  0.0000000  0  9G10G27G18G32G02G23G24G28G08
   -269486.85548   -208366.34048  21004182.3674                   21004180.9534
        50.0004         51.5004
   1292561.07447   1003618.12547  21738289.0704                   21738288.3444
        47.2504         46.2504
   3546488.50046   2751976.93844  22893559.8594                   22893558.7274
        41.0004         28.0004
  -2413169.71148  -1857747.23048  20558293.4144                   20558291.8554
        49.5004         52.7504
  -4036354.88746  -3107171.93044  24350935.7114                   24350932.3244
        41.7504         25.2504
   2334332.81347   1809999.66445  22105723.7584                   22105721.4414
        45.5004         32.5004
    849525.81346    661192.67245  23355863.5704                   23355865.1134
        40.2504         35.5004
  -3556793.21146  -2474248.38343  24555584.5234                   24555587.4344
        39.0004         21.7504
  -1872383.61747  -1441488.81646  22535504.6804                   22535503.9104
        44.0004         39.7504
 25  6 30 21 41 30.0000000  0  9G10G27G18G32G02G23G24G28G08
   -271500.10548   -209935.09448  21003799.2034                   21003797.6094
        49.0004         51.0004
   1331410.93047   1033890.70747  21745681.9774                   21745680.7734
        46.2504         46.2504
   3625428.53147   2813488.55944  22908582.9304                   22908581.4264
        43.2504         29.0004
  -2449146.78548  -1885781.27748  20551447.0864                   20551445.7734
        49.7504         52.5004
  -4132964.47746  -3182452.05544  24332551.5394                   24332547.8164
        41.0004         25.5004
   2383826.44947   1848566.12145  22115142.7034                   22115139.5704
        45.5004         32.5004
    881448.32446    686067.31645  23361939.2814                   23361939.5204
        40.2504         35.2504
  -3663569.81246  -2557450.50443  24535264.8984                   24535267.6724
        40.0004         22.0004
  -1895905.55947  -1459817.59446  22531028.1884                   22531028.3054
        43.7504         40.2504
 25  6 30 21 42  0.0000000  0  9G10G27G18G32G02G23G24G28G08
   -273389.31248   -211407.19148  21003439.8594                   21003437.9654
        50.7504         51.0004
   1370731.73447   1064530.27347  21753164.0554                   21753163.7664
        47.0004         46.0004
   3704634.75046   2875207.59444  22923655.0944                   22923653.1884
        41.7504         28.0004
  -2484662.33648  -1913455.69548  20544688.7664                   20544687.1724
        49.7504         52.5004
  -4229560.00046  -3257721.19144  24314169.2034                   24314166.3164
        39.7504         26.0004
   2433390.29747   1887187.26245  22124574.4694                   22124570.9304
        45.7504         32.5004
    913928.24246    711376.29346  23368120.0864                   23368119.9534
        41.5004         36.0004
  -3770435.69546  -2640722.23043  24514928.3444                   24514931.8954
        39.0004         22.0004
  -1918901.56247  -1477736.55146  22526651.7114                   22526651.7704
        44.7504         40.0004
 25  6 30 21 42 30.0000000  0  9G10G27G18G32G02G23G24G28G08
   -275158.30148   -212785.61748  21003103.4144                   21003101.6954
        48.7504         51.0004
   1410517.71547   1095532.30547  21760735.5084                   21760734.6214
        47.5004         46.0004
   3784102.46147   2937130.44144  22938778.3754                   22938775.6334
        43.0004         29.5004
  -2519719.97348  -1940773.30148  20538017.5314                   20538016.1214
        49.0004         52.7504
  -4326143.39546  -3332980.87544  24295790.3444                   24295787.3874
        39.5004         25.7504
   2483020.59447   1925860.19945  22134018.6024                   22134015.7384
        44.7504         33.2504
    946960.77747    737115.91045  23374405.4384                   23374405.3054
        42.5004         35.5004
  -3877391.73846  -2724064.21943  24494576.0394                   24494578.3404
        39.0004         20.0004
  -1941375.05147  -1495248.34046  22522375.7734                   22522375.3954
        45.7504         39.5004
 25  6 30 21 43  0.0000000  0  9G10G27G18G32G02G23G24G28G08
   1298614.29748   1013530.69948  21302582.2194                   21302580.1214
        50.5004         51.0004
   3026186.95747   2354495.32047  22068187.0314                   22068186.1724
        46.7504         46.2504
   5439249.48846   4226855.29344  23253740.6254                   23253740.9654
        41.7504         29.5004
   -978896.91848   -740131.92648  20831226.6024                   20831224.9024
        50.0004         52.7504
  -2847288.53546  -2180626.33244  24577207.3834                   24577203.8134
        39.7504         27.0004
   4108137.17647   3192184.77745  22443268.2274                   22443264.9414
        46.0004         33.0004
   2555965.39147   1990885.72346  23680589.2584                   23680588.7194
        42.7504         36.0004
  -2409010.11746  -1579870.38743  24773999.2034                   24774001.7734
        38.5004         20.5004
   -387903.62547   -284751.10946  22817991.1024                   22817990.8874
        45.5004         39.5004
 25  6 30 21 43 30.0000000  0  9G10G27G18G32G02G23G24G28G08
   1297086.24648   1012340.02348  21302291.4224                   21302289.9104
        49.5004         51.0004
   3066897.98847   2386218.17647  22075934.0004                   22075932.9844
        46.5004         45.5004
   5519238.04747   4289184.01644  23268962.8444                   23268960.7934
        43.0004         28.2504
  -1013037.49648   -766734.94548  20824729.8754                   20824727.9844
        50.0004         53.0004
  -2943841.91846  -2255862.61744  24558833.6254                   24558830.1054
        40.0004         25.2504
   4157901.34447   3230962.02745  22452738.3984                   22452735.2114
        45.0004         33.0004
   2590101.36747   2017485.16045  23687085.6024                   23687084.6094
        42.0004         34.7504
  -2516137.14146  -1663345.57843  24753613.5634                   24753616.3284
        38.2504         19.5004
   -409330.58247   -301447.41046  22813913.7194                   22813913.6294
        45.5004         39.0004
 25  6 30 21 44  0.0000000  0  9G10G27G18G32G02G23G24G28G08
   1295677.83248   1011242.56348  21302023.3054                   21302021.7074
        49.5004         51.0004
   3108067.60547   2418298.37147  22083768.3754                   22083767.8954
        46.2504         45.5004
   5599484.84046   4351713.87944  23284233.2274                   23284232.6054
        41.5004         29.2504
  -1046720.14148   -792981.13348  20818320.2664                   20818318.2194
        49.2504         52.7504
  -3040378.39546  -2331085.75044  24540463.5864                   24540460.0274
        40.5004         25.0004
   4207731.72747   3269790.87145  22462220.2894                   22462217.9224
        44.5004         32.7504
   2624786.95346   2044512.87145  23693685.3444                   23693686.2344
        40.7504         35.2504
  -2623346.12146  -1746884.69943  24733211.5474                   24733214.2504
        37.0004         18.2504
   -430234.69947   -317736.30546  22809935.9144                   22809936.0434
        46.0004         38.7504
 25  6 30 21 44 30.0000000  0  9G10G27G18G32G02G23G24G28G08
   1294390.46548   1010239.41848  21301778.3674                   21301776.8134
        49.0004         51.0004
   3149695.26247   2450735.47747  22091690.2194                   22091689.3164
        46.5004         45.7504
   5679990.28147   4414445.30144  23299553.7814                   23299551.7234
        42.0004         28.5004
  -1079943.29748   -818869.27748  20811997.6804                   20811995.8554
        50.0004         52.7504
  -3136894.46546  -2406292.97744  24522097.1954                   24522093.2234
        41.5004         25.5004
   4257629.87547   3308672.51645  22471715.4384                   22471712.5824
        44.0004         32.0004
   2660022.62546   2071969.20745  23700391.1804                   23700390.8714
        41.7504         34.5004
  -2730632.68746  -1830484.24243  24712795.3054                   24712797.8794
        37.5004         18.5004
   -450614.28147   -333616.47746  22806058.0234                   22806057.5354
        45.7504         38.2504
 25  6 30 21 45  0.0000000  0  9G10G27G18G32G02G23G24G28G08
   1293223.85248   1009330.37948  21301556.5474                   21301554.8674
        49.2504         51.0004
   3191778.57847   2483527.64147  22099698.3984                   22099697.5274
        46.5004         45.5004
   5760753.18846   4477377.37944  23314921.6024                   23314920.9884
        41.5004         28.0004
  -1112707.13348   -844399.51648  20805763.1254                   20805761.5084
        50.7504         53.0004
  -3233388.64846  -2481483.16444  24503734.3674                   24503730.6294
        40.7504         25.0004
   4307595.59447   3347606.80945  22481223.8594                   22481220.7934
        45.7504         32.2504
   2695807.12147   2099853.21545  23707200.2274                   23707199.6254
        42.2504         34.5004
  -2837994.14546  -1914142.15643  24692365.3834                   24692367.8364
        38.7504         20.7504
   -470469.41047   -349087.97346  22802279.4844                   22802279.2664
        45.7504         38.5004
 25  6 30 21 45 30.0000000  0  9G10G27G18G32G02G23G24G28G08
   1292174.67248   1008512.84448  21301356.9064                   21301355.2114
        49.7504         51.0004
   3234312.14147   2516670.66447  22107792.0004                   22107791.2074
        47.0004         45.5004
   5841769.22347   4540506.65645  23330339.5634                   23330337.7234
        42.5004         30.2504
  -1145014.84048   -869574.32448  20799615.2974                   20799613.2624
        50.5004         53.2504
  -3329862.35546  -2556657.40644  24485376.5164                   24485372.0664
        41.0004         24.5004
   4357625.77747   3386591.32845  22490743.9924                   22490741.0944
        44.7504         31.7504
   2732136.19146   2128161.55545  23714113.6254                   23714112.7624
        41.2504         34.0004
  -2945430.87546  -1997858.71143  24671920.3054                   24671922.1024
        38.2504         20.7504
   -489803.22347   -364153.26246  22798600.4614                   22798600.1024
        44.7504         38.0004
 25  6 30 21 46  0.0000000  0  9G10G27G18G32G02G23G24G28G08
   1291240.88348   1007785.22748  21301179.0474                   21301177.3014
        49.5004         51.0004
   3277291.86347   2550161.32047  22115971.2274                   22115970.2584
        46.7504         46.0004
   5923035.41446   4603830.89844  23345803.0314                   23345800.6644
        41.2504         27.0004
  -1176868.35948   -894395.23048  20793553.9844                   20793552.0274
        51.2504         53.7504
  -3426315.52746  -2631815.62543  24467021.7584                   24467017.7304
        40.5004         23.5004
   4407718.41847   3425624.53145  22500276.8834                   22500273.8754
        44.7504         32.0004
   2769006.82046   2156891.90245  23721129.8524                   23721128.9224
        41.5004         34.5004
  -3052941.93446  -2081633.21543  24651461.3134                   24651463.0864
        37.5004         19.2504
   -508617.55547   -378813.75846  22795019.8984                   22795020.0474
        43.7504         38.5004
 25  6 30 21 46 30.0000000  0  9G10G27G18G32G02G23G24G28G08
   1290425.84048   1007150.12948  21301024.1884                   21301022.0744
        50.7504         51.0004
   3320718.92247   2584000.56647  22124234.9924                   22124233.6764
        46.2504         45.5004
   6004553.99247   4667351.78945  23361316.7274                   23361313.9224
        43.5004         31.0004
  -1208264.34048   -918859.60248  20787579.3444                   20787577.4184
        50.7504         53.2504
  -3522743.28946  -2706954.05943  24448671.9774                   24448668.1604
        39.5004         22.7504
   4457876.96947   3464709.07445  22509821.4534                   22509818.5704
        44.2504         31.0004
   2806421.30546   2186046.01245  23728249.4844                   23728249.3984
        40.5004         35.2504
  -3160521.15646  -2165460.82443  24630988.8914                   24630990.7854
        36.2504         18.5004
   -526908.95747   -393066.78946  22791539.6414                   22791539.2194
        42.7504         38.7504
 25  6 30 21 47  0.0000000  0  9G10G27G18G32G02G23G24G28G08
   1289733.22348   1006610.44548  21300892.3594                   21300890.2344
        51.5004         51.2504
   3364594.80147   2618189.53947  22132584.3204                   22132583.3284
        47.2504         46.2504
   6086327.72746   4731071.48444  23376876.2734                   23376874.4384
        41.5004         27.0004
  -1239199.12548   -942964.60548  20781692.3524                   20781690.4694
        51.0004         53.0004
  -3619140.06846  -2782068.32444  24430327.4694                   24430324.0594
        39.7504         24.5004
   4508105.20747   3503847.93845  22519379.5704                   22519376.5904
        44.5004         31.7504
   2844382.17646   2215625.88745  23735473.5314                   23735473.6214
        41.7504         34.5004
  -3268161.94145  -2249336.36342  24610505.5004                   24610507.8714
        35.7504         17.7504
   -544673.71147   -406909.43746  22788158.8444                   22788158.6294
        43.5004         38.7504
 25  6 30 21 47 30.0000000  0  9G10G27G18G32G02G23G24G28G08
   1289158.21148   1006162.39148  21300782.7034                   21300781.0314
        50.0004         51.0004
   3408912.56647   2652722.83647  22141017.6094                   22141016.9804
        47.5004         46.0004
   6168350.72347   4794985.47744  23392485.9694                   23392483.7504
        43.5004         29.5004
  -1269677.44548   -966713.91448  20775892.3524                   20775890.3014
        50.7504         53.0004
  -3715508.32846  -2857160.37144  24411989.7664                   24411985.6764
        39.5004         24.5004
   4558398.49247   3543037.46945  22528949.7894                   22528947.0004
        44.0004         31.5004
   2882883.65646   2245627.01245  23742798.8674                   23742800.2274
        40.2504         33.5004
  -3375865.91446  -2333261.19943  24590009.8054                   24590011.9224
        38.0004         18.5004
   -561916.44147   -420345.32446  22784877.6334                   22784877.3324
        42.7504         38.5004
 25  6 30 21 48  0.0000000  0  9G10G27G18G32G02G23G24G28G08
   1288701.20348   1005806.28548  21300695.8364                   21300693.9534
        50.0004         51.2504
   3453670.37947   2687599.01647  22149534.6644                   22149534.2234
        46.0004         45.5004
   6250622.31346   4859093.08644  23408140.7894                   23408140.0434
        41.7504         29.0004
  -1299698.99248   -990107.30548  20770179.5554                   20770177.6644
        50.7504         53.0004
  -3811846.22746  -2932228.77744  24393657.0004                   24393653.2464
        40.0004         24.7504
   4608757.29347   3582278.07445  22538533.3284                   22538530.0204
        44.5004         31.2504
   2921924.98446   2276048.79345  23750228.2814                   23750229.0044
        39.5004         33.0004
  -3483629.86346  -2417232.81643  24569502.7584                   24569504.0744
        38.2504         19.7504
   -578636.83647   -433374.21546  22781695.8524                   22781695.1764
        42.5004         39.0004
 25  6 30 21 48 30.0000000  0  9G10G27G18G32G02G23G24G28G08
   1288357.89548   1005538.77348  21300630.4144                   21300628.3634
        50.2504         51.2504
   3498861.73447   2722813.04747  22158134.0234                   22158132.9844
        46.2504         45.0004
   6333137.07447   4923390.22344  23423844.1804                   23423842.2304
        43.2504         29.7504
  -1329268.10248  -1013148.14548  20764552.6724                   20764550.6294
        50.2504         53.0004
  -3908155.96146  -3007275.22344  24375329.9454                   24375325.7704
        40.5004         25.2504
   4659177.39147   3621566.42645  22548127.4454                   22548125.0354
        45.5004         31.5004
   2961500.69146   2306886.96145  23757759.4304                   23757759.6054
        39.0004         31.7504
  -3591455.14546  -2501252.14543  24548983.9304                   24548985.9884
        38.5004         20.0004
   -594839.09447   -445999.35546  22778613.0164                   22778612.4344
        42.2504         39.2504
 25  6 30 21 49  0.0000000  0  9G10G27G18G32G02G23G24G28G08
   1288133.60548   1005364.02048  21300587.8524                   21300585.7624
        50.5004         51.2504
   3544489.77347   2758367.32047  22166816.9534                   22166816.5554
        46.0004         45.2504
   6415899.33646   4987880.24244  23439591.5084                   23439591.1954
        41.2504         27.5004
  -1358379.44148  -1035832.27748  20759013.4064                   20759011.4024
        51.5004         53.2504
  -4004429.93746  -3082293.83244  24357009.3914                   24357005.6804
        41.0004         26.0004
   4709664.33647   3660906.86745  22557735.0944                   22557732.5984
        45.0004         31.0004
   3001614.91846   2338144.78545  23765392.9384                   23765393.0784
        40.7504         31.7504
  -3699333.44946  -2585312.80543  24528455.7034                   24528457.1564
        38.2504         22.5004
   -610517.91447   -458216.62146  22775629.2114                   22775628.7114
        43.7504         40.5004
 25  6 30 21 49 30.0000000  0  9G10G27G18G32G02G23G24G28G08
   1288024.00448   1005278.62148  21300566.9304                   21300564.8594
        49.2504         51.2504
   3590547.82447   2794256.68447  22175581.5634                   22175580.7464
        46.0004         45.2504
   6498903.64147   5052558.78944  23455388.3594                   23455386.3714
        43.7504         29.7504
  -1387037.52348  -1058163.23448  20753559.5634                   20753557.8204
        50.2504         53.2504
  -4100671.36346  -3157287.07844  24338695.4224                   24338691.0044
        40.5004         24.2504
   4760213.73847   3700295.99645  22567354.2504                   22567351.6254
        44.2504         30.7504
   3042262.09846   2369817.90245  23773128.3054                   23773128.2034
        40.7504         32.7504
  -3807266.31246  -2669415.94143  24507916.1334                   24507917.8364
        38.0004         20.5004
   -625677.76247   -470029.50046  22772744.4384                   22772743.6604
        43.5004         41.0004
 25  6 30 21 50  0.0000000  0  9G10G27G18G32G02G23G24G28G08
   1288033.91048   1005286.33648  21300569.0864                   21300567.1804
        49.0004         51.2504
   3637038.43447   2830483.09847  22184428.9614                   22184428.0234
        46.2504         45.5004
   6582153.55146   5117428.82844  23471229.4064                   23471228.1294
        41.5004         28.2504
  -1415237.66448  -1080137.34448  20748193.4694                   20748191.4924
        49.2504         53.2504
  -4196873.27746  -3232249.54744  24320388.9224                   24320385.5434
        41.5004         25.5004
   4810830.59447   3739737.67245  22576986.3674                   22576983.8244
        44.0004         31.0004
   3083445.78946   2401909.05145  23780965.0314                   23780966.1564
        40.5004         32.7504
  -3915245.80146  -2753555.45343  24487368.2424                   24487369.2424
        40.5004         22.0004
   -640313.85947   -481434.25446  22769958.8674                   22769959.2384
        44.2504         41.5004
 25  6 30 21 50 30.0000000  0  9G10G27G18G32G02G23G24G28G08
   1288161.07848   1005385.43048  21300592.6724                   21300590.9924
        49.5004         51.0004
   3683957.04747   2867043.04347  22193357.1484                   22193355.8244
        46.2504         45.7504
   6665645.87947   5182487.66444  23487118.4304                   23487116.6134
        43.2504         29.5004
  -1442982.23048  -1101756.45748  20742913.6564                   20742911.8914
        49.7504         53.0004
  -4293036.06246  -3307181.52744  24302089.8834                   24302085.0474
        41.2504         25.0004
   4861512.73047   3779230.20745  22586630.4304                   22586627.7074
        42.5004         30.2504
   3125162.57446   2434415.61745  23788904.2274                   23788904.6374
        41.5004         32.7504
  -4023271.27046  -2837730.83643  24466811.4064                   24466812.1454
        39.5004         22.7504
   -654428.56247   -492432.72347  22767273.4694                   22767273.2194
        44.2504         42.5004
 25  6 30 21 51  0.0000000  0  9G10G27G18G32G02G23G24G28G08
   1288404.01248   1005574.73448  21300639.1334                   21300637.4534
        49.7504         51.5004
   3731299.78947   2903933.45747  22202366.1254                   22202364.8834
        46.5004         45.2504
   6749377.87146   5247733.28944  23503051.2814                   23503049.8364
        39.2504         25.5004
  -1470272.94148  -1123021.92248  20737720.2734                   20737718.3594
        50.7504         53.0004
  -4389159.11746  -3382082.56244  24283798.4694                   24283793.5984
        41.5004         26.0004
   4912258.71947   3818772.50044  22596287.3754                   22596284.7544
        43.0004         29.5004
   3167409.52746   2467335.28545  23796943.1804                   23796943.1254
        40.7504         33.2504
  -4131341.27346  -2921940.90243  24446245.4844                   24446247.3094
        39.5004         22.2504
   -668023.52347   -503026.19547  22764686.2734                   22764685.6954
        44.5004         42.7504
 25  6 30 21 51 30.0000000  0  9G10G27G18G32G02G23G24G28G08
   1288763.65248   1005854.97748  21300708.1334                   21300705.9144
        50.5004         51.5004
   3779065.28947   2941153.31347  22211455.6484                   22211454.1054
        46.5004         45.0004
   6833349.34846   5313165.53944  23519031.0944                   23519029.1214
        40.2504         26.0004
  -1497109.01648  -1143933.12548  20732613.8134                   20732611.5354
        50.5004         53.0004
  -4485239.50846  -3456950.32844  24265514.7114                   24265510.4104
        41.2504         26.0004
   4963069.66047   3858365.40645  22605956.7274                   22605954.1954
        43.2504         30.5004
   3210186.27346   2500667.78945  23805083.4454                   23805083.0514
        41.0004         33.0004
  -4239451.94546  -3006182.64543  24425673.1414                   24425674.3984
        38.5004         21.0004
   -681097.94547   -513214.05947  22762197.7344                   22762197.9924
        45.0004         42.7504
 25  6 30 21 52  0.0000000  0  9G10G27G18G32G02G23G24G28G08
   1289238.40248   1006224.90648  21300797.8834                   21300796.0204
        49.5004         51.0004
   3827249.62147   2978699.49647  22220624.6254                   22220623.7304
        45.5004         44.5004
   6917557.47346   5378782.15644  23535055.3594                   23535054.3364
        41.0004         28.0004
  -1523492.25448  -1164491.46948  20727592.9774                   20727590.9104
        50.7504         53.0004
  -4581277.03146  -3531784.68044  24247238.9774                   24247235.1214
        41.0004         26.5004
   5013944.02747   3898007.73845  22615637.5234                   22615635.2584
        43.7504         30.5004
   3253489.93046   2534410.87545  23813324.2584                   23813323.1914
        40.0004         32.2504
  -4347601.91846  -3090455.01243  24405092.5944                   24405093.5274
        40.5004         20.5004
   -693653.63747   -522997.70347  22759808.3204                   22759808.2154
        45.7504         42.7504
 25  6 30 21 52 30.0000000  0  9G10G27G18G32G02G23G24G28G08
   1289830.52048   1006686.30548  21300910.6094                   21300908.7974
        50.5004         51.2504
   3875852.59047   3016571.92647  22229872.9304                   22229872.5594
        45.5004         44.7504
   7002003.39546   5444584.06344  23551124.2194                   23551123.9104
        39.7504         24.5004
  -1549420.64848  -1184695.39848  20722658.8524                   20722656.6884
        51.7504         53.0004
  -4677267.76246  -3606582.57444  24228972.1024                   24228968.5354
        40.5004         26.0004
   5064884.20347   3937701.35945  22625330.8284                   22625328.4964
        43.7504         30.5004
   3297321.34446   2568565.17645  23821664.7344                   23821665.0704
        39.7504         31.5004
  -4455785.92646  -3174753.93443  24384505.7974                   24384506.8834
        40.7504         22.5004
   -705688.59447   -532375.59047  22757518.4534                   22757518.5944
        46.0004         43.0004
 25  6 30 21 53  0.0000000  0  9G10G27G18G32G02G23G24G28G08
   1290535.87148   1007235.93048  21301044.8284                   21301043.4414
        49.7504         51.7504
   3924867.62147   3054765.41047  22239201.1884                   22239200.3754
        45.0004         44.2504
   7086681.57046   5510567.02344  23567239.0784                   23567237.7974
        41.2504         28.2504
  -1574898.65248  -1204548.36348  20717810.7114                   20717808.7034
        51.0004         53.0004
  -4773213.83646  -3681345.66044  24210714.4144                   24210710.8054
        40.7504         27.0004
   5115886.11747   3977443.06645  22635036.3284                   22635033.6564
        44.0004         30.7504
   3341674.91846   2603126.35545  23830105.6024                   23830106.0124
        40.5004         31.5004
  -4564005.21946  -3259080.38343  24363911.8984                   24363912.7704
        39.5004         22.0004
   -717207.21147   -541351.13347  22755326.6954                   22755326.4344
        45.0004         43.5004
 25  6 30 21 53 30.0000000  0  9G10G27G18G32G02G23G24G28G08
   1291358.87148   1007877.22748  21301201.4694                   21301199.9964
        50.5004         51.2504
   3974296.73447   3093281.57847  22248606.7584                   22248605.7114
        45.0004         44.0004
   7171595.37946   5576733.47344  23583396.5164                   23583396.2974
        38.2504         25.2504
  -1599922.12148  -1224047.15248  20713048.9534                   20713046.9064
        51.5004         53.0004
  -4869108.84446  -3756068.98844  24192466.3984                   24192462.3134
        40.7504         27.2504
   5166954.23847   4017236.38344  22644754.4064                   22644751.6174
        44.2504         29.7504
   3386553.59846   2638096.72345  23838645.4384                   23838645.4264
        40.2504         32.0004
  -4672252.46946  -3343428.57843  24343313.0474                   24343313.3634
        40.2504         22.5004
   -728205.39147   -549921.14147  22753234.1254                   22753233.5474
        44.5004         42.7504
 25  6 30 21 54  0.0000000  0  9G10G27G18G32G02G23G24G28G08
   1292296.38348   1008607.76248  21301379.7424                   21301377.8054
        50.5004         51.2504
   4024134.32847   3132116.02747  22258090.5164                   22258089.4344
        45.5004         44.0004
   7256740.30146   5643080.08244  23599600.4144                   23599598.0204
        41.5004         24.5004
  -1624494.48848  -1243194.43748  20708372.5944                   20708370.9804
        52.0004         53.0004
  -4964954.14546  -3830753.57044  24174227.4924                   24174223.1604
        40.0004         25.5004
   5218085.53547   4057078.93045  22654484.3754                   22654482.1484
        43.5004         30.0004
   3431952.81646   2673472.73045  23847284.1804                   23847283.8094
        39.2504         30.2504
  -4780527.75446  -3427798.65643  24322708.7584                   24322708.8164
        40.7504         22.7504
   -738686.56247   -558088.28947  22751239.7664                   22751239.3444
        44.5004         42.5004
 25  6 30 21 54 30.0000000  0  9G10G27G18G32G02G23G24G28G08
   1293347.21948   1009426.59848  21301580.0634                   21301577.9924
        50.7504         51.5004
   4074376.73847   3171265.93047  22267652.0314                   22267650.3134
        46.5004         44.0004
   7342113.89246   5709604.89144  23615845.0704                   23615844.2894
        38.7504         25.0004
  -1648617.32848  -1261991.43048  20703782.3914                   20703780.8554
        51.5004         53.2504
  -5060748.83646  -3905398.71144  24155997.7814                   24155993.6134
        39.0004         24.2504
   5269278.89847   4096969.85244  22664226.0944                   22664223.7584
        43.2504         29.7504
   3477869.88746   2709252.25045  23856021.9844                   23856021.3284
        38.7504         30.2504
  -4888829.36346  -3512189.26643  24302099.7034                   24302099.9184
        40.5004         23.7504
   -748652.27347   -565853.78147  22749342.9844                   22749343.0044
        45.5004         42.0004
 25  6 30 21 55  0.0000000  0  9G10G27G18G32G02G23G24G28G08
   1294511.84048   1010334.09448  21301801.4304                   21301799.6484
        50.5004         51.5004
   4125021.89847   3210729.66047  22277288.7274                   22277287.8554
        45.0004         44.0004
   7427715.48046   5776307.29344  23632135.7344                   23632134.8594
        40.5004         25.2504
  -1672290.51248  -1280438.04748  20699277.5164                   20699275.4414
        51.7504         53.2504
  -5156490.70746  -3980002.67644  24137778.9384                   24137774.1484
        39.0004         24.7504
   5320534.86747   4136909.52344  22673979.9534                   22673977.3674
        43.0004         29.7504
   3524303.66846   2745434.37545  23864857.7504                   23864857.7704
        38.5004         30.5004
  -4997153.96546  -3596597.75844  24281485.5784                   24281485.8874
        39.5004         24.5004
   -758102.47747   -573217.57846  22747544.3524                   22747544.4454
        44.0004         41.5004
 25  6 30 21 55 30.0000000  0  9G10G27G18G32G02G23G24G28G08
   1295792.26248   1011331.83248  21302044.9924                   21302043.4344
        50.7504         51.5004
   4176069.34447   3250506.88747  22287002.8984                   22287001.9844
        45.5004         44.2504
   7513545.57046   5843187.79743  23648468.6414                   23648467.1454
        40.2504         23.0004
  -1695512.41848  -1298533.02048  20694858.4694                   20694856.8054
        51.7504         53.5004
  -5252175.84846  -4054562.43444  24119571.2114                   24119566.4144
        39.5004         24.0004
   5371855.54347   4176899.62944  22683745.8834                   22683743.7034
        43.7504         29.0004
   3571254.69546   2782019.55145  23873792.3444                   23873792.6334
        39.0004         30.2504
  -5105496.53546  -3681020.26243  24260868.2734                   24260869.2194
        39.0004         23.0004
   -767035.56647   -580178.43046  22745844.1414                   22745844.7934
        45.7504         40.5004
 25  6 30 21 56  0.0000000  0  9G10G27G18G32G02G23G24G28G08
   1297185.99648   1012417.86748  21302310.0784                   21302308.6844
        50.0004         51.2504
   4227514.04747   3290593.62947  22296792.8674                   22296792.3754
        45.7504         44.2504
   7599600.53147   5910243.54344  23664844.7894                   23664842.5204
        42.0004         25.5004
  -1718285.98448  -1316278.64148  20690525.1884                   20690522.8714
        51.5004         53.5004
  -5347804.86346  -4129078.47344  24101372.7274                   24101368.4024
        41.0004         27.5004
   5423238.49247   4216938.26245  22693523.6254                   22693521.8674
        43.2504         30.0004
   3618718.84446   2819004.55145  23882825.5164                   23882824.4614
        38.7504         30.0004
  -5213856.64546  -3765456.41444  24240248.3364                   24240248.7114
        40.0004         26.0004
   -775454.47347   -586738.60946  22744242.9304                   22744242.5594
        44.5004         40.0004
 25  6 30 21 56 30.0000000  0  9G10G27G18G32G02G23G24G28G08
   1298695.14148   1013593.83248  21302597.5314                   21302595.6884
        51.2504         51.5004
   4279355.47347   3330989.52747  22306657.3444                   22306657.0744
        45.0004         44.0004
   7685880.97346   5977474.94944  23681263.2034                   23681262.2234
        41.2504         25.0004
  -1740609.54748  -1333673.60548  20686277.0944                   20686274.9844
        51.2504         53.5004
  -5443373.59446  -4203547.54344  24083186.9694                   24083182.4924
        40.7504         27.5004
   5474685.89847   4257027.12944  22703313.9844                   22703311.5164
        42.5004         29.0004
   3666696.55146   2856389.76245  23891954.5314                   23891953.8634
        38.7504         30.5004
  -5322229.19146  -3849902.29744  24219625.1024                   24219625.7154
        40.2504         25.5004
   -783357.53947   -592896.84046  22742738.7344                   22742738.6764
        44.2504         39.5004
 25  6 30 21 57  0.0000000  0  9G10G27G18G32G02G23G24G28G08
   1300317.18848   1014857.75848  21302906.2974                   21302904.4024
        51.5004         51.5004
   4331588.59847   3371690.62947  22316597.2504                   22316596.6724
        45.0004         44.5004
   7772383.16846   6044879.17643  23697723.2344                   23697721.5434
        40.7504         22.5004
  -1762486.05548  -1350720.21548  20682113.8754                   20682112.1294
        51.5004         53.2504
  -5538882.98846  -4277970.37144  24065011.9454                   24065008.0204
        41.7504         29.5004
   5526195.34446   4297164.31344  22713115.8524                   22713113.1214
        41.7504         28.5004
   3715183.76646   2894171.94545  23901181.9144                   23901181.5164
        37.0004         30.0004
  -5430613.84046  -3934357.58643  24198999.2194                   24199000.6024
        37.5004         21.7504
   -790747.83647   -598655.50846  22741332.5784                   22741332.4224
        43.7504         39.5004
 25  6 30 21 57 30.0000000  0  9G10G27G18G32G02G23G24G28G08
   1302055.31648   1016212.14848  21303236.9774                   21303235.2504
        50.2504         51.5004
   4384214.01247   3412697.42247  22326611.8444                   22326610.5084
        45.5004         43.5004
   7859108.95746   6112457.64544  23714227.7814                   23714226.3364
        41.5004         26.7504
  -1783912.82448  -1367416.37948  20678036.6024                   20678034.2304
        51.5004         53.2504
  -5634327.74646  -4352342.82844  24046849.5314                   24046845.2074
        41.2504         28.5004
   5577770.10247   4337352.40245  22722930.2424                   22722927.6214
        42.5004         30.0004
   3764181.88346   2932352.27345  23910505.4774                   23910506.2974
        38.2504         31.2504
  -5539004.37546  -4018817.48843  24178374.0234                   24178374.3014
        38.0004         21.7504
   -797622.68747   -604012.53146  22740024.7424                   22740024.1844
        43.7504         38.2504
 25  6 30 21 58  0.0000000  0  9G10G27G18G32G02G23G24G28G08
   1303906.98848   1017655.02048  21303589.2114                   21303587.6134
        50.5004         51.5004
   4437226.54747   3454005.84447  22336699.4064                   22336698.6374
        45.0004         44.0004
   7946054.37946   6180207.18844  23730772.8834                   23730772.2074
        41.7504         26.7504
  -1804892.88748  -1383764.44948  20674044.2114                   20674042.0274
        51.2504         53.2504
  -5729708.41846  -4426665.35944  24028699.4774                   24028694.7704
        40.5004         27.5004
   5629407.59847   4377589.37944  22732757.1724                   22732754.2774
        42.5004         29.7504
   3813686.70346   2970927.41845  23919924.8594                   23919927.3244
        37.5004         30.0004
  -5647400.40646  -4103281.75843  24157746.5164                   24157746.2814
        40.5004         22.2504
   -803985.20347   -608970.33646  22738813.0944                   22738813.0784
        42.2504         37.5004
 25  6 30 21 58 30.0000000  0  9G10G27G18G32G02G23G24G28G08
   1305874.38348   1019188.05948  21303963.6094                   21303961.7704
        51.0004         51.5004
   4490625.73047   3495615.55947  22346861.1804                   22346860.5434
        44.5004         44.0004
   8033220.16047   6248128.48444  23747360.0084                   23747358.7114
        42.0004         25.7504
  -1825424.63748  -1399763.19948  20670137.1094                   20670135.1094
        51.7504         53.2504
  -5825021.00446  -4500934.84844  24010561.8524                   24010557.0234
        40.2504         25.0004
   5681110.14147   4417877.03944  22742595.6884                   22742593.5984
        42.0004         28.7504
   3863698.68846   3009897.77344  23929442.1724                   23929443.8984
        36.7504         29.5004
  -5755796.81646  -4187746.27343  24137119.2114                   24137119.8404
        39.0004         22.5004
   -809833.85247   -613527.70746  22737700.6564                   22737700.5204
        43.2504         37.2504
 25  6 30 21 59  0.0000000  0  9G10G27G18G32G02G23G24G28G08
   1307957.39548   1020811.18048  21304359.9454                   21304358.3204
        50.2504         51.0004
   4544408.80947   3537524.42647  22357095.7034                   22357095.5744
        45.2504         44.5004
   8120604.89146   6316220.44144  23763988.5394                   23763987.3134
        41.7504         27.0004
  -1845508.69148  -1415413.09048  20666315.2504                   20666313.1024
        52.0004         53.2504
  -5920263.54346  -4575149.75844  23992437.8594                   23992433.1454
        41.5004         27.7504
   5732877.67247   4458215.33245  22752446.7584                   22752443.3914
        43.7504         30.2504
   3914216.01646   3049261.88744  23939055.9844                   23939056.5354
        36.7504         29.5004
  -5864190.80146  -4272208.85943  24116492.6024                   24116492.3954
        39.2504         22.7504
   -815169.33647   -617685.22346  22736685.5704                   22736685.7734
        42.5004         36.7504
 25  6 30 21 59 30.0000000  0  9G10G27G18G32G02G23G24G28G08
   1310154.50848   1022523.21948  21304778.0554                   21304776.3134
        50.2504         51.0004
   4598571.63347   3579729.18047  22367402.7194                   22367402.0124
        45.0004         44.5004
   8208205.60946   6384480.59844  23780658.3914                   23780657.6054
        41.0004         27.2504
  -1865147.18748  -1430715.79348  20662578.0394                   20662576.0354
        51.2504         53.5004
  -6015435.82046  -4649309.93444  23974326.5634                   23974322.3244
        41.0004         27.7504
   5784708.77047   4498603.17644  22762309.6954                   22762307.0704
        43.0004         29.7504
   3965235.28146   3089017.12145  23948764.7734                   23948764.8954
        39.0004         32.5004
  -5972580.88346  -4356668.44143  24095866.1564                   24095866.5944
        38.7504         22.5004
   -819993.78947   -621444.52346  22735767.0554                   22735767.4384
        42.0004         36.2504
 25  6 30 22  0  0.0000000  0  9G10G27G18G32G02G23G24G28G08
   1312472.75448   1024329.64548  21305219.6174                   21305218.2114
        51.5004         51.7504
   4653118.52347   3622233.21547  22377782.3754                   22377781.5314
        44.7504         44.2504
   8296027.84846   6452913.40244  23797370.5634                   23797369.5634
        41.5004         27.0004
  -1884333.65248  -1445666.27048  20658927.1884                   20658924.9264
        51.7504         53.2504
  -6110528.98047  -4723408.44144  23956231.0784                   23956226.3404
        42.0004         27.5004
   5836610.51647   4539046.07445  22772186.6024                   22772183.5434
        44.5004         30.0004
   4016761.75446   3129167.59445  23958569.6954                   23958570.6374
        39.2504         33.0004
  -6080957.11746  -4441117.24644  24075243.0704                   24075242.6374
        39.7504         25.0004
   -824300.91846   -624800.72345  22734946.9224                   22734947.4224
        40.7504         35.2504
 25  6 30 22  0 30.0000000  0  9G10G27G18G32G02G23G24G28G08
   1314912.72748   1026230.92648  21305683.7034                   21305681.5864
        50.5004         51.0004
   4708047.28147   3665034.79347  22388235.8524                   22388234.1954
        45.2504         44.0004
   8384070.78546   6521518.19544  23814125.0004                   23814123.1764
        40.2504         24.0004
  -1903068.19948  -1460264.59848  20655361.9384                   20655359.6604
        52.2504         53.5004
  -6205540.56246  -4797443.39844  23938151.1414                   23938146.5634
        41.5004         29.2504
   5888583.55947   4579544.50845  22782076.5864                   22782073.6214
        44.2504         30.5004
   4068794.21546   3169712.31645  23968472.1024                   23968472.7584
        38.7504         33.5004
  -6189316.00446  -4525552.49643  24054621.8594                   24054622.5204
        39.0004         22.7504
   -828090.84847   -627753.91045  22734226.1254                   22734226.0084
        42.0004         34.7504
 25  6 30 22  1  0.0000000  0  9G10G27G18G32G02G23G24G28G08
   1317472.71548   1028225.72748  21306170.8054                   21306168.6564
        50.5004         50.7504
   4763353.54347   3708130.54747  22398759.8984                   22398759.1094
        44.0004         44.0004
   8472331.25846   6590292.48044  23830920.6804                   23830919.6724
        41.2504         27.7504
  -1921353.15248  -1474512.59848  20651882.2584                   20651880.4574
        51.5004         53.2504
  -6300470.50846  -4871414.69144  23920085.9614                   23920082.2584
        41.0004         28.7504
   5940626.15247   4620097.14545  22791979.9304                   22791977.0434
        43.0004         30.0004
   4121328.98046   3210648.44545  23978468.7734                   23978470.1524
        39.0004         35.0004
  -6297656.35946  -4609973.28544  24034005.8754                   24034006.3204
        41.0004         25.0004
   -831366.02346   -630306.00045  22733602.9384                   22733602.2504
        40.7504         34.5004
 25  6 30 22  1 30.0000000  0  9G10G27G18G32G02G23G24G28G08
   1320155.76248   1030316.40248  21306681.5314                   21306679.7854
        51.5004         51.2504
   4819037.55947   3751520.65247  22409356.4144                   22409355.5004
        45.5004         44.2504
   8560810.77746   6659237.43444  23847757.2584                   23847756.7274
        41.2504         26.0004
  -1939186.14548  -1488408.41848  20648489.1254                   20648486.5744
        51.7504         53.2504
  -6395313.55546  -4945318.28944  23902038.0084                   23902033.9384
        40.5004         29.0004
   5992741.46147   4660706.45345  22801897.3524                   22801895.1684
        44.5004         30.7504
   4174367.29346   3251976.94945  23988561.8594                   23988562.4534
        40.5004         35.2504
  -6405972.09447  -4694374.92244  24013394.4144                   24013393.7504
        42.0004         25.5004
   -834124.18446   -632455.22345  22733077.5704                   22733077.5124
        41.0004         34.5004
 25  6 30 22  2  0.0000000  0  9G10G27G18G32G02G23G24G28G08
   1322963.49648   1032504.25848  21307215.6414                   21307214.0664
        51.0004         51.2504
   4875098.23847   3795204.26647  22420024.3984                   22420023.1804
        44.5004         43.7504
   8649509.55146   6728353.26644  23864636.4144                   23864635.2624
        40.2504         24.7504
  -1956566.23448  -1501951.33248  20645181.5554                   20645179.3404
        51.7504         53.5004
  -6490066.19546  -5019151.43444  23884007.5944                   23884003.0744
        41.2504         28.2504
   6044931.12947   4701373.69545  22811828.2814                   22811826.0234
        44.5004         30.2504
   4227908.78946   3293697.55945  23998750.4064                   23998750.3364
        41.0004         34.5004
  -6514258.73446  -4778753.93043  23992787.4534                   23992787.0944
        40.2504         22.7504
   -836364.53946   -634200.96545  22732651.6804                   22732650.9964
        41.0004         34.2504
 25  6 30 22  2 30.0000000  0  9G10G27G18G32G02G23G24G28G08
   1325893.77048   1034787.59448  21307772.9614                   21307771.3594
        50.7504         51.0004
   4931530.64547   3839177.53147  22430762.8284                   22430761.8714
        44.0004         43.7504
   8738423.82446   6797637.04744  23881555.8674                   23881555.6134
        40.0004         25.7504
  -1973496.30148  -1515143.57448  20641959.9614                   20641957.8014
        52.0004         53.5004
  -6584728.67246  -5092914.32845  23865993.8674                   23865989.1684
        41.7504         30.0004
   6097193.08647   4742097.26245  22821773.7974                   22821770.8014
        44.5004         30.7504
   4281949.51646   3335807.19945  24009034.0004                   24009034.1994
        39.5004         34.2504
  -6622515.43446  -4863109.59443  23972186.8364                   23972185.9654
        40.5004         23.0004
   -838090.02746   -635545.51645  22732323.7974                   22732322.5904
        40.7504         34.7504
 25  6 30 22  3  0.0000000  0  9G10G27G18G32G02G23G24G28G08
   1328947.08248   1037166.79748  21308354.3204                   21308352.0784
        50.7504         51.0004
   4988332.50047   3883438.68447  22441571.9924                   22441570.8524
        45.0004         43.7504
   8827552.63746   6867087.94544  23898516.5004                   23898516.4454
        39.2504         27.0004
  -1989976.56648  -1527985.31648  20638823.5704                   20638821.8594
        51.0004         53.5004
  -6679298.77047  -5166605.24645  23847998.0084                   23847993.5204
        42.5004         30.0004
   6149527.82047   4782877.54745  22831733.3834                   22831730.5554
        44.7504         31.2504
   4336487.95346   3378304.64545  24019411.9694                   24019412.4734
        40.2504         34.0004
  -6730738.81646  -4947439.32444  23951592.6884                   23951592.2624
        40.0004         25.0004
   -839301.05546   -636489.18745  22732093.2034                   22732092.1684
        41.0004         35.0004
 25  6 30 22  3 30.0000000  0  9G10G27G18G32G02G23G24G28G08
   1332126.80948   1039644.51248  21308959.2734                   21308957.4924
        51.2504         51.0004
   5045504.27747   3927988.08647  22452451.5784                   22452450.9574
        44.5004         43.7504
   8916897.81346   6936707.43844  23915518.9844                   23915518.5354
        40.0004         24.7504
  -2006004.45348  -1540474.56648  20635773.5084                   20635771.7544
        52.0004         53.5004
  -6773771.26246  -5240220.11745  23830020.5474                   23830015.3634
        41.7504         30.2504
   6201938.80147   4823717.23045  22841706.4304                   22841703.5234
        43.7504         31.0004
   4391525.36746   3421190.88345  24029885.2734                   24029886.5944
        39.0004         34.0004
  -6838922.64146  -5031738.18443  23931005.1414                   23931005.1954
        39.5004         22.7504
   -839995.11346   -637030.02345  22731961.1804                   22731960.5354
        41.7504         35.2504
 25  6 30 22  4  0.0000000  0  9G10G27G18G32G02G23G24G28G08
   1335433.58248   1042221.22748  21309588.3364                   21309586.8134
        51.2504         51.2504
   5103043.89847   3972824.12547  22463400.5554                   22463399.8054
        45.0004         43.2504
   9006458.45746   7006494.84444  23932561.0164                   23932560.7774
        39.0004         25.5004
  -2021580.10948  -1552611.42648  20632809.7974                   20632807.4384
        52.0004         53.5004
  -6868143.59846  -5313756.94144  23812061.7974                   23812056.5704
        41.5004         29.0004
   6254426.64847   4864616.81645  22851694.4384                   22851691.2034
        44.5004         31.0004
   4447060.48446   3464464.96545  24040453.5474                   24040454.4144
        40.5004         34.5004
  -6947063.25446  -5116003.39143  23910426.5314                   23910426.1214
        39.0004         22.5004
   -840172.53547   -637168.27345  22731927.1254                   22731927.1174
        42.0004         35.5004
 25  6 30 22  4 30.0000000  0  9G10G27G18G32G02G23G24G28G08
   1338866.68848   1044896.37548  21310241.7664                   21310239.7464
        50.7504         51.0004
   5160947.73447   4017943.95347  22474419.5164                   22474418.4104
        45.5004         43.0004
   9096232.21546   7076448.32444  23949644.8444                   23949644.0004
        38.0004         24.2504
  -2036705.07848  -1564397.09848  20629931.2114                   20629929.4494
        51.7504         53.5004
  -6962414.42646  -5387214.66044  23794121.6414                   23794117.8324
        40.7504         28.2504
   6306990.65647   4905575.73045  22861697.4064                   22861694.8094
        45.0004         31.0004
   4503090.47746   3508124.64145  24051115.2814                   24051116.0314
        41.7504         35.0004
  -7055158.46146  -5200233.24644  23889856.9224                   23889856.3324
        39.7504         26.7504
   -839835.00047   -636905.27345  22731991.4844                   22731990.9454
        42.5004         35.5004
 25  6 30 22  5  0.0000000  0  9G10G27G18G32G02G23G24G28G08
   1342421.33648   1047666.23848  21310917.9924                   21310916.2074
        51.5004         50.5004
   5219208.12147   4063341.60247  22485505.6414                   22485505.1914
        44.7504         42.5004
   9186212.82846   7146562.96544  23966767.5234                   23966767.4924
        39.0004         26.5004
  -2051384.89548  -1575835.89548  20627138.0084                   20627135.8674
        51.5004         53.5004
  -7056586.46146  -5460595.37944  23776200.9304                   23776197.4144
        40.5004         27.5004
   6359626.13347   4946590.36345  22871713.3834                   22871711.0434
        45.0004         30.5004
   4559608.55946   3552164.66046  24061870.4534                   24061871.0204
        40.7504         36.0004
  -7163210.16846  -5284429.14844  23869295.2424                   23869295.3714
        39.0004         24.2504
   -838988.19947   -636245.44146  22732152.9304                   22732152.3674
        42.0004         36.0004
 25  6 30 22  5 30.0000000  0  9G10G27G18G32G02G23G24G28G08
   1346099.20748   1050532.11348  21311618.2034                   21311616.6804
        50.5004         51.0004
   5277823.87947   4109016.17647  22496660.1644                   22496660.1134
        43.7504         42.7504
   9276400.17646   7216838.69944  23983930.2344                   23983930.1454
        38.5004         24.0004
  -2065618.87148  -1586927.28948  20624429.4384                   20624427.1604
        51.0004         53.5004
  -7150656.40646  -5533896.54344  23758300.2424                   23758296.9104
        41.2504         28.5004
   6412334.70347   4987661.93845  22881743.6094                   22881740.9924
        45.2504         31.2504
   4616614.22746   3596584.59845  24072718.5944                   24072719.2194
        40.7504         35.2504
  -7271213.74646  -5368587.59444  23848742.9384                   23848742.6094
        40.0004         25.0004
   -837631.57846   -635188.34845  22732411.0634                   22732410.3754
        41.5004         35.7504
 25  6 30 22  6  0.0000000  0  9G10G27G18G32G02G23G24G28G08
   1349902.67648   1053495.85948  21312341.7974                   21312340.1604
        51.0004         51.0004
   5336794.50847   4154967.27747  22507882.0864                   22507881.8244
        45.0004         43.2504
   9366795.28946   7287276.34043  24001130.6564                   24001130.9574
        38.0004         22.0004
  -2079405.41448  -1597670.04348  20621806.0944                   20621803.6564
        51.7504         53.5004
  -7244620.13747  -5607114.97344  23740420.3754                   23740415.7774
        42.5004         29.5004
   6465118.83647   5028792.37545  22891788.2814                   22891785.0634
        45.0004         30.2504
   4674107.84846   3641384.77345  24083659.5394                   24083659.6134
        39.5004         35.0004
  -7379163.88746  -5452704.41044  23828200.7274                   23828199.7154
        41.2504         24.5004
   -835763.70346   -633732.85946  22732766.0784                   22732765.8954
        41.5004         36.2504
 25  6 30 22  6 30.0000000  0  9G10G27G18G32G02G23G24G28G08
   1353829.70748   1056555.89548  21313088.8134                   21313087.4144
        50.7504         51.0004
   5396114.99247   4201191.00447  22519170.3204                   22519169.5664
        44.7504         43.7504
   9457394.32046   7357872.89144  24018372.4144                   24018371.4264
        39.5004         25.5004
  -2092747.46548  -1608066.43048  20619266.8364                   20619264.9264
        52.0004         53.5004
  -7338477.73847  -5680250.69144  23722559.8594                   23722555.3674
        43.0004         29.0004
   6517976.43447   5069980.07444  22901846.4774                   22901843.4104
        44.2504         29.7504
   4732085.12146   3686561.80945  24094692.5394                   24094693.0594
        38.2504         34.0004
  -7487059.80546  -5536778.96144  23807667.4924                   23807667.3014
        39.5004         24.0004
   -833387.76646   -631881.47346  22733217.9614                   22733218.2464
        41.5004         37.2504
 25  6 30 22  7  0.0000000  0  9G10G27G18G32G02G23G24G28G08
   1357880.40648   1059712.28948  21313859.9694                   21313858.4144
        51.0004         51.0004
   5455782.52747   4247685.16447  22530524.4454                   22530524.2774
        45.0004         43.2504
   9548195.70346   7428627.07844  24035651.1174                   24035650.8444
        39.5004         25.2504
  -2105645.85248  -1618117.11348  20616812.4694                   20616810.0864
        50.0004         53.5004
  -7432227.14547  -5753302.10945  23704719.5234                   23704714.8404
        43.2504         30.0004
   6570907.67247   5111225.16445  22911919.0004                   22911916.4264
        45.0004         30.0004
   4790544.14146   3732114.22745  24105816.2584                   24105817.1254
        38.5004         31.5004
  -7594898.44546  -5620808.88344  23787147.8754                   23787146.8594
        41.0004         24.7504
   -830504.70346   -629634.93746  22733766.7734                   22733766.9734
        41.2504         36.2504
 25  6 30 22  7 30.0000000  0  9G10G27G18G32G02G23G24G28G08
   1362057.03148   1062966.79348  21314654.6174                   21314652.6724
        50.7504         50.7504
   5515796.43047   4294449.21147  22541945.0784                   22541944.7504
        45.5004         43.2504
   9639200.09446   7499539.48843  24052969.0784                   24052967.0204
        39.7504         21.5004
  -2118099.31248  -1627821.09448  20614442.6334                   20614440.6214
        51.5004         53.5004
  -7525864.06247  -5826265.89844  23686900.9454                   23686896.3674
        42.2504         29.0004
   6623914.82847   5152529.40244  22922005.9304                   22922003.4064
        43.5004         29.7504
   4849484.87946   3778041.98445  24117032.4614                   24117032.9024
        37.5004         31.5004
  -7702674.58646  -5704790.14144  23766638.0084                   23766637.0394
        41.0004         24.7504
   -827113.46146   -626992.41846  22734412.2114                   22734412.4304
        41.7504         36.2504
 25  6 30 22  8  0.0000000  0  9G10G27G18G32G02G23G24G28G08
   1366356.92248   1066317.35948  21315472.7114                   21315471.4964
        50.0004         50.7504
   5576151.11347   4341478.79347  22553430.2194                   22553429.4694
        45.0004         42.5004
   9730403.13346   7570606.70744  24070323.9454                   24070323.0124
        40.5004         25.0004
  -2130111.42248  -1637181.16048  20612156.7584                   20612154.5784
        51.0004         53.5004
  -7619389.43047  -5899142.73044  23669103.5944                   23669098.6524
        42.7504         28.7504
   6676995.23847   5193890.71544  22932107.0164                   22932104.3794
        43.7504         29.7504
   4908902.48046   3824341.36745  24128339.3134                   24128339.1054
        38.2504         30.2504
  -7810388.01246  -5788722.47744  23746140.1094                   23746139.7074
        40.5004         24.7504
   -823217.75846   -623956.80546  22735153.6724                   22735153.6054
        40.5004         37.0004
 25  6 30 22  8 30.0000000  0  9G10G27G18G32G02G23G24G28G08
   1370778.80148   1069762.99248  21316314.2734                   21316312.8874
        49.7504         50.7504
   5636842.30947   4388770.59447  22564979.3674                   22564978.9614
        45.2504         42.0004
   9821801.89546   7641826.39544  24087716.9534                   24087717.0164
        39.7504         25.0004
  -2141684.44948  -1646199.09448  20609954.3444                   20609952.6334
        51.2504         53.7504
  -7712802.57847  -5971932.14144  23651327.6724                   23651322.7504
        42.7504         28.7504
   6730147.63347   5235308.13344  22942220.8444                   22942218.5594
        42.7504         29.0004
   4968793.36346   3871009.54744  24139737.1024                   24139736.2424
        38.5004         29.7504
  -7918037.07846  -5872604.69144  23725654.9614                   23725655.1094
        41.7504         27.0004
   -818820.10246   -620530.07446  22735990.6024                   22735990.8204
        41.0004         37.0004
 25  6 30 22  9  0.0000000  0  9G10G27G18G32G02G23G24G28G08
   1375325.58248   1073305.93848  21317179.3284                   21317177.7074
        50.0004         50.7504
   5697869.89847   4436324.52347  22576592.6484                   22576591.8284
        44.0004         42.0004
   9913397.62546   7713199.53143  24105147.7974                   24105147.1914
        39.5004         23.0004
  -2152816.50448  -1654873.40648  20607836.1174                   20607834.1254
        51.7504         53.7504
  -7806098.61347  -6044630.29745  23633574.1804                   23633568.6334
        44.5004         30.0004
   6783374.90646   5276783.87544  22952349.7974                   22952348.3014
        41.7504         29.2504
   5029158.17346   3918047.01145  24151224.2974                   24151224.3014
        38.5004         32.0004
  -8025616.00446  -5956432.23844  23705183.5084                   23705182.8714
        41.5004         27.0004
   -813918.83646   -616710.91446  22736923.0234                   22736923.1374
        41.2504         36.2504
 25  6 30 22  9 30.0000000  0  9G10G27G18G32G02G23G24G28G08
   1379996.30548   1076945.45748  21318068.2894                   21318066.3594
        50.0004         50.5004
   5759229.96947   4484137.53146  22588269.7274                   22588268.3204
        44.2504         41.7504
  10005187.59446   7784724.04743  24122614.4694                   24122613.7704
        40.7504         23.2504
  -2163509.56648  -1663205.64848  20605801.1484                   20605799.3874
        51.7504         53.7504
  -7899276.74247  -6117236.58245  23615842.7194                   23615838.2274
        45.0004         31.7504
   6836676.12546   5318317.25444  22962492.8204                   22962490.8554
        41.5004         28.5004
   5089993.78146   3965451.32045  24162800.2424                   24162800.9774
        37.0004         30.2504
  -8133122.81247  -6040203.66044  23684725.7504                   23684724.9494
        42.0004         26.0004
   -808516.19547   -612501.07445  22737951.2974                   22737951.1844
        42.0004         35.2504
 25  6 30 22 10  0.0000000  0  9G10G27G18G32G02G23G24G28G08
   1384791.73848   1080682.16048  21318980.8834                   21318979.3984
        50.0004         51.0004
   5820920.20747   4532207.82046  22600008.4774                   22600007.4344
        44.0004         41.5004
  10097170.83646   7856399.23843  24140118.8594                   24140116.7424
        41.5004         22.7504
  -2173763.89548  -1671196.02049  20603849.5634                   20603847.8164
        51.5004         54.0004
  -7992334.32447  -6189748.91045  23598134.6954                   23598130.0744
        44.5004         30.2504
   6890052.00846   5359908.81344  22972649.9694                   22972647.7114
        40.5004         27.7504
   5151298.58246   4013221.24244  24174465.7734                   24174465.1644
        36.5004         29.2504
  -8240553.91847  -6123916.02044  23664282.0784                   23664281.6804
        42.5004         27.5004
   -802612.57847   -607900.86346  22739074.6334                   22739074.9614
        42.5004         36.2504
 25  6 30 22 10 30.0000000  0  9G10G27G18G32G02G23G24G28G08
   1389712.92648   1084516.85548  21319917.4694                   21319915.7664
        51.0004         51.0004
   5882938.63347   4580533.84846  22611810.1484                   22611809.6134
        44.0004         41.5004
  10189346.67646   7928224.44143  24157658.9224                   24157657.7114
        41.2504         22.5004
  -2183579.56248  -1678844.58248  20601982.1564                   20601980.0314
        50.2504         53.7504
  -8085268.56247  -6262165.12544  23580449.5314                   23580444.7274
        44.0004         29.2504
   6943503.59846   5401559.33644  22982821.0634                   22982818.7034
        41.2504         28.5004
   5213071.29746   4061355.76644  24186220.9454                   24186220.1524
        36.0004         28.0004
  -8347905.36746  -6207566.34444  23643854.1724                   23643853.5044
        41.5004         27.7504
   -796208.34447   -602910.55946  22740293.1414                   22740293.2464
        42.0004         36.5004
 25  6 30 22 11  0.0000000  0  9G10G27G18G32G02G23G24G28G08
   1394758.90648   1088448.78148  21320877.5634                   21320875.6334
        50.5004         51.0004
   5945281.29747   4629112.50846  22623673.5314                   22623672.7974
        43.7504         41.0004
  10281712.44146   8000197.64143  24175235.3984                   24175235.2194
        40.7504         22.5004
  -2192958.60548  -1686152.91448  20600197.5084                   20600195.0744
        50.7504         53.7504
  -8178078.26647  -6334484.30944  23562788.4694                   23562783.5634
        43.0004         29.0004
   6997029.92247   5443268.11344  22993007.1484                   22993004.5594
        42.0004         28.2504
   5275308.64546   4109852.31644  24198064.1094                   24198063.9184
        36.0004         28.5004
  -8455175.09447  -6291153.00444  23623440.9924                   23623439.6484
        42.7504         27.5004
   -789305.70347   -597531.88746  22741606.9614                   22741606.9304
        42.2504         36.2504
 25  6 30 22 11 30.0000000  0  9G10G27G18G32G02G23G24G28G08
   1399930.32048   1092478.45748  21321861.4774                   21321859.6054
        50.5004         50.5004
   6007945.74247   4677941.90246  22635598.0314                   22635597.5474
        44.0004         41.0004
  10374266.96546   8072317.93043  24192848.5394                   24192848.7424
        40.7504         22.0004
  -2201901.46548  -1693121.36349  20598495.4534                   20598493.5904
        50.7504         54.0004
  -8270761.31647  -6406704.79744  23545151.2734                   23545146.4024
        43.5004         27.7504
   7050631.65646   5485035.64144  23003207.8054                   23003205.1214
        41.2504         27.5004
   5338008.79345   4158709.48044  24209995.4534                   24209996.7584
        32.5004         27.0004
  -8562359.71146  -6374673.33644  23603043.8204                   23603043.7154
        41.7504         25.5004
   -781905.44147   -591765.45745  22743015.4384                   22743015.1294
        42.0004         35.5004
 25  6 30 22 12  0.0000000  0  9G10G27G18G32G02G23G24G28G08
   1405230.21948   1096608.25048  21322870.1334                   21322868.6414
        50.2504         51.0004
   6070931.89147   4727021.96546  22647584.1724                   22647583.3134
        44.2504         41.5004
  10467011.44146   8144586.26643  24210496.8594                   24210496.9534
        38.5004         22.7504
  -2210406.32448  -1699748.52048  20596877.1804                   20596875.1724
        51.0004         53.7504
  -8363312.33247  -6478822.42244  23527539.6254                   23527534.2114
        44.2504         29.7504
   7104311.68446   5526864.17644  23013422.2274                   23013420.2504
        40.5004         28.0004
   5401172.46945   4207927.82844  24222016.1414                   24222016.6604
        35.0004         28.0004
  -8669453.29347  -6458122.69144  23582665.0314                   23582664.1334
        42.7504         27.0004
   -774005.86347   -585609.95345  22744517.8364                   22744518.1374
        42.2504         35.2504
 25  6 30 22 12 30.0000000  0  9G10G27G18G32G02G23G24G28G08
   1410653.71148   1100834.34448  21323902.4774                   21323900.5594
        50.2504         51.0004
   6134231.82047   4776346.55147  22659629.5234                   22659629.1254
        43.7504         42.5004
  10559939.28546   8216997.44543  24228181.1414                   24228180.5394
        39.0004         21.5004
  -2218479.15248  -1706039.02048  20595340.7344                   20595338.7894
        51.2504         53.7504
  -8455734.52047  -6550839.67644  23509952.2034                   23509946.5864
        43.5004         28.5004
   7158065.18846   5568749.98444  23023651.4454                   23023649.2934
        41.5004         27.2504
   5464792.20746   4257501.59844  24234123.1724                   24234123.3244
        37.5004         27.5004
  -8776457.71947  -6541502.62944  23562302.5704                   23562301.7234
        42.5004         27.5004
   -765613.33647   -579070.33245  22746115.5234                   22746115.2894
        42.7504         35.7504
 25  6 30 22 13  0.0000000  0  9G10G27G18G32G02G23G24G28G08
   1416205.09848   1105160.10248  21324958.5784                   21324957.1214
        49.7504         50.7504
   6197846.71547   4825916.55947  22671735.1174                   22671734.6884
        43.2504         42.2504
  10653053.04346   8289553.49643  24245899.7114                   24245899.0204
        39.0004         21.0004
  -2226116.82048  -1711990.43449  20593887.4774                   20593885.4694
        50.5004         54.0004
  -8548021.57847  -6622751.63745  23492390.4614                   23492385.3204
        44.0004         30.0004
   7211896.47347   5610696.37944  23033895.0314                   23033893.1564
        42.0004         26.7504
   5528870.04346   4307432.37944  24246316.1414                   24246314.2154
        38.7504         27.5004
  -8883365.97346  -6624807.57844  23541957.6254                   23541956.6294
        41.5004         25.5004
   -756724.92247   -572144.29745  22747806.6884                   22747806.4734
        42.5004         35.7504
 25  6 30 22 13 30.0000000  0  9G10G27G18G32G02G23G24G28G08
   1421880.81348   1109582.73448  21326038.7114                   21326037.1294
        50.5004         51.0004
   6261769.88347   4875726.78547  22683899.5554                   22683899.0704
        44.0004         42.0004
  10746347.13746   8362250.07843  24263653.6174                   24263652.5744
        40.2504         23.0004
  -2233324.11348  -1717606.49249  20592516.2274                   20592513.9184
        50.5004         54.0004
  -8640175.27747  -6694559.65244  23474854.1024                   23474849.2424
        43.7504         29.7504
   7265801.91046   5652700.54744  23044153.2664                   23044150.9414
        41.5004         28.0004
   5593399.98046   4357715.41444  24258595.6094                   24258595.1294
        38.5004         28.5004
  -8990178.60247  -6708038.08644  23521632.8444                   23521630.6564
        43.0004         25.7504
   -747345.69146   -564835.81645  22749591.7274                   22749591.5634
        41.5004         35.5004
 25  6 30 22 14  0.0000000  0  9G10G27G18G32G02G23G24G28G08
   1427684.78948   1114105.30548  21327143.2344                   21327141.3134
        50.2504         51.0004
   6326002.14547   4925777.85546  22696122.2114                   22696122.0514
        43.5004         41.7504
  10839823.83246   8435088.93843  24281441.3444                   24281441.2504
        37.7504         22.5004
  -2240098.33648  -1722885.09849  20591226.9064                   20591224.9924
        51.7504         54.0004
  -8732189.76647  -6766259.17244  23457343.3674                   23457339.6254
        43.0004         29.7504
   7319785.30946   5694765.49644  23054425.6484                   23054423.0474
        41.5004         27.2504
   5658383.35946   4408351.77744  24270962.1334                   24270962.7504
        39.5004         29.2504
  -9096888.89147  -6791188.81244  23501326.0704                   23501324.5204
        43.2504         27.0004
   -737473.24247   -557143.00845  22751470.4224                   22751470.2034
        42.2504         35.5004
 25  6 30 22 14 30.0000000  0  9G10G27G18G32G02G23G24G28G08
   1433618.79348   1118729.19548  21328272.2974                   21328270.4884
        50.5004         51.0004
   6390542.07447   4976068.66446  22708404.1094                   22708403.2544
        43.7504         41.2504
  10933483.01646   8508069.93843  24299263.6024                   24299264.7074
        37.5004         22.5004
  -2246438.93448  -1727825.81249  20590020.5394                   20590018.4224
        51.0004         54.0004
  -8824061.75047  -6837847.66045  23439861.5314                   23439856.6414
        43.5004         30.0004
   7373848.54747   5736892.63744  23064713.8594                   23064710.8754
        42.2504         25.7504
   5723819.50846   4459340.93045  24283413.3524                   24283415.6134
        40.0004         30.2504
  -9203492.19946  -6874256.18044  23481039.9224                   23481038.5434
        41.5004         27.5004
   -727107.25047   -549065.63345  22753443.2664                   22753443.0554
        43.0004         35.7504
 25  6 30 22 15  0.0000000  0  9G10G27G18G32G02G23G24G28G08
   1439678.89148   1123451.35248  21329425.6024                   21329424.0944
        50.0004         50.7504
   6455382.62147   5026593.69946  22720742.7734                   22720742.4104
        43.2504         41.7504
  11027318.83246   8581188.63343  24317120.8834                   24317120.5004
        38.2504         22.2504
  -2252351.10948  -1732432.68749  20588895.4384                   20588892.9964
        52.0004         54.0004
  -8915793.05947  -6909326.53545  23422406.0084                   23422400.8714
        43.5004         31.0004
   7427987.56647   5779078.84444  23075016.4304                   23075014.2194
        42.5004         27.5004
   5789701.87546   4510677.77744  24295950.8054                   24295953.4844
        40.5004         29.0004
  -9309989.60546  -6957241.02044  23460774.3524                   23460772.9844
        41.2504         25.5004
   -716253.25047   -540607.97746  22755508.4384                   22755508.2734
        42.5004         36.2504
 25  6 30 22 15 30.0000000  0  9G10G27G18G32G02G23G24G28G08
   1445868.36348   1128274.32048  21330603.3914                   21330601.7734
        50.0004         50.7504
   6520523.91447   5077353.09847  22733139.0004                   22733138.5664
        44.0004         42.0004
  11121332.73046   8654446.10943  24335010.7974                   24335010.7704
        36.7504         22.0004
  -2257832.85548  -1736704.17248  20587852.1564                   20587849.7504
        50.0004         53.7504
  -9007378.48847  -6980691.75845  23404977.1884                   23404972.4184
        43.7504         30.0004
   7482205.65247   5821326.65244  23085333.5944                   23085330.8594
        42.2504         26.5004
   5856031.26646   4562362.94544  24308571.7274                   24308573.5704
        38.0004         29.0004
  -9416374.93046  -7040138.52744  23440528.9774                   23440528.8244
        40.7504         27.5004
   -704909.55147   -531768.74246  22757667.0474                   22757666.8634
        43.2504         36.2504
 25  6 30 22 16  0.0000000  0  9G10G27G18G32G02G23G24G28G08
   1452181.12548   1133193.35248  21331804.7814                   21331803.0394
        50.5004         51.0004
   6585956.59447   5128339.56647  22745590.3284                   22745590.4454
        44.5004         42.0004
  11215516.73445   8727836.08243  24352933.0164                   24352933.2074
        35.5004         20.7504
  -2262891.57848  -1740646.02348  20586889.3984                   20586887.5234
        50.0004         53.5004
  -9098822.38747  -7051946.68744  23387575.6954                   23387570.7234
        43.2504         29.7504
   7536496.57846   5863631.24244  23095665.1254                   23095661.5904
        41.5004         26.7504
   5922799.02745   4614389.71544  24321278.3054                   24321278.9454
        35.0004         29.2504
  -9522651.52746  -7122951.25444  23420305.3204                   23420304.3554
        41.0004         26.2504
   -693083.89547   -522553.96946  22759917.6484                   22759916.8364
        43.0004         36.7504
 25  6 30 22 16 30.0000000  0  9G10G27G18G32G02G23G24G28G08
   1458606.19148   1138199.89848  21333027.3134                   21333025.8094
        50.2504         50.7504
   6651666.58647   5179542.12147  22758094.3284                   22758094.3524
        44.2504         42.0004
  11309857.96946   8801348.56643  24370885.3444                   24370885.8444
        36.7504         21.5004
  -2267539.50848  -1744267.77748  20586004.6884                   20586002.6294
        50.7504         53.5004
  -9190133.76647  -7123098.37144  23370199.6804                   23370194.8364
        42.2504         29.0004
   7590849.30947   5905983.96944  23106008.0704                   23106005.0744
        42.0004         25.7504
   5989991.69546   4666747.57045  24334064.3834                   24334066.8054
        38.5004         30.0004
  -9628827.30947  -7205685.50444  23400102.0944                   23400099.6294
        43.5004         28.0004
   -680788.80147   -512973.39546  22762257.2814                   22762256.6684
        43.5004         36.7504
 25  6 30 22 17  0.0000000  0  9G10G27G18G32G02G23G24G28G08
   1465141.71948   1143292.52048  21334271.0084                   21334269.3164
        50.2504         51.0004
   6717648.78147   5230956.76647  22770650.3834                   22770650.8164
        44.0004         42.0004
  11404352.60546   8874980.61343  24388868.1884                   24388867.3014
        37.2504         20.0004
  -2271779.90648  -1747571.97348  20585197.6254                   20585195.5784
        51.5004         53.5004
  -9281312.44147  -7194146.63744  23352849.0864                   23352843.5274
        42.5004         28.7504
   7645262.05147   5948383.46144  23116362.6024                   23116360.5664
        42.0004         27.5004
   6057604.60546   4719432.91445  24346931.0864                   24346932.9614
        38.0004         31.2504
  -9734901.47347  -7288340.54744  23379915.2424                   23379913.9024
        42.2504         26.2504
   -668027.83247   -503029.80946  22764685.3754                   22764685.7194
        43.5004         37.5004
 25  6 30 22 17 30.0000000  0  9G10G27G18G32G02G23G24G28G08
   1471793.01248   1148475.34848  21335536.9614                   21335535.2034
        50.7504         51.0004
   6783905.29347   5282585.16446  22783259.3054                   22783258.2194
        44.7504         41.0004
  11499004.14846   8948734.95343  24406880.4064                   24406879.1954
        37.0004         22.7504
  -2275608.75048  -1750555.48049  20584469.5004                   20584467.2384
        50.5004         54.0004
  -9372351.45747  -7265086.07044  23335524.6484                   23335519.8444
        42.5004         29.0004
   7699739.98447   5990833.77744  23126729.4534                   23126727.5664
        42.0004         27.5004
   6125640.53946   4772447.86745  24359877.0164                   24359879.3794
        36.7504         30.0004
  -9840865.80147  -7370909.99244  23359750.5944                   23359749.4884
        42.5004         26.0004
   -654797.38347   -492720.39146  22767203.0634                   22767203.4024
        44.2504         38.0004
 25  6 30 22 18  0.0000000  0  9G10G27G18G32G02G23G24G28G08
   1478564.74648   1153752.02048  21336825.2894                   21336823.7544
        50.0004         50.5004
   6850437.56347   5334428.44146  22795919.6334                   22795919.0704
        44.0004         40.7504
  11593815.26646   9022613.57443  24424922.7584                   24424921.8364
        39.5004         23.5004
  -2279022.82048  -1753215.78549  20583819.8754                   20583817.7304
        51.2504         54.0004
  -9463244.13747  -7335911.45744  23318228.5864                   23318223.9804
        42.5004         29.5004
   7754287.72747   6033338.45744  23137109.1094                   23137106.6174
        42.0004         27.5004
   6194101.55546   4825794.04745  24372905.1174                   24372906.6254
        37.0004         31.0004
  -9946712.75447  -7453387.99244  23339609.5704                   23339607.4454
        42.7504         27.2504
   -641094.46147   -482042.80546  22769810.8284                   22769811.0944
        44.5004         38.7504
 25  6 30 22 18 30.0000000  0  9G10G27G18G32G02G23G24G28G08
   1485459.44148   1159124.50848  21338137.6334                   21338135.7304
        50.2504         50.5004
   6917244.86747   5386486.04346  22808632.2734                   22808632.0004
        44.2504         41.5004
  11688786.48846   9096617.00844  24442995.2194                   24442994.6134
        41.5004         27.5004
  -2282020.93748  -1755551.98048  20583249.2194                   20583247.2194
        51.2504         53.7504
  -9553986.28147  -7406619.55544  23300961.0864                   23300955.7774
        43.2504         29.7504
   7808907.68447   6075899.42644  23147502.9924                   23147500.1214
        42.0004         28.0004
   6262987.43446   4879471.28545  24386014.3364                   24386014.9144
        38.0004         32.0004
 -10052437.02347  -7535770.39844  23319490.2034                   23319488.7704
        42.5004         28.2504
   -626918.29747   -470996.46546  22772508.3134                   22772508.5784
        44.5004         39.0004
 25  6 30 22 19  0.0000000  0  9G10G27G18G32G02G23G24G28G08
   1492483.25848   1164597.60548  21339473.6724                   21339472.2464
        50.0004         50.5004
   6984330.12147   5438760.21547  22821398.8364                   22821397.8444
        44.2504         42.0004
  11783922.03947   9170748.47744  24461098.3674                   24461099.2664
        42.0004         28.7504
  -2284598.38748  -1757560.37148  20582758.6644                   20582756.7194
        50.5004         53.7504
  -9644569.90647  -7477204.14145  23283723.4534                   23283718.0634
        42.7504         30.0004
   7863605.96546   6118521.41444  23157912.1804                   23157909.9304
        41.5004         28.0004
   6332301.65646   4933482.30145  24399204.4384                   24399204.3364
        39.7504         31.2504
 -10158029.62147  -7618050.20344  23299396.7344                   23299394.4614
        43.2504         28.2504
   -612264.49647   -459577.94146  22775296.8134                   22775297.1254
        44.7504         39.5004
 25  6 30 22 19 30.0000000  0  9G10G27G18G32G02G23G24G28G08
   1499635.84848   1170171.05948  21340835.0314                   21340833.3094
        50.5004         50.5004
   7051689.73447   5491248.17647  22834216.9384                   22834216.5394
        45.0004         42.0004
  11879219.62946   9245006.18444  24479233.3754                   24479234.1414
        40.2504         27.0004
  -2286756.88348  -1759242.30548  20582348.2584                   20582345.9574
        49.5004         53.5004
  -9734993.50447  -7547664.03144  23266516.2034                   23266510.5314
        43.5004         29.0004
   7918382.14547   6161204.10944  23168335.2034                   23168332.9844
        42.0004         27.2504
   6402041.27046   4987824.82445  24412475.3524                   24412475.7274
        38.5004         31.5004
 -10263487.96947  -7700225.39844  23279328.5314                   23279327.4144
        43.5004         29.7504
   -597135.18747   -447788.88746  22778176.0234                   22778175.8954
        44.2504         40.0004
 25  6 30 22 20  0.0000000  0 10G10G27G31G18G32G02G23G24G28G08
   1506914.91448   1175843.05148  21342220.5314                   21342218.6684
        49.7504         50.7504
   7119318.09047   5543945.54746  22847085.5634                   22847086.0984
        43.5004         41.5004
   1357111.80556   1115790.16055  25130656.1094                   25130659.5434
        38.0004         30.0004
  11974675.01246   9319386.82844  24497397.8444                   24497398.7274
        38.5004         24.0004
  -2288500.23448  -1760600.75848  20582016.0394                   20582013.8554
        50.5004         53.5004
  -9825257.24647  -7617999.37545  23249339.4774                   23249334.1174
        44.0004         30.5004
   7973233.81347   6203945.61744  23178773.3054                   23178770.6024
        42.0004         27.7504
   6472201.14146   5042494.81345  24425826.3054                   24425826.6644
        37.7504         31.2504
 -10368811.62147  -7782295.61744  23259286.1024                   23259284.8134
        43.5004         28.5004
   -581534.56247   -435632.56246  22781144.4614                   22781144.3954
        44.7504         40.7504
 25  6 30 22 20 30.0000000  0 10G10G27G31G18G32G02G23G24G28G08
   1514320.25048   1181613.44548  21343629.3834                   21343627.4534
        50.5004         50.7504
   7187211.74647   5596849.63746  22860005.4304                   22860005.5084
        43.2504         41.0004
   1238689.27746   1023513.32844  25108120.2034                   25108123.8794
        37.0004         28.5004
  12070285.95746   9393888.69143  24515591.9614                   24515591.2304
        37.7504         23.0004
  -2289830.05548  -1761636.97348  20581763.2194                   20581760.5234
        51.2504         53.5004
  -9915359.88747  -7688209.18045  23232194.1484                   23232188.3404
        44.0004         31.0004
   8028160.78547   6246745.82444  23189225.9534                   23189222.9414
        43.0004         28.0004
   6542778.48046   5097490.08645  24439256.9384                   24439258.0944
        38.2504         30.7504
 -10473997.93447  -7864258.86744  23239269.8444                   23239268.2304
        43.2504         29.2504
   -565464.54747   -423110.49646  22784202.6414                   22784202.6334
        46.2504         41.2504
 25  6 30 22 21  0.0000000  0 10G10G27G31G18G32G02G23G24G28G08
   1521850.92248   1187481.50048  21345062.5084                   21345060.7234
        50.2504         50.5004
   7255366.47747   5649957.16046  22872974.9384                   22872974.8554
        43.5004         40.7504
   1120118.01646    931120.62144  25085556.3834                   25085560.2154
        39.0004         27.5004
  12166049.54346   9468509.48843  24533815.2344                   24533814.9344
        39.5004         22.5004
  -2290748.79748  -1762352.87548  20581588.1414                   20581585.6914
        51.5004         53.5004
 -10005300.18447  -7758292.47745  23215079.2584                   23215073.4264
        44.5004         31.0004
   8083161.93847   6289603.80144  23199692.3524                   23199689.9184
        43.0004         28.7504
   6613769.49646   5152807.69945  24452765.5944                   24452767.3594
        38.0004         30.2504
 -10579045.07447  -7946113.64545  23219279.7424                   23219278.1484
        43.7504         30.0004
   -548928.04747   -410224.92646  22787349.3364                   22787349.5004
        45.2504         41.7504
 25  6 30 22 21 30.0000000  0 10G10G27G31G18G32G02G23G24G28G08
   1529511.98848   1193451.15248  21346520.3914                   21346518.7704
        50.5004         50.5004
   7323784.02747   5703269.48046  22885994.8914                   22885994.2384
        44.0004         41.5004
   1001405.38546    838617.76244  25062965.8284                   25062969.2854
        38.0004         29.7504
  12261968.69146   9543251.55543  24552068.2664                   24552067.0704
        39.5004         22.0004
  -2291252.93748  -1762745.71148  20581492.6884                   20581489.9734
        51.0004         53.5004
 -10095071.49247  -7828244.07845  23197995.8914                   23197990.7344
        45.5004         32.5004
   8138242.25847   6332523.47744  23210173.6334                   23210172.0164
        43.7504         28.7504
   6685176.46546   5208449.44945  24466354.6644                   24466355.0394
        37.0004         30.0004
 -10683945.16847  -8027853.84444  23199317.5634                   23199316.1454
        43.0004         29.0004
   -531921.85247   -396973.36747  22790584.6484                   22790585.2344
        44.7504         42.2504
 25  6 30 22 22  0.0000000  0 10G10G27G31G18G32G02G23G24G28G08
   1537309.13348   1199526.85248  21348004.1334                   21348003.0824
        50.0004         50.5004
   7392466.66047   5756788.34846  22899064.6254                   22899064.7234
        43.0004         41.5004
    882559.56646    746011.10244  25040349.8134                   25040353.2344
        38.7504         29.0004
  12358047.16846   9618117.73043  24570352.1564                   24570351.1914
        39.2504         20.2504
  -2291338.29748  -1762812.21548  20581476.2974                   20581473.7384
        51.7504         53.5004
 -10184666.00447  -7898057.92645  23180946.6414                   23180941.4304
        46.2504         33.7504
   8193407.31347   6375509.18444  23220671.7344                   23220669.7424
        42.2504         28.2504
   6757002.35246   5264417.64844  24480022.4694                   24480022.8524
        37.5004         29.2504
 -10788689.71547  -8109472.84044  23179385.1954                   23179383.2274
        43.2504         28.0004
   -514442.27747   -383352.95347  22793911.9694                   22793912.0514
        45.2504         42.2504
 25  6 30 22 22 30.0000000  0 10G10G27G31G18G32G02G23G24G28G08
   1545237.34448   1205704.68048  21349512.7114                   21349510.8594
        50.5004         50.5004
   7461406.18047   5810507.40246  22912183.0394                   22912182.9964
        42.5004         40.7504
    763577.69946    653298.41445  25017708.1724                   25017710.7344
        40.5004         30.0004
  12454277.89846   9693102.60943  24588663.8754                   24588664.6914
        39.5004         20.2504
  -2291011.40648  -1762557.49248  20581538.3524                   20581536.0434
        52.5004         53.5004
 -10274087.16047  -7967736.70345  23163930.5084                   23163925.3404
        46.2504         33.5004
   8248651.98846   6418556.94144  23231183.8914                   23231181.8244
        41.7504         28.5004
   6829239.30946   5320706.11345  24493768.5784                   24493770.4884
        37.0004         30.0004
 -10893280.90647  -8190972.36744  23159482.8914                   23159479.9144
        42.5004         28.5004
   -496496.20347   -369369.02747  22797326.7734                   22797326.8484
        45.0004         42.5004
 25  6 30 22 23  0.0000000  0 10G10G27G31G18G32G02G23G24G28G08
   1553297.93848   1211985.64548  21351046.6484                   21351044.7894
        50.0004         50.5004
   7530600.47747   5864424.97746  22925350.5004                   22925350.4534
        42.5004         40.5004
    644463.59846    560482.70345  24995041.2734                   24995044.0164
        40.7504         31.2504
  12550660.10546   9768205.52743  24607003.7974                   24607004.6254
        39.0004         20.0004
  -2290272.52348  -1761981.73048  20581678.9064                   20581677.0124
        51.2504         53.5004
 -10363331.68447  -8037277.84045  23146947.3134                   23146942.6024
        46.5004         34.0004
   8303977.51647   6461667.68844  23241711.9924                   23241710.0594
        43.0004         28.2504
   6901885.81646   5377313.66444  24507593.6174                   24507595.1644
        37.5004         28.7504
 -10997714.72347  -8272349.22344  23139609.2034                   23139607.6764
        43.0004         29.5004
   -478084.34847   -355022.14547  22800830.3914                   22800830.4024
        45.7504         42.5004
 25  6 30 22 23 30.0000000  0 10G10G27G31G18G32G02G23G24G28G08
   1561492.09848   1218370.71148  21352605.9774                   21352604.8554
        50.0004         50.5004
   7600047.47347   5918539.47346  22938565.8674                   22938565.5984
        43.2504         40.7504
    525220.30546    467566.30945  24972349.7664                   24972352.1254
        39.7504         31.5004
  12647192.96146   9843425.82843  24625374.4064                   24625373.7344
        39.0004         21.0004
  -2289122.05948  -1761085.26648  20581897.9454                   20581895.6884
        51.0004         53.5004
 -10452396.81247  -8106679.19945  23129999.1414                   23129993.9734
        46.2504         33.5004
   8359384.96946   6504842.27344  23252255.8444                   23252253.6954
        41.5004         28.2504
   6974940.14146   5434239.06645  24521495.4694                   24521496.1954
        38.0004         30.0004
 -11101987.09447  -8353600.27744  23119766.3284                   23119763.7854
        42.5004         26.5004
   -459207.45747   -340312.90247  22804422.7194                   22804422.4574
        45.5004         42.2504
 25  6 30 22 24  0.0000000  0 10G10G27G31G18G32G02G23G24G28G08
   1569823.53948   1224862.75848  21354191.8054                   21354189.5904
        50.5004         50.7504
   7669747.50847   5972851.11746  22951829.7274                   22951828.7934
        44.0004         40.7504
    405853.91446    374554.01645  24949635.1414                   24949637.0394
        37.7504         30.2504
  12743878.03946   9918764.66443  24643773.4844                   24643773.3204
        39.2504         21.5004
  -2287557.85248  -1759866.39148  20582195.3134                   20582193.3014
        52.0004         53.5004
 -10541276.51647  -8175936.04745  23113085.6804                   23113081.0164
        45.7504         33.7504
   8414877.89846   6548083.47744  23262815.6174                   23262813.5664
        41.7504         27.0004
   7048403.15246   5491482.94145  24535473.9144                   24535476.6914
        38.0004         31.0004
 -11206091.54347  -8434720.53544  23099956.5394                   23099953.5474
        43.2504         29.7504
   -439863.84447   -325239.97347  22808104.2424                   22808103.8984
        44.0004         42.0004
 25  6 30 22 24 30.0000000  0 10G10G27G31G18G32G02G23G24G28G08
   1578288.37948   1231458.72748  21355802.2274                   21355800.1254
        50.0004         50.2504
   7739693.23447   6027354.22346  22965140.0864                   22965139.4694
        43.0004         40.0004
    286362.70346    281444.48045  24926896.5554                   24926898.2734
        36.5004         30.7504
  12840709.34846   9994217.47343  24662199.2974                   24662200.5554
        36.5004         21.0004
  -2285585.44148  -1758329.44548  20582570.8134                   20582568.6174
        51.5004         53.5004
 -10629973.24647  -8245050.34045  23096207.2424                   23096202.0514
        45.5004         33.2504
   8470452.35247   6591388.16444  23273390.8674                   23273389.3834
        42.7504         28.0004
   7122268.17645   5549040.00044  24549530.7664                   24549532.1724
        35.5004         28.5004
 -11310029.24247  -8515710.82044  23080177.4694                   23080175.6174
        43.0004         29.5004
   -420059.52347   -309808.04746  22811872.8134                   22811872.3524
        44.5004         41.7504
 25  6 30 22 25  0.0000000  0 10G10G27G31G18G32G02G23G24G28G08
   1586886.58648   1238158.63348  21357438.1174                   21357436.4534
        50.2504         50.2504
   7809881.41047   6082046.26646  22978496.2504                   22978496.2734
        43.0004         40.0004
    166749.13346    188239.57044  24904133.4924                   24904135.9304
        37.5004         29.5004
  12937685.01645  10069782.71943  24680652.8754                   24680654.6914
        34.2504         20.0004
  -2283206.40648  -1756475.64148  20583023.5004                   20583021.3404
        51.5004         53.5004
 -10718485.03947  -8314020.52345  23079363.8674                   23079359.0354
        45.7504         33.2504
   8526108.16047   6634756.25444  23283982.0784                   23283980.3284
        42.0004         27.0004
   7196532.15645   5606907.94544  24563662.6804                   24563663.2304
        32.5004         26.0004
 -11413797.34847  -8596568.96944  23060430.5084                   23060429.1644
        43.7504         29.0004
   -399796.50447   -294018.70346  22815728.4454                   22815728.0824
        43.5004         41.5004
 25  6 30 22 25 30.0000000  0 10G10G27G31G18G32G02G23G24G28G08
   1595620.85248   1244964.56648  21359100.3834                   21359098.9304
        50.5004         50.7504
   7880311.26247   6136926.59446  22991899.1644                   22991898.8794
        42.5004         39.7504
     47018.00046     94943.03545  24881349.5084                   24881351.3364
        37.5004         30.5004
  13034805.38745  10145460.63742  24699133.6174                   24699135.6644
        32.0004         17.7504
  -2280419.73048  -1754304.19548  20583553.6884                   20583551.6174
        52.0004         53.5004
 -10806807.34047  -8382843.03945  23062556.5084                   23062551.8164
        45.2504         33.2504
   8581847.87146   6678189.73444  23294589.1334                   23294587.8404
        41.5004         26.7504
   7271195.15645   5665086.79744  24577872.5314                   24577872.2274
        34.0004         26.5004
 -11517390.44147  -8677290.75045  23040717.4844                   23040716.0984
        43.5004         30.2504
   -379074.22746   -277871.48446  22819671.6644                   22819671.9654
        41.7504         40.0004
 25  6 30 22 26  0.0000000  0 10G10G27G31G18G32G02G23G24G28G08
   1604493.10948   1251878.00448  21360788.8284                   21360787.1954
        49.7504         50.5004
   7950981.33647   6191994.12146  23005346.6484                   23005345.8954
        42.5004         39.2504
    -72826.30946      1558.32444  24858542.9924                   24858545.5434
        37.2504         29.5004
  13132070.28556  10221251.27752  24717644.1174                   24717644.2344
        36.5004         17.2504
  -2277225.20348  -1751814.94548  20584161.9144                   20584159.2154
        52.0004         53.5004
 -10894936.52747  -8451515.06645  23045786.3204                   23045781.4774
        44.0004         33.2504
   8637673.25446   6721689.95744  23305212.9694                   23305211.0234
        41.7504         26.7504
   7346255.84045   5723575.56644  24592154.1884                   24592155.9224
        35.5004         27.2504
 -11620803.89847  -8757872.55544  23021038.1334                   23021036.7814
        42.7504         29.0004
   -357892.87947   -261366.53946  22823702.3054                   22823702.7814
        42.5004         39.7504
 25  6 30 22 26 30.0000000  0 10G10G27G31G18G32G02G23G24G28G08
   1613504.86748   1258900.15248  21362503.1884                   21362501.7734
        49.0004         50.0004
   8021889.74647   6247247.35246  23018839.9844                   23018839.7584
        42.2504         39.2504
   -192779.94146    -91911.62145  24835716.1484                   24835718.0314
        38.0004         31.2504
  13229479.02046  10297154.07843  24736180.1804                   24736180.3674
        38.7504         18.2504
  -2273622.93448  -1749007.98048  20584847.3674                   20584845.0084
        51.5004         53.5004
 -10982869.05947  -8520033.86345  23029052.6954                   23029047.8014
        44.0004         32.0004
   8693585.71546   6765258.02044  23315851.9384                   23315850.3834
        41.5004         27.2504
   7421713.00045   5782373.28544  24606512.2584                   24606514.9024
        35.7504         27.5004
 -11724033.34447  -8838310.96145  23001394.7504                   23001393.0394
        43.0004         30.5004
   -336253.10946   -244504.39846  22827820.3134                   22827820.3054
        41.5004         38.7504
 25  6 30 22 27  0.0000000  0 10G10G27G31G18G32G02G23G24G28G08
   1622653.71948   1266029.12948  21364244.6094                   21364242.9734
        49.5004         50.5004
   8093030.73447   6302681.80946  23032377.8284                   23032378.0314
        42.0004         39.5004
   -312843.23446   -185467.04344  24812868.4454                   24812871.0984
        37.5004         29.7504
  13327027.11746  10373165.47343  24754743.0634                   24754743.3754
        39.0004         18.2504
  -2269617.00848  -1745886.47348  20585609.6414                   20585607.2504
        51.2504         53.5004
 -11070605.85247  -8588400.12945  23012357.4924                   23012351.7034
        43.0004         31.7504
   8749582.68846   6808891.97344  23326508.4144                   23326506.6374
        39.5004         27.0004
   7497561.16046   5841475.67644  24620947.6024                   24620948.7274
        38.2504         28.0004
 -11827078.49247  -8918605.79344  22981785.1414                   22981783.7664
        42.7504         29.2504
   -314159.49646   -227288.58646  22832024.4224                   22832024.4384
        41.0004         38.7504
 25  6 30 22 27 30.0000000  0 10G10G27G31G18G32G02G23G24G28G08
   1631941.78148   1273266.57848  21366011.8984                   21366010.5704
        49.7504         50.2504
   8164402.88346   6358296.40646  23045959.7734                   23045960.1094
        41.5004         40.2504
   -433011.61346   -279104.34044  24790000.9694                   24790003.4264
        37.5004         28.5004
  13424714.56346  10449285.41443  24773332.1954                   24773333.1174
        37.7504         19.0004
  -2265207.07048  -1742450.14148  20586448.9224                   20586446.5474
        51.5004         53.5004
 -11158143.03547  -8656610.87545  22995699.9774                   22995694.2034
        43.7504         31.2504
   8805666.14546   6852593.30144  23337181.0314                   23337179.4494
        41.2504         27.2504
   7573799.50846   5900882.15644  24635453.9924                   24635455.6254
        40.0004         26.7504
 -11929934.52047  -8998753.19945  22962212.9144                   22962211.6294
        44.0004         31.2504
   -291612.09446   -209719.18746  22836315.0944                   22836315.2974
        41.5004         37.5004
 25  6 30 22 28  0.0000000  0 10G10G27G31G18G32G02G23G24G28G08
   1641368.68448   1280612.21548  21367805.6414                   21367804.2854
        50.2504         50.0004
   8236002.55547   6414088.30146  23059584.8134                   23059584.9574
        42.5004         40.5004
   -553283.07046   -372821.96544  24767113.9844                   24767116.0744
        37.0004         26.7504
  13522538.90246  10525511.97343  24791948.7504                   24791950.6484
        37.0004         20.5004
  -2260395.13348  -1738700.57448  20587364.0864                   20587362.0474
        51.2504         53.5004
 -11245478.80947  -8724664.68045  22979080.3364                   22979074.5354
        44.5004         31.0004
   8861835.65646   6896361.68844  23347869.4304                   23347868.1054
        40.5004         27.2504
   7650424.69946   5960590.10944  24650035.7344                   24650035.1414
        40.5004         26.0004
 -12032598.89147  -9078751.32845  22942676.8914                   22942673.6764
        44.2504         30.0004
   -268613.47346   -191798.18446  22840691.5634                   22840691.5784
        41.2504         37.2504
 25  6 30 22 28 30.0000000  0 10G10G27G31G18G32G02G23G24G28G08
   1650933.22748   1288065.10548  21369626.3594                   21369624.4104
        50.5004         50.2504
   8307825.07447   6470053.81646  23073252.3134                   23073252.1374
        43.7504         40.2504
   -673656.66846   -466619.19944  24744206.9384                   24744208.6764
        36.0004         24.0004
  13620496.60546  10601842.44543  24810589.3054                   24810590.8594
        36.5004         20.0004
  -2255184.19548  -1734640.09448  20588355.9454                   20588353.6884
        51.7504         53.5004
 -11332612.68047  -8792561.14145  22962498.8364                   22962493.2664
        44.0004         31.2504
   8918089.79346   6940196.02044  23358573.6484                   23358572.6564
        40.7504         27.5004
   7727432.52346   6020596.19544  24664689.8594                   24664691.2704
        40.2504         26.5004
 -12135070.28147  -9158599.05944  22923176.0704                   22923174.2504
        42.7504         29.5004
   -245167.07446   -173528.27346  22845153.5864                   22845153.3554
        41.0004         37.5004
 25  6 30 22 29  0.0000000  0 10G10G27G31G18G32G02G23G24G28G08
   1660639.11748   1295628.12148  21371472.9304                   21371471.6804
        49.0004         50.2504
   8379870.64847   6526193.16046  23086962.5164                   23086962.0164
        42.2504         39.0004
   -794126.37946   -560491.35544  24721282.8674                   24721283.7114
        36.5004         25.5004
  13718589.34846  10678278.14143  24829255.6564                   24829255.9384
        37.2504         21.5004
  -2249572.29748  -1730267.17248  20589423.8754                   20589421.9144
        50.7504         53.5004
 -11419539.38347  -8860296.16845  22945957.4454                   22945951.4694
        44.5004         32.0004
   8974432.09846   6984099.07444  23369296.1644                   23369293.3444
        41.7504         28.0004
   7804823.69946   6080901.02744  24679416.5944                   24679418.4224
        41.0004         28.5004
 -12237342.13747  -9238291.31245  22903715.1644                   22903713.1764
        44.5004         30.7504
   -221271.49247   -154908.35546  22849700.5864                   22849700.7894
        42.7504         37.7504
 25  6 30 22 29 30.0000000  0 10G10G27G31G18G32G02G23G24G28G08
   1670480.65648   1303296.86348  21373345.7194                   21373344.1604
        50.2504         50.5004
   8452130.15647   6582499.21546  23100712.5784                   23100712.3874
        42.0004         39.0004
   -914695.59046   -654441.02744  24698338.8524                   24698340.3524
        37.0004         25.2504
  13816809.12146  10754812.85543  24847946.7974                   24847945.8674
        37.0004         21.0004
  -2243566.93748  -1725587.66048  20590566.5554                   20590564.5274
        51.5004         53.5004
 -11506262.63347  -8927872.66845  22929454.3524                   22929449.0824
        45.0004         32.7504
   9030856.66047   7028066.19544  23380033.1484                   23380031.2584
        42.7504         27.0004
   7882589.53946   6141497.73045  24694214.7974                   24694218.2814
        40.7504         30.0004
 -12339417.51647  -9317830.45745  22884289.8674                   22884288.5124
        43.0004         30.5004
   -196934.62547   -135944.61346  22854331.6884                   22854331.5704
        43.5004         38.0004
 25  6 30 22 30  0.0000000  0 11G10G27G31G01G18G32G02G23G24G28G08
   1680453.39848   1311067.81648  21375243.5944                   21375241.9494
        49.0004         50.5004
   8524595.73447   6638965.84446  23114502.5784                   23114502.0514
        42.2504         39.7504
  -1035366.27346   -748469.80544  24675375.1724                   24675377.3164
        36.5004         26.7504
   1355657.76256   1079289.55953  25108524.7894                   25108522.6564
        37.2504         19.5004
  13915149.30946  10831441.36743  24866660.1954                   24866659.8634
        37.0004         21.5004
  -2237174.33648  -1720606.41048  20591783.3754                   20591781.2424
        51.2504         53.5004
 -11592785.18447  -8995292.76645  22912989.9844                   22912984.7194
        44.5004         33.5004
   9087358.95747   7072093.89844  23390785.4844                   23390783.4534
        42.2504         26.5004
   7960722.42646   6202380.47744  24709082.8284                   24709084.9884
        39.7504         28.5004
 -12441298.09847  -9397217.82045  22864903.3284                   22864900.9104
        43.7504         31.7504
   -172163.32847   -116642.34046  22859045.2344                   22859045.3874
        45.5004         38.0004
 25  6 30 22 30 30.0000000  0 11G10G27G31G01G18G32G02G23G24G28G08
   1690548.11748   1318933.82848  21377164.6174                   21377162.7384
        49.2504         50.5004
   8597254.69147   6695583.14546  23128329.6804                   23128329.1954
        43.0004         39.5004
  -1156145.43046   -842583.07844  24652392.1254                   24652393.2464
        37.2504         27.7504
   1243213.40646    991670.59043  25087125.7274                   25087125.1254
        37.5004         20.0004
  14013598.48446  10908154.79343  24885394.8914                   24885395.5164
        38.0004         22.7504
  -2230405.48448  -1715331.97748  20593071.2194                   20593068.6994
        50.7504         53.5004
 -11679114.18747  -9062562.05545  22896562.0234                   22896556.5514
        44.0004         33.0004
   9143929.49247   7116174.77744  23401550.3444                   23401549.1254
        42.2504         27.5004
   8039210.18046   6263539.77344  24724018.7504                   24724019.6914
        40.5004         29.7504
 -12542990.40247  -9476458.49245  22845551.3204                   22845549.6954
        43.0004         30.5004
   -146969.09047    -97010.53146  22863840.2664                   22863840.4454
        45.0004         38.0004
 25  6 30 22 31  0.0000000  0 11G10G27G31G01G18G32G02G23G24G28G08
   1700763.77048   1326894.06648  21379108.5314                   21379107.0784
        50.5004         50.7504
   8670102.52347   6752347.60946  23142191.7194                   23142191.8164
        42.5004         39.5004
  -1277031.75146   -936779.85844  24629387.2274                   24629388.8594
        38.0004         28.7504
   1130732.82446    904023.40243  25065723.9064                   25065721.6414
        36.7504         19.5004
  14112153.33246  10984950.55943  24904148.9304                   24904151.4184
        38.5004         22.5004
  -2223263.27348  -1709766.61348  20594430.2194                   20594427.8874
        51.5004         53.5004
 -11765248.97347  -9129680.01245  22880170.7344                   22880165.3984
        44.5004         33.0004
   9200567.10247   7160307.94544  23412328.3204                   23412326.8134
        42.5004         26.2504
   8118048.67646   6324972.35544  24739021.3524                   24739022.4104
        39.5004         29.5004
 -12644492.80147  -9555551.15244  22826236.4454                   22826233.7774
        44.5004         29.5004
   -121355.32447    -77051.80546  22868714.5864                   22868714.7624
        45.0004         38.5004
 25  6 30 22 31 30.0000000  0 11G10G27G31G01G18G32G02G23G24G28G08
   1711107.46148   1334954.07848  21381076.7584                   21381074.9964
        50.2504         50.5004
   8743142.89146   6809262.13746  23156090.5554                   23156090.1994
        41.7504         38.2504
  -1398015.78146  -1031052.76245  24606365.2034                   24606366.5634
        39.0004         30.0004
   1018224.65245    816354.81343  25044314.5394                   25044312.1174
        35.7504         19.2504
  14210818.86346  11061832.57043  24922924.1884                   24922927.3754
        38.7504         22.7504
  -2215742.34848  -1703906.14848  20595861.4774                   20595859.2034
        51.2504         53.5004
 -11851180.84047  -9196639.85945  22863818.7974                   22863812.8594
        45.5004         32.5004
   9257278.68447   7204498.72344  23423120.0634                   23423118.2584
        44.0004         26.7504
   8197241.96146   6386681.35245  24754091.4224                   24754093.9024
        38.2504         30.5004
 -12745795.40247  -9634488.17645  22806959.1484                   22806957.4964
        43.7504         32.0004
    -95317.24247    -56762.44546  22873668.8914                   22873669.4384
        45.2504         39.0004
 25  6 30 22 32  0.0000000  0 11G10G27G31G01G18G32G02G23G24G28G08
   1721578.76248   1343113.52348  21383069.2194                   21383067.5634
        50.5004         50.2504
   8816371.83647   6866323.59046  23170025.5474                   23170025.6724
        43.2504         38.2504
  -1519095.68446  -1125400.38344  24583324.4304                   24583325.4654
        39.0004         29.0004
    905689.73846    728665.34843  25022899.6564                   25022897.4734
        36.0004         18.2504
  14309592.20346  11138798.62543  24941720.1644                   24941722.7624
        36.2504         20.5004
  -2207845.08248  -1697752.42648  20597364.4614                   20597362.0864
        52.0004         53.5004
 -11936908.01247  -9263440.21945  22847505.0394                   22847499.7344
        45.5004         33.5004
   9314063.69147   7248746.70344  23433925.9454                   23433924.3094
        42.7504         26.5004
   8276786.42646   6448663.98845  24769227.9384                   24769231.0704
        37.2504         30.7504
 -12846896.12147  -9713267.81245  22787720.1094                   22787717.4264
        42.7504         30.2504
    -68857.77747    -36144.73446  22878704.0554                   22878704.1994
        46.0004         39.5004
 25  6 30 22 32 30.0000000  0 11G10G27G31G01G18G32G02G23G24G28G08
   1732185.73048   1351378.68448  21385088.2584                   21385086.2234
        50.5004         50.5004
   8889793.98047   6923535.57846  23183997.7734                   23183997.7424
        42.5004         39.5004
  -1640261.38746  -1219814.88344  24560266.1484                   24560266.6564
        38.5004         26.0004
    793137.66045    640962.47342  25001481.3134                   25001479.6644
        34.5004         14.7504
  14408479.36745  11215853.36342  24960537.8984                   24960538.7304
        34.2504         16.7504
  -2199565.27748  -1691300.62948  20598940.0864                   20598937.6334
        52.0004         53.5004
 -12022421.49647  -9330074.05945  22831232.4774                   22831227.0474
        45.2504         33.0004
   9370929.87946   7293058.00044  23444747.4844                   23444745.2934
        41.2504         25.5004
   8356687.04745   6510924.13344  24784432.2504                   24784436.2624
        35.7504         29.5004
 -12947784.01647  -9791881.69945  22768522.3054                   22768518.5434
        44.5004         30.7504
    -41971.21547    -15194.21946  22883820.2424                   22883820.4534
        44.5004         40.0004
 25  6 30 22 33  0.0000000  0 11G10G27G31G01G18G32G02G23G24G28G08
   1742927.84848   1359749.16448  21387132.1334                   21387130.8014
        50.0004         50.5004
   8963405.24647   6980894.91446  23198005.4844                   23198005.4924
        42.5004         39.5004
  -1761510.55946  -1314294.44144  24537192.7504                   24537193.8484
        38.5004         24.7504
    680569.28946    553246.94143  24980060.2274                   24980058.2704
        36.0004         19.0004
  14507477.50445  11292994.63342  24979376.9064                   24979376.9804
        34.7504         16.7504
  -2190905.28948  -1684552.57848  20600587.7584                   20600585.5744
        51.5004         53.5004
 -12107719.67247  -9396540.11745  22815000.9384                   22814995.2704
        45.5004         34.2504
   9427876.58646   7337432.02344  23455583.9064                   23455581.8444
        41.5004         26.5004
   8436940.25446   6573459.02344  24799705.3594                   24799706.1684
        36.5004         28.7504
 -13048457.09447  -9870328.14845  22749363.5164                   22749361.8524
        42.5004         30.5004
    -14660.55947      6086.77746  22889017.8834                   22889018.0084
        44.2504         39.7504
 25  6 30 22 33 30.0000000  0 11G10G27G31G01G18G32G02G23G24G28G08
   1753805.21548   1368225.02748  21389202.1174                   21389199.7274
        49.5004         50.2504
   9037202.34047   7038399.07046  23212048.3284                   23212049.0434
        43.0004         39.0004
  -1882840.94946  -1408837.28544  24514104.5704                   24514105.5864
        39.0004         24.7504
    567986.38346    465520.08243  24958635.7734                   24958634.5164
        36.2504         20.2504
  14606584.45346  11370220.59443  24998236.5394                   24998237.4384
        36.2504         19.5004
  -2181866.89148  -1677509.66048  20602307.9924                   20602305.5944
        51.7504         53.5004
 -12192800.23847  -9462836.60945  22798810.5004                   22798805.2774
        46.0004         33.5004
   9484903.83247   7381868.78544  23466436.0004                   23466433.7544
        43.2504         25.2504
   8517543.02046   6636266.31344  24815043.5784                   24815043.5554
        36.7504         28.2504
 -13148912.49647  -9948604.96145  22730248.7664                   22730246.5314
        44.2504         31.5004
     13071.85947     27696.41846  22894294.5634                   22894295.1094
        42.5004         39.2504
 25  6 30 22 34  0.0000000  0 11G10G27G31G01G18G32G02G23G24G28G08
   1764822.67248   1376810.04348  21391298.4454                   21391296.4224
        50.5004         50.2504
   9111186.47346   7096048.96546  23226126.9774                   23226127.8164
        41.2504         38.5004
  -2004245.38346  -1503437.81644  24491002.8204                   24491003.1994
        39.0004         28.5004
    455395.07846    377786.68043  24937210.1254                   24937208.8284
        36.2504         19.5004
  14705802.65246  11447533.23843  25017117.7344                   25017120.2274
        36.0004         19.0004
  -2172447.21548  -1670169.64548  20604100.3444                   20604097.9734
        51.5004         53.7504
 -12277656.92247  -9528958.65645  22782662.4534                   22782657.3524
        46.0004         34.0004
   9542016.01247   7426371.71143  23477304.5554                   23477301.0394
        42.5004         23.2504
   8598497.03146   6699347.30144  24830448.9534                   24830449.2894
        36.2504         28.2504
 -13249142.82447 -10026706.44545  22711174.4454                   22711172.5824
        43.7504         30.7504
     41228.37947     49636.54746  22899652.5704                   22899652.6644
        42.7504         38.7504
 25  6 30 22 34 30.0000000  0 11G10G27G31G01G18G32G02G23G24G28G08
   1775977.42648   1385502.05548  21393421.3594                   21393419.3484
        50.2504         50.2504
   9185351.44946   7153839.77746  23240240.9144                   23240240.1524
        41.5004         38.7504
  -2125724.38346  -1598096.40644  24467885.2974                   24467886.9774
        40.2504         29.5004
    342794.06646    290045.66843  24915782.7814                   24915781.4614
        37.5004         20.2504
  14805127.15645  11524928.75043  25036018.6954                   25036022.4964
        35.7504         18.2504
  -2162650.90648  -1662536.14848  20605964.7734                   20605962.0514
        51.7504         53.5004
 -12362290.75847  -9594907.05145  22766557.1254                   22766551.8444
        46.0004         33.2504
   9599210.21146   7470938.58644  23488188.1254                   23488184.7384
        41.5004         24.5004
   8679796.27045   6762697.30544  24845918.6564                   24845920.0744
        34.0004         27.2504
 -13349148.10247 -10104632.50845  22692144.4534                   22692142.6884
        44.2504         32.5004
     69803.68847     71903.01246  22905090.4844                   22905091.0084
        42.0004         38.2504
 25  6 30 22 35  0.0000000  0 11G10G27G31G01G18G32G02G23G24G28G08
   1787273.50448   1394304.19948  21395570.5784                   21395569.2504
        50.2504         50.2504
   9259697.82446   7211771.93046  23254387.7034                   23254387.8244
        41.2504         37.7504
  -2247271.49646  -1692808.10945  24444755.3444                   24444756.2854
        40.5004         30.7504
    230188.93846    202301.48843  24894354.4534                   24894352.9884
        37.7504         20.0004
  14904559.71545  11602408.43043  25054940.1564                   25054944.4494
        34.7504         18.2504
  -2152475.82448  -1654607.51648  20607900.7114                   20607898.1724
        51.7504         53.5004
 -12446696.00047  -9660677.33245  22750495.3914                   22750489.9224
        46.0004         33.5004
   9656490.35946   7515572.42243  23499087.6414                   23499084.9414
        41.5004         22.2504
   8761441.77045   6826317.09044  24861455.6564                   24861457.7074
        32.7504         27.0004
 -13448921.64147 -10182378.03144  22673157.6644                   22673154.8634
        43.7504         29.2504
     98799.39146     94497.05146  22910608.6724                   22910608.5234
        41.2504         38.5004
 25  6 30 22 35 30.0000000  0 11G10G27G31G01G18G32G02G23G24G28G08
   1798710.09048   1403215.81648  21397747.2894                   21397745.1134
        50.5004         49.7504
   9334221.21946   7269842.02046  23268569.9534                   23268569.6844
        41.5004         38.0004
  -2368885.20346  -1787571.71544  24421612.8054                   24421613.3984
        40.2504         28.5004
    117580.27346    114554.55142  24872925.7734                   24872924.5354
        37.5004         17.7504
  15004097.13745  11679969.84842  25073881.4694                   25073884.5354
        34.7504         17.7504
  -2141924.78948  -1646385.91448  20609908.6094                   20609906.1134
        51.5004         53.5004
 -12530871.43447  -9726268.53145  22734477.5394                   22734471.9344
        45.7504         33.5004
   9713855.29746   7560272.29343  23510003.7344                   23510001.4494
        41.7504         23.5004
   8843429.32845   6890203.41844  24877057.1254                   24877059.5274
        31.0004         25.5004
 -13548461.72347 -10259941.65645  22654216.3914                   22654214.3834
        44.2504         32.0004
    128212.00847    117415.96546  22916205.2664                   22916205.6644
        42.0004         39.0004
 25  6 30 22 36  0.0000000  0 11G10G27G31G01G18G32G02G23G24G28G08
   1810289.30148   1412238.56648  21399950.6724                   21399948.6254
        49.5004         50.0004
   9408920.17246   7328048.91046  23282784.0634                   23282785.0394
        40.5004         39.0004
  -2490560.97746  -1882383.69544  24398458.8594                   24398459.1884
        40.5004         27.2504
      4971.64546     26807.60243  24851496.9774                   24851495.3954
        39.5004         18.2504
  15103739.31645  11757612.92242  25092843.1884                   25092843.4224
        35.5004         15.5004
  -2130997.68448  -1637871.27748  20611987.7344                   20611984.9774
        52.0004         53.5004
 -12614813.41047  -9791677.82045  22718503.5474                   22718497.9534
        45.5004         32.7504
   9771306.94946   7605039.76243  23520936.9844                   23520934.0514
        41.5004         22.0004
   8925757.93854   6954355.48454  24892723.2894                   24892725.8054
        29.7504         24.5004
 -13647763.60947 -10337319.61745  22635319.1954                   22635317.3244
        44.2504         32.2504
    158041.14847    140659.42646  22921881.9064                   22921882.2664
        43.2504         39.5004
 25  6 30 22 36 30.0000000  0 11G10G27G31G01G18G32G02G23G24G28G08
   1822008.75048   1421370.59848  21402180.7504                   21402179.2304
        49.7504         50.2504
   9483788.85546   7386388.06646  23297030.9924                   23297032.0904
        39.7504         37.2504
  -2612299.02746  -1977244.24244  24375291.5554                   24375292.9104
        39.7504         28.2504
   -107637.74246    -60939.91843  24830067.6024                   24830066.6564
        40.2504         19.2504
  15203481.38345  11835333.82042  25111824.0784                   25111822.9844
        35.2504         16.2504
  -2119698.75848  -1629066.91848  20614138.3594                   20614135.6884
        51.7504         53.2504
 -12698522.75447  -9856905.84045  22702574.2894                   22702568.5824
        46.0004         33.5004
   9828842.71546   7649872.77343  23531885.3594                   23531883.3444
        40.0004         23.0004
   9008422.02045   7018768.98444  24908454.4534                   24908454.6054
        31.0004         25.0004
 -13746826.98847 -10414511.77745  22616468.0474                   22616464.5984
        44.0004         30.5004
    188281.90247    164223.60546  22927636.7814                   22927636.2384
        43.7504         40.0004
 25  6 30 22 37  0.0000000  0 11G10G27G31G01G18G32G02G23G24G28G08
   1833871.31648   1430614.15248  21404437.9614                   21404436.3874
        50.2504         50.5004
   9558826.57047   7444858.93846  23311311.0084                   23311310.7934
        42.0004         38.2504
  -2734093.77046  -2072148.93045  24352114.7814                   24352115.9144
        40.0004         30.2504
   -220243.66846   -148684.69543  24808640.6564                   24808638.8874
        41.0004         19.7504
  15303324.03945  11913133.12942  25130823.2584                   25130823.0204
        34.5004         16.7504
  -2108027.15248  -1619972.14848  20616358.7814                   20616356.5704
        51.7504         53.5004
 -12781994.62547  -9921948.80945  22686690.1414                   22686684.9884
        46.5004         34.5004
   9886465.29346   7694773.43044  23542851.1484                   23542848.0394
        40.0004         26.0004
   9091421.33645   7083443.69943  24924247.6254                   24924248.6604
        30.5004         23.7504
 -13845646.39547 -10491513.81645  22597662.9224                   22597661.3484
        43.0004         32.2504
    218934.46947    188108.69546  22933469.8444                   22933469.6174
        44.7504         39.2504
 25  6 30 22 37 30.0000000  0 11G10G27G31G01G18G32G02G23G24G28G08
   1845874.59848   1439967.35548  21406722.2974                   21406720.4184
        50.0004         50.0004
   9634027.44146   7503456.91846  23325621.1484                   23325621.2304
        40.7504         37.7504
  -2855945.45746  -2167097.97345  24328927.2114                   24328928.0744
        41.5004         32.5004
   -332846.87946   -236427.45743  24787212.5234                   24787210.8954
        41.0004         18.2504
  15403262.49645  11991007.00042  25149840.8054                   25149842.6024
        34.0004         16.7504
  -2095987.32048  -1610590.45748  20618650.0164                   20618647.6524
        51.2504         53.2504
 -12865229.87547  -9986807.38345  22670851.2034                   22670845.6454
        46.5004         33.7504
   9944171.90646   7739739.55143  23553831.8754                   23553830.2704
        40.0004         22.7504
   9174750.31355   7148375.29354  24940105.0164                   24940106.7114
        33.5004         27.5004
 -13944221.60947 -10568325.55945  22578905.3834                   22578902.6054
        44.0004         31.0004
    249993.85247    212310.77346  22939380.1414                   22939379.6844
        45.0004         38.7504
 25  6 30 22 38  0.0000000  0 10G10G27G31G01G18G32G02G23G28G08
   1858022.59048   1449433.31648  21409033.8364                   21409031.9734
        50.2504         50.0004
   9709391.88346   7562182.36346  23339962.9534                   23339962.4694
        40.7504         37.0004
  -2977847.78946  -2262086.48845  24305729.8284                   24305730.2584
        41.2504         30.7504
   -445441.95346   -324163.81643  24765786.1024                   24765784.0784
        41.5004         19.5004
  15503298.49245  12068956.87142  25168877.1954                   25168880.1294
        32.0004         17.2504
  -2083577.19148  -1600920.22748  20621011.6884                   20621009.3204
        51.5004         53.5004
 -12948222.62147 -10051477.00445  22655057.9774                   22655052.5864
        46.5004         34.0004
  10001966.32846   7784774.10943  23564829.8754                   23564827.7154
        38.5004         22.7504
 -14042546.07047 -10644941.95745  22560193.7274                   22560192.0634
        43.7504         31.5004
    281461.36347    236830.85946  22945368.2034                   22945367.6134
        45.0004         38.5004
 25  6 30 22 38 30.0000000  0 10G10G27G31G01G18G32G02G23G28G08
   1870322.54748   1459017.69548  21411374.4224                   21411372.9774
        49.7504         50.2504
   9784923.53146   7621038.12546  23354335.6804                   23354336.1374
        40.5004         37.5004
  -3099791.23846  -2357107.08245  24282524.4774                   24282524.3244
        40.7504         30.5004
   -558020.23046   -411887.07443  24744362.3754                   24744361.4574
        40.5004         19.0004
  15603436.77345  12146986.41042  25187933.7114                   25187937.4774
        33.2504         16.2504
  -2070791.62948  -1590957.44948  20623444.8754                   20623442.2344
        51.7504         53.5004
 -13030963.88347 -10115950.66445  22639312.9384                   22639306.9654
        46.5004         34.0004
  10059855.64146   7829882.62543  23575845.6724                   23575844.6094
        39.5004         23.2504
 -14140609.93447 -10721355.23445  22541533.6334                   22541531.9264
        45.0004         33.5004
    313341.60547    261672.54746  22951434.7344                   22951434.4184
        44.5004         37.2504
 25  6 30 22 39  0.0000000  0 10G10G27G31G01G18G32G02G23G28G08
   1882784.22748   1468728.09448  21413746.2194                   21413744.0474
        50.2504         50.0004
   9860628.68846   7680029.09046  23368741.7584                   23368742.0514
        40.7504         37.5004
  -3221763.59046  -2452150.19945  24259312.9384                   24259313.2194
        40.7504         31.0004
   -670570.30947   -499588.34043  24722945.6724                   24722944.4304
        42.0004         21.7504
  15703684.87945  12225101.66842  25207010.8364                   25207014.0124
        33.5004         14.7504
  -2057622.80948  -1580696.03148  20625950.5784                   20625948.6334
        51.7504         53.7504
 -13113442.09047 -10180219.35545  22623617.5784                   22623612.1054
        46.5004         34.0004
  10117849.28546   7875072.43844  23586881.5234                   23586880.3794
        37.7504         25.0004
 -14238400.81647 -10797555.82444  22522924.0554                   22522921.2504
        42.2504         29.7504
    345641.67647    286841.36346  22957580.8444                   22957581.1414
        44.5004         36.0004
 25  6 30 22 39 30.0000000  0 10G10G27G31G01G18G32G02G23G28G08
   1895413.77048   1478569.29748  21416149.3284                   21416147.2584
        50.2504         50.0004
   9936509.97346   7739157.28146  23383182.0864                   23383182.0004
        41.5004         38.5004
  -3343756.11746  -2547209.03545  24236099.0394                   24236099.0004
        40.5004         32.0004
   -783084.60246   -587261.74243  24701534.2034                   24701533.3754
        40.5004         21.0004
  15804046.46545  12303305.30142  25226108.3204                   25226112.9104
        32.7504         13.7504
  -2044066.66448  -1570132.80548  20628530.0394                   20628527.8014
        51.5004         53.2504
 -13195649.39847 -10244276.95745  22607974.0704                   22607968.5634
        46.2504         33.5004
  10175953.25446   7920348.18843  23597937.5944                   23597937.6414
        39.7504         22.5004
 -14335910.02047 -10873536.98445  22504369.5164                   22504366.7704
        45.0004         33.7504
    378364.97747    312339.97345  22963808.3364                   22963808.0864
        42.7504         34.7504
 25  6 30 22 40  0.0000000  0 10G10G27G31G01G18G32G02G23G28G08
   1908206.21548   1488537.43448  21418583.4454                   21418581.8094
        50.0004         50.0004
  10012558.84047   7798416.06346  23397653.6644                   23397654.2344
        42.0004         38.0004
  -3465771.60946  -2642285.75045  24212880.0234                   24212880.0314
        41.2504         30.5004
   -895566.46946   -674909.91043  24680129.9924                   24680128.7584
        41.2504         21.7504
  15904514.273 5                  25245227.102
        32.000
  -2030130.19548  -1559273.21548  20631182.0864                   20631179.7974
        52.0004         53.2504
 -13277589.22747 -10308126.14145  22592381.5314                   22592375.7344
        46.7504         33.7504
  10234162.24246   7965705.78544  23609015.3914                   23609015.0044
        39.5004         24.2504
 -14433139.95347 -10949300.41845  22485865.8834                   22485864.9614
        42.7504         31.7504
    411503.88347    338162.43045  22970113.4924                   22970114.1844
        42.5004         35.2504
 25  6 30 22 40 30.0000000  0  9G10G27G31G01G32G02G23G28G08
   1921156.64548   1498628.66848  21421047.9844                   21421046.1804
        50.5004         50.2504
  10088766.78146   7857798.77046  23412155.9144                   23412156.0704
        40.5004         38.0004
  -3587812.52747  -2737382.28545  24189656.3364                   24189656.0274
        42.5004         33.2504
  -1008019.40646   -762535.49643  24658730.9384                   24658729.8164
        39.0004         21.7504
  -2015820.43748  -1548122.75048  20633905.0864                   20633903.1524
        51.0004         53.2504
 -13359264.59447 -10371769.23845  22576839.3364                   22576833.3484
        47.2504         34.0004
  10292471.08646   8011141.19943  23620111.0864                   23620110.1134
        39.7504         23.2504
 -14530092.94947 -11024848.16445  22467417.1954                   22467413.4774
        44.5004         32.0004
    445050.67646    364302.75045  22976497.4774                   22976498.2034
        41.2504         34.5004
 25  6 30 22 41  0.0000000  0  9G10G27G31G01G32G02G23G28G08
   1934270.92648   1508847.58248  21423543.4304                   21423541.9884
        49.0004         50.0004
  10165136.14846   7917307.25046  23426688.2504                   23426688.6294
        40.5004         37.2504
  -3709870.57047  -2832492.23445  24166429.4144                   24166428.6214
        43.2504         32.5004
  -1120435.89846   -850132.70343  24637339.3594                   24637337.0474
        39.0004         21.7504
  -2001133.54748  -1536678.42648  20636699.8834                   20636697.9384
        51.5004         53.2504
 -13440668.10547 -10435200.50445  22561348.3674                   22561343.3754
        46.5004         35.0004
  10350885.36746   8056658.79744  23631226.6724                   23631226.0314
        39.2504         24.5004
 -14626760.66047 -11100173.55545  22449020.6174                   22449020.4734
        42.0004         32.5004
    479008.49246    390763.35945  22982958.9384                   22982960.6724
        40.7504         35.5004
 25  6 30 22 41 30.0000000  0  9G10G27G31G01G32G02G23G28G08
   1947556.25848   1519199.78948  21426071.7114                   21426069.7464
        50.2504         49.7504
  10241670.54346   7976944.36746  23441251.6724                   23441252.5164
        40.2504         37.5004
  -3831936.17647  -2927608.08245  24143200.5084                   24143199.9144
        42.2504         33.2504
  -1232807.36746   -937694.75843  24615954.2504                   24615953.3874
        37.7504         21.2504
  -1986064.40248  -1524936.23448  20639567.7974                   20639565.3014
        51.5004         53.5004
 -13521790.79347 -10498412.93745  22545911.3984                   22545905.8874
        46.0004         34.2504
  10409411.94546   8102263.85544  23642363.8984                   23642362.9734
        40.2504         24.0004
 -14723133.21547 -11175268.97345  22430683.3444                   22430679.8444
        44.7504         33.0004
    513381.80146    417547.73046  22989500.6644                   22989501.5164
        41.0004         36.0004
 25  6 30 22 42  0.0000000  0  9G10G27G31G01G32G02G23G28G08
   1961011.87148   1529684.67248  21428632.0084                   21428630.7304
        50.2504         50.0004
  10318365.72646   8036706.74846  23455846.9454                   23455847.5434
        40.5004         38.7504
  -3954007.74646  -3022728.48845  24119970.5164                   24119970.7934
        39.7504         33.2504
  -1345132.93046  -1025221.09843  24594580.2034                   24594578.6024
        37.5004         22.0004
  -1970615.92248  -1512898.45748  20642507.2814                   20642504.8284
        51.0004         53.2504
 -13602631.81247 -10561405.89145  22530527.6804                   22530522.4614
        46.0004         34.7504
  10468049.87946   8147955.68844  23653523.0234                   23653521.3984
        40.7504         24.5004
 -14819209.01247 -11250133.13745  22412399.1954                   22412397.1054
        43.7504         31.5004
    548166.98446    444653.04746  22996120.8284                   22996121.0554
        41.5004         37.5004
 25  6 30 22 42 30.0000000  0  9G10G27G31G01G32G02G23G28G08
   1974636.71948   1540301.42648  21431224.7894                   21431223.3484
        50.0004         49.5004
  10395216.94946   8096590.71946  23470471.4844                   23470472.1024
        40.5004         37.0004
  -4076083.96946  -3117852.48445  24096740.0944                   24096740.5164
        40.0004         34.7504
  -1457412.12146  -1112711.27343  24573214.0164                   24573212.8834
        37.0004         21.0004
  -1954791.21548  -1500567.52048  20645518.8834                   20645516.0394
        51.7504         53.2504
 -13683190.48447 -10624178.84445  22515198.0234                   22515191.7974
        46.2504         34.7504
  10526797.77746   8193733.22344  23664701.9534                   23664700.6134
        41.2504         25.5004
 -14914986.36347 -11324764.76245  22394174.4694                   22394172.2114
        45.0004         33.0004
    583360.23447    472076.32846  23002818.0394                   23002818.3674
        42.2504         38.5004
 25  6 30 22 43  0.0000000  0  9G10G27G31G01G32G02G23G28G08
   1988423.35248   1551044.26248  21433847.9614                   21433846.9614
        50.0004         49.7504
  10472213.31346   8156587.76645  23485122.8674                   23485123.4614
        40.2504         35.2504
  -4198169.94546  -3212984.13745  24073508.1334                   24073507.6764
        41.7504         35.0004
  -1569650.80946  -1200169.87943  24551855.4844                   24551854.3554
        36.5004         21.0004
  -1938599.84048  -1487950.86348  20648600.0084                   20648597.5124
        51.5004         53.0004
 -13763472.54347 -10686736.25045  22499920.5704                   22499914.7664
        46.5004         34.5004
  10585647.91046   8239590.40244  23675901.1644                   23675899.2664
        41.7504         25.7504
 -15010470.45347 -11399167.86745  22376002.7584                   22376000.8874
        44.2504         32.0004
    618951.25047    499809.56346  23009590.9844                   23009590.5434
        43.5004         39.0004
 25  6 30 22 43 30.0000000  0  9G10G27G31G01G32G02G23G28G08
   2002370.98848   1561912.53948  21436502.5704                   21436500.8204
        49.5004         50.0004
  10549350.36346   8216694.49245  23499801.3594                   23499802.0904
        39.7504         34.5004
  -4320263.95347  -3308122.09845  24050274.2194                   24050273.2234
        42.0004         32.7504
  -1681848.21546  -1287596.35943  24530504.5004                   24530503.8014
        37.5004         22.0004
  -1922044.73048  -1475050.77748  20651750.0784                   20651747.7194
        51.5004         52.7504
 -13843477.08647 -10749077.41445  22484696.3674                   22484690.9104
        45.5004         35.0004
  10644599.21546   8285526.43844  23687119.4694                   23687117.9264
        41.0004         24.5004
 -15105659.34447 -11473340.97345  22357890.9304                   22357887.5164
        45.5004         33.7504
    654936.35547    527849.87946  23016438.0314                   23016438.4534
        43.5004         39.2504
 25  6 30 22 44  0.0000000  0  9G10G27G31G01G32G02G23G28G08
   2016477.68047   1572904.75848  21439186.5004                   21439185.5474
        47.2504         49.5004
  10626622.65646   8276906.55946  23514506.6884                   23514506.6564
        40.5004         36.5004
  -4442365.50046  -3403265.93745  24027038.5164                   24027037.9304
        39.5004         30.0004
  -1794004.78146  -1374990.97743  24509161.7114                   24509161.3984
        36.7504         22.5004
  -1905130.00448  -1461870.46148  20654968.6884                   20654966.6564
        49.0004         53.0004
 -13923204.37147 -10811202.54345  22469524.3524                   22469518.8984
        45.7504         35.5004
  10703649.39846   8331539.53144  23698355.9384                   23698354.2894
        40.7504         26.5004
 -15200552.66447 -11547283.71545  22339831.9454                   22339829.3404
        44.2504         30.7504
    691310.75447    556193.53546  23023360.0234                   23023360.7274
        44.2504         39.2504
 25  6 30 22 44 30.0000000  0  9G10G27G31G01G32G02G23G28G08
   2030745.56348   1584022.58648  21441901.9064                   21441900.6334
        48.0004         49.7504
  10704028.70747   8337222.84845  23529237.3204                   23529236.7854
        42.2504         35.7504
  -4564470.20346  -3498412.17245  24003802.7344                   24003802.7304
        40.0004         33.0004
  -1906116.78546  -1462350.91043  24487827.5234                   24487826.3594
        37.7504         22.2504
  -1887855.65648  -1448409.93048  20658256.1094                   20658253.8524
        49.5004         53.0004
 -14002650.51647 -10873108.59045  22454406.6334                   22454400.9064
        45.7504         34.7504
  10762800.34846   8377631.12544  23709612.5634                   23709610.0314
        41.5004         25.5004
 -15295145.66447 -11620992.50045  22321832.0164                   22321829.6134
        44.5004         33.0004
    728073.78147    584839.98846  23030356.4534                   23030356.3284
        43.2504         38.0004
 25  6 30 22 45  0.0000000  0  9G10G27G31G01G32G02G23G28G08
   2045167.00848   1595260.06348  21444646.3674                   21444644.8444
        49.5004         49.7504
  10781557.32446   8397634.68045  23543989.6334                   23543990.2114
        40.0004         35.5004
  -4686583.16446  -3593564.87145  23980565.9304                   23980564.7274
        40.7504         35.5004
  -2018190.28946  -1549680.80943  24466501.0314                   24466499.2154
        38.7504         21.5004
  -1870231.47348  -1434676.80148  20661609.7664                   20661607.7504
        50.5004         53.0004
 -14081821.43447 -10934800.16445  22439340.4064                   22439335.1764
        46.0004         35.0004
  10822044.05547   8423795.00844  23720885.7974                   23720883.7734
        42.0004         25.5004
 -15389443.59847 -11694471.30145  22303886.6954                   22303885.0984
        43.5004         32.2504
    765214.78147    613780.97746  23037423.9454                   23037423.9064
        43.7504         37.5004
 25  6 30 22 45 30.0000000  0  9G10G27G31G01G32G02G23G28G08
   2059748.18048   1606622.00848  21447420.8364                   21447419.4384
        49.5004         49.2504
  10859211.10946   8458144.03545  23558765.8524                   23558767.9304
        39.0004         35.5004
  -4808695.73046  -3688717.27745  23957328.0554                   23957327.3364
        39.2504         33.2504
  -2130217.52346  -1636974.69143  24445182.6724                   24445181.8324
        38.2504         22.2504
  -1852253.39848  -1420667.90648  20665031.0004                   20665028.8364
        51.2504         53.0004
 -14160709.47347 -10996271.31645  22424328.7424                   22424323.5434
        45.0004         34.5004
  10881386.43446   8470035.76644  23732178.9534                   23732176.1724
        41.0004         25.2504
 -15483437.69547 -11767713.41045  22286001.4614                   22285998.3364
        45.5004         34.0004
    802737.10247    643019.09846  23044564.2814                   23044563.6994
        43.7504         36.7504
 25  6 30 22 46  0.0000000  0  9G10G27G31G01G32G02G23G28G08
   2074487.32848   1618107.06648  21450225.8524                   21450224.2274
        49.0004         49.7504
  10936984.71546   8518746.76246  23573566.4534                   23573566.5354
        40.5004         36.0004
  -4930807.23446  -3783868.82445  23934090.6954                   23934089.9774
        38.5004         32.2504
  -2242198.69546  -1724232.63343  24423873.0234                   24423871.8594
        39.5004         23.0004
  -1833925.41448  -1406386.35548  20668518.7504                   20668516.4614
        50.5004         53.0004
 -14239314.83647 -11057522.20745  22409370.8834                   22409365.4304
        45.5004         34.7504
  10940825.50446   8516351.85943  23743489.5474                   23743487.1254
        41.5004         23.2504
 -15577127.35247 -11840718.22745  22268172.2274                   22268169.8094
        45.0004         33.5004
    840636.06347    672550.69946  23051775.9144                   23051775.7734
        43.2504         36.5004
 25  6 30 22 46 30.0000000  0  9G10G27G31G01G32G02G23G28G08
   2089386.33648   1629716.68048  21453060.8834                   21453059.3244
        49.5004         49.5004
  11014876.41046   8579441.51646  23588389.3834                   23588389.8754
        41.2504         36.2504
  -5052913.57846  -3879016.41045  23910854.6954                   23910853.4064
        41.2504         33.5004
  -2354130.34046  -1811452.03543  24402573.1094                   24402572.1374
        39.5004         22.7504
  -1815247.82848  -1391832.39848  20672072.7894                   20672070.2934
        50.2504         53.0004
 -14317633.75447 -11118549.89545  22394466.8914                   22394461.5784
        45.0004         35.2504
  11000362.61746   8562744.36343  23754819.1954                   23754816.8134
        41.2504         22.7504
 -15670508.19147 -11913482.47345  22250402.8754                   22250399.2974
        45.7504         33.5004
    878910.59047    702374.95746  23059059.2034                   23059059.2194
        44.0004         36.0004
 25  6 30 22 47  0.0000000  0  9G10G27G31G01G32G02G23G28G08
   2104445.71548   1641451.26648  21455926.6884                   21455924.8754
        48.7504         49.2504
  11092883.22746   8640225.91446  23603233.7114                   23603234.2344
        39.5004         36.5004
  -5175011.98846  -3974157.77345  23887619.7344                   23887619.4454
        38.0004         31.2504
  -2466010.28546  -1898631.16044  24381283.5554                   24381281.4454
        40.5004         24.0004
  -1796222.30148  -1377007.31648  20675693.4064                   20675690.6374
        50.7504         53.0004
 -14395664.20347 -11179352.80945  22379618.6724                   22379612.7894
        45.7504         35.5004
  11059998.09446   8609213.49243  23766167.7894                   23766165.4414
        41.2504         22.5004
 -15763577.30147 -11986003.77045  22232691.5474                   22232689.3954
        45.2504         33.0004
    917558.18047    732489.91046  23066413.3284                   23066414.0904
        43.0004         36.5004
 25  6 30 22 47 30.0000000  0  9G10G27G31G01G32G02G23G28G08
   2119664.34848   1653309.93448  21458822.8524                   21458821.0634
        49.0004         49.5004
  11171000.36646   8701096.31846  23618098.2664                   23618099.5514
        39.2504         36.5004
  -5297100.61746  -4069291.50845  23864386.6804                   23864386.0274
        39.7504         32.7504
  -2577838.10246  -1985769.64143  24360002.6024                   24360001.2704
        40.7504         23.7504
  -1776852.19548  -1361913.71948  20679379.4064                   20679377.0634
        50.2504         53.0004
 -14473405.78547 -11239930.64145  22364824.9534                   22364818.9224
        45.7504         35.5004
  11119730.44146   8655758.13343  23777534.3364                   23777532.1294
        41.2504         23.7504
 -15856333.30947 -12058281.11745  22215041.5554                   22215038.0984
        45.5004         33.0004
    956574.81647    762892.43846  23073838.4064                   23073838.9804
        43.5004         37.5004
 25  6 30 22 48  0.0000000  0  9G10G27G31G01G32G02G23G28G08
   2135040.66048   1665291.46948  21461748.8594                   21461747.1484
        49.0004         50.0004
  11249222.63746   8762048.64146  23632983.6724                   23632985.1484
        38.2504         36.0004
  -5419178.87946  -4164417.23845  23841156.2424                   23841154.5554
        41.0004         33.0004
  -2689613.73446  -2072867.45743  24338732.9224                   24338731.1884
        40.7504         22.5004
  -1757141.32848  -1346554.60948  20683130.2274                   20683127.7544
        50.7504         53.0004
 -14550858.22747 -11300283.15645  22350086.1094                   22350080.5784
        45.2504         35.7504
  11179557.69146   8702376.71143  23788918.3364                   23788917.5274
        40.5004         22.5004
 -15948775.46547 -12130313.87945  22197449.6884                   22197447.3594
        44.5004         33.7504
    995955.82047    793578.89146  23081332.9144                   23081333.8014
        42.7504         37.7504
 25  6 30 22 48 30.0000000  0  9G10G27G31G01G32G02G23G28G08
   2150578.18448   1677398.62548  21464705.5704                   21464704.0204
        48.5004         49.7504
  11327550.15646   8823082.97746  23647890.1484                   23647890.1484
        39.5004         37.0004
  -5541240.60946  -4259530.06645  23817927.8594                   23817927.4964
        39.5004         32.0004
  -2801332.07046  -2159920.62943  24317473.3204                   24317470.9104
        40.5004         22.5004
  -1737088.23448  -1330928.82848  20686946.3984                   20686943.9264
        49.0004         52.7504
 -14628016.33247 -11360406.32045  22335403.3054                   22335397.9144
        45.7504         35.0004
  11239483.18846   8749071.82843  23800322.0784                   23800321.2544
        40.7504         21.5004
 -16040897.70347 -12202097.39145  22179919.7814                   22179916.7974
        45.7504         33.7504
   1035701.87947    824549.82046  23088895.8444                   23088896.6844
        43.7504         38.7504
 25  6 30 22 49  0.0000000  0  9G10G27G31G01G32G02G23G28G08
   2166277.11348   1689631.54748  21467693.1414                   21467691.4964
        49.2504         50.0004
  11405979.40946   8884196.59046  23662814.1414                   23662814.3284
        39.5004         36.5004
  -5663283.68746  -4354628.32045  23794704.0004                   23794702.6994
        40.0004         32.7504
  -2912991.36346  -2246927.79343  24296225.5474                   24296223.1804
        41.5004         22.5004
  -1716695.08648  -1315038.06648  20690827.0004                   20690824.8484
        49.7504         52.7504
 -14704878.33647 -11420298.75845  22320776.6804                   22320771.5664
        45.2504         35.7504
  11299506.65646   8795843.31343  23811744.6954                   23811742.7344
        40.7504         22.2504
 -16132697.55947 -12273629.67645  22162450.9534                   22162447.6174
        45.2504         33.7504
   1075810.04347    855802.89846  23096528.6024                   23096528.1254
        43.0004         37.2504
 25  6 30 22 49 30.0000000  0  9G10G27G31G01G32G02G23G28G08
   2182140.75048   1701992.81348  21470711.7974                   21470710.2974
        49.2504         50.0004
  11484510.09046   8945389.19945  23677758.1884                   23677758.6484
        38.5004         35.5004
  -5785302.16046  -4449707.45345  23771484.4384                   23771483.1884
        41.2504         33.5004
  -3024586.69546  -2333885.15643  24274990.0784                   24274987.4694
        40.5004         22.0004
  -1695960.80948  -1298881.48048  20694772.1414                   20694770.3984
        50.2504         53.0004
 -14781439.46547 -11479956.73845  22306207.7504                   22306202.1254
        45.5004         35.5004
  11359631.05946   8842693.43843  23823185.9064                   23823184.0274
        40.5004         21.7504
 -16224169.26247 -12344906.27045  22145043.8984                   22145041.7344
        45.5004         34.0004
   1116280.61747    887338.37146  23104229.6884                   23104229.5704
        43.0004         37.2504
 25  6 30 22 50  0.0000000  0  9G10G27G31G01G32G02G23G28G08
   2198167.62548   1714481.28548  21473761.5474                   21473760.1764
        49.0004         50.0004
  11563137.15246   9006656.93845  23692720.1094                   23692720.5514
        38.7504         35.2504
  -5907294.84046  -4544766.49245  23748269.8984                   23748268.4224
        40.2504         31.5004
  -3136117.80146  -2420792.41443  24253765.8984                   24253763.6484
        39.0004         21.7504
  -1674889.07048  -1282461.94548  20698782.3054                   20698780.3364
        51.0004         53.0004
 -14857699.39847 -11539380.02745  22291695.9924                   22291690.4024
        45.7504         35.7504
  11419854.62146   8889620.84043  23834646.1024                   23834644.0904
        40.5004         21.7504
 -16315311.97747 -12415926.48845  22127699.7114                   22127696.7934
        45.0004         33.0004
   1157109.06647    919152.71546  23111999.6024                   23111999.0744
        43.5004         37.5004
 25  6 30 22 50 30.0000000  0  9G10G27G31G01G32G02G23G28G08
   2214358.47348   1727097.52748  21476842.4844                   21476841.2384
        48.7504         50.0004
  11641857.78546   9067997.61346  23707700.6644                   23707701.4774
        39.5004         36.7504
  -6029258.52346  -4639802.94945  23725061.0474                   23725059.2544
        41.5004         33.2504
  -3247582.33646  -2507647.77743  24232554.5004                   24232552.7774
        39.2504         21.0004
  -1653481.42248  -1265780.66048  20702856.1174                   20702853.8324
        51.5004         53.2504
 -14933655.75047 -11598566.75445  22277241.8674                   22277236.1484
        45.0004         35.5004
  11480177.65246   8936625.71543  23846124.9774                   23846123.4344
        40.7504         22.5004
 -16406122.52347 -12486687.89145  22110419.1724                   22110416.6024
        44.5004         33.0004
   1198293.07447    951244.10946  23119835.9224                   23119836.2384
        44.0004         37.5004
 25  6 30 22 51  0.0000000  0  9G10G27G31G01G32G02G23G28G08
   2230716.48048   1739844.02048  21479955.4454                   21479953.1764
        48.2504         49.5004
  11720671.62546   9129410.89846  23722698.1484                   23722699.8674
        39.0004         36.5004
  -6151187.70746  -4734812.50045  23701858.7194                   23701857.5204
        41.7504         34.7504
  -3358975.54746  -2594447.57843  24211356.7734                   24211355.1024
        38.2504         20.2504
  -1631736.85948  -1248836.84848  20706994.0784                   20706991.7424
        50.2504         53.2504
 -15009303.77747 -11657513.24645  22262846.6254                   22262841.0944
        45.2504         35.5004
  11540603.10246   8983710.42243  23857623.8984                   23857622.4654
        40.5004         20.7504
 -16496595.37147 -12557186.12945  22093202.7734                   22093199.8954
        45.5004         33.5004
   1239832.74247    983612.62546  23127740.2734                   23127740.7664
        42.5004         36.7504
 25  6 30 22 51 30.0000000  0  9G10G27G31G01G32G02G23G28G08
   2247241.49648   1752720.64848  21483099.8754                   21483098.0664
        48.5004         49.5004
  11799574.86746   9190893.84446  23737712.8594                   23737713.9614
        40.0004         37.0004
  -6273080.25846  -4829793.49645  23678663.0084                   23678661.9574
        41.5004         34.5004
  -3470295.94146  -2681190.66043  24190172.7504                   24190171.7504
        38.7504         21.0004
  -1609657.93448  -1231632.49248  20711195.1884                   20711193.4654
        51.2504         53.0004
 -15084642.40647 -11716218.63745  22248510.0394                   22248503.8714
        46.7504         35.2504
  11601130.28946   9030874.39143  23869141.6174                   23869140.0164
        38.2504         19.2504
 -16586728.33247 -12627419.57445  22076050.6174                   22076047.6954
        44.7504         33.0004
   1281724.78947   1016255.72346  23135712.7274                   23135713.5474
        43.0004         37.0004
 25  6 30 22 52  0.0000000  0  9G10G27G31G01G32G02G23G28G08
   2263936.41448   1765729.65648  21486276.8364                   21486275.5984
        49.2504         49.0004
  11878566.85546   9252445.97346  23752744.5634                   23752745.3954
        40.5004         37.0004
  -6394930.50846  -4924741.53945  23655475.4064                   23655474.5824
        41.2504         34.5004
  -3581538.98446  -2767873.44943  24169004.6174                   24169002.7664
        39.5004         22.5004
  -1587243.90648  -1214167.02748  20715460.7814                   20715458.0084
        51.0004         53.0004
 -15159667.18747 -11774679.46545  22234232.9384                   22234227.7154
        46.7504         34.7504
  11661761.81646   9078119.66843  23880679.2274                   23880678.0514
        39.0004         19.7504
 -16676516.20747 -12697384.05545  22058965.1414                   22058962.3914
        45.5004         33.7504
   1323969.07847   1049173.30945  23143751.4144                   23143751.0984
        42.2504         35.5004
 25  6 30 22 52 30.0000000  0  9G10G27G31G01G32G02G23G28G08
   2280797.59048   1778868.23448  21489485.5394                   21489484.1334
        48.0004         49.7504
  11957640.34846   9314061.56345  23767792.2034                   23767792.9184
        39.7504         35.7504
  -6516739.89547  -5019657.78145  23632296.0634                   23632294.5514
        42.5004         34.0004
  -3692706.65246  -2854497.50043  24147849.7344                   24147848.3914
        40.0004         22.2504
  -1564500.77348  -1196445.10548  20719788.6724                   20719786.3134
        50.7504         52.7504
 -15234379.66047 -11832896.94945  22220016.0394                   22220010.2854
        46.0004         35.5004
  11722493.62146   9125443.08243  23892236.2504                   23892234.8014
        38.5004         19.5004
 -16765960.28547 -12767080.69545  22041944.2424                   22041941.0744
        45.5004         32.7504
   1366558.71147   1082360.00446  23151856.3834                   23151855.7704
        42.7504         36.0004
 25  6 30 22 53  0.0000000  0  9G10G27G31G01G32G02G23G28G08
   2297823.91448   1792135.50448  21492725.3834                   21492723.9304
        48.5004         49.0004
  12036790.65646   9375737.02746  23782853.7194                   23782855.4774
        39.5004         36.0004
  -6638506.83247  -5114540.93745  23609123.9534                   23609123.1214
        42.0004         34.5004
  -3803798.38346  -2941062.39843  24126709.8134                   24126708.2974
        40.2504         22.2504
  -1541431.86348  -1178469.33648  20724178.5314                   20724175.6484
        51.2504         53.0004
 -15308779.53947 -11890870.85945  22205858.1724                   22205852.4534
        46.7504         35.5004
  11783324.28546   9172843.56643  23903811.6334                   23903810.6174
        39.0004         18.5004
 -16855059.35947 -12836508.48045  22024989.1884                   22024986.5204
        46.0004         34.0004
   1409489.65247   1115812.60246  23160025.9224                   23160026.0434
        42.5004         36.0004
 25  6 30 22 53 30.0000000  0  9G10G27G31G01G32G02G23G28G08
   2315017.12948   1805532.80548  21495997.3524                   21495996.0124
        49.7504         49.5004
  12116015.86746   9437470.87546  23797930.0634                   23797931.4184
        39.2504         36.0004
  -6760227.41047  -5209387.95345  23585961.5864                   23585959.9224
        42.0004         34.0004
  -3914810.81246  -3027565.49243  24105584.6484                   24105582.5164
        41.2504         22.7504
  -1518037.81248  -1160240.20348  20728630.2114                   20728627.7854
        51.0004         53.0004
 -15382863.53547 -11948598.61745  22191760.1884                   22191754.6804
        46.7504         35.5004
  11844255.14146   9220322.09443  23915406.7584                   23915406.3714
        39.0004         20.7504
 -16943809.38747 -12905664.28545  22008100.5554                   22008097.0824
        46.0004         33.7504
   1452760.29747   1149529.92246  23168259.4774                   23168260.8634
        42.5004         37.2504
 25  6 30 22 54  0.0000000  0  9G10G27G31G01G32G02G23G28G08
   2332377.26248   1819060.18048  21499300.5944                   21499299.4184
        48.5004         49.5004
  12195312.60546   9499260.44945  23813019.7894                   23813021.2704
        38.0004         35.2504
  -6881899.08247  -5304196.89845  23562807.3524                   23562805.7814
        43.0004         33.5004
  -4025742.22746  -3114005.45743  24084475.3754                   24084473.5204
        41.0004         23.5004
  -1494320.82848  -1141759.44148  20733143.7194                   20733141.4574
        51.0004         53.2504
 -15456630.14847 -12006079.07046  22177722.7814                   22177717.2504
        46.5004         36.0004
  11905285.76246   9267878.34443  23927021.1564                   23927019.9884
        40.0004         19.7504
 -17032208.03547 -12974546.28945  21991278.9694                   21991277.0664
        45.5004         34.2504
   1496367.66447   1183509.60946  23176558.4694                   23176558.7624
        43.0004         37.7504
 25  6 30 22 54 30.0000000  0  9G10G27G31G01G32G02G23G28G08
   2349905.19548   1832718.30948  21502635.9384                   21502634.4264
        48.2504         49.2504
  12274678.06646   9561103.55945  23828122.1804                   23828123.8364
        37.7504         34.7504
  -7003518.43747  -5398965.07845  23539664.8754                   23539663.5434
        42.2504         35.2504
  -4136590.12546  -3200380.37144  24063380.9924                   24063379.6844
        41.0004         24.0004
  -1470282.40648  -1123028.20748  20737717.7814                   20737715.5314
        51.0004         53.0004
 -15530076.88347 -12063310.24645  22163746.3674                   22163740.3754
        46.5004         35.2504
  11966416.60246   9315512.68443  23938653.8754                   23938652.8714
        40.0004         22.0004
 -17120252.20747 -13043152.07845  21974524.3914                   21974521.5164
        45.5004         34.5004
   1540309.35947   1217749.84446  23184919.3914                   23184920.0434
        42.7504         38.0004
 25  6 30 22 55  0.0000000  0  9G10G27G31G01G32G02G23G28G08
   2367605.07048   1846510.41048  21506004.1644                   21506002.6804
        49.0004         49.2504
  12354112.78946   9623000.63745  23843238.3674                   23843239.6214
        37.7504         33.0004
  -7125079.02046  -5493687.39145  23516531.4064                   23516530.5394
        40.0004         33.7504
  -4247348.62147  -3286685.60244  24042304.3834                   24042302.6054
        42.2504         26.7504
  -1445920.64148  -1104045.01648  20742353.7424                   20742351.4344
        52.0004         53.0004
 -15603198.19547 -12120287.86745  22149832.0164                   22149825.8874
        46.2504         35.0004
  12027651.43046   9363228.10943  23950305.9064                   23950305.5904
        40.5004         22.2504
 -17207935.45347 -13111476.61745  21957838.6954                   21957835.9454
        46.2504         34.5004
   1584586.38747   1252251.35546  23193345.7974                   23193345.5864
        42.2504         38.2504
 25  6 30 22 55 30.0000000  0  9G10G27G31G01G32G02G23G28G08
   2385475.85948   1860435.69148  21509404.7194                   21509403.7114
        49.0004         49.5004
  12433612.16446   9684948.10945  23858366.7504                   23858367.8404
        38.5004         34.0004
  -7246579.14846  -5588362.63745  23493410.8134                   23493408.8674
        41.7504         33.5004
  -4358017.16046  -3372920.72744  24021244.4774                   24021242.8324
        41.7504         26.5004
  -1421238.89148  -1084812.49248  20747050.4304                   20747048.1374
        51.2504         52.7504
 -15675993.50447 -12177011.45745  22135979.6094                   22135973.5434
        46.0004         35.2504
  12088988.76246   9411023.34043  23961978.9144                   23961977.9144
        38.5004         21.7504
 -17295256.57047 -13179518.96945  21941222.4384                   21941219.0704
        46.2504         35.0004
   1629194.45746   1287010.83646  23201834.5314                   23201834.8984
        41.0004         37.5004
 25  6 30 22 56  0.0000000  0  9G10G27G31G01G32G02G23G28G08
   2403521.87548   1874497.52348  21512839.1884                   21512837.8324
        49.2504         49.5004
  12513177.02046   9746946.57845  23873508.0084                   23873508.9614
        39.5004         34.5004
  -7368011.80146  -5682985.35245  23470303.4064                   23470301.6484
        41.2504         34.7504
  -4468589.65246  -3459081.02344  24000203.1094                   24000202.0084
        40.5004         26.5004
  -1396235.14848  -1065329.05548  20751808.5234                   20751806.2074
        51.5004         53.0004
 -15748456.91047 -12233476.42645  22122189.8054                   22122183.5744
        46.0004         35.7504
  12150432.66446   9458901.67243  23973670.9304                   23973670.2894
        39.0004         22.2504
 -17382208.98447 -13247274.05545  21924676.0704                   21924672.7384
        46.5004         34.0004
   1674134.78946   1322029.22346  23210386.3674                   23210387.6684
        40.2504         36.7504
 25  6 30 22 56 30.0000000  0  9G10G27G31G01G32G02G23G28G08
   2421736.30948   1888690.58248  21516305.2734                   21516303.2384
        49.2504         49.2504
  12592796.88746   9808987.92645  23888659.2344                   23888660.2114
        40.2504         35.5004
  -7489381.63346  -5777559.03946  23447206.5474                   23447205.4654
        41.0004         36.0004
  -4579071.27346  -3545170.50444  23979179.4534                   23979178.2194
        41.2504         25.0004
  -1370918.62148  -1045601.89148  20756625.9614                   20756623.6844
        52.0004         53.0004
 -15820593.48047 -12289686.71545  22108462.6334                   22108456.7344
        46.2504         35.5004
  12211975.83246   9506857.30543  23985382.5634                   23985381.6564
        38.7504         22.0004
 -17468797.25447 -13314745.35945  21908198.6414                   21908195.6134
        45.7504         34.5004
   1719397.23846   1357298.61746  23218999.8204                   23218999.7774
        40.2504         36.2504
 25  6 30 22 57  0.0000000  0  9G10G27G31G01G32G02G23G28G08
   2440120.07848   1903015.58648  21519803.7814                   21519801.8094
        48.5004         49.0004
  12672469.12146   9871070.08245  23903819.7814                   23903821.7584
        38.7504         34.2504
  -7610685.41846  -5872081.30545  23424124.3594                   23424121.3874
        41.7504         34.5004
  -4689459.37146  -3631187.12944  23958173.5634                   23958171.5274
        41.5004         26.2504
  -1345290.68748  -1025632.07448  20761502.8364                   20761500.8134
        51.2504         53.0004
 -15892401.03947 -12345640.64145  22094798.0234                   22094792.3714
        46.5004         35.5004
  12273618.64846   9554890.60944  23997113.3284                   23997112.1374
        40.5004         24.5004
 -17555018.29347 -13381930.53945  21891791.0234                   21891787.8754
        46.0004         33.5004
   1764979.53146   1392817.23445  23227673.2114                   23227674.5634
        39.5004         35.2504
 25  6 30 22 57 30.0000000  0  9G10G27G31G01G32G02G23G28G08
   2458676.12948   1917474.83648  21523334.4384                   21523332.8754
        48.0004         49.0004
  12752193.06646   9933192.53545  23918990.9774                   23918992.1954
        39.0004         34.7504
  -7731917.37546  -5966547.64545  23401053.3444                   23401051.7814
        40.7504         34.0004
  -4799749.35246  -3717127.29344  23937186.2274                   23937183.9774
        41.5004         25.2504
  -1319350.75848  -1005419.14848  20766439.1724                   20766436.9344
        51.2504         53.2504
 -15963875.16847 -12401334.73446  22081197.4224                   22081191.3754
        46.2504         36.2504
  12335363.80546   9603003.65243  24008862.5084                   24008861.5664
        40.5004         23.7504
 -17640866.93047 -13448825.51245  21875454.4694                   21875452.0744
        45.7504         34.5004
   1810881.37546   1428584.86745  23236408.2584                   23236407.6054
        40.5004         34.0004
 25  6 30 22 58  0.0000000  0  9G10G27G31G01G32G02G23G28G08
   2477407.81648   1932070.95748  21526899.0864                   21526897.4844
        48.2504         49.0004
  12831968.54746   9995355.15645  23934171.7584                   23934172.5274
        40.7504         35.2504
  -7853071.84846  -6060953.54346  23377998.8284                   23377997.6844
        41.7504         37.5004
  -4909936.14147  -3802987.03144  23916218.2974                   23916216.0084
        42.0004         26.0004
  -1293097.79748   -984962.30148  20771434.7034                   20771432.4024
        51.2504         53.0004
 -16035010.87147 -12456765.12945  22067660.3834                   22067654.4414
        46.0004         35.7504
  12397214.15646   9651198.64844  24020632.7114                   24020631.2814
        41.0004         24.0004
 -17726337.58647 -13515425.98445  21859189.9694                   21859186.5474
        45.7504         34.0004
   1857102.85946   1464601.53145  23245203.9694                   23245204.3834
        40.2504         34.7504
 25  6 30 22 58 30.0000000  0  9G10G27G31G01G32G02G23G28G08
   2496315.45748   1946804.17648  21530497.3834                   21530494.7974
        49.2504         48.5004
  12911792.41846  10057555.48845  23949362.4924                   23949362.4694
        40.5004         33.7504
  -7974145.87546  -6155296.76245  23354958.7274                   23354956.6054
        40.0004         33.7504
  -5020017.63347  -3888764.77344  23895270.0784                   23895268.3164
        42.0004         25.2504
  -1266533.83648   -964263.11748  20776489.8054                   20776487.0944
        51.7504         52.7504
 -16105806.50847 -12511930.53946  22054188.6254                   22054182.9104
        46.2504         36.5004
  12459169.53546   9699475.51644  24032422.5634                   24032421.2544
        41.2504         25.7504
 -17811427.77747 -13581729.98845  21842998.0944                   21842994.4494
        45.7504         34.5004
   1903641.08246   1500865.01245  23254059.7814                   23254060.0124
        40.2504         34.7504
 25  6 30 22 59  0.0000000  0  9G10G27G31G01G32G02G23G28G08
   2515400.32048   1961675.47748  21534128.7814                   21534126.6374
        49.0004         48.5004
  12991662.20746  10119791.55545  23964560.9144                   23964561.8094
        39.2504         34.0004
  -8095135.91846  -6249574.54745  23331934.8914                   23331932.7934
        41.0004         34.7504
  -5129990.90246  -3974458.17244  23874342.7664                   23874340.7304
        41.2504         24.0004
  -1239659.92648   -943322.40648  20781603.7504                   20781601.2584
        51.2504         52.5004
 -16176259.23847 -12566828.74246  22040781.8984                   22040775.8014
        45.7504         36.7504
  12521230.87546   9747834.94944  24044231.7664                   24044230.7734
        41.5004         25.5004
 -17896134.04747 -13647734.82045  21826878.8754                   21826875.4494
        46.7504         34.2504
   1950494.02046   1537373.70745  23262976.3134                   23262976.1254
        40.2504         34.2504
 25  6 30 22 59 30.0000000  0  9G10G27G31G01G32G02G23G28G08
   2534662.64847   1976685.08248  21537794.5394                   21537792.8134
        47.7504         48.7504
  13071574.76246  10182060.93445  23979767.8834                   23979769.3134
        40.2504         35.2504
  -8216039.06246  -6343784.65246  23308928.5314                   23308926.0824
        41.7504         37.2504
  -5239854.03946  -4060065.74244  23853436.9924                   23853434.3714
        40.7504         25.0004
  -1212478.19548   -922141.85248  20786776.2034                   20786773.8444
        51.2504         52.7504
 -16246367.29747 -12621458.37546  22027440.5784                   22027434.5634
        46.0004         36.2504
  12583397.93047   9796276.74644  24056062.2114                   24056060.6484
        42.0004         25.7504
 -17980454.02347 -13713438.66845  21810833.6334                   21810830.2704
        46.7504         34.5004
   1997658.64546   1574125.25045  23271950.2734                   23271951.7734
        38.5004         33.5004
 25  6 30 23  0  0.0000000  0  9G10G27G31G01G32G02G23G28G08
   2554102.66848   1991833.14548  21541493.6334                   21541492.0904
        48.0004         48.5004
  13151526.71946  10244361.05545  23994981.7034                   23994983.2544
        39.2504         34.0004
  -8336852.81646  -6437925.04345  23285937.4064                   23285935.5514
        41.7504         34.2504
  -5349604.98446  -4145585.87544  23832551.5704                   23832549.3134
        40.2504         24.5004
  -1184990.84048   -900723.14848  20792007.2504                   20792004.7584
        51.2504         52.7504
 -16316129.20347 -12675818.28546  22014165.0474                   22014159.1994
        47.0004         36.7504
  12645670.44547   9844800.71144  24067913.0704                   24067911.0944
        42.5004         26.5004
 -18064385.33247 -13778839.62545  21794861.7194                   21794858.2034
        46.5004         34.7504
   2045131.83246   1611117.31345  23280984.9384                   23280985.5904
        38.5004         34.5004
 25  6 30 23  0 30.0000000  0  9G10G27G31G01G32G02G23G28G08
   2573722.61748   2007121.40248  21545227.3754                   21545225.5274
        48.7504         48.5004
  13231516.64146  10306690.74645  24010203.8134                   24010205.3054
        38.7504         34.7504
  -8457572.12547  -6531991.94146  23262965.7584                   23262962.8674
        43.5004         36.5004
  -5459239.93446  -4231015.61743  23811688.3444                   23811687.0474
        39.5004         23.7504
  -1157197.94148   -879066.35548  20797295.5394                   20797293.7504
        51.0004         52.7504
 -16385540.77747 -12729905.20346  22000956.9454                   22000950.9024
        47.0004         37.0004
  12708050.19546   9893408.21544  24079782.6484                   24079782.0274
        40.5004         25.2504
 -18147923.65247 -13843934.39145  21778965.1724                   21778960.8364
        46.7504         35.0004
   2092912.43846   1648348.91845  23290077.0784                   23290077.6484
        38.5004         34.0004
 25  6 30 23  1  0.0000000  0  9G10G27G31G01G32G02G23G28G08
   2593516.03148   2022544.83248  21548993.7114                   21548992.2584
        48.0004         49.0004
  13311534.64846  10369042.30945  24025431.5314                   24025432.4964
        40.0004         35.2504
  -8578200.95347  -6625988.26246  23240010.6954                   23240008.7074
        42.2504         36.2504
  -5568763.46546  -4316358.56243  23790846.4224                   23790844.5744
        40.0004         22.7504
  -1129108.33648   -857178.34848  20802640.7344                   20802639.1954
        50.7504         52.5004
 -16454607.35247 -12783723.28946  21987813.6484                   21987807.9344
        46.2504         37.0004
  12770530.30946   9942093.98043  24091672.6804                   24091670.8524
        41.5004         23.0004
 -18231073.21547 -13908726.19945  21763141.8674                   21763139.0004
        46.5004         35.2504
   2140990.82446   1685812.54746  23299226.4774                   23299227.3094
        40.5004         36.7504
 25  6 30 23  1 30.0000000  0  9G10G27G31G01G32G02G23G28G08
   2613488.30947   2038107.64148  21552794.5634                   21552792.6054
        47.5004         49.0004
  13391582.51246  10431417.12545  24040662.9614                   24040664.3794
        39.2504         33.7504
  -8698731.78547  -6719908.23445  23217074.2584                   23217071.7854
        43.2504         35.7504
  -5678168.45346  -4401609.12544  23770027.6094                   23770025.9344
        39.7504         24.7504
  -1100718.99248   -835056.78148  20808043.3754                   20808041.5164
        50.2504         52.5004
 -16523322.31647 -12837267.39146  21974737.9924                   21974732.1844
        45.5004         37.5004
  12833115.71146   9990861.73844  24103582.3674                   24103580.8874
        40.0004         24.0004
 -18313826.56647 -13973209.29345  21747394.1484                   21747391.0164
        46.5004         35.0004
   2189369.07046   1723509.84046  23308433.2274                   23308434.6764
        40.5004         37.7504
 25  6 30 23  2  0.0000000  0  9G10G27G31G01G32G02G23G28G08
   2633639.21147   2053809.62548  21556629.3984                   21556627.3484
        47.7504         49.0004
  13471656.46946  10493812.27745  24055900.8284                   24055901.8164
        39.0004         33.0004
  -8819162.07446  -6813749.90246  23194156.7664                   23194155.5594
        41.7504         36.0004
  -5787453.44146  -4486766.18044  23749231.4224                   23749229.7034
        41.5004         25.0004
  -1072032.49648   -812703.67248  20813502.2274                   20813499.7664
        51.0004         52.5004
 -16591683.86747 -12890536.11746  21961729.0704                   21961723.5274
        46.2504         37.5004
  12895805.71146  10039711.00844  24115511.8364                   24115510.5594
        40.0004         25.5004
 -18396181.87547 -14037382.20746  21731722.8364                   21731719.9024
        46.0004         36.0004
   2238043.53546   1761437.93446  23317695.2734                   23317694.6414
        41.5004         36.7504
 25  6 30 23  2 30.0000000  0  9G10G27G31G01G32G02G23G28G08
   2653972.50447   2069653.73448  21560498.5474                   21560496.9064
        47.7504         49.0004
  13551756.83646  10556228.02745  24071144.0004                   24071145.3204
        39.2504         33.7504
  -8939485.56647  -6907508.24246  23171259.7584                   23171258.4774
        43.5004         37.5004
  -5896612.83246  -4571825.35244  23728459.1724                   23728456.9694
        41.7504         26.0004
  -1043047.45748   -790117.94148  20819018.0314                   20819015.4884
        51.0004         52.5004
 -16659686.88747 -12943525.45346  21948788.5004                   21948782.7304
        46.7504         37.5004
  12958603.57046  10088644.32843  24127462.3134                   24127460.1604
        38.5004         22.0004
 -18478133.25047 -14101240.35945  21716127.6954                   21716124.7344
        46.0004         35.2504
   2287014.65246   1799597.16046  23327013.7814                   23327014.5394
        41.0004         37.0004
 25  6 30 23  3  0.0000000  0  9G10G27G31G01G32G02G23G28G08
   2674490.14147   2085641.49648  21564402.8754                   21564401.3204
        47.2504         48.7504
  13631881.84846  10618662.96945  24086391.3284                   24086393.4804
        39.2504         35.2504
  -9059697.72747  -7001179.92645  23148384.4614                   23148381.3954
        42.5004         35.0004
  -6005642.97346  -4656783.83644  23707711.5314                   23707709.2664
        41.5004         25.7504
  -1013764.38748   -767299.97348  20824590.1644                   20824587.9774
        50.2504         52.5004
 -16727328.39847 -12996233.09846  21935916.7734                   21935911.0394
        46.0004         38.2504
  13021510.81346  10137662.91843  24139433.2974                   24139430.8164
        38.5004         21.5004
 -18559676.73847 -14164780.68745  21700610.6644                   21700607.7034
        46.5004         35.5004
   2336280.98446   1837986.48046  23336388.8364                   23336389.6804
        40.5004         36.5004
 25  6 30 23  3 30.0000000  0  9G10G27G31G01G32G02G23G28G08
   2695188.33248   2101769.94948  21568341.5164                   21568339.9694
        48.2504         49.0004
  13712024.34446  10681111.52745  24101642.6254                   24101643.5634
        40.2504         34.0004
  -9179800.05147  -7094766.02746  23125529.1254                   23125527.2344
        42.5004         36.0004
  -6114545.91047  -4741643.21144  23686987.7814                   23686985.4414
        42.2504         25.2504
   -984189.31248   -744254.46948  20830218.5944                   20830215.8554
        51.2504         52.5004
 -16794610.77047 -13048660.89546  21923112.9614                   21923107.2234
        46.2504         38.0004
  13084523.04746  10186763.27043  24151423.3524                   24151422.8984
        38.2504         22.7504
 -18640814.03147 -14228004.50445  21685170.5164                   21685167.0984
        46.5004         35.2504
   2385835.49246   1876600.30945  23345819.2034                   23345819.1374
        40.2504         34.5004
 25  6 30 23  4  0.0000000  0  9G10G27G31G01G32G02G23G28G08
   2716071.89548   2118042.84448  21572315.6174                   21572314.1094
        48.5004         48.7504
  13792185.51246  10743574.64545  24116896.0784                   24116897.7234
        39.2504         33.5004
  -9299785.12947  -7188260.73446  23102697.4064                   23102694.6524
        43.0004         37.0004
  -6223315.02046  -4826398.30944  23666289.7814                   23666286.9384
        41.7504         25.2504
   -954319.93448   -720979.64148  20835902.0084                   20835900.0354
        51.0004         52.5004
 -16861527.54747 -13100803.81646  21910379.7194                   21910374.1024
        46.0004         37.2504
  13147644.71546  10235948.95343  24163435.9694                   24163434.3164
        39.0004         22.0004
 -18721538.27347 -14290906.47746  21669809.1334                   21669805.8914
        46.5004         36.0004
   2435679.48846   1915439.68445  23355303.1484                   23355305.9104
        40.0004         35.5004
 25  6 30 23  4 30.0000000  0  9G10G27G31G01G32G02G23G28G08
   2737141.12147   2134460.39848  21576324.9614                   21576323.3324
        47.5004         48.5004
  13872362.26646  10806049.90245  24132153.8204                   24132154.5944
        39.2504         31.5004
  -9419650.10247  -7281661.87945  23079886.6094                   23079884.0274
        42.7504         35.5004
  -6331948.28146  -4911047.53944  23645616.9774                   23645615.2544
        41.5004         26.0004
   -924158.27748   -697477.06248  20841641.8594                   20841639.3674
        51.2504         52.5004
 -16928077.16847 -13152660.64146  21897715.6724                   21897709.6604
        46.0004         37.5004
  13210875.62546  10285219.70743  24175467.8834                   24175466.8324
        37.7504         22.2504
 -18801847.21547 -14353484.80545  21654526.6254                   21654523.5664
        46.5004         35.5004
   2485809.98846   1954502.34045  23364843.8364                   23364843.9024
        40.0004         34.0004
 25  6 30 23  5  0.0000000  0  9G10G27G31G01G32G02G23G28G08
   2758401.12948   2151026.64148  21580370.5394                   21580368.7854
        48.5004         48.5004
  13952556.03946  10868538.43045  24147413.6884                   24147415.0474
        37.7504         32.5004
  -9539387.12147  -7374963.31246  23057102.1884                   23057098.8324
        42.5004         36.5004
  -6440438.85946  -4995585.58244  23624972.6174                   23624969.6954
        41.5004         25.5004
   -893701.65648   -673744.64548  20847437.3914                   20847435.4344
        50.7504         52.2504
 -16994253.13747 -13204226.31246  21885122.8984                   21885116.8164
        46.5004         37.7504
  13274220.34446  10334579.13343  24187521.7504                   24187520.4924
        36.5004         20.7504
 -18881733.68047 -14415733.97745  21639325.3364                   21639321.9384
        46.7504         35.5004
   2536228.62146   1993789.52745  23374438.0314                   23374439.2034
        39.0004         35.2504
 25  6 30 23  5 30.0000000  0  9G10G27G31G01G32G02G23G28G08
   2779845.02048   2167736.15248  21584450.9774                   21584449.7544
        48.7504         48.5004
  14032756.53946  10931032.17245  24162676.3834                   24162676.8874
        38.2504         32.2504
  -9659000.73847  -7468168.58246  23034339.7734                   23034337.9104
        43.5004         36.7504
  -6548791.69546  -5080016.28544  23604353.2344                   23604351.2384
        41.2504         26.0004
   -862959.29348   -649789.56248  20853287.5394                   20853285.3204
        51.2504         52.5004
 -17060060.74647 -13255504.95746  21872599.7814                   21872594.2664
        46.2504         37.5004
  13337671.57045  10384021.56343  24199595.0474                   24199594.3054
        34.2504         18.5004
 -18961202.52747 -14477657.68446  21624202.6884                   21624199.7304
        47.2504         36.0004
   2586925.23046   2033293.32446  23384085.1954                   23384086.8244
        40.0004         36.2504
 25  6 30 23  6  0.0000000  0  9G10G27G31G01G32G02G23G28G08
   2801476.76247   2184592.04348  21588567.8524                   21588565.8634
        47.5004         48.2504
  14112964.17646  10993531.48445  24177940.2194                   24177941.0634
        37.7504         33.2504
  -9778484.42647  -7561272.63346  23011603.4224                   23011600.9574
        43.5004         37.5004
  -6657001.13746  -5164335.22744  23583762.0944                   23583759.3324
        41.5004         24.5004
   -831929.65248   -625610.62148  20859192.2344                   20859190.3014
        51.2504         52.5004
 -17125494.87147 -13306492.56646  21860147.6484                   21860142.0784
        47.0004         37.5004
  13401232.67645  10433549.63742  24211690.7894                   24211690.8524
        32.2504         17.2504
 -19040247.84847 -14539251.41045  21609160.6804                   21609157.3754
        46.0004         35.0004
   2637900.35546   2073014.16046  23393786.0634                   23393786.2544
        41.5004         37.5004
 25  6 30 23  6 30.0000000  0  9G10G27G31G01G32G02G23G28G08
   2823295.78147   2201593.87148  21592719.8134                   21592717.9964
        47.0004         48.5004
  14193174.88746  11056033.18445  24193202.4144                   24193204.3634
        37.0004         32.0004
  -9897836.48046  -7654274.03146  22988890.0004                   22988889.0634
        41.5004         37.0004
  -6765066.01647  -5248541.55144  23563198.0164                   23563195.7974
        42.0004         26.5004
   -800615.67648   -601210.12548  20865151.1484                   20865149.2814
        50.7504         52.2504
 -17190554.45747 -13357188.32046  21847767.6484                   21847761.6454
        46.5004         37.2504
  13464902.67645  10483162.55543  24223806.6024                   24223807.1724
        34.7504         19.0004
 -19118868.22347 -14600513.98445  21594199.8984                   21594196.6604
        47.0004         35.5004
   2689150.00046   2112948.85246  23403538.3524                   23403539.6804
        41.5004         37.5004
 25  6 30 23  7  0.0000000  0  9G10G27G31G01G32G02G23G28G08
   2845302.07848   2218741.62148  21596907.4384                   21596905.6724
        48.0004         48.5004
  14273385.15246  11118534.52745  24208466.0784                   24208468.0164
        37.0004         32.5004
 -10017054.10547  -7747170.75446  22966204.5554                   22966202.0164
        44.7504         37.5004
  -6872984.39146  -5332633.71544  23542661.0704                   23542659.3444
        41.5004         26.7504
   -769019.80948   -576589.98448  20871163.5394                   20871161.6844
        51.2504         52.2504
 -17255238.40648 -13407591.38346  21835458.5164                   21835453.0274
        48.2504         38.2504
  13528681.00446  10532859.85242  24235943.8444                   24235943.7774
        36.0004         16.7504
 -19197061.78947 -14661444.00845  21579320.0474                   21579315.8204
        46.5004         34.7504
   2740670.60946   2153094.73445  23413342.0554                   23413343.0664
        39.5004         35.2504
 25  6 30 23  7 30.0000000  0  9G10G27G31G01G32G02G23G28G08
   2867496.49648   2236035.96148  21601130.8984                   21601129.2194
        48.0004         48.5004
  14353592.35246  11181033.49245  24223729.0474                   24223730.8134
        37.7504         33.0004
 -10136134.00447  -7839960.16846  22943543.6954                   22943542.3054
        43.0004         36.7504
  -6980753.59446  -5416609.64144  23522153.0004                   23522150.9534
        41.5004         24.5004
   -737143.55948   -551751.35948  20877229.4774                   20877227.3404
        51.0004         52.5004
 -17319544.40247 -13457699.92646  21823221.6724                   21823216.1644
        47.7504         38.0004
  13592568.10246  10582641.87542  24248101.5164                   24248102.6024
        36.0004         16.2504
 -19274825.62947 -14722039.16846  21564522.0394                   21564519.3754
        47.2504         36.2504
   2792459.85546   2193449.91845  23423196.7504                   23423197.8444
        38.7504         33.7504
 25  6 30 23  8  0.0000000  0  9G10G27G31G01G32G02G23G28G08
   2889883.34047   2253480.24648  21605390.7974                   21605388.9184
        47.5004         48.5004
  14433797.29746  11243530.67645  24238991.8754                   24238993.4224
        37.7504         32.5004
 -10255069.21947  -7932636.80546  22920911.5394                   22920908.9494
        43.0004         38.2504
  -7088367.70346  -5500464.74643  23501675.0634                   23501672.4694
        40.5004         23.5004
   -704985.05948   -526692.80548  20883349.1884                   20883346.7664
        51.0004         52.5004
 -17383466.79747 -13507509.56646  21811057.2504                   21811051.5124
        47.2504         37.5004
  13656567.52746  10632511.50042  24260280.6254                   24260280.7624
        36.7504         16.7504
 -19352153.60947 -14782294.69145  21549806.8594                   21549803.2344
        46.5004         35.5004
   2844518.33246   2234014.88345  23433103.9924                   23433104.2344
        39.5004         33.0004
 25  6 30 23  8 30.0000000  0  9G10G27G31G01G32G02G23G28G08
   2912460.45748   2271072.77748  21609687.1024                   21609685.3634
        48.7504         48.5004
  14513994.31646  11306021.66845  24254252.8754                   24254255.0664
        37.5004         33.2504
 -10373859.44147  -8025200.51646  22898307.0474                   22898303.3954
        43.7504         36.7504
  -7195826.91846  -5584199.10943  23481225.4534                   23481223.5824
        39.2504         23.7504
   -672548.77748   -501417.79748  20889521.5474                   20889519.5594
        50.7504         52.0004
 -17447006.36747 -13557020.90246  21798966.2974                   21798960.5084
        47.5004         37.0004
  13720676.70746  10682466.64142  24272479.6564                   24272479.1334
        36.7504         16.2504
 -19429045.89547 -14842210.70346  21535174.6484                   21535171.8484
        46.5004         36.2504
   2896840.71946   2274785.51245  23443060.7114                   23443060.7034
        41.2504         33.5004
 25  6 30 23  9  0.0000000  0  9G10G27G31G01G32G02G23G28G08
   2935230.60248   2288815.73448  21614020.3984                   21614018.6804
        48.5004         48.7504
  14594182.75046  11368506.00845  24269512.9224                   24269513.9264
        38.7504         33.0004
 -10492499.48447  -8117647.18446  22875729.3134                   22875727.2424
        42.0004         36.7504
  -7303126.70746  -5667809.27343  23460806.9924                   23460805.3284
        40.7504         23.5004
   -639834.44148   -475926.11748  20895746.8054                   20895744.3364
        51.0004         52.0004
 -17510159.15248 -13606230.84846  21786948.8364                   21786943.0634
        48.2504         37.5004
  13784897.87546  10732509.09842  24284701.5314                   24284699.0124
        38.7504         17.7504
 -19505497.91847 -14901783.65645  21520626.2974                   21520623.1884
        47.0004         35.5004
   2949426.14546   2315761.08245  23453067.0084                   23453067.7344
        41.2504         33.7504
 25  6 30 23  9 30.0000000  0  9G10G27G31G01G32G02G23G28G08
   2958193.27048   2306708.71148  21618389.9304                   21618388.1564
        48.5004         48.5004
  14674358.52346  11430980.48845  24284770.0004                   24284771.6844
        38.7504         34.0004
 -10610987.37947  -8209975.27046  22853182.0554                   22853179.4454
        42.2504         36.5004
  -7410265.71946  -5751294.13744  23440420.0704                   23440417.9884
        41.0004         24.7504
   -606844.91848   -450220.00848  20902024.5314                   20902022.5514
        50.7504         52.0004
 -17572924.34847 -13655138.77746  21775005.0864                   21774998.9614
        47.5004         36.7504
  13849230.13346  10782638.12942  24296943.0704                   24296941.3204
        39.7504         16.7504
 -19581508.23447 -14961012.43046  21506162.0864                   21506158.9144
        46.7504         36.2504
   3002270.76246   2356938.62945  23463123.5784                   23463124.6134
        41.7504         34.7504
 25  6 30 23 10  0.0000000  0  9G10G27G31G01G32G02G23G28G08
   2981353.39148   2324755.53948  21622797.4924                   21622795.6374
        48.5004         48.2504
  14754523.12146  11493446.25845  24300024.6334                   24300027.2774
        38.7504         35.2504
 -10729315.44147  -8302178.83646  22830664.7424                   22830662.3134
        43.0004         38.0004
  -7517237.23846  -5834648.50444  23420063.7424                   23420061.7734
        41.5004         26.5004
   -573577.64148   -424297.46948  20908355.0394                   20908353.0474
        51.0004         52.0004
 -17635295.73847 -13703739.83646  21763136.2274                   21763129.9574
        47.5004         36.7504
  13913677.69946  10832856.89543  24309207.3364                   24309205.5784
        40.0004         19.0004
 -19657070.10247 -15019891.77046  21491783.5474                   21491779.3914
        47.7504         36.2504
   3055376.00446   2398319.27045  23473228.6954                   23473229.6454
        41.0004         34.7504
 25  6 30 23 10 30.0000000  0  9G10G27G31G01G32G02G23G28G08
   3004706.32448   2342952.60248  21627240.9384                   21627239.1764
        48.0004         48.2504
  14834668.53946  11555897.05545  24315276.5394                   24315278.3594
        39.2504         34.5004
 -10847485.72747  -8394259.45346  22808177.6564                   22808174.9694
        42.7504         37.2504
  -7624044.02746  -5917874.51244  23399738.9694                   23399736.8094
        41.7504         26.5004
   -540039.72748   -398164.04348  20914737.2274                   20914734.6914
        50.7504         52.0004
 -17697276.52048 -13752036.53946  21751342.1564                   21751335.4144
        48.2504         37.0004
  13978235.46146  10883161.63343  24321492.3134                   24321492.0314
        41.0004         20.0004
 -19732186.31647 -15078423.84446  21477488.7814                   21477485.6294
        47.5004         36.2504
   3108733.79846   2439896.72945  23483382.3834                   23483384.1524
        40.7504         34.7504
 25  6 30 23 11  0.0000000  0  9G10G27G31G01G32G02G23G28G08
   3028258.93848   2361305.27348  21631723.1724                   21631721.6844
        48.7504         48.5004
  14914798.11346  11618335.49245  24330524.3444                   24330526.0664
        39.2504         34.5004
 -10965488.99247  -8486209.93046  22785723.4224                   22785719.7734
        43.7504         38.2504
  -7730677.44946  -6000965.42244  23379447.6954                   23379445.7704
        41.7504         27.5004
   -506226.67648   -371816.22348  20921171.5474                   20921169.3714
        51.0004         52.0004
 -17758858.77047 -13800022.69146  21739622.8444                   21739616.4344
        47.2504         37.0004
  14042909.73446  10933557.09843  24333800.3594                   24333799.4064
        41.7504         22.0004
 -19806848.15647 -15136601.85546  21463281.0164                   21463277.1764
        46.5004         36.0004
   3162347.47746   2481673.55946  23493585.1954                   23493585.6844
        40.5004         36.0004
 25  6 30 23 11 30.0000000  0  9G10G27G31G01G32G02G23G28G08
   3052008.20748   2379811.18848  21636242.3674                   21636240.9844
        49.0004         48.2504
  14994905.39546  11680756.59445  24345767.5394                   24345770.1604
        39.2504         34.0004
 -11083325.57847  -8578030.53546  22763298.8134                   22763296.7894
        42.7504         38.7504
  -7837138.57447  -6083922.07044  23359188.6804                   23359186.3554
        42.7504         26.0004
   -472143.86348   -345258.20348  20927657.4144                   20927654.9024
        51.2504         52.2504
 -17820043.94548 -13847699.43446  21727979.6954                   21727973.4454
        48.2504         37.0004
  14107696.94546  10984040.57443  24346127.8984                   24346127.8714
        39.5004         21.7504
 -19881056.80147 -15194426.73446  21449159.8834                   21449157.0554
        47.0004         36.2504
   3216210.62146   2523644.78145  23503835.2504                   23503836.6564
        39.7504         35.5004
 25  6 30 23 12  0.0000000  0  9G10G27G31G01G32G02G23G28G08
   3075955.07447   2398471.07047  21640799.1564                   21640797.2814
        47.7504         47.5004
  15074987.89546  11743158.35945  24361007.5004                   24361009.5704
        39.0004         33.5004
 -11200992.14146  -8669718.62146  22740907.2424                   22740904.9734
        41.7504         37.7504
  -7943424.69147  -6166742.35944  23338963.0084                   23338959.6294
        42.0004         26.2504
   -437792.74648   -318491.12148  20934194.3754                   20934191.9494
        51.2504         52.0004
 -17880829.90247 -13895065.09446  21716412.4844                   21716406.3014
        47.7504         37.5004
  14172597.49246  11034612.35944  24358478.2114                   24358478.4264
        41.7504         26.0004
 -19954809.50447 -15251896.32446  21435125.1884                   21435121.8094
        47.0004         36.2504
   3270320.71146   2565808.39145  23514132.0314                   23514133.0824
        40.7504         33.2504
 25  6 30 23 12 30.0000000  0  9G10G27G31G01G32G02G23G28G08
   3100102.28148   2417287.04747  21645394.1334                   21645392.1954
        48.0004         47.5004
  15155044.87546  11805540.24645  24376241.4924                   24376244.7234
        38.2504         34.0004
 -11318483.22747  -8761270.01246  22718549.9384                   22718546.6884
        42.0004         38.5004
  -8049531.21547  -6249422.69944  23318770.6724                   23318768.6524
        42.2504         25.5004
   -403173.07448   -291514.76248  20940781.8444                   20940779.9264
        50.5004         52.0004
 -17941212.67648 -13942116.58246  21704922.2974                   21704915.8554
        48.0004         37.5004
  14237613.60946  11085274.19943  24370850.4064                   24370850.2734
        41.2504         22.7504
 -20028101.76647 -15309007.16446  21421177.9694                   21421175.4414
        47.0004         36.0004
   3324676.99646   2608163.85545  23524475.9694                   23524476.0784
        41.0004         31.5004
 25  6 30 23 13  0.0000000  0  9G10G27G31G01G32G02G23G28G08
   3124450.14547   2436259.39847  21650027.4534                   21650026.0864
        47.0004         47.2504
  15235073.27746  11867899.84445  24391470.5634                   24391473.5744
        39.2504         33.7504
 -11435796.07046  -8852682.53146  22696225.9924                   22696222.7584
        41.5004         38.2504
  -8155455.90647  -6331961.37144  23298614.8674                   23298611.4654
        42.2504         26.5004
   -368286.78948   -264330.65648  20947420.8444                   20947418.7074
        50.7504         52.0004
 -18001190.67248 -13988852.66446  21693508.4144                   21693502.1334
        48.0004         37.5004
  14302744.97347  11136025.83644  24383245.0634                   24383245.0434
        42.7504         25.2504
 -20100931.47747 -15365757.54346  21407319.0554                   21407315.0984
        46.5004         36.0004
   3379276.37146   2650708.73845  23534866.1484                   23534865.9064
        40.2504         31.2504
 25  6 30 23 13 30.0000000  0  9G10G27G31G01G32G02G23G28G08
   3148993.78548   2455384.30547  21654698.0474                   21654696.4454
        48.7504         47.5004
  15315064.75446  11930230.68045  24406693.7114                   24406695.4534
        39.0004         34.5004
 -11552932.89547  -8943957.84846  22673935.0474                   22673932.0864
        42.5004         38.5004
  -8261201.81647  -6414360.72344  23278491.4924                   23278489.2974
        42.7504         26.2504
   -333141.27748   -236944.55548  20954108.7424                   20954106.6254
        50.7504         51.7504
 -18060767.69548 -14035276.30546  21682171.5004                   21682165.7814
        48.2504         37.2504
  14367986.25846  11186863.14543  24395659.0704                   24395659.3404
        40.2504         22.7504
 -20173301.78547 -15422149.97346  21393547.2274                   21393543.9454
        44.5004         36.2504
   3434110.27046   2693436.36745  23545300.1884                   23545301.0634
        40.2504         31.0004
 25  6 30 23 14  0.0000000  0  9G10G27G31G01G32G02G23G28G08
   3173738.45348   2474665.84847  21659406.5944                   21659404.7544
        48.5004         47.5004
  15395021.14146  11992534.17245  24421907.9534                   24421910.8594
        39.0004         33.5004
 -11669886.01247  -9035090.06646  22651679.6094                   22651676.8674
        43.0004         38.0004
  -8366761.79747  -6496615.21144  23258404.4614                   23258401.8834
        43.0004         28.7504
   -297733.62548   -209354.19148  20960846.3674                   20960844.2424
        51.2504         52.0004
 -18119936.80148 -14081382.07046  21670911.7814                   21670905.6884
        48.5004         37.0004
  14433341.95346  11237789.59043  24408095.9774                   24408096.2424
        39.5004         22.7504
 -20245205.68447 -15478178.93446  21379864.5474                   21379860.3794
        45.2504         36.0004
   3489180.60246   2736348.24245  23555780.3674                   23555780.6024
        41.2504         33.0004
 25  6 30 23 14 30.0000000  0  9G10G27G31G01G32G02G23G28G08
   3198683.83648   2494103.79747  21664153.6024                   21664151.7114
        48.5004         47.5004
  15474938.76646  12054807.43445  24437116.1254                   24437118.6564
        38.5004         33.5004
 -11786653.24247  -9126077.39846  22629459.5704                   22629456.8364
        43.2504         39.5004
  -8472134.29347  -6578723.60544  23238353.0394                   23238350.3404
        43.5004         28.2504
   -262066.54748   -181561.68448  20967634.0554                   20967631.6214
        51.0004         51.7504
 -18178697.57847 -14127169.67246  21659729.8204                   21659723.7584
        47.5004         37.0004
  14498811.37546  11288804.65644  24420555.4614                   24420554.1254
        41.7504         26.7504
 -20316641.72747 -15533843.34446  21366270.1024                   21366267.2854
        46.0004         36.5004
   3544483.52646   2779441.33945  23566303.5004                   23566305.3134
        40.5004         33.5004
 25  6 30 23 15  0.0000000  0  9G10G27G31G01G32G02G23G28G08
   4799247.46948   3741296.22347  21968730.9614                   21968729.3404
        48.2504         47.7504
  17130229.93846  13344644.50045  24752107.4534                   24752110.1884
        38.2504         32.0004
 -10327809.44547  -7989315.88746  22907068.1804                   22907065.4574
        43.2504         39.5004
  -7001895.53947  -5433082.95744  23518129.7344                   23518127.6994
        42.0004         28.0004
   1349274.76648   1074028.93848  21274262.1884                   21274259.8834
        50.5004         51.7504
 -16661628.51248 -12945037.91046  21948418.6414                   21948412.2304
        48.2504         38.2504
  16139810.10546  12567504.82443  24732826.3054                   24732825.2854
        38.0004         23.0004
 -18812187.47747 -14361541.28146  21652558.5394                   21652555.0594
        45.7504         36.0004
   5175432.13746   4050310.32045  23876662.3984                   23876664.0744
        39.7504         31.5004
 25  6 30 23 15 30.0000000  0  9G10G27G31G01G32G02G23G28G08
   4824593.52348   3761046.37947  21973554.5474                   21973552.6994
        48.7504         47.7504
  17210059.09046  13406848.82045  24767298.9924                   24767302.1644
        38.5004         33.0004
 -10444197.47347  -8080007.75046  22884920.0944                   22884917.0984
        42.5004         39.0004
  -7106888.21947  -5514895.35544  23498149.8914                   23498147.6644
        42.0004         28.2504
   1385452.78148   1102219.58248  21281146.5474                   21281144.3014
        50.5004         52.0004
 -16719569.62947 -12990186.81246  21937392.8984                   21937386.5864
        47.2504         38.5004
  16205504.26246  12618695.09043  24745327.9384                   24745327.1564
        39.7504         22.7504
 -18882683.53947 -14416473.25046  21639143.3674                   21639140.5474
        45.7504         36.5004
   5231189.07446   4093757.23845  23887273.0554                   23887274.0984
        39.2504         32.5004
 25  6 30 23 16  0.0000000  0  9G10G27G31G01G32G02G23G28G08
   4850145.51248   3780957.00447  21978416.4064                   21978414.9924
        49.7504         47.5004
  17289844.50846  13469019.06645  24782481.0554                   24782485.3914
        38.2504         33.0004
 -10560386.79347  -8170544.77346  22862810.1484                   22862807.4304
        43.5004         39.7504
  -7211682.47346  -5596553.14844  23478208.3984                   23478206.1054
        41.5004         28.0004
   1421888.37148   1130610.94548  21288079.6884                   21288078.0704
        51.0004         51.7504
 -16777093.14548 -13035010.31646  21926446.3674                   21926440.2234
        48.0004         37.5004
  16271315.85546  12669976.72743  24757852.0084                   24757850.5204
        39.7504         23.0004
 -18952701.40647 -14471032.59446  21625819.4694                   21625815.8714
        46.7504         36.5004
   5287173.34846   4137381.27045  23897926.8054                   23897928.2974
        39.5004         32.5004
 25  6 30 23 16 30.0000000  0  9G10G27G31G01G32G02G23G28G08
   4875901.86748   3801026.87147  21983317.7344                   21983316.2934
        49.0004         47.5004
  17369581.21946  13531151.35945  24797655.1884                   24797658.2424
        36.5004         33.0004
 -10676376.02047  -8260925.87146  22840737.7734                   22840735.5474
        43.2504         39.7504
  -7316278.07447  -5678056.15644  23458304.7734                   23458301.7734
        42.7504         27.0004
   1458577.44148   1159199.81648  21295061.5314                   21295059.4804
        50.2504         51.7504
 -16834199.82047 -13079509.00846  21915579.4614                   21915573.1764
        47.2504         37.7504
  16337242.24646  12721347.86743  24770396.3914                   24770396.3054
        37.2504         22.7504
 -19022241.03547 -14525219.29746  21612587.1024                   21612583.4574
        46.2504         36.7504
   5343379.92246   4181178.53545  23908622.3204                   23908623.5634
        39.5004         33.2504
 25  6 30 23 17  0.0000000  0  9G10G27G31G01G32G02G23G28G08
   4901858.85548   3821253.07447  21988256.9224                   21988255.7034
        48.5004         47.7504
  17449262.10946  13593240.14145  24812817.8834                   24812820.6804
        36.5004         31.5004
 -10792166.83647  -8351152.38346  22818703.8834                   22818700.4614
        43.5004         39.5004
  -7420676.83247  -5759405.78544  23438437.8364                   23438435.6564
        43.0004         28.0004
   1495513.93848   1187981.50048  21302090.2664                   21302088.3404
        50.5004         51.7504
 -16890892.11347 -13123684.80146  21904791.2734                   21904785.3634
        47.7504         38.2504
  16403279.49645  12772805.37143  24782963.0784                   24782962.4574
        34.2504         19.0004
 -19091304.61347 -14579035.02746  21599444.3914                   21599440.8984
        46.7504         36.7504
   5399801.44946   4225143.28945  23919359.5474                   23919359.8094
        41.2504         33.2504
 25  6 30 23 17 30.0000000  0  9G10G27G31G01G32G02G23G28G08
   4928023.12547   3841640.80547  21993235.7274                   21993234.5354
        47.7504         47.0004
  17528890.50446  13655287.98845  24827971.2814                   24827973.3634
        36.5004         30.7504
 -10907749.55947  -8441216.75846  22796708.8674                   22796705.4964
        44.0004         39.7504
  -7524870.19147  -5840595.35944  23418610.7034                   23418608.3954
        43.5004         28.5004
   1532702.14148   1216959.32048  21309167.1804                   21309165.1334
        50.7504         51.5004
 -16947162.36748 -13167531.73846  21894083.1334                   21894077.0124
        48.0004         38.5004
  16469433.25845  12824353.76243  24795552.5164                   24795551.5434
        35.2504         22.7504
 -19159883.75047 -14632473.28146  21586394.4924                   21586390.9344
        47.0004         36.7504
   5456441.12946   4269278.02045  23930137.3754                   23930138.8244
        40.2504         32.0004
 25  6 30 23 18  0.0000000  0  8G10G27G31G01G32G02G28G08
   4954395.44148   3862190.64847  21998254.2974                   21998253.2274
        48.5004         47.0004
  17608463.81346  13717292.94145  24843113.6094                   24843116.8404
        36.5004         32.0004
 -11023120.60547  -8531116.15646  22774754.3984                   22774751.4344
        44.0004         40.0004
  -7628855.41847  -5921622.76244  23398822.9774                   23398820.6524
        43.2504         29.2504
   1570140.44948   1246132.01648  21316291.0944                   21316288.9184
        50.0004         51.2504
 -17003008.46947 -13211048.15646  21883455.8204                   21883450.2304
        47.7504         38.5004
 -19227976.04747 -14685532.18046  21573436.3444                   21573432.8714
        46.7504         36.0004
   5513296.25046   4313580.62945  23940956.9224                   23940958.2154
        40.0004         33.2504
 25  6 30 23 18 30.0000000  0  9G10G27G31G01G32G02G23G28G08
   4980976.18448   3882902.88347  22003312.7894                   22003311.2304
        48.7504         47.0004
  17687979.05546  13779252.64545  24858245.2734                   24858248.6414
        37.0004         32.0004
 -11138277.60547  -8620848.78146  22752841.0944                   22752837.4024
        44.5004         39.5004
  -7732630.34046  -6002486.29344  23379074.6724                   23379072.6054
        41.5004         26.7504
   1607826.83248   1275498.02048  21323462.7274                   21323460.7774
        50.5004         51.2504
 -17058428.75447 -13254232.77746  21872909.8834                   21872904.3594
        47.2504         38.2504
   3219438.63755  12884661.83653  24820797.8444                   24820794.3484
        33.7504         20.5004
 -19295579.66447 -14738210.28946  21560572.3984                   21560568.6134
        46.5004         36.7504
   5570363.62146   4358048.61745  23951816.3914                   23951818.3094
        40.0004         32.7504
 25  6 30 23 19  0.0000000  0  8G10G27G31G01G32G02G28G08
   5007763.74248   3903776.28147  22008410.2034                   22008408.4884
        48.0004         47.0004
  17767431.27046  13841163.22345  24873364.3134                   24873367.4224
        36.5004         31.5004
 -11253219.44947  -8710413.74246  22730967.4144                   22730965.2074
        43.5004         39.0004
  -7836194.53546  -6083185.60944  23359366.8754                   23359364.9184
        40.7504         27.0004
   1645757.32448   1305054.23448  21330680.5634                   21330678.3794
        50.5004         51.5004
 -17113423.98047 -13297086.17246  21862444.8054                   21862439.3164
        47.2504         39.0004
 -19362694.45747 -14790507.49646  21547800.5084                   21547796.5634
        46.2504         36.5004
   5627638.05546   4402677.98845  23962715.3364                   23962716.4844
        40.7504         33.5004
 25  6 30 23 19 30.0000000  0  9G10G27G31G01G32G02G23G28G08
   5034762.21948   3924814.04747  22013547.7274                   22013546.4414
        48.2504         46.7504
  17846821.26246  13903025.33245  24888471.7034                   24888474.6134
        36.7504         31.0004
 -11367939.28547  -8799805.73446  22709137.6174                   22709134.1134
        45.0004         40.0004
  -7939542.05146  -6163716.06644  23339700.1254                   23339699.1884
        41.0004         29.0004
   1683933.66848   1334802.02348  21337945.3524                   21337943.4104
        50.0004         51.5004
 -17167988.97347 -13339604.33646  21852061.0784                   21852055.3984
        46.7504         38.5004
                                  24846130.6334                   24846127.7584
        27.5004         16.7504
 -19429314.94147 -14842419.55146  21535122.8914                   21535119.2664
        46.0004         37.0004
   5685120.27746   4447469.25045  23973653.7194                   23973655.2814
        39.7504         34.0004
 25  6 30 23 20  0.0000000  0 10G10G27G31G01G03G32G02G23G28G08
   5061969.95748   3946014.87147  22018725.7424                   22018723.7074
        48.0004         47.0004
  17926143.97746  13964835.02745  24903566.8984                   24903569.8834
        37.7504         31.0004
 -11482436.53547  -8889024.28546  22687348.9454                   22687345.9654
        43.2504         39.2504
  -8042672.53547  -6244077.43444  23320076.1414                   23320073.8754
        42.0004         29.0004
   3040857.84056   2388758.33654  24988701.1724                   24988702.2934
        38.5004         26.5004
   1722351.85548   1364738.25448  21345256.1884                   21345254.0474
        50.2504         51.5004
 -17222124.07847 -13381787.51246  21841759.9534                   21841753.9454
        47.0004         38.5004
   3187522.74856  12951115.87554  24858828.9064                   24858826.8554
        38.2504         25.5004
 -19495441.10547 -14893946.39546  21522539.8594                   21522536.0824
        45.5004         37.0004
   5742805.03546   4492418.32845  23984630.6954                   23984632.0204
        41.0004         34.7504
 25  6 30 23 20 30.0000000  0 10G10G27G31G01G03G32G02G23G28G08
   5089376.97748   3967370.97747  22023941.0474                   22023938.8954
        48.5004         47.0004
  18005386.21546  14026581.97345  24918646.3984                   24918649.1724
        38.2504         30.5004
 -11596718.43447  -8978075.00446  22665602.1484                   22665599.1094
        44.0004         40.0004
  -8145594.12547  -6324276.03545  23300490.2114                   23300488.1454
        42.7504         30.2504
   2948073.92646   2316459.24644  24971045.3134                   24971046.2384
        37.0004         26.7504
   1760999.50448   1394853.29748  21352610.5164                   21352608.8364
        50.5004         51.5004
 -17275838.04347 -13423642.53946  21831538.7034                   21831532.5594
        47.0004         38.7504
                                  24871547.328
        29.250
 -19561081.44547 -14945094.68446  21510048.2814                   21510045.6054
        45.2504         37.2504
   5800678.82446   4537514.71945  23995643.6174                   23995645.3834
        40.0004         35.7504
 25  6 30 23 21  0.0000000  0 10G10G27G31G01G03G32G02G23G28G08
   5116971.97747   3988873.55147  22029191.8594                   22029190.1804
        47.5004         47.0004
  18084533.37146  14088254.84844  24933708.5164                   24933710.7734
        38.5004         29.2504
 -11710793.50047  -9066964.57846  22643894.4384                   22643891.2234
        44.5004         40.0004
  -8248316.13747  -6404319.12544  23280943.2974                   23280940.5784
        42.7504         29.2504
   2855225.44146   2244109.83644  24953376.6024                   24953377.5704
        38.5004         28.7504
   1799862.99648   1425136.53148  21360006.1254                   21360003.9774
        50.0004         51.5004
 -17329141.17247 -13465177.43446  21821395.2344                   21821389.2584
        47.2504         38.7504
   3171227.64557  13003547.99253  24884285.6414                   24884281.7384
        42.0004         21.2504
 -19626245.76647 -14995872.05146  21497648.2274                   21497644.6564
        46.2504         37.2504
   5858726.82846   4582746.82045  24006689.4774                   24006692.4144
        39.5004         35.2504
 25  6 30 23 21 30.0000000  0 10G10G27G31G01G03G32G02G23G28G08
   5144766.67648   4010531.74247  22034481.4144                   22034479.5004
        48.2504         47.0004
  18163593.87546  14149860.19944  24948752.5784                   24948755.7344
        38.5004         29.5004
 -11824647.62547  -9155681.97346  22622228.6414                   22622224.6604
        44.5004         39.0004
  -8350824.88347  -6484196.04344  23261436.1884                   23261433.7934
        42.7504         29.0004
   2762323.57446   2171718.82844  24935698.1254                   24935699.2664
        37.0004         29.0004
   1838951.73448   1455595.28548  21367444.1254                   21367442.4844
        50.0004         51.2504
 -17382021.10547 -13506382.56646  21811332.3134                   21811326.3404
        47.5004         38.5004
   3238265.85246  13055785.49643  24897041.8914                   24897040.3634
        40.5004         22.5004
 -19690920.82047 -15046268.16046  21485341.0634                   21485337.9264
        46.5004         37.2504
   5916957.28146   4628121.11745  24017770.9924                   24017772.7854
        39.7504         35.2504
 25  6 30 23 22  0.0000000  0 10G10G27G31G01G03G32G02G23G28G08
   5172761.78947   4032346.09847  22039808.5234                   22039806.8594
        47.7504         47.0004
  18242564.99246  14211395.95345  24963781.1804                   24963784.3834
        40.0004         31.0004
 -11938277.46147  -9244224.64846  22600605.7584                   22600601.9384
        43.7504         40.0004
  -8453117.75047  -6563904.71144  23241970.5864                   23241968.1334
        42.5004         28.7504
   2669368.86346   2099286.66444  24918008.7974                   24918011.3484
        36.7504         29.0004
   1878264.03948   1486228.22748  21374925.7034                   21374923.5784
        50.5004         51.5004
 -17434475.67247 -13547256.24646  21801351.0704                   21801344.6294
        46.7504         39.0004
   3305408.84846  13108104.36342  24909818.5944                   24909818.3444
        36.5004         16.2504
 -19755104.41447 -15096281.32846  21473127.2194                   21473123.3674
        45.5004         38.0004
   5975367.31346   4673635.34845  24028885.9694                   24028888.1094
        40.5004         34.0004
 25  6 30 23 22 30.0000000  0 10G10G27G31G01G03G32G02G23G28G08
   5200960.62947   4054319.19547  22045174.6414                   22045173.0744
        47.2504         47.0004
  18321446.93446  14272862.19945  24978791.6334                   24978795.3094
        39.7504         32.5004
 -12051677.12947  -9332587.91046  22579026.0554                   22579023.1054
        43.2504         40.0004
  -8555189.46547  -6643441.05544  23222547.1804                   23222543.9304
        43.0004         26.5004
   2576364.00446   2026815.43844  24900311.4224                   24900312.7424
        36.5004         28.7504
   1917800.89848   1517036.15648  21382448.9694                   21382446.7814
        50.5004         51.2504
 -17486500.60247 -13587795.14146  21791450.6884                   21791444.3244
        46.2504         39.0004
   3372658.58247  13160507.06343  24922616.2894                   24922618.9964
        42.7504         19.7504
 -19818791.84447 -15145907.86746  21461007.8444                   21461003.9964
        45.5004         36.7504
   6033956.70346   4719289.32045  24040035.4614                   24040037.1414
        40.7504         35.5004
 25  6 30 23 23  0.0000000  0 10G10G27G31G01G03G32G02G23G28G08
   5229366.20347   4076453.38747  22050580.0944                   22050578.3244
        47.7504         47.2504
  18400239.35246  14334258.66445  24993785.1884                   24993788.4694
        40.0004         32.2504
 -12164841.26247  -9420767.66446  22557492.0474                   22557488.6454
        44.5004         40.7504
  -8657035.02347  -6722801.20344  23203166.4534                   23203163.2814
        42.5004         27.7504
   2483311.77745   1954307.28144  24882603.3524                   24882604.7034
        35.0004         26.5004
   1957562.95348   1548019.56348  21390015.5554                   21390013.3284
        50.7504         51.2504
 -17538091.71947 -13627996.00446  21781632.9614                   21781626.8594
        47.7504         38.5004
   3440017.89145  13212994.75843  24935432.8284                   24935435.5554
        35.0004         20.0004
 -19881978.60247 -15195144.27346  21448983.9924                   21448980.2344
        46.7504         37.5004
   6092725.01746   4765082.69445  24051218.7894                   24051220.5944
        41.0004         34.7504
 25  6 30 23 23 30.0000000  0 10G10G27G31G01G03G32G02G23G28G08
   5257982.98448   4098752.16047  22056025.6414                   22056024.2814
        48.0004         47.5004
  18478943.52046  14395586.34045  25008762.3054                   25008764.6414
        39.0004         31.0004
 -12277762.53147  -9508758.19146  22536003.1884                   22535999.5744
        43.2504         38.5004
  -8758647.99647  -6801980.11344  23183829.4774                   23183826.9924
        43.0004         28.0004
   2390216.24245   1881765.38344  24864888.9534                   24864889.8324
        34.5004         26.7504
   1997552.39148   1579180.14848  21397625.1414                   21397622.8164
        50.0004         51.0004
 -17589243.28147 -13667854.35546  21771899.1414                   21771893.4184
        47.2504         38.7504
   3507490.80946  13265570.82843  24948273.7344                   24948275.2234
        40.0004         18.2504
 -19944658.75447 -15243985.92646  21437055.8054                   21437052.3244
        45.7504         37.2504
   6151673.12946   4811016.20345  24062436.6804                   24062438.3984
        40.7504         35.0004
 25  6 30 23 24  0.0000000  0 10G10G27G31G01G03G32G02G23G28G08
   5286815.66848   4121219.14847  22061512.5084                   22061511.0394
        49.0004         47.5004
  18557560.84046  14456846.32845  25023723.4924                   25023725.4804
        38.2504         30.0004
 -12390433.82047  -9596553.89546  22514562.9614                   22514559.2074
        44.5004         40.5004
  -8860021.75047  -6880972.60944  23164539.1804                   23164536.7544
        43.2504         29.2504
   2297081.71545   1809193.06644  24847165.8054                   24847167.0234
        34.0004         27.5004
   2037771.55548   1610519.74248  21405278.7734                   21405276.8164
        50.0004         51.2504
 -17639950.16447 -13707366.20746  21762250.1564                   21762243.8284
        47.7504         38.5004
   3575080.852 7                  24961136.125
        42.000
 -20006826.28947 -15292428.14546  21425225.3914                   21425222.1994
        46.7504         37.0004
   6210802.18846   4857090.72345  24073687.7974                   24073690.4734
        40.5004         35.0004
 25  6 30 23 24 30.0000000  0 10G10G27G31G01G03G32G02G23G28G08
   5315866.09448   4143855.82847  22067040.5164                   22067039.3164
        48.7504         47.2504
  18636089.94546  14518037.58245  25038666.8524                   25038670.5904
        37.0004         30.5004
 -12502850.74247  -9684151.40246  22493170.0634                   22493166.9344
        44.0004         40.5004
  -8961152.48847  -6959775.71944  23145294.7894                   23145292.2894
        42.7504         28.5004
   2203909.73445   1736591.60944  24829435.3444                   24829436.7464
        31.7504         25.0004
   2078219.93448   1642037.94148  21412975.8984                   21412973.6214
        50.2504         51.0004
 -17690209.18047 -13746529.07046  21752686.0634                   21752680.3714
        47.7504         39.5004
   3642789.60246  13336216.62953  24974019.4774                   24974020.0664
        36.5004         19.0004
 -20068477.99247 -15340468.39546  21413493.7034                   21413490.4694
        46.7504         37.0004
   6270110.56646   4903304.97745  24084974.3754                   24084976.0514
        41.0004         35.0004
 25  6 30 23 25  0.0000000  0 10G10G27G31G01G03G32G02G23G28G08
   5345131.64548   4166660.13747  22072609.3284                   22072608.1414
        49.2504         47.2504
  18714525.02746  14579155.56644  25053593.2034                   25053596.5784
        37.0004         29.2504
 -12615013.14547  -9771550.57846  22471826.3674                   22471823.2704
        44.5004         40.7504
  -9062040.78947  -7038389.92244  23126096.1644                   23126093.6174
        42.0004         28.0004
   2110697.33244   1663958.61744  24811696.2114                   24811699.1804
        29.2504         24.0004
   2118892.63348   1673730.94548  21420715.3134                   21420713.2974
        50.2504         50.7504
 -17740021.89148 -13785344.16446  21743207.1254                   21743201.2854
        48.0004         39.2504
   3710613.84846  13389066.50043  24986927.2114                   24986925.2074
        38.7504         19.5004
 -20129615.02747 -15388107.62946  21401860.0944                   21401856.0274
        46.7504         37.0004
   6329592.12546   4949654.15645  24096292.9774                   24096295.5124
        40.7504         34.0004
 25  6 30 23 25 30.0000000  0 10G10G27G31G01G03G32G02G23G28G08
   5374613.47348   4189632.96147  22078219.8674                   22078218.4804
        49.2504         47.2504
  18792863.85946  14640198.56344  25068500.6024                   25068504.1294
        37.0004         29.7504
 -12726917.38347  -9858748.60246  22450531.4454                   22450528.0394
        45.0004         40.5004
  -9162683.66847  -7116812.87944  23106944.0784                   23106941.3404
        42.0004         26.7504
   2017445.19144   1591294.73843  24793950.5164                   24793953.4844
        29.2504         22.5004
   2159788.42648   1705597.78548  21428497.4924                   21428495.7624
        50.0004         50.7504
 -17789386.38348 -13823809.99246  21733813.3524                   21733807.5864
        48.0004         39.5004
   3778553.73847  13442006.63343  24999856.0634                   24999854.9924
        42.2504         20.2504
 -20190234.97347 -15435343.93046  21390324.2814                   21390320.6334
        47.7504         37.0004
   6389244.43446   4996136.36345  24107645.6024                   24107646.5514
        39.7504         32.5004
 25  6 30 23 26  0.0000000  0 10G10G27G31G01G03G32G02G23G28G08
   5404309.09048   4212772.38347  22083870.8054                   22083869.3754
        48.5004         47.0004
  18871100.84046  14701162.16445  25083388.7194                   25083392.3164
        36.0004         30.2504
 -12838563.26647  -9945745.30946  22429286.2344                   22429282.3954
        44.5004         40.5004
  -9263081.47347  -7195044.86744  23087838.7814                   23087836.3444
        42.2504         28.5004
                                  24776197.3054                   24776200.2154
        26.7504         21.5004
   2200902.62548   1737634.80548  21436321.6564                   21436319.8244
        50.0004         51.0004
 -17838303.64147 -13861927.32446  21724504.3284                   21724498.0354
        47.0004         39.0004
   3846606.41446  13495034.85943  25012805.6484                   25012805.0864
        39.0004         20.0004
 -20250338.92647 -15482178.15646  21378886.6884                   21378882.9654
        47.0004         37.0004
   6449061.67246   5042747.06645  24119027.0784                   24119029.6414
        39.5004         31.7504
 25  6 30 23 26 30.0000000  0 10G10G27G31G01G03G32G02G23G28G08
   5434222.85248   4236081.79347  22089562.8674                   22089561.5784
        48.5004         47.0004
  18949237.04345  14762047.23044  25098257.0314                   25098261.3284
        35.5004         29.5004
 -12949944.13347 -10032535.52346  22408090.8674                   22408087.0664
        45.0004         41.2504
  -9363227.89847  -7273080.99644  23068781.4224                   23068779.4104
        43.0004         27.7504
   1830818.07055   1445871.22754  24758438.2814                   24758439.5784
        33.2504         27.2504
   2242237.20348   1769843.54748  21444187.3134                   21444185.1524
        50.5004         50.7504
 -17886769.03548 -13899692.56246  21715281.8284                   21715275.9104
        48.5004         38.7504
   3914775.73045  13548153.51243  25025777.2664                   25025777.5704
        34.2504         19.5004
 -20309921.20747 -15528605.88346  21367548.5394                   21367545.1914
        47.0004         37.5004
   6509044.43046   5089486.75445  24130442.7584                   24130443.9104
        40.0004         32.0004
 25  6 30 23 27  0.0000000  0 10G10G27G31G01G03G32G02G23G28G08
   5464355.40648   4259561.68447  22095297.3134                   22095295.6094
        49.0004         47.0004
  19027270.17245  14822851.95744  25113107.2894                   25113110.7384
        35.5004         28.5004
 -13061056.46147 -10119116.46546  22386946.6024                   22386943.7384
        44.5004         41.7504
  -9463120.31247  -7350919.19944  23049772.4844                   23049769.2894
        42.5004         27.7504
   1737447.42245   1373114.94144  24740670.0784                   24740671.5354
        32.7504         28.0004
   2283790.54748   1802222.75048  21452094.4844                   21452092.5274
        50.5004         50.5004
 -17934780.69548 -13937104.25046  21706145.4304                   21706139.9844
        48.0004         38.7504
   3983061.38346  13601363.01244  25038772.9064                   25038771.8134
        40.0004         26.0004
 -20368979.90647 -15574625.62946  21356310.3284                   21356306.6564
        47.0004         37.2504
   6569189.99246   5136353.32845  24141887.2664                   24141889.0044
        39.5004         31.5004
 25  6 30 23 27 30.0000000  0 10G10G27G31G01G03G32G02G23G28G08
   5494709.69548   4283214.34847  22101073.7734                   22101071.8524
        49.0004         47.0004
  19105199.76245  14883575.98444  25127936.5634                   25127940.3554
        33.7504         26.0004
 -13171894.94947 -10205484.03547  22365855.2664                   22365851.6564
        44.5004         42.2504
  -9562753.76647  -7428555.61744  23030813.3834                   23030810.7384
        43.5004         27.7504
   1644041.41445   1300331.08244  24722894.5004                   24722896.8284
        34.7504         28.5004
   2325563.30948   1834772.93848  21460043.4694                   21460041.3364
        49.7504         50.5004
 -17982334.65247 -13974159.27346  21697096.4144                   21697090.4104
        47.0004         39.0004
   4051465.71946  13654665.07043  25051789.1884                   25051788.5864
        37.5004         21.2504
 -20427510.79347 -15620234.08646  21345172.2584                   21345168.8204
        47.0004         37.5004
   6629497.70346   5183346.27745  24153364.1484                   24153365.6294
        39.0004         32.2504
 25  6 30 23 28  0.0000000  0  9G10G27G31G01G03G32G02G28G08
   5525286.17248   4307040.15247  22106891.7734                   22106890.7624
        48.2504         47.0004
  19183023.09045  14944217.19144  25142746.2034                   25142749.6954
        31.2504         25.0004
 -13282456.36747 -10291635.70746  22344816.0554                   22344811.7114
        45.5004         41.7504
  -9662125.86347  -7505988.37544  23011903.3834                   23011900.6214
        43.0004         29.2504
   1550600.26645   1227519.84444  24705113.4304                   24705115.3634
        34.7504         28.7504
   2367553.62948   1867492.65248  21468033.8674                   21468032.1134
        49.2504         50.7504
 -18029429.52747 -14010856.57446  21688135.0634                   21688128.7154
        47.7504         39.0004
 -20485512.12147 -15665429.90246  21334134.6334                   21334131.6564
        46.2504         37.5004
   6689964.50446   5230463.18045  24164871.0234                   24164872.0004
        38.5004         32.5004
 25  6 30 23 28 30.0000000  0  9G10G27G31G01G03G32G02G28G08
   5556091.19948   4331044.05947  22112754.0234                   22112752.8444
        48.5004         47.0004
  19260743.37545  15004778.08644  25157536.5634                   25157540.6134
        32.5004         27.2504
 -13392732.03947 -10377564.72347  22323831.0554                   22323827.3714
        46.0004         42.2504
  -9761228.25447  -7583210.95344  22993044.6644                   22993042.3634
        42.5004         29.2504
   1457130.00046   1154685.95344  24687326.5474                   24687328.3554
        37.0004         29.5004
   2409765.59048   1900385.06648  21476066.9844                   21476064.7154
        49.5004         50.5004
 -18076058.07847 -14047190.49646  21679261.5634                   21679254.8634
        46.2504         38.0004
 -20542976.39547 -15710207.21546  21323199.7894                   21323196.3594
        46.5004         37.2504
   6750593.30146   5277706.29745  24176407.4304                   24176409.8954
        37.5004         30.7504
 25  6 30 23 29  0.0000000  0  9G10G27G31G01G03G32G02G28G08
   5587135.05947   4355234.05947  22118661.5784                   22118660.3634
        47.5004         47.0004
  19338367.98045  15065264.43044  25172307.1254                   25172312.7734
        33.0004         27.0004
 -13502708.80147 -10463260.83647  22302903.1804                   22302899.6214
        45.0004         42.0004
  -9860048.63346  -7660213.77745  22974239.4694                   22974237.3984
        41.5004         30.0004
   1363640.71946   1081837.25045  24669536.3284                   24669538.4454
        37.7504         30.5004
   2452207.25448   1933456.48048  21484143.3754                   21484140.9264
        49.7504         50.2504
 -18122209.19147 -14083152.40646  21670479.2894                   21670473.3014
        47.2504         39.0004
 -20599892.00847 -15754557.02046  21312369.0944                   21312365.3324
        45.2504         37.7504
   6811390.84046   5325080.89544  24187977.2974                   24187978.5004
        36.7504         27.7504
 25  6 30 23 29 30.0000000  0  9G10G27G31G01G03G32G02G28G08
   5618423.53948   4379614.66847  22124615.3524                   22124613.8284
        48.2504         47.0004
  19415899.12145  15125677.98044  25187061.3594                   25187065.7974
        32.7504         26.0004
 -13612378.46147 -10548717.65246  22282033.6484                   22282029.7774
        45.2504         41.7504
  -9958579.18047  -7736990.75844  22955489.4454                   22955487.6524
        42.5004         29.5004
   1270137.90246   1008978.00845  24651744.0864                   24651745.2734
        38.7504         31.2504
   2494882.05148   1966709.54748  21492263.8914                   21492261.9104
        49.2504         50.2504
 -18167876.26247 -14118737.12546  21661789.0314                   21661782.6094
        47.0004         38.2504
 -20656252.07447 -15798473.93046  21301644.1564                   21301640.1644
        46.2504         37.7504
   6872359.33646   5372588.73844  24199579.9614                   24199580.4614
        38.5004         29.0004
 25  6 30 23 30  0.0000000  0  9G10G27G31G01G03G32G02G28G08
   5649953.46148   4404183.41847  22130615.4694                   22130614.0234
        48.5004         47.0004
  19493330.85245  15186014.00044  25201796.7814                   25201800.6564
        35.5004         29.0004
 -13721741.78147 -10633935.74247  22261222.8284                   22261219.3834
        45.2504         42.7504
 -10056821.04347  -7813542.80144  22936794.8674                   22936792.5824
        42.5004         29.7504
   1176618.16846    936105.53945  24633947.3444                   24633948.2814
        39.7504         30.5004
   2537784.66848   2000140.13748  21500428.4224                   21500426.6524
        50.0004         51.0004
 -18213061.14847 -14153946.12146  21653190.3834                   21653184.4964
        46.2504         38.0004
 -20712058.43447 -15841959.39546  21291024.6414                   21291020.6994
        46.5004         37.2504
   6933492.22346   5420224.60545  24211212.6484                   24211214.7304
        38.0004         30.0004
 25  6 30 23 30 30.0000000  0  9G10G27G31G01G03G32G02G28G08
   5681720.57448   4428936.98847  22136660.4774                   22136658.9414
        48.5004         47.0004
  19570655.60245  15246266.68044  25216511.7274                   25216515.7504
        35.5004         29.0004
 -13830800.27347 -10718916.31246  22240469.7894                   22240465.1024
        44.7504         41.5004
 -10154776.50847  -7889871.68745  22918154.9454                   22918152.1644
        43.0004         30.0004
   1083076.95746    863216.34045  24616147.3134                   24616148.4734
        39.5004         30.7504
   2580908.48848   2033743.09448  21508634.7504                   21508632.6954
        49.2504         51.2504
 -18257767.57447 -14188782.28946  21644682.8594                   21644676.7814
        46.2504         39.0004
 -20767314.31647 -15885015.89546  21280509.9454                   21280505.5904
        47.0004         38.0004
   6994781.60246   5467982.44144  24222875.5944                   24222877.5704
        37.2504         29.7504
 25  6 30 23 31  0.0000000  0  9G10G27G31G01G03G32G02G28G08
   5713722.14848   4453873.25847  22142750.1724                   22142749.0354
        48.7504         47.0004
  19647867.65246  15306431.55945  25231204.1254                   25231209.1954
        36.7504         30.0004
 -13939553.75047 -10803659.21947  22219773.8444                   22219770.7584
        44.5004         42.2504
 -10252446.25447  -7965977.94545  22899569.0864                   22899566.3364
        43.5004         31.0004
    989511.39146    790308.16444  24598341.8284                   24598343.0474
        39.5004         29.2504
   2624248.60548   2067514.60248  21516881.7974                   21516880.2424
        49.0004         50.5004
 -18301997.24247 -14223246.95746  21636266.4454                   21636260.7584
        46.5004         38.2504
 -20822021.20347 -15927644.62146  21270099.3134                   21270095.6884
        47.2504         38.2504
   7056221.35546   5515857.45345  24234566.8364                   24234569.1764
        38.0004         30.2504
 25  6 30 23 31 30.0000000  0  9G10G27G31G01G03G32G02G28G08
   5745955.22748   4478989.91847  22148883.9144                   22148882.7814
        48.0004         46.7504
  19724961.02346  15366503.95745  25245876.0864                   25245880.5044
        38.2504         30.0004
 -14048003.07447 -10888165.12146  22199136.6254                   22199133.0354
        45.2504         41.7504
 -10349831.12547  -8041862.21945  22881037.6644                   22881034.7194
        43.5004         30.5004
    895918.37146    717378.59444  24580531.4144                   24580533.0004
        39.7504         29.5004
   2667799.83648   2101450.60948  21525169.2194                   21525167.2664
        49.0004         50.0004
 -18345752.32847 -14257341.83246  21627940.3284                   21627934.4064
        46.5004         38.2504
 -20876180.86747 -15969846.93746  21259793.1174                   21259789.2304
        46.7504         37.5004
   7117805.00446   5563844.64145  24246286.3834                   24246287.5204
        39.7504         30.0004
 25  6 30 23 32  0.0000000  0  9G10G27G31G01G03G32G02G28G08
   5778419.17248   4504286.47347  22155061.6644                   22155060.3524
        48.2504         46.7504
  19801931.82846  15426480.84445  25260523.6024                   25260527.6374
        38.0004         30.2504
 -14156146.19547 -10972432.43747  22178558.0864                   22178554.1764
        45.0004         42.5004
 -10446929.84847  -8117523.52345  22862560.1884                   22862557.2704
        43.0004         30.5004
    802296.93446    644426.85944  24562716.6024                   24562717.1484
        38.5004         29.5004
   2711559.28148   2135548.85948  21533496.2424                   21533494.1454
        48.2504         49.7504
 -18389032.64147 -14291066.74246  21619704.5784                   21619698.5984
        46.5004         38.7504
 -20929792.96947 -16011622.57446  21249590.6174                   21249586.8794
        47.0004         37.7504
   7179528.47746   5611940.76245  24258032.4614                   24258033.8094
        40.5004         32.2504
 25  6 30 23 32 30.0000000  0  9G10G27G31G01G03G32G02G28G08
   5811117.13748   4529765.37947  22161283.7974                   22161281.9964
        48.0004         46.2504
  19878780.21146  15486362.31644  25275147.2814                   25275152.0944
        36.5004         29.2504
 -14263977.40647 -11056456.67647  22158038.0394                   22158034.7704
        45.5004         42.5004
 -10543737.21547  -8192957.79345  22844137.6564                   22844135.6804
        43.0004         30.7504
    708649.98846    571455.28545  24544895.5944                   24544897.2544
        39.5004         30.2504
   2755527.87948   2169810.07448  21541863.5164                   21541860.9224
        49.5004         50.0004
 -18431834.23047 -14324418.62946  21611559.3984                   21611553.8284
        46.7504         39.2504
 -20982853.22747 -16052968.21546  21239493.8834                   21239489.9384
        46.7504         37.2504
   7241391.38746   5660145.48845  24269803.7424                   24269806.6684
        39.7504         31.2504
 25  6 30 23 33  0.0000000  0  9G10G27G31G01G03G32G02G28G08
   5844047.95748   4555425.73447  22167550.7734                   22167548.8364
        48.5004         46.5004
  19955501.96546  15546145.09845  25289747.5004                   25289751.4804
        37.0004         30.0004
 -14371495.03147 -11140236.59846  22137577.8674                   22137574.2504
        45.0004         41.2504
 -10640252.34047  -8268164.32845  22825771.5394                   22825769.0514
        43.0004         30.0004
    614976.32046    498462.85945  24527070.4224                   24527071.8204
        38.7504         30.0004
   2799702.23848   2204231.62948  21550269.1414                   21550267.8404
        50.5004         50.2504
 -18474157.29747 -14357397.63346  21603505.7814                   21603499.7774
        47.5004         39.0004
 -21035361.77047 -16093883.93746  21229502.3054                   21229498.3794
        47.5004         37.5004
   7303389.05546   5708455.23445  24281602.5704                   24281604.3954
        40.0004         31.7504
 25  6 30 23 33 30.0000000  0  9G10G27G31G01G03G32G02G28G08
   5877209.42248   4581265.80947  22173861.0234                   22173859.2814
        48.2504         46.0004
  20032091.82446  15605825.11744  25304322.5394                   25304325.9574
        36.7504         28.5004
 -14478699.10947 -11223772.15647  22117177.6484                   22117174.1374
        45.7504         42.5004
 -10736475.40647  -8343143.30144  22807460.6254                   22807458.0314
        42.2504         29.7504
    521273.43046    425447.69944  24509239.5314                   24509240.4454
        37.7504         27.5004
   2844077.95748   2238810.08648  21558713.8754                   21558712.3054
        50.0004         50.2504
 -18516003.46547 -14390005.03146  21595542.9694                   21595536.6564
        47.7504         39.0004
 -21087319.71947 -16134370.62946  21219614.1174                   21219610.6684
        47.2504         37.0004
   7365515.78146   5756865.58245  24293424.2504                   24293426.1724
        39.7504         31.0004
 25  6 30 23 34  0.0000000  0  9G10G27G31G01G03G32G02G28G08
   5910603.92248   4607287.46947  22180216.0864                   22180214.1994
        49.0004         46.2504
  20108549.11345  15665401.83644  25318871.0314                   25318875.9844
        34.5004         27.0004
 -14585584.43747 -11307059.39847  22096838.1174                   22096834.4024
        46.0004         42.0004
 -10832401.96547  -8417891.22745  22789206.8754                   22789203.7424
        43.5004         30.0004
    427543.62146    352411.59044  24491403.1564                   24491403.8444
        37.0004         28.0004
   2888655.21548   2273545.60248  21567196.6414                   21567195.3444
        50.0004         50.0004
 -18557369.35548 -14422238.19146  21587671.0554                   21587664.9064
        48.0004         38.7504
 -21138723.65647 -16174425.62146  21209832.3364                   21209829.3634
        47.5004         38.0004
   7427770.52046   5805375.64145  24305270.5784                   24305273.1484
        39.0004         30.2504
