     2.11           OBSERVATION DATA    G (GPS)             RINEX VERSION / TYPE
teqc  2019Feb25     K Rivera            20250804 23:58:32UTCPGM / RUN BY / DATE
Linux 2.6.32-573.12.1.x86_64|x86_64|gcc -static|Linux 64|=+ COMMENT
teqc  2019Feb25                         20250804 23:52:32UTCCOMMENT
BIT 2 OF LLI FLAGS DATA COLLECTED UNDER A/S CONDITION       COMMENT
SUNH                                                        MARKER NAME
                                                            MARKER NUMBER
K Baraggiotta       University of California, Riverside     OBSERVER / AGENCY
4549261310          TRIMBLE NETRS       1.3-2               REC # / TYPE / VERS
12606420            TRM41249.00                             ANT # / TYPE
 -2441455.3851 -4658103.3612  3598097.8843                  APPROX POSITION XYZ
        1.0789        0.0000        0.0000                  ANTENNA: DELTA H/E/N
     1     1                                                WAVELENGTH FACT L1/2
     7    L1    L2    C1    P1    P2    S1    S2            # / TYPES OF OBSERV
    18                                                      LEAP SECONDS
 SNR is mapped to RINEX snr flag value [0-9]                COMMENT
  L1 & L2: min(max(int(snr_dBHz/6), 0), 9)                  COMMENT
  2025     7    14    22    19   30.0000000     GPS         TIME OF FIRST OBS
                                                            END OF HEADER
 25  7 14 22 19 30.0000000  0  6G02G08G27G10G28G23
     -1161.18657     37459.16955  23225970.2194                   23225959.2154
        43.2504         30.5004
    154675.80457    125787.22756  22744251.2034                   22744245.1804
        43.0004         37.0004
    247017.25457    179296.01156  22802583.2664                   22802577.2424
        42.5004         38.7504
    150587.66658    125101.10458  21292857.2584                   21292849.5944
        50.5004         48.2504
    -46292.81457     20761.82154  23240678.8364                   23240671.5234
        43.0004         26.5004
    212814.31656    156156.96354  23116426.6334                   23116418.5004
        41.5004         27.0004
 25  7 14 22 19 45.0000000  0  8G18G02G08G27G10G28G23G32
    282019.89056    200109.31654  24445933.9924                   24445927.3244
        41.0004         25.5004
    -42052.07447      5596.15845  23218188.2034                   23218178.0204
        43.0004         30.5004
    166762.31047    135205.26146  22746551.2114                   22746545.3054
        42.5004         37.2504
    285099.48847    208970.44146  22809830.1644                   22809824.1994
        42.0004         39.2504
    158393.13348    131183.27548  21294342.6564                   21294335.4024
        50.2504         48.5004
    -94781.32147    -17021.37344  23231451.5704                   23231443.9064
        43.0004         26.7504
    244496.93447    180844.67644  23122455.5784                   23122447.9144
        42.0004         26.7504
    152944.21158    126849.49758  20541081.4224                   20541073.5824
        52.0004         52.0004
 25  7 14 22 20  0.0000000  0  8G18G02G08G27G10G28G23G32
    334083.38646    240678.19744  24455841.4694                   24455834.9184
        40.0004         25.5004
    -82897.17647    -26231.18545  23210416.1334                   23210405.5394
        43.7504         30.5004
    178971.75047    144719.09146  22748874.9144                   22748868.4224
        43.0004         36.7504
    323253.64347    238700.91846  22817091.2114                   22817084.9534
        42.5004         38.5004
    166235.89848    137294.50748  21295835.1884                   21295827.6994
        50.5004         48.5004
   -143230.48247    -54773.93344  23222231.9144                   23222223.9574
        43.0004         27.0004
    276204.09646    205551.53344  23128489.5944                   23128481.1094
        41.0004         27.0004
    156265.29248    129437.34948  20541713.4844                   20541705.5864
        51.5004         51.7504
 25  7 14 22 20 15.0000000  0  9G18G02G08G27G31G10G28G23G32
    386186.97446    281278.25143  24465756.3834                   24465749.7734
        39.0004         22.7504
   -123700.55647    -58026.01645  23202651.3284                   23202640.6764
        43.5004         30.2504
    191299.61947    154325.19646  22751220.6564                   22751214.3984
        43.0004         37.0004
    361475.15447    268483.88046  22824364.3444                   22824358.1454
        42.0004         38.5004
     18055.85555     46311.71053  25087311.3914                   25087310.1174
        33.5004         18.2504
    174111.72948    143431.50648  21297334.4144                   21297326.3984
        50.2504         48.5004
   -191644.15647    -92498.79744  23213019.3984                   23213011.5004
        43.0004         27.7504
    307931.59746    230274.23044  23134526.5634                   23134518.4884
        41.2504         26.5004
    159690.96648    132106.69848  20542365.4614                   20542357.3284
        51.7504         51.7504
 25  7 14 22 20 30.0000000  0  9G18G02G08G27G31G10G28G23G32
    438338.12846    321915.43443  24475679.6414                   24475674.2034
        39.7504         22.5004
   -164454.10647    -89782.01345  23194896.3364                   23194885.6254
        44.5004         30.0004
    203753.55947    164029.55546  22753590.5004                   22753584.3014
        42.5004         37.2504
    399771.44247    298325.11146  22831651.5784                   22831645.6724
        42.5004         38.0004
    -36942.12745      3456.41043  25076846.5704                   25076844.2424
        33.0004         20.0004
    182028.47148    149600.38848  21298840.8914                   21298832.2894
        49.5004         48.7504
   -240014.10547   -130189.61044  23203814.9614                   23203807.2974
        43.0004         27.5004
    339687.19646    255018.80644  23140569.1094                   23140561.3874
        41.5004         25.2504
    163228.83248    134863.46648  20543038.8524                   20543030.6604
        51.0004         51.7504
 25  7 14 22 20 45.0000000  0  9G18G02G08G27G31G10G28G23G32
    490533.25046    362586.89643  24485613.0784                   24485606.6454
        38.5004         22.5004
   -205160.93447   -121501.59945  23187149.7664                   23187139.6994
        44.2504         30.5004
    216329.97447    173829.32946  22755983.8594                   22755977.7194
        42.7504         37.2504
    438138.69346    328221.63746  22838952.5634                   22838946.5984
        41.5004         38.0004
    -91971.43045    -39423.33743  25066374.8284                   25066372.2664
        33.0004         20.2504
    189982.74648    155798.51448  21300354.5394                   21300346.1724
        50.2504         48.5004
   -288343.42747   -167848.76844  23194618.7274                   23194610.3014
        43.0004         28.5004
    371467.57946    279782.69244  23146617.0004                   23146608.9844
        41.0004         26.5004
    166875.37348    137704.91848  20543732.6484                   20543724.2814
        52.2504         51.5004
 25  7 14 22 21  0.0000000  0  9G18G02G08G27G31G10G28G23G32
    542771.55646    403291.98743  24495553.4384                   24495547.0044
        38.2504         21.7504
   -245821.29647   -153184.98045  23179412.6724                   23179402.2544
        44.2504         30.7504
    229027.99547    183723.87046  22758399.6484                   22758393.9184
        42.0004         37.0004
    476575.94947    358172.70746  22846266.6334                   22846260.7854
        42.0004         38.0004
   -147032.30145    -82327.69143  25055895.7734                   25055893.9734
        33.2504         19.2504
    197974.01548    162025.46148  21301875.1484                   21301866.8404
        50.7504         48.5004
   -336632.28147   -205476.39444  23185428.8834                   23185421.8634
        43.0004         28.5004
    403272.13846    304565.42844  23152668.9224                   23152661.1994
        41.7504         26.2504
    170629.84448    140630.47348  20544447.0554                   20544439.0394
        51.0004         51.5004
 25  7 14 22 21 15.0000000  0  9G18G02G08G27G31G10G28G23G32
    595052.84246    444030.56943  24505501.2664                   24505495.8874
        37.2504         21.5004
   -286435.15547   -184832.12745  23171684.2504                   23171673.0124
        44.5004         30.2504
    241847.53147    193713.10146  22760838.9304                   22760833.6684
        42.0004         37.2504
    515082.87247    388178.06146  22853594.5944                   22853588.6294
        42.7504         38.0004
   -202124.46145   -125256.40543  25045413.2814                   25045410.2504
        33.2504         19.7504
    206002.29148    168281.25248  21303403.1094                   21303394.6844
        50.5004         48.2504
   -384880.27047   -243072.15244  23176247.1884                   23176240.1094
        43.0004         27.2504
    435100.91646    329367.04144  23158725.6484                   23158718.1024
        41.0004         25.5004
    174492.06848    143639.99648  20545182.1484                   20545173.8404
        51.7504         51.5004
 25  7 14 22 21 30.0000000  0  9G18G02G08G27G31G10G28G23G32
    647376.73746    484802.33143  24515458.7424                   24515453.0704
        36.2504         21.5004
   -327002.07547   -216442.69344  23163964.3754                   23163953.8404
        44.2504         29.5004
    254788.14247    203796.69146  22763301.7424                   22763296.0704
        42.5004         36.7504
    553658.89747    418237.27346  22860935.5704                   22860929.4304
        42.5004         38.2504
   -257247.58645   -168209.27143  25034922.6724                   25034920.2854
        32.5004         20.7504
    214067.52548    174565.83548  21304937.7504                   21304929.4414
        50.5004         48.5004
   -433087.15547   -280635.91544  23167073.8444                   23167066.1804
        43.7504         27.2504
    466953.78046    354187.41944  23164787.4774                   23164779.4614
        41.0004         26.7504
    178461.77348    146733.26548  20545937.5554                   20545929.4224
        52.2504         51.5004
 25  7 14 22 21 45.0000000  0  9G18G02G08G27G31G10G28G23G32
    699743.42145    525607.45343  24525422.9224                   24525418.0164
        34.7504         19.5004
   -367521.54647   -248016.29244  23156253.6094                   23156242.7234
        44.5004         29.5004
    267850.07247    213974.79446  22765786.9454                   22765781.3914
        42.5004         37.2504
    592304.05047    448350.33846  22868289.1884                   22868283.0474
        42.5004         39.0004
   -312401.01545   -211185.71843  25024427.1094                   25024425.4264
        32.5004         19.7504
    222170.10248    180879.52448  21306479.3984                   21306471.2664
        50.7504         48.2504
   -481252.14747   -318167.02144  23157908.5474                   23157900.8244
        43.0004         26.5004
    498831.17847    379026.93944  23170853.5864                   23170845.7464
        42.2504         25.5004
    182539.21648    149910.49248  20546713.3754                   20546704.9494
        52.2504         51.5004
 25  7 14 22 22  0.0000000  0  9G18G02G08G27G31G10G28G23G32
    752152.81345    566445.82243  24535397.1724                   24535391.2664
        34.2504         19.2504
   -407993.18447   -279552.61645  23148552.1804                   23148541.5274
        44.5004         30.2504
    281033.17647    224247.31946  22768296.2034                   22768290.6484
        42.2504         37.5004
    631018.03346    478517.04546  22875656.3444                   22875650.4964
        41.7504         38.7504
   -367584.28655   -254185.42953  25013925.9144                   25013923.7034
        32.2504         20.0004
    230310.14548    187222.41048  21308028.7584                   21308020.0984
        50.0004         48.0004
   -529374.76147   -355665.12844  23148751.2344                   23148742.7504
        42.7504         27.0004
    530733.18446    403885.60444  23176923.7664                   23176916.1604
        41.5004         24.2504
    186724.28548    153171.57948  20547509.8754                   20547501.4494
        51.2504         51.5004
 25  7 14 22 22 15.0000000  0  9G18G02G08G27G31G10G28G23G32
    804603.61646    607316.50043  24545377.5944                   24545372.0984
        36.0004         20.2504
   -448417.76547   -311052.26845  23140859.6254                   23140848.9734
        44.5004         30.2504
    294336.27346    234613.35446  22770827.4924                   22770821.6454
        41.2504         37.2504
    669799.53346    508736.35846  22883036.2734                   22883030.4264
        41.2504         38.5004
   -422798.29645   -297209.06943  25003419.6414                   25003416.4344
        32.7504         19.0004
    238486.72148    193593.76248  21309584.2974                   21309575.9884
        50.0004         48.2504
   -577455.62847   -393130.66544  23139601.3204                   23139593.4804
        43.2504         26.5004
    562658.85947    428762.70844  23182999.4384                   23182991.2464
        42.0004         26.2504
    191015.86848    156515.66348  20548326.4064                   20548318.1564
        52.7504         51.7504
 25  7 14 22 22 30.0000000  0  9G18G02G08G27G31G10G28G23G32
    857097.24045    648220.48343  24555367.7114                   24555361.2774
        32.0004         18.5004
   -488793.50247   -342513.86445  23133176.7734                   23133165.4774
        45.0004         30.2504
    307760.73347    245073.94746  22773382.0474                   22773376.3754
        42.7504         37.0004
    708649.63747    539009.13246  22890429.3754                   22890423.1174
        42.2504         38.2504
   -478040.82345   -340254.98543  24992905.4694                   24992904.0784
        32.2504         20.0004
    246701.42248    199994.82148  21311148.1334                   21311139.6484
        50.5004         48.2504
   -625492.80747   -430562.17044  23130460.0004                   23130452.1604
        42.5004         28.2504
    594609.78746    453659.49944  23189079.4614                   23189071.5044
        41.7504         26.0004
    195415.41948    159943.87648  20549163.9064                   20549155.4804
        52.0004         51.7504
 25  7 14 22 22 45.0000000  0  9G18G02G08G27G31G10G28G23G32
    909632.21945    689156.77242  24565364.1954                   24565359.2304
        34.2504         17.7504
   -529121.22747   -373938.04845  23125501.7974                   23125491.3794
        45.5004         30.5004
    321305.11247    255627.99146  22775959.8754                   22775954.0864
        43.0004         37.2504
    747566.87947    569334.22046  22897834.9694                   22897828.9454
        42.0004         38.2504
   -533312.77445   -383323.78643  24982388.6174                   24982385.5274
        32.7504         19.7504
    254953.11248    206424.69448  21312718.2584                   21312709.8324
        50.7504         48.0004
   -673487.04447   -467960.22744  23121327.3754                   23121318.8914
        43.2504         27.2504
    626584.76747    478575.01544  23195165.0164                   23195155.8874
        42.0004         24.5004
    199921.49448    163455.09948  20550021.3054                   20550012.6454
        52.5004         51.7504
 25  7 14 22 23  0.0000000  0  9G18G02G08G27G31G10G28G23G32
    962208.47545    730125.12843  24575369.6334                   24575364.0204
        34.7504         19.2504
   -569400.58947   -405324.54845  23117837.5004                   23117826.4964
        45.5004         30.2504
    334969.32147    266275.41046  22778560.2424                   22778553.8674
        42.7504         36.7504
    786550.87447    599711.32146  22905253.2974                   22905247.6844
        42.5004         38.5004
   -588613.97145   -426415.40643  24971863.8754                   24971861.9574
        34.2504         21.0004
    263241.93048    212883.51048  21314295.4614                   21314287.4454
        51.0004         48.5004
   -721437.93747   -505324.51744  23112202.4304                   23112193.9454
        43.0004         26.5004
    658583.98446    503509.47044  23201253.5314                   23201245.5164
        41.5004         24.5004
    204534.08448    167049.31548  20550899.0784                   20550890.5944
        52.5004         51.7504
 25  7 14 22 23 15.0000000  0  9G18G02G08G27G31G10G28G23G32
   1014825.96246    771125.71143  24585382.7504                   24585376.8444
        36.5004         19.0004
   -609631.24547   -436673.09545  23110181.6644                   23110170.4844
        45.0004         30.5004
    348753.36147    277016.20446  22781182.8364                   22781177.0474
        42.2504         36.5004
    825601.54247    630140.38246  22912684.6334                   22912678.4924
        42.0004         38.2504
   -643943.76055   -469529.28853  24961335.9844                   24961332.6604
        33.2504         20.5004
    271568.08248    219371.40648  21315879.6954                   21315871.7384
        51.0004         48.5004
   -769344.82047   -542654.50444  23103085.6644                   23103077.1804
        42.7504         26.0004
    690607.61347    528462.91544  23207347.7194                   23207339.4694
        42.0004         25.2504
    209253.23048    170726.56948  20551797.0234                   20551788.6564
        53.0004         51.7504
 25  7 14 22 23 30.0000000  0  9G18G02G08G27G31G10G28G23G32
   1067489.15046    812161.84643  24595404.8134                   24595398.0864
        36.0004         19.2504
   -649808.04147   -467979.66645  23102536.2034                   23102525.5514
        45.0004         31.5004
    362661.73347    287853.87146  22783829.3134                   22783823.2894
        43.0004         37.5004
    864723.16847    660624.72646  22920129.5554                   22920123.3554
        42.7504         38.7504
                                  24950802.2894                   24950799.0234
        33.2504         20.5004
    279936.35248    225892.13848  21317472.1484                   21317464.0164
        50.5004         48.2504
   -817202.64447   -579946.25344  23093978.8444                   23093971.2384
        43.7504         27.0004
    722660.45047    553439.11044  23213447.1564                   23213438.4964
        42.0004         24.5004
    214083.51348    174490.41948  20552716.1884                   20552707.8794
        52.7504         51.7504
 25  7 14 22 23 45.0000000  0  9G18G02G08G27G31G10G28G23G32
   1120184.10946    853222.78543  24605431.6024                   24605425.9884
        37.7504         19.5004
   -689944.48347   -499254.79845  23094898.6954                   23094887.3404
        45.0004         30.5004
    376680.44347    298777.52646  22786497.3984                   22786491.7274
        43.2504         37.5004
    903901.60547    691153.33946  22927584.7274                   22927578.7624
        43.0004         39.2504
   -754687.68045   -555822.79343  24940261.1484                   24940257.7074
        32.5004         20.7504
    288332.99548    232434.96648  21319069.7664                   21319061.3404
        50.5004         48.0004
   -865024.74647   -617210.17144  23084879.0004                   23084870.3404
        43.0004         28.0004
    754728.66947    578427.30344  23219550.0474                   23219540.9184
        42.2504         25.5004
    219010.97948    178330.00248  20553653.6804                   20553645.3714
        53.2504         51.7504
 25  7 14 22 24  0.0000000  0  9G18G02G08G27G31G10G28G23G32
   1172927.47846    894321.43343  24615468.5474                   24615462.7584
        37.5004         20.7504
   -730023.34447   -530485.05145  23087271.8364                   23087260.5984
        45.0004         30.7504
    390826.23147    309800.20246  22789189.3754                   22789183.1174
        43.0004         37.2504
    943153.42847    721739.14946  22935053.9534                   22935048.0474
        42.0004         39.5004
   -810097.95745   -598999.40843  24929717.5784                   24929713.9614
        32.2504         20.2504
    296775.04848    239013.19148  21320676.4774                   21320667.8754
        50.5004         48.2504
   -912793.84247   -654432.79844  23075788.0784                   23075779.9454
        43.2504         28.0004
    786829.30847    603440.76044  23225657.7424                   23225649.4924
        42.5004         24.0004
    224052.42848    182258.39748  20554613.1804                   20554605.1644
        52.5004         52.0004
 25  7 14 22 24 15.0000000  0  9G18G02G08G27G31G10G28G23G32
   1225707.52046    935448.65343  24625512.0474                   24625506.4344
        37.5004         20.0004
   -770056.15247   -561679.42845  23079653.9694                   23079642.1454
        44.5004         30.5004
    405087.17647    320912.60246  22791902.9614                   22791897.0554
        42.7504         37.0004
    982466.58047    752372.73046  22942535.1954                   22942529.4654
        42.0004         39.2504
   -865539.46245   -642200.33843  24919167.0004                   24919162.7974
        32.2504         19.2504
    305250.78348    245617.65248  21322289.0944                   21322280.5514
        50.0004         48.0004
   -960521.17347   -691622.86844  23066706.0314                   23066697.7814
        42.5004         27.5004
    818950.70347    628470.40244  23231770.5234                   23231762.2154
        42.0004         25.0004
    229195.98848    186266.36348  20555591.8674                   20555583.5594
        53.0004         51.7504
 25  7 14 22 24 30.0000000  0  9G18G02G08G27G31G10G28G23G32
   1278527.81046    976607.23143  24635563.3914                   24635558.6024
        37.5004         19.5004
   -810038.59547   -592834.54144  23072044.9384                   23072034.1094
        44.5004         29.0004
    419467.08847    332117.72446  22794638.9224                   22794633.3674
        42.7504         37.2504
   1021844.72347    783056.95546  22950028.7504                   22950022.3754
        42.5004         38.5004
   -921007.63845   -685422.08143  24908612.2424                   24908608.3914
        35.5004         20.7504
    313764.35548    252251.59647  21323909.5084                   21323901.4344
        50.0004         47.5004
  -1008202.39747   -728777.01344  23057632.4384                   23057624.3054
        42.5004         28.2504
    851096.86547    653519.33244  23237887.6174                   23237879.3094
        42.5004         26.2504
    234445.53548    190356.91848  20556590.9144                   20556582.1954
        52.7504         51.5004
 25  7 14 22 24 45.0000000  0  9G18G02G08G27G31G10G28G23G32
   1331388.50646   1017797.24543  24645623.1024                   24645617.3714
        36.7504         19.2504
   -849970.23647   -623950.08344  23064446.7344                   23064435.2034
        44.5004         29.0004
    433965.93047    343415.51246  22797398.5784                   22797392.2034
        43.5004         37.2504
   1061287.56146    813791.60446  22957534.0084                   22957528.2194
        41.0004         38.0004
   -976501.92146   -728664.07544  24898050.7814                   24898047.8674
        36.5004         26.0004
    322315.87748    258915.11848  21325536.5314                   21325528.7504
        50.5004         48.0004
  -1055836.89447   -765894.74244  23048567.4844                   23048559.8794
        43.0004         27.7504
    883267.98947    678587.70344  23244010.0634                   23244001.6374
        42.2504         24.5004
    239801.08148    194530.06948  20557610.0944                   20557601.9024
        52.5004         51.5004
 25  7 14 22 25  0.0000000  0  9G18G02G08G27G31G10G28G23G32
   1384288.69046   1059018.06643  24655689.7974                   24655683.6564
        36.2504         19.0004
   -889851.25747   -655026.18245  23056857.1024                   23056845.8054
        44.0004         30.2504
    448582.90347    354805.34246  22800180.0944                   22800173.8364
        43.7504         38.0004
   1100794.22647    844575.97046  22965052.2424                   22965046.2194
        42.5004         38.0004
  -1032022.97146   -771927.01644  24887485.0164                   24887482.2774
        36.7504         26.7504
    330904.85848    265607.82948  21327170.8204                   21327162.9224
        50.0004         48.0004
  -1103424.88347   -802976.24144  23039512.0164                   23039503.7664
        43.5004         28.0004
    915463.53847    703675.11944  23250136.8524                   23250128.3094
        42.5004         24.2504
    245261.88148    198785.23848  20558649.3364                   20558640.7344
        52.5004         51.5004
 25  7 14 22 25 15.0000000  0  9G18G02G08G27G31G10G28G23G32
   1437228.21046   1100269.59442  24665763.7114                   24665757.5704
        37.5004         17.2504
   -929681.38747   -686062.62644  23049277.3594                   23049266.8244
        44.0004         29.7504
    463317.84547    366287.09746  22802984.5784                   22802977.7934
        42.0004         37.5004
   1140364.33246    875409.79346  22972582.7274                   22972576.2934
        41.0004         38.5004
  -1087570.11946   -815210.28944  24876914.0864                   24876911.8164
        37.2504         25.7504
    339531.43848    272329.83747  21328812.6804                   21328804.7234
        49.5004         47.7504
  -1150965.91647   -840021.14344  23030465.7344                   23030456.8404
        43.5004         28.2504
    947683.61347    728781.63944  23256268.2734                   23256259.3204
        42.0004         26.5004
    250827.82948    203122.33248  20559708.6024                   20559700.3524
        52.2504         51.5004
 25  7 14 22 25 30.0000000  0  9G18G02G08G27G31G10G28G23G32
   1490206.99946   1141551.65743  24675845.2504                   24675839.1094
        38.5004         18.5004
   -969460.32447   -717059.17844  23041708.1724                   23041696.6994
        43.7504         29.7504
    478170.65247    377860.69646  22805810.2034                   22805804.4144
        43.2504         37.2504
   1179997.72546    906292.90946  22980124.1954                   22980118.1724
        41.5004         38.5004
  -1143142.90946   -858513.55744  24866339.5004                   24866335.9414
        38.5004         26.5004
    348195.72648    279081.21647  21330461.1724                   21330452.8634
        50.0004         47.5004
  -1198459.45847   -877029.05644  23021427.5944                   23021419.4614
        43.0004         27.7504
    979928.34347    753907.35544  23262404.2814                   23262395.3874
        42.0004         26.0004
    256498.90648    207541.35348  20560787.3134                   20560779.2384
        52.7504         51.5004
 25  7 14 22 25 45.0000000  0  9G18G02G08G27G31G10G28G23G32
   1543225.11846   1182864.41742  24685934.8754                   24685928.8524
        37.7504         16.7504
  -1009187.43347   -748015.34145  23034148.7424                   23034137.0944
        43.5004         30.2504
    493141.45147    389526.23446  22808659.2894                   22808653.1484
        42.5004         37.2504
   1219694.24747    937225.23046  22987678.3204                   22987672.4144
        42.5004         38.5004
  -1198740.71846   -901836.32344  24855759.7194                   24855756.2194
        38.2504         26.7504
    356898.14348    285862.32047  21332116.7814                   21332109.1764
        50.5004         47.7504
  -1245904.80147   -913999.40444  23012399.2734                   23012391.0824
        43.2504         27.2504
   1012198.11546    779052.60944  23268544.9224                   23268536.0864
        41.7504         26.0004
    262275.27448    212042.42248  20561886.3984                   20561878.3244
        52.2504         51.5004
 25  7 14 22 26  0.0000000  0  9G18G02G08G27G31G10G28G23G32
   1596281.57746   1224207.02442  24696030.4844                   24696024.8134
        37.2504         16.2504
  -1048863.13047   -778931.44244  23026598.5394                   23026587.0084
        43.7504         29.7504
    508229.17247    401282.87746  22811530.1484                   22811524.4774
        42.7504         37.5004
   1259452.70647    968205.81146  22995244.2584                   22995238.2934
        42.0004         38.5004
  -1254364.03446   -945178.96544  24845174.5554                   24845171.0554
        39.7504         29.0004
    365637.90448    292672.52447  21333780.0474                   21333772.5594
        50.0004         47.7504
  -1293302.38647   -950932.52744  23003379.6804                   23003371.4304
        43.2504         28.7504
   1044492.08047    804216.69744  23274689.6094                   23274681.5354
        42.5004         24.7504
    268155.94648    216624.76448  20563006.0234                   20562997.4224
        52.5004         51.5004
 25  7 14 22 26 15.0000000  0  9G18G02G08G27G31G10G28G23G32
   1649377.00746   1265580.01543  24706134.0704                   24706128.5164
        39.0004         18.2504
  -1088486.32347   -809806.64444  23019058.4774                   23019046.9454
        43.2504         29.5004
    523434.42347    413131.11746  22814423.7344                   22814417.4774
        43.2504         36.7504
   1299273.60547    999235.04146  23002821.9384                   23002816.0904
        42.2504         38.5004
  -1310011.62946   -988540.54544  24834585.3754                   24834581.3484
        39.0004         25.7504
    374415.87448    299512.49447  21335450.5234                   21335442.6254
        50.0004         47.7504
  -1340650.99547   -987827.49544  22994369.5634                   22994361.1954
        43.0004         27.5004
   1076811.16546    829400.37544  23280839.8914                   23280831.6994
        41.5004         24.5004
    274141.54948    221288.86848  20564144.9534                   20564136.4104
        52.5004         51.5004
 25  7 14 22 26 30.0000000  0  9G18G02G08G27G31G10G28G23G32
   1702510.87946   1306982.98743  24716246.0864                   24716239.5354
        39.0004         18.2504
  -1128057.15647   -840641.03544  23011528.4064                   23011516.5824
        43.7504         29.7504
    538756.79047    425070.60646  22817339.6334                   22817333.4344
        43.0004         37.0004
   1339156.33147   1030312.45146  23010411.0944                   23010405.4224
        42.7504         39.0004
  -1365683.49246  -1031921.04644  24823992.0554                   24823987.0904
        39.5004         26.2504
    383231.90148    306382.12247  21337128.6024                   21337120.2344
        50.0004         47.5004
  -1387950.43047  -1024684.15744  22985368.1254                   22985360.5784
        43.0004         28.0004
   1109155.17647    854603.45044  23286994.5554                   23286986.3634
        42.0004         25.7504
    280231.78848    226034.50948  20565303.5944                   20565295.2854
        52.2504         51.5004
 25  7 14 22 26 45.0000000  0  9G18G02G08G27G31G10G28G23G32
   1755682.61146   1348415.42143  24726364.2274                   24726357.7344
        39.5004         19.0004
  -1167575.65447   -871434.64145  23004008.3524                   23003997.1134
        43.7504         30.0004
    554195.66447    437100.88746  22820277.3754                   22820271.3524
        43.0004         37.7504
   1379100.13247   1061437.45446  23018012.1804                   23018005.9804
        42.0004         38.2504
  -1421379.65946  -1075320.44944  24813392.0784                   24813388.5204
        37.5004         27.5004
    392085.65048    313281.15047  21338813.1644                   21338805.1484
        49.5004         47.7504
  -1435200.70147  -1061502.49544  22976377.1094                   22976368.9184
        43.0004         28.0004
   1141523.68246    879825.64244  23293154.5164                   23293146.0314
        41.7504         25.2504
    286426.05048    230861.21148  20566482.5944                   20566473.9924
        52.7504         51.5004
 25  7 14 22 27  0.0000000  0  9G18G02G08G27G31G10G28G23G32
   1808892.40346   1389877.50743  24736490.1804                   24736483.5704
        40.5004         18.2504
  -1207041.20347   -902186.99545  22996497.9064                   22996486.4924
        44.0004         30.5004
    569751.08347    449221.97546  22823238.0084                   22823231.5744
        42.0004         37.5004
   1419104.97347   1092610.02446  23025625.1024                   23025618.9024
        42.2504         38.5004
  -1477099.51446  -1118738.32444  24802789.3754                   24802785.4654
        38.0004         26.0004
    400977.46148    320209.82247  21340505.3594                   21340497.2274
        50.5004         47.7504
  -1482401.08747  -1098281.96944  22967395.0704                   22967386.8204
        43.7504         28.5004
   1173917.09346    905067.20644  23299318.4534                   23299310.0864
        41.5004         25.7504
    292724.52548    235769.11448  20567680.8674                   20567672.7344
        52.2504         51.5004
 25  7 14 22 27 15.0000000  0  9G18G02G08G27G31G10G28G23G32
   1862140.15046   1431369.19243  24746622.7424                   24746616.6604
        40.0004         18.2504
  -1246453.29047   -932897.68545  22988998.0004                   22988986.6454
        44.0004         30.7504
    585423.16447    461433.96946  22826219.7664                   22826213.5664
        42.7504         37.5004
   1459170.68846   1123830.02546  23033249.7734                   23033243.2814
        41.5004         38.0004
  -1532842.34146  -1162174.10444  24792181.4844                   24792177.5164
        37.7504         26.0004
    409907.67148    327168.41847  21342204.5084                   21342196.2584
        48.7504         47.7504
  -1529550.94747  -1135022.08244  22958422.3204                   22958414.4804
        43.5004         27.5004
   1206335.71646    930328.44244  23305487.4224                   23305479.6414
        41.7504         25.5004
    299127.31448    240758.29948  20568899.5314                   20568890.7544
        52.0004         51.5004
 25  7 14 22 27 30.0000000  0 10G18G02G08G27G31G10G28G24G23G32
   1915422.46846   1472887.77543  24756761.3284                   24756755.5394
        39.0004         18.2504
  -1285815.01047   -963569.12945  22981508.2034                   22981496.6134
        43.7504         30.5004
    601208.30447    473734.06046  22829224.2734                   22829217.5474
        43.0004         37.7504
   1499293.57446   1155094.57646  23040884.8754                   23040878.1484
        41.7504         37.5004
  -1588611.09646  -1205630.09144  24781569.6254                   24781565.0704
        39.5004         26.2504
    418873.01548    334154.39948  21343910.5784                   21343902.5634
        50.5004         48.0004
  -1576653.19447  -1171725.07444  22949458.6414                   22949451.2114
        43.5004         28.5004
   1039224.97455    796872.71454  24608358.3834                   24608353.3594
        35.2504         27.0004
   1238776.25447    955606.74843  23311661.1254                   23311653.5204
        42.0004         23.7504
    305630.88948    245826.01948  20570137.1644                   20570128.5044
        52.7504         51.5004
 25  7 14 22 27 45.0000000  0 10G18G02G08G27G31G10G28G24G23G32
   1968744.53046   1514437.34843  24766908.5944                   24766902.3364
        39.0004         19.0004
  -2900539.40257  -2215838.67655  22974027.9614                   22974017.1914
        43.5004         32.0004
    617111.80947    486126.39246  22832250.3674                   22832243.9344
        42.5004         37.5004
   1539478.81847   1186407.72246  23048532.1024                   23048525.4344
        42.5004         37.7504
  -1644400.06846  -1249101.84644  24770952.8204                   24770948.7344
        39.2504         26.5004
    427879.02548    341172.06347  21345624.4304                   21345616.5314
        50.2504         47.7504
  -1623701.94647  -1208386.40144  22940506.5314                   22940498.3984
        43.5004         27.5004
   1081869.24045    830101.97344  24616474.0004                   24616468.0944
        35.7504         29.2504
   1271244.20946    980906.42444  23317839.5164                   23317831.6764
        41.5004         25.0004
    312240.66148    250976.49848  20571394.9844                   20571386.3244
        53.0004         51.5004
 25  7 14 22 28  0.0000000  0 10G18G02G08G27G31G10G28G24G23G32
   2022103.53246   1556015.71043  24777062.1334                   24777056.1094
        39.2504         19.0004
  -2939790.87447  -2246424.21245  22966559.0394                   22966547.3914
        44.0004         31.0004
    633130.86747    498608.75446  22835298.4064                   22835292.2074
        42.7504         37.5004
   1579723.42147   1217767.11146  23056189.9774                   23056183.5434
        43.0004         38.0004
  -1700211.40346  -1292591.02244  24760331.1954                   24760327.8714
        38.5004         27.2504
    436923.16748    348219.44547  21347345.7504                   21347337.5004
        50.2504         47.7504
  -1670699.36347  -1245007.72344  22931563.6484                   22931554.5204
        43.5004         28.0004
   1124613.03645    863408.79044  24624608.0784                   24624601.8204
        35.2504         27.7504
   1303737.06046   1006225.48644  23324022.9144                   23324015.0744
        41.7504         24.7504
    318953.78848    256207.50848  20572672.3594                   20572663.7584
        52.2504         51.7504
 25  7 14 22 28 15.0000000  0 10G18G02G08G27G31G10G28G24G23G32
   2075499.33546   1597622.76043  24787223.2114                   24787217.1294
        39.0004         19.0004
  -2978988.03647  -2276967.41845  22959099.9614                   22959088.6054
        43.7504         31.5004
    649265.27047    511181.00046  22838368.7734                   22838362.5164
        43.5004         37.5004
   1620027.05946   1249172.50446  23063859.8754                   23063853.7344
        41.5004         38.0004
  -1756044.71846  -1336097.35744  24749707.2664                   24749702.4774
        40.0004         26.0004
    446005.57548    355296.63747  21349073.9454                   21349065.8714
        50.0004         47.7504
  -1717645.02947  -1281588.71244  22922629.3444                   22922621.5634
        43.5004         28.5004
   1167456.15745    896793.01544  24632759.9614                   24632754.6994
        35.2504         27.7504
   1336254.89347   1031564.02244  23330210.8594                   23330202.4344
        42.0004         25.2504
    325770.23148    261519.02048  20573969.6174                   20573960.8404
        52.2504         51.5004
 25  7 14 22 28 30.0000000  0 10G18G02G08G27G31G10G28G24G23G32
   2128931.80446   1639258.36943  24797391.3834                   24797385.3594
        38.5004         19.0004
  -3018130.61947  -2307468.10545  22951651.6174                   22951639.6764
        43.7504         31.5004
    665514.88547    523843.02746  22841460.8524                   22841454.7704
        43.0004         37.0004
   1660389.40147   1280623.65146  23071540.6564                   23071533.8714
        42.2504         37.7504
  -1811899.74746  -1379620.56344  24739077.8594                   24739074.1254
        40.0004         27.2504
    455126.32948    362403.71147  21350809.4144                   21350801.5164
        50.5004         47.7504
  -1764538.51447  -1318129.03044  22913705.8834                   22913697.8094
        42.7504         28.5004
   1210398.42745    930254.49244  24640932.0234                   24640926.2344
        35.0004         27.2504
   1368797.81346   1056922.12444  23336403.4844                   23336395.1174
        40.7504         24.0004
    332689.84448    266910.92548  20575286.2584                   20575277.5984
        52.0004         51.5004
 25  7 14 22 28 45.0000000  0 11G18G01G02G08G27G31G10G28G24G23G32
   2182400.09846   1680921.89043  24807566.7894                   24807560.1214
        38.5004         19.5004
   -754809.74856   -510725.87052  25152219.2734                   25152211.9024
        37.0004         15.5004
  -3057219.02947  -2337926.57945  22944213.0314                   22944201.6764
        44.5004         30.7504
    681878.86047    536594.15446  22844575.7194                   22844568.5824
        42.7504         37.7504
   1700809.51846   1312119.80946  23079231.9694                   23079225.5354
        41.5004         37.7504
  -1867776.57046  -1423160.78644  24728445.0314                   24728441.3554
        39.5004         28.0004
    464284.93448    369540.28847  21352552.3754                   21352544.5944
        49.2504         47.7504
  -1811379.94347  -1354628.79444  22904792.2974                   22904784.1054
        43.0004         28.2504
   1253438.74145    963792.37144  24649122.0474                   24649117.0824
        34.5004         27.0004
   1401365.20346   1082299.26044  23342600.4304                   23342592.7664
        41.5004         25.0004
    339711.92248    272382.67748  20576622.6644                   20576613.6524
        51.5004         51.5004
 25  7 14 22 29  0.0000000  0 11G18G01G02G08G27G31G10G28G24G23G32
   2235905.01446   1722613.90943  24817748.0784                   24817742.1134
        36.7504         18.2504
   -806624.73446   -551101.15342  25142359.8984                   25142352.2934
        36.7504         15.5004
  -3096251.80147  -2368341.69645  22936785.7274                   22936773.8444
        44.2504         31.0004
    698358.00847    549435.03246  22847710.4614                   22847704.9064
        42.2504         37.7504
   1741288.08147   1343661.51446  23086934.8594                   23086928.3094
        42.0004         37.5004
  -1923673.88846  -1466716.96844  24717807.2194                   24717804.0124
        39.2504         27.5004
    473482.46748    376707.18647  21354302.5164                   21354294.4414
        49.5004         47.7504
  -1858167.95747  -1391086.92844  22895888.4614                   22895880.6804
        44.0004         28.7504
   1296577.95545    997407.30544  24657331.5704                   24657325.9574
        34.5004         27.0004
   1433958.18446   1107696.36144  23348803.7114                   23348795.1094
        41.5004         25.0004
    346837.29848    277934.91448  20577978.3984                   20577969.5634
        51.5004         51.5004
 25  7 14 22 29 15.0000000  0 11G18G01G02G08G27G31G10G28G24G23G32
   2289446.10445   1764334.13442  24827936.3204                   24827931.2384
        34.7504         16.7504
   -858441.55846   -591477.89742  25132498.6884                   25132491.8444
        37.5004         17.2504
  -3135229.00847  -2398713.51545  22929368.5234                   22929356.8754
        44.0004         31.2504
    714951.82646    562365.26246  22850868.5234                   22850862.2074
        41.7504         38.0004
   1781824.35747   1375248.18446  23094649.0944                   23094642.6024
        42.5004         37.5004
  -1979591.66646  -1510289.07644  24707166.4614                   24707162.4924
        39.0004         28.0004
    482718.67848    383904.22947  21356060.2424                   21356052.1684
        50.0004         47.7504
  -1904902.41047  -1427503.35544  22886995.5634                   22886987.0204
        43.0004         28.2504
   1339815.38545   1031098.78644  24665559.0944                   24665553.5984
        34.0004         27.5004
   1466576.49046   1133113.19343  23355009.8284                   23355001.9304
        40.5004         23.0004
    354065.48948    283567.27648  20579353.9614                   20579345.2424
        52.2504         51.5004
 25  7 14 22 29 30.0000000  0 11G18G01G02G08G27G31G10G28G24G23G32
   2343022.73445   1806082.01742  24838131.7584                   24838126.6764
        35.5004         16.7504
   -910260.34946   -631856.15542  25122637.6484                   25122631.2734
        37.5004         16.7504
  -3174150.83947  -2429042.19345  22921962.0314                   22921950.1484
        44.0004         30.7504
    731659.64847    575384.32546  22854047.9694                   22854041.6524
        42.0004         37.2504
   1822417.58246   1406879.23046  23102372.5084                   23102366.7194
        41.5004         38.0004
  -2035530.03546  -1553877.24144  24696522.5164                   24696517.7274
        38.0004         28.0004
    491993.20648    391131.12547  21357824.9384                   21357817.1564
        48.7504         47.7504
  -1951583.34247  -1463878.05344  22878112.8754                   22878103.8054
        43.5004         29.0004
   1383150.30845   1064866.21444  24673805.0314                   24673800.0084
        33.5004         24.7504
   1499219.69746   1158549.44144  23361222.7504                   23361213.5634
        41.5004         25.7504
    361395.96948    289279.33848  20580748.9534                   20580740.2344
        50.7504         51.5004
 25  7 14 22 29 45.0000000  0 11G18G01G02G08G27G31G10G28G24G23G32
   2396634.69546   1847857.49042  24848333.6564                   24848329.2194
        36.2504         17.2504
   -962080.78946   -672235.68243  25112777.1884                   25112769.9924
        38.2504         18.5004
  -3213016.83147  -2459327.34745  22914565.8444                   22914554.2544
        44.5004         31.2504
    748481.38147    588492.14946  22857249.1094                   22857243.0274
        43.0004         38.0004
   1863067.52347   1438554.48446  23110108.7664                   23110102.9774
        42.0004         37.2504
  -2091488.29546  -1597480.90644  24685873.3594                   24685869.2154
        37.5004         26.5004
    501306.20348    398387.99847  21359597.0704                   21359589.3484
        49.5004         47.7504
  -1998210.22447  -1500210.63844  22869239.4614                   22869230.9184
        43.2504         28.7504
   1426582.57145   1098709.51644  24682069.6024                   24682064.3404
        34.0004         25.7504
   1531888.02046   1184005.24043  23367438.5944                   23367430.6954
        40.7504         23.2504
    368828.64948    295071.03848  20582163.1884                   20582154.5864
        52.0004         51.7504
 25  7 14 22 30  0.0000000  0 11G18G01G02G08G27G31G10G28G24G23G32
   2450281.96745   1889660.47942  24858543.2974                   24858537.9184
        35.5004         14.7504
  -1013902.45346   -712616.20043  25102915.7894                   25102908.6524
        38.7504         19.7504
  -3251826.53947  -2489568.64845  22907180.7584                   22907169.2274
        44.7504         30.7504
    765416.88447    601688.62746  22860472.1954                   22860465.5274
        42.7504         37.2504
   1903773.91446   1470273.70746  23117854.7114                   23117848.8634
        41.5004         37.5004
  -2147466.16246  -1641099.83944  24675220.5314                   24675216.6804
        37.2504         27.0004
    510657.92448    405675.05147  21361376.9774                   21361369.0204
        48.0004         47.7504
  -2044782.53347  -1536500.71144  22860376.9384                   22860368.7464
        43.5004         28.0004
   1470111.96445   1132628.49944  24690352.8594                   24690348.4224
        33.0004         26.0004
   1564581.57946   1209480.71544  23373660.4064                   23373651.8634
        41.7504         24.7504
    376363.50248    300942.35548  20583597.1724                   20583588.7464
        50.0004         51.5004
 25  7 14 22 30 15.0000000  0 11G18G01G02G08G27G31G10G28G24G23G32
   2503964.22245   1931490.70742  24868758.1094                   24868752.9064
        34.7504         16.2504
  -1065725.31046   -752997.64043  25093054.4774                   25093047.2814
        37.5004         19.7504
  -3290579.76147  -2519765.94645  22899806.3594                   22899794.3014
        44.2504         31.7504
    782465.83147    614973.50646  22863716.0234                   22863709.8834
        43.0004         37.5004
   1944536.32046   1502036.58546  23125612.2814                   23125605.8484
        41.5004         38.0004
  -2203463.28146  -1684733.79144  24664564.3754                   24664560.4654
        36.7504         25.5004
    520048.28448    412992.20547  21363164.0634                   21363155.8134
        49.2504         47.7504
  -2091299.98947  -1572748.03044  22851524.9534                   22851517.2304
        43.2504         28.5004
   1513738.02345   1166622.77844  24698655.5234                   24698650.3204
        33.5004         26.2504
   1597300.34046   1234975.79944  23379886.4144                   23379878.1054
        41.7504         24.5004
    384000.28748    306893.09048  20585050.2584                   20585042.1844
        52.0004         51.7504
 25  7 14 22 30 30.0000000  0 11G18G01G02G08G27G31G10G28G24G23G32
   2557680.96645   1973347.78942  24878980.3134                   24878975.2304
        35.0004         16.7504
  -1117549.36246   -793379.94443  25083192.5314                   25083185.2774
        37.7504         20.0004
  -3329276.51647  -2549919.24845  22892442.1414                   22892430.3754
        43.7504         32.0004
    799627.67347    628346.34746  22866982.3984                   22866975.9064
        42.7504         37.0004
   1985353.95247   1533842.49946  23133378.9844                   23133373.1374
        42.2504         37.7504
  -2259479.74246  -1728382.81044  24653904.8364                   24653900.3984
        37.5004         27.7504
    529477.00848    420339.25847  21364958.2114                   21364949.9024
        50.5004         47.7504
  -2137762.51047  -1608952.54844  22842683.3054                   22842674.6454
        43.5004         27.7504
   1557460.02445   1200691.83944  24706975.0314                   24706970.0084
        33.2504         26.0004
   1630043.97747   1260490.29744  23386117.2194                   23386109.1454
        42.0004         24.0004
    391738.48348    312922.86048  20586522.7734                   20586514.1134
        52.0004         51.7504
 25  7 14 22 30 45.0000000  0 11G18G01G02G08G27G31G10G28G24G23G32
   2611432.20745   2015231.81242  24889208.6334                   24889203.2544
        34.7504         16.7504
  -1169374.04446   -833762.80743  25073330.8674                   25073323.3204
        37.7504         21.0004
  -3367916.23147  -2580028.09145  22885089.1024                   22885078.0984
        44.5004         31.5004
    816902.54447    641807.26746  22870269.1484                   22870263.1254
        42.7504         37.2504
   2026226.87547   1565691.49346  23141157.0634                   23141150.8634
        42.0004         37.7504
  -2315514.83146  -1772046.35044  24643241.6484                   24643237.3874
        37.5004         26.5004
    538944.50348    427716.52047  21366759.3444                   21366751.4454
        49.2504         47.7504
  -2184169.36947  -1645113.69244  22833852.2034                   22833843.9534
        43.7504         28.2504
   1601278.20345   1234835.83544  24715313.8834                   24715308.8594
        33.5004         26.5004
   1662812.92846   1286024.52143  23392353.3754                   23392344.6564
        41.2504         22.5004
    399578.25848    319031.77248  20588014.7424                   20588006.1994
        52.5004         51.7504
 25  7 14 22 31  0.0000000  0 11G18G01G02G08G27G31G10G28G24G23G32
   2665217.83745   2057142.60342  24899443.2504                   24899438.5784
        34.0004         17.2504
  -1221199.06446   -874145.91743  25063467.9064                   25063461.3554
        37.0004         20.5004
  -3406498.68347  -2610092.30845  22877747.6174                   22877735.9104
        44.2504         31.0004
    834290.12847    655356.02046  22873578.4924                   22873571.7074
        43.5004         37.0004
   2067154.64846   1597583.23346  23148945.0864                   23148939.2974
        41.7504         37.7504
  -2371568.15145  -1815724.06944  24632574.1414                   24632570.1134
        35.7504         26.0004
    548450.84848    435124.06047  21368568.2424                   21368560.6374
        49.5004         47.5004
  -2230520.14447  -1681231.13444  22825032.4844                   22825023.4144
        43.0004         28.0004
   1645192.00045   1269054.34244  24723670.4774                   24723665.3954
        33.5004         25.5004
   1695607.15846   1311578.42343  23398593.2114                   23398584.9614
        40.7504         22.7504
    407519.46148    325219.72448  20589525.6724                   20589517.4804
        52.5004         51.7504
 25  7 14 22 31 15.0000000  0 11G18G01G02G08G27G31G10G28G24G23G32
   2719037.51545   2099079.88142  24909686.0634                   24909680.1564
        35.2504         17.2504
  -1273024.33646   -914529.23543  25053606.1644                   25053598.9694
        36.7504         20.5004
  -3445023.59347  -2640111.69945  22870416.0084                   22870404.3594
        44.5004         31.0004
    851790.19847    668992.43046  22876907.8834                   22876901.8014
        42.5004         37.2504
   2108136.86847   1629517.39346  23156744.1334                   23156737.8754
        42.0004         37.7504
  -2427639.34446  -1859415.73244  24621904.6334                   24621900.4884
        36.0004         26.2504
    557996.00348    442561.83547  21370384.8444                   21370376.5944
        50.5004         47.5004
  -2276814.54647  -1717304.63644  22816222.0944                   22816214.0204
        43.0004         28.0004
   1689201.09645   1303347.12544  24732045.0704                   24732039.6914
        34.0004         25.7504
   1728426.69946   1337152.06644  23404838.1954                   23404830.6484
        41.2504         24.0004
    415561.85348    331486.52448  20591056.0234                   20591047.6564
        51.5004         51.7504
 25  7 14 22 31 30.0000000  0 11G18G01G02G08G27G31G10G28G24G23G32
   2772890.96046   2141043.52043  24919934.2504                   24919927.7584
        36.2504         18.2504
  -1324849.67745   -954912.59843  25043743.7974                   25043736.9534
        35.7504         19.5004
  -3483490.92847  -2670086.22245  22863095.9534                   22863084.3634
        44.2504         31.5004
    869402.35847    682716.17046  22880259.5864                   22880253.5044
        43.5004         37.0004
   2149173.02646   1661493.57846  23164552.7734                   23164547.2774
        41.5004         37.2504
  -2483728.29046  -1903121.22944  24611231.1954                   24611227.0514
        37.0004         28.5004
    567579.93748    450029.83147  21372208.6484                   21372200.7504
        50.5004         47.7504
  -2323052.24847  -1753333.95644  22807423.7894                   22807415.0124
        42.7504         28.5004
   1733305.16645   1337713.89044  24740438.2814                   24740432.7854
        33.7504         26.2504
   1761271.42046   1362745.32843  23411088.8284                   23411080.5204
        41.5004         22.7504
    423705.14848    337831.95248  20592606.0164                   20592597.3554
        52.2504         51.5004
 25  7 14 22 31 45.0000000  0 11G18G01G02G08G27G31G10G28G24G23G32
   2826777.74345   2183033.10343  24930187.7034                   24930182.5004
        35.5004         19.2504
  -1376675.00046   -995295.90843  25033883.0084                   25033875.5784
        36.7504         19.2504
  -3521900.17547  -2700015.48045  22855786.9454                   22855775.1804
        45.0004         31.2504
    887126.29847    696527.01446  22883631.7734                   22883625.9264
        43.2504         36.7504
   2190262.65546   1693511.43746  23172371.9694                   23172365.9454
        41.2504         37.2504
  -2539834.58646  -1946840.26544  24600553.9144                   24600550.1214
        36.7504         28.5004
    577202.63548    457528.03747  21374040.0314                   21374031.7814
        50.5004         47.7504
  -2369232.96747  -1789318.89944  22798635.6954                   22798627.0944
        43.2504         28.0004
   1777503.65145   1372154.25544  24748848.6954                   24748843.0824
        34.0004         26.5004
   1794141.29546   1388358.19843  23417343.5474                   23417335.5314
        41.0004         23.0004
    431949.09048    344255.80448  20594174.5634                   20594166.0784
        51.7504         51.5004
 25  7 14 22 32  0.0000000  0 11G18G01G02G08G27G31G10G28G24G23G32
   2880698.02245   2225048.78843  24940448.7504                   24940443.5474
        35.5004         20.0004
  -1428499.72945  -1035678.79543  25024021.2504                   25024012.8244
        35.7504         20.2504
  -3560250.96547  -2729899.19845  22848488.9694                   22848477.7304
        44.5004         30.7504
    904961.98347    710424.92946  22887026.3524                   22887020.5634
        43.0004         36.5004
   2231405.63146   1725570.85546  23180201.3054                   23180195.6914
        41.5004         37.2504
  -2595958.00246  -1990572.61844  24589875.1954                   24589870.3484
        37.5004         28.2504
    586864.36448    465056.64947  21375878.6024                   21375870.1764
        50.5004         47.5004
  -2415356.08547  -1825258.93644  22789858.5234                   22789850.4494
        42.5004         29.0004
   1821796.50345   1406668.13544  24757276.9454                   24757272.0394
        34.0004         27.0004
   1827036.60546   1413990.88444  23423603.6804                   23423595.1954
        41.5004         24.0004
    440293.75148    350758.14148  20595762.4304                   20595753.9454
        52.5004         51.5004
 25  7 14 22 32 15.0000000  0 11G18G01G02G08G27G31G10G28G24G23G32
   2934651.30145   2267090.21643  24950716.8054                   24950710.4884
        35.2504         19.0004
  -1480323.87645  -1076061.22043  25014158.5394                   25014151.4024
        35.7504         20.7504
  -3598543.48947  -2759737.50945  22841202.3594                   22841190.4184
        45.2504         31.0004
    922909.04047    724409.63446  22890441.5864                   22890435.3874
        43.0004         36.7504
   2272601.36946   1757671.38846  23188040.6644                   23188034.6414
        41.2504         36.7504
  -2652098.12146  -2034317.98944  24579191.6024                   24579186.5784
        37.0004         27.7504
    596565.03048    472615.59947  21377724.7424                   21377716.4344
        50.5004         47.7504
  -2461421.34347  -1861153.88544  22781093.1094                   22781084.1564
        43.0004         28.2504
   1866183.27745   1441255.20544  24765723.4304                   24765718.5824
        35.5004         25.5004
   1859957.16846   1439643.24044  23429868.1564                   23429859.7304
        40.5004         24.0004
    448738.75448    357338.66248  20597369.6174                   20597360.8404
        52.2504         51.5004
 25  7 14 22 32 30.0000000  0 11G18G01G02G08G27G31G10G28G24G23G32
   2988637.31245   2309157.13742  24960989.5084                   24960983.8954
        33.7504         17.7504
  -1532147.24345  -1116443.03943  25004297.0554                   25004289.6254
        35.5004         20.0004
  -3636777.36647  -2789530.11645  22833926.2734                   22833914.9774
        44.5004         31.5004
    940967.14947    738480.87846  22893877.7584                   22893871.9104
        43.2504         36.7504
   2313849.50847   1789812.76546  23195890.0314                   23195883.8914
        42.0004         37.2504
  -2708254.65946  -2078076.14044  24568504.7734                   24568499.9264
        36.7504         29.0004
    606304.61648    480204.88947  21379578.0234                   21379569.8324
        49.7504         47.7504
  -2507428.42347  -1897003.51644  22772337.7974                   22772329.4304
        43.5004         28.5004
   1910663.49145   1475915.08744  24774187.9614                   24774182.9384
        35.5004         27.0004
   1892903.04246   1465315.30843  23436137.2504                   23436129.1174
        40.7504         22.7504
    457283.87848    363997.19948  20598995.6884                   20598987.3204
        52.5004         51.5004
 25  7 14 22 32 45.0000000  0 11G18G01G02G08G27G31G10G28G24G23G32
   3042656.21645   2351249.65342  24971266.8594                   24971263.9454
        31.5004         16.2504
  -1583969.30445  -1156823.85643  24994435.1024                   24994428.1414
        33.7504         18.2504
  -3674951.96147  -2819276.52745  22826662.1724                   22826649.9964
        45.0004         31.5004
    959136.34247    752638.67146  22897335.9304                   22897329.0864
        42.0004         36.5004
   2355149.90246   1821994.85146  23203749.2114                   23203742.9534
        41.2504         37.2504
  -2764426.91546  -2121846.52844  24557815.9144                   24557810.7114
        38.0004         28.5004
    616083.50548    487824.79847  21381438.4614                   21381430.5634
        50.0004         47.5004
  -2553376.61847  -1932807.25244  22763594.4774                   22763585.4654
        43.0004         29.0004
   1955237.20645   1510647.81844  24782670.0394                   24782664.8364
        35.5004         27.5004
   1925874.49946   1491007.33743  23442412.0634                   23442403.9304
        41.5004         22.7504
    465929.29648    370733.89148  20600640.7814                   20600632.3554
        52.5004         51.5004
 25  7 14 22 33  0.0000000  0 11G18G01G02G08G27G31G10G28G24G23G32
   1521287.62255   1165767.49452  24981553.4224                   24981549.4534
        31.7504         17.2504
  -1635789.95545  -1197203.50043  24984573.5784                   24984566.7344
        33.0004         18.2504
  -3713066.98247  -2848976.52545  22819409.0554                   22819397.4064
        45.0004         31.0004
    977416.32647    766882.80146  22900813.7734                   22900807.9844
        43.7504         36.7504
   2396502.15447   1854217.34846  23211618.4064                   23211612.2664
        42.2504         37.5004
  -2820614.59646  -2165628.96544  24547124.0234                   24547118.5274
        38.5004         29.2504
    625901.67448    495475.31747  21383306.8914                   21383298.8164
        50.0004         47.7504
  -2599265.64747  -1968564.89344  22754862.2584                   22754853.4804
        42.7504         29.0004
   1999903.93946   1545453.04744  24791170.0234                   24791164.4104
        36.5004         27.7504
   1958871.54246   1516719.27943  23448691.0084                   23448683.1684
        41.2504         22.7504
    474674.72048    377548.50948  20602304.9924                   20602296.5664
        52.5004         51.5004
 25  7 14 22 33 15.0000000  0 11G18G01G02G08G27G31G10G28G24G23G32
   1575371.06155   1207910.31452  24991846.3834                   24991841.4184
        32.0004         17.2504
  -1687609.01245  -1237581.95842  24974712.9304                   24974706.0274
        33.2504         17.7504
  -3751122.45347  -2878630.12045  22812167.5234                   22812155.8754
        45.0004         31.0004
    995806.54547    781212.82346  22904313.7584                   22904307.2664
        42.7504         36.2504
   2437905.54047   1886479.68246  23219497.1414                   23219490.8834
        43.0004         37.2504
  -2876817.80146  -2209423.49444  24536428.3134                   24536422.6994
        38.7504         29.0004
    635758.85148    503156.22947  21385182.9694                   21385174.8364
        50.2504         47.5004
  -2645095.44847  -2004276.37244  22746140.8444                   22746132.0664
        43.0004         28.0004
   2044663.09845   1580330.27744  24799687.9454                   24799682.2734
        35.7504         28.5004
   1991893.81146   1542450.89443  23454975.0474                   23454966.9734
        41.2504         23.2504
    483519.65348    384440.66448  20603987.9844                   20603979.5004
        52.0004         51.5004
 25  7 14 22 33 30.0000000  0 11G18G01G02G08G27G31G10G28G24G23G32
   1629486.43345   1250078.01342  25002144.7114                   25002139.8054
        33.0004         16.7504
  -1739426.31945  -1277959.07242  24964853.3674                   24964845.1764
        32.5004         17.7504
  -3789117.91847  -2908236.95745  22804936.6804                   22804924.9144
        45.2504         30.5004
   1014306.86647    795628.63846  22907834.2274                   22907827.7344
        43.0004         36.0004
   2479359.85546   1918781.70446  23227385.5944                   23227379.6884
        41.7504         37.7504
  -2933035.76346  -2253229.53044  24525729.6644                   24525725.0514
        38.5004         29.2504
    645655.31448    510867.75047  21387066.3674                   21387057.5904
        49.7504         47.5004
  -2690865.37447  -2039941.19444  22737430.8134                   22737422.0944
        42.5004         28.0004
   2089514.53946   1615279.41044  24808221.3284                   24808217.2424
        36.0004         26.2504
   2024941.58946   1568202.36443  23461264.0394                   23461255.7304
        40.5004         22.5004
    492464.11348    391410.37448  20605690.3284                   20605681.6094
        52.5004         51.5004
 25  7 14 22 33 45.0000000  0 11G18G01G02G08G27G31G10G28G24G23G32
   1683633.35445   1292270.37642  25012447.2974                   25012443.2704
        33.5004         16.7504
  -1791241.61145  -1318334.55343  24954991.8594                   24954984.7814
        32.0004         18.2504
  -3827053.29247  -2937796.97745  22797718.4064                   22797706.4064
        45.5004         31.2504
   1032916.97447    810130.00046  22911375.7504                   22911369.1414
        42.7504         36.5004
   2520864.61046   1951123.03146  23235284.3204                   23235278.0044
        41.5004         37.7504
  -2989268.41446  -2297047.01644  24515029.5084                   24515024.1294
        38.5004         29.7504
    655590.98248    518609.83147  21388956.6334                   21388948.5594
        49.7504         47.5004
  -2736575.23647  -2075559.22344  22728732.6484                   22728723.4024
        42.5004         28.7504
   2134457.75946   1650300.08244  24816775.1804                   24816769.3914
        36.0004         26.7504
   2058014.73646   1593973.63244  23467557.0784                   23467549.5314
        40.5004         24.2504
    501507.80648    398457.41248  20607411.2734                   20607402.6134
        53.0004         51.5004
 25  7 14 22 34  0.0000000  0 11G18G01G02G08G27G31G10G28G24G23G32
   1737812.19345   1334487.55542  25022757.2974                   25022753.3284
        34.5004         17.2504
  -1843054.21245  -1358707.96142  24945132.1884                   24945125.9884
        32.0004         16.7504
  -3864927.78647  -2967309.53645  22790510.5554                   22790499.0234
        45.5004         31.2504
   1051637.10647    824717.09946  22914937.6804                   22914931.1884
        42.5004         36.2504
   2562419.95946   1983503.78746  23243191.7664                   23243185.2154
        41.5004         38.0004
  -3045514.98246  -2340875.32544  24504325.6954                   24504320.4924
        38.7504         29.2504
    665566.45248    526382.92247  21390855.0234                   21390846.9494
        50.2504         47.5004
  -2782224.00347  -2111129.63244  22720046.0084                   22720037.2894
        43.2504         29.5004
   2179492.97245   1685392.43644  24825344.4694                   24825339.6214
        35.0004         27.0004
   2091113.91046   1619765.14944  23473856.2504                   23473848.3524
        40.7504         26.0004
    510651.05748    405582.01948  20609151.2504                   20609142.5904
        52.7504         51.5004
 25  7 14 22 34 15.0000000  0 11G18G01G02G08G27G31G10G28G24G23G32
   1792021.79245   1376728.64743  25033073.8754                   25033069.4384
        33.7504         18.2504
  -1894864.76345  -1399079.83042  24935273.5554                   24935266.3014
        32.7504         15.5004
  -3902742.06847  -2996775.19145  22783314.9774                   22783303.4454
        45.0004         31.7504
   1070466.03347    839388.97945  22918520.8054                   22918514.4884
        42.5004         35.5004
   2604024.50946   2015922.87046  23251109.2504                   23251102.5234
        41.5004         37.5004
  -3101775.99846  -2384714.91344  24493620.0164                   24493614.2274
        39.5004         29.7504
    675580.73948    534186.25047  21392760.8284                   21392752.6954
        50.0004         47.5004
  -2827812.42147  -2146653.03344  22711370.8674                   22711362.3834
        43.7504         29.2504
   2224618.77245   1720555.36044  24833931.3984                   24833926.4344
        34.0004         25.5004
   2124238.04046   1645576.14144  23480160.3204                   23480151.5434
        40.7504         24.5004
    519892.70548    412783.30648  20610910.0554                   20610901.0434
        52.5004         51.5004
 25  7 14 22 34 30.0000000  0 11G18G01G02G08G27G31G10G28G24G23G32
   1846262.50645   1418994.00742  25043395.9844                   25043390.5474
        33.5004         17.7504
  -1946672.31245  -1439449.27842  24925414.8524                   24925407.7734
        32.7504         16.2504
  -3940495.12547  -3026193.13945  22776130.5084                   22776118.8594
        45.2504         31.0004
   1089404.32047    854146.07245  22922124.4064                   22922117.9144
        43.0004         35.5004
   2645678.73346   2048380.66346  23259035.0394                   23259029.1914
        41.5004         37.5004
  -3158050.25746  -2428564.81045  24482910.8204                   24482905.6804
        40.5004         31.5004
    685634.77148    542020.55847  21394674.0084                   21394665.8164
        48.5004         47.2504
  -2873339.20047  -2182128.39744  22702706.8594                   22702698.7274
        43.0004         29.2504
   2269835.80145   1755789.38444  24842536.1484                   24842531.3594
        35.0004         26.7504
   2157388.03146   1671407.27743  23486467.8364                   23486459.5274
        40.5004         22.7504
    529233.37848    420061.75948  20612687.3054                   20612678.5274
        51.7504         51.5004
 25  7 14 22 34 45.0000000  0 11G18G01G02G08G27G31G10G28G24G23G32
   1900534.22845   1461283.55043  25053722.0084                   25053718.5084
        34.7504         19.5004
  -1998476.65445  -1479816.27442  24915557.6174                   24915549.8954
        33.5004         16.7504
  -3978186.77947  -3055563.23345  22768958.0864                   22768946.6134
        44.7504         30.5004
   1108451.58447    868988.06746  22925748.9694                   22925742.8874
        42.5004         36.0004
   2687382.09847   2080876.75246  23266970.6564                   23266965.1024
        42.0004         37.5004
  -3214337.58246  -2472424.90045  24472199.9774                   24472193.7774
        40.5004         31.2504
    695728.46348    549885.77147  21396594.6724                   21396586.4804
        48.0004         47.2504
  -2918804.05647  -2217555.50844  22694055.5314                   22694046.6374
        43.0004         29.0004
   2315143.45845   1791094.02844  24851158.5634                   24851153.2424
        35.7504         27.2504
   2190563.74946   1697258.42844  23492780.5864                   23492772.8054
        40.5004         24.2504
    538672.76248    427417.12048  20614483.4614                   20614475.0354
        50.2504         51.2504
 25  7 14 22 35  0.0000000  0 11G18G01G02G08G27G31G10G28G24G23G32
   1954836.12745   1503596.59543  25064056.4844                   25064051.8134
        35.5004         19.2504
  -2050278.06145  -1520180.95643  24905699.8284                   24905692.2234
        33.5004         18.2504
  -4015817.19047  -3084885.61445  22761797.7114                   22761785.7114
        45.5004         31.5004
   1127607.06047    883914.38746  22929394.3444                   22929388.0274
        43.2504         36.0004
   2729133.72546   2113410.44746  23274915.9924                   23274910.3204
        41.0004         37.0004
  -3270638.17946  -2516295.34045  24461486.0554                   24461480.2074
        39.5004         30.7504
    705861.35248    557781.52147  21398522.8054                   21398514.9064
        48.0004         47.5004
  -2964207.12747  -2252934.48444  22685415.4924                   22685406.7154
        43.0004         29.5004
   2360540.99945   1826468.70144  24859796.9064                   24859791.9414
        35.0004         28.0004
   2223764.76846   1723129.33443  23499098.7894                   23499090.4804
        40.5004         22.5004
    548210.21748    434848.91048  20616298.2814                   20616290.3244
        50.5004         51.5004
 25  7 14 22 35 15.0000000  0 11G18G01G02G08G27G31G10G28G24G23G32
   2009168.30046   1545933.24143  25074396.2504                   25074390.5204
        36.0004         20.0004
  -2102076.01045  -1560542.95343  24895843.4924                   24895835.1844
        35.2504         19.0004
  -4053385.70647  -3114159.76145  22754648.5554                   22754636.5554
        45.7504         31.0004
   1146870.78347    898925.06345  22933060.0704                   22933053.6954
        43.0004         35.7504
   2770933.61946   2145981.74546  23282870.6334                   23282864.5514
        40.7504         36.2504
  -3326951.25646  -2560175.49345  24450770.2664                   24450763.8324
        39.7504         30.7504
    716033.86648    565708.15147  21400458.5004                   21400450.6024
        48.7504         47.2504
  -3009547.74747  -2288264.78444  22676787.7814                   22676778.8284
        44.0004         29.0004
   2406028.34245   1861913.34844  24868453.0554                   24868448.5594
        35.0004         26.0004
   2256991.44146   1749020.22644  23505421.9144                   23505413.3714
        41.0004         25.2504
    557845.83348    442357.18448  20618132.0944                   20618123.6684
        51.2504         51.5004
 25  7 14 22 35 30.0000000  0 11G18G01G02G08G27G31G10G28G24G23G32
   2063530.64145   1588293.41343  25084740.8594                   25084735.6564
        35.7504         20.0004
  -2153870.11645  -1600901.94942  24885986.5944                   24885979.3404
        35.0004         17.7504
  -4090891.97247  -3143385.40945  22747510.6334                   22747499.3954
        45.0004         31.2504
   1166242.67347    914020.02646  22936746.4454                   22936740.3634
        42.5004         36.2504
   2812781.43846   2178590.38846  23290833.8524                   23290827.4774
        40.7504         36.5004
  -3383276.35346  -2604065.02045  24440051.4694                   24440045.6804
        40.7504         31.0004
    726246.18448    573665.79447  21402401.6414                   21402393.8014
        49.7504         47.2504
  -3054825.32547  -2323545.95745  22668171.6954                   22668162.6254
        44.0004         30.2504
   2451605.25045   1897427.79644  24877126.2424                   24877121.1024
        35.5004         26.7504
   2290243.92246   1774931.22044  23511749.3674                   23511741.6454
        40.5004         24.0004
    567579.59748    449941.94048  20619984.3674                   20619975.7664
        52.2504         51.5004
 25  7 14 22 35 45.0000000  0 11G18G01G02G08G27G31G10G28G24G23G32
   2117922.97546   1630676.94443  25095091.3134                   25095086.3484
        36.5004         20.2504
  -2205660.04446  -1641257.70542  24876131.3754                   24876124.3554
        37.0004         17.7504
  -4128335.64647  -3172562.27345  22740385.8284                   22740374.1214
        45.0004         31.0004
   1185722.47147    929199.05546  22940453.2504                   22940447.1684
        43.0004         36.0004
   2854676.86846   2211236.13746  23298806.4144                   23298800.0394
        40.5004         36.7504
  -3439613.03046  -2647963.56245  24429330.3594                   24429325.1564
        40.0004         30.0004
    736498.41148    581654.54247  21404352.9304                   21404344.6804
        50.0004         47.2504
  -3100039.49547  -2358777.74044  22659567.9534                   22659558.5904
        44.0004         29.0004
   2497271.52446   1933011.86144  24885815.8674                   24885811.0204
        36.0004         25.2504
   2323522.25646   1800862.35143  23518081.8364                   23518073.8794
        40.7504         22.7504
    577411.33248    457603.03748  20621855.3134                   20621846.3014
        52.7504         51.2504
 25  7 14 22 36  0.0000000  0 11G18G01G02G08G27G31G10G28G24G23G32
   2172344.70446   1673083.36543  25105446.7424                   25105442.3054
        37.0004         19.7504
  -2257446.05046  -1681610.41243  24866277.4614                   24866269.2704
        37.0004         18.2504
  -4165716.96947  -3201690.55545  22733272.5634                   22733260.5044
        44.7504         31.2504
   1205309.51547    944461.66546  22944180.7274                   22944174.4104
        42.5004         36.0004
   2896619.13046   2243918.39346  23306788.0004                   23306781.3914
        41.5004         36.7504
  -3495961.40546  -2691871.23445  24418607.2584                   24418601.8204
        41.0004         30.2504
    746790.13748    589674.05947  21406311.5004                   21406303.4844
        49.7504         47.0004
  -3145190.24747  -2393960.09344  22650975.5474                   22650966.7704
        44.0004         28.0004
   2543026.27345   1968664.88344  24894522.5164                   24894517.9614
        34.0004         26.0004
   2356826.06746   1826813.34043  23524419.5704                   23524411.3794
        40.5004         23.7504
    587340.46148    465340.02248  20623744.6644                   20623735.8284
        52.2504         51.2504
 25  7 14 22 36 15.0000000  0 11G18G01G02G08G27G31G10G28G24G23G32
   2226795.94846   1715512.80743  25115808.9694                   25115803.4144
        37.5004         20.2504
  -2309227.39146  -1721959.46043  24856423.2114                   24856415.7814
        37.5004         18.5004
  -4203035.25347  -3230769.71345  22726170.6804                   22726158.8554
        45.0004         31.5004
   1225004.00047    959808.00146  22947928.4454                   22947922.5984
        42.5004         36.0004
   2938608.27146   2276637.16246  23314778.0554                   23314772.0904
        41.5004         36.5004
  -3552320.78546  -2735787.48945  24407882.8134                   24407877.1994
        40.5004         30.7504
    757121.95448    597724.81747  21408277.2584                   21408269.4184
        50.0004         47.2504
  -3190276.74947  -2429092.37844  22642395.6174                   22642386.7234
        43.2504         28.2504
   2588869.77346   2004387.04444  24903246.7664                   24903241.7424
        36.0004         25.5004
   2390155.85046   1852784.58744  23530761.9924                   23530754.0354
        40.7504         24.0004
    597367.22648    473153.08948  20625652.5944                   20625643.6994
        52.2504         51.2504
 25  7 14 22 36 30.0000000  0 11G18G01G02G08G27G31G10G28G24G23G32
   2281276.24646   1757964.89743  25126176.5784                   25126171.0824
        38.0004         19.0004
  -2361004.09746  -1762304.89742  24846570.5004                   24846562.5434
        38.5004         17.7504
  -4240290.35047  -3259799.63945  22719081.6094                   22719069.7274
        45.5004         30.5004
   1244805.34747    975237.60346  22951696.5864                   22951690.5044
        43.0004         36.5004
   2980643.66146   2309391.96546  23322777.2274                   23322771.4964
        41.0004         36.7504
  -3608690.95446  -2779712.15945  24397155.7114                   24397150.2154
        41.0004         32.0004
    767493.58248    605806.60047  21410251.1724                   21410242.9224
        49.5004         47.0004
  -3235298.88847  -2464174.52444  22633829.0944                   22633819.2624
        43.7504         29.5004
   2634801.22846   2040177.75744  24911988.1724                   24911982.0314
        37.0004         26.5004
   2423511.36346   1878775.85843  23537109.4614                   23537101.2704
        40.7504         22.5004
    607491.17848    481041.88348  20627579.1954                   20627570.6524
        51.7504         51.0004
 25  7 14 22 36 45.0000000  0 11G18G01G02G08G27G31G10G28G24G23G32
   2335785.42746   1800439.49943  25136549.4064                   25136544.0274
        38.2504         20.2504
  -2412775.80746  -1802646.49642  24836718.3674                   24836710.7034
        37.0004         17.7504
  -4277481.98347  -3288780.11545  22712004.3444                   22711992.5204
        45.5004         30.7504
   1264713.39747    990750.34146  22955485.0634                   22955478.6884
        43.0004         36.0004
   3022724.92946   2342182.52046  23330785.0234                   23330778.9414
        41.5004         36.2504
  -3665071.50646  -2823644.90745  24386426.4144                   24386421.1524
        41.5004         30.5004
    777905.14348    613919.50647  21412232.2504                   21412224.2344
        49.5004         47.2504
  -3280256.24347  -2499206.18044  22625273.1094                   22625264.3324
        44.0004         28.2504
   2680820.46846   2076036.87444  24920743.4144                   24920739.0354
        36.7504         26.0004
   2456892.66546   1904787.22543  23543461.7424                   23543453.4924
        41.2504         22.0004
    617712.19548    489006.31648  20629524.0394                   20629515.4384
        52.0004         51.2504
 25  7 14 22 37  0.0000000  0 11G18G01G02G08G27G31G10G28G24G23G32
   2390323.37646   1842936.49043  25146927.8594                   25146922.4224
        38.7504         19.7504
  -2464542.29146  -1842983.97242  24826866.9924                   24826860.2664
        37.7504         17.7504
  -4314609.75347  -3317710.81945  22704938.8984                   22704927.4844
        45.0004         31.2504
   1284727.95847   1006346.09045  22959294.0084                   22959287.1054
        42.2504         35.5004
   3064851.91146   2375008.69346  23338801.2974                   23338795.9184
        40.5004         36.5004
  -3721461.90346  -2867585.31645  24375696.0234                   24375690.3524
        41.2504         31.2504
    788356.85148    622063.68747  21414221.1724                   21414213.1564
        49.2504         47.0004
  -3325148.28247  -2534186.94444  22616730.4454                   22616721.4344
        43.5004         28.5004
   2726927.34845   2111964.30144  24929517.7974                   24929512.8324
        35.7504         26.7504
   2490299.93046   1930818.83544  23549818.8204                   23549810.8634
        40.7504         25.5004
    628030.17748    497046.30148  20631487.5004                   20631478.8404
        51.7504         51.0004
 25  7 14 22 37 15.0000000  0 11G18G01G02G08G27G31G10G28G24G23G32
   2444889.63746   1885455.57542  25157311.4064                   25157306.4414
        38.5004         17.2504
  -2516303.38946  -1883317.24142  24817017.2584                   24817009.9454
        38.7504         17.2504
  -4351673.67747  -3346591.76545  22697885.4224                   22697874.2424
        45.5004         31.5004
   1304848.56847   1022024.46245  22963122.1954                   22963116.2304
        43.0004         35.5004
   3107023.88146   2407869.92146  23346826.8524                   23346820.9454
        40.7504         36.7504
  -3777862.14046  -2911533.39745  24364963.2974                   24364957.4494
        41.2504         31.7504
    798848.49248    630238.98647  21416217.9694                   21416209.6024
        50.0004         47.0004
  -3369974.86947  -2569116.71544  22608200.4774                   22608191.1134
        44.2504         29.5004
   2773121.11345   2147959.42044  24938308.8524                   24938303.4734
        35.5004         25.2504
   2523732.95247   1956870.52843  23556181.0864                   23556172.8954
        42.0004         22.7504
    638444.73148    505161.53348  20633469.5084                   20633460.4384
        51.7504         51.0004
 25  7 14 22 37 30.0000000  0 11G18G01G02G08G27G31G10G28G24G23G32
   2499484.01646   1927996.51743  25167701.0084                   25167695.3954
        39.0004         19.0004
  -2568058.87246  -1923646.13642  24807169.2274                   24807161.0354
        38.5004         17.2504
  -4388673.36947  -3375422.66645  22690844.6334                   22690832.9264
        45.0004         31.2504
   1325074.98847   1037785.28445  22966971.1334                   22966965.5784
        42.5004         35.7504
   3149240.54346   2440765.97146  23354860.7344                   23354854.4184
        41.5004         37.0004
  -3834271.82546  -2955488.84744  24354228.8914                   24354222.9844
        40.5004         29.5004
    809380.24848    638445.55147  21418221.8204                   21418213.5124
        50.0004         47.5004
  -3414735.56047  -2603995.14545  22599682.4384                   22599673.7774
        43.5004         30.2504
   2819401.59446   2184022.09944  24947115.7344                   24947110.1214
        36.2504         24.2504
   2557191.82446   1982942.34844  23562548.1884                   23562540.0554
        40.5004         24.2504
    648955.72148    513351.91948  20635469.3754                   20635460.7734
        51.5004         51.0004
 25  7 14 22 37 45.0000000  0 11G18G01G02G08G27G31G10G28G24G23G32
   2554106.26846   1970559.22643  25178093.8284                   25178089.3914
        38.0004         18.2504
  -2619808.56846  -1963970.54242  24797320.9694                   24797313.3634
        39.0004         17.7504
  -4425608.60247  -3404203.33945  22683816.7344                   22683804.7344
        45.2504         31.2504
   1345406.89847   1053628.31546  22970840.4534                   22970834.3714
        43.2504         36.0004
   3191501.52746   2473696.58246  23362902.4454                   23362896.5394
        41.2504         37.2504
  -3890690.58646  -2999451.35845  24343492.7034                   24343486.0944
        40.7504         30.2504
    819952.09648    646683.34647  21420233.8524                   21420226.0124
        50.0004         47.0004
  -3459430.00047  -2638821.92545  22591177.1724                   22591168.2194
        43.5004         30.0004
   2865768.28046   2220151.95544  24955938.3054                   24955933.4574
        36.0004         25.0004
   2590676.50246   2009034.26343  23568919.9844                   23568912.2034
        40.2504         22.5004
    659562.91148    521617.26348  20637488.1644                   20637479.7384
        52.0004         51.0004
 25  7 14 22 38  0.0000000  0 11G18G01G02G08G27G31G10G28G24G23G32
   2608756.22046   2013143.48942  25188494.2974                   25188489.6844
        38.0004         17.7504
  -2671552.03246  -2004290.08943  24787474.7034                   24787466.9224
        39.0004         18.2504
  -4462478.93147  -3432933.44245  22676800.4224                   22676787.9534
        45.2504         31.5004
   1365844.12247   1069553.40846  22974729.6954                   22974723.0274
        42.5004         36.0004
   3233806.54046   2506661.48046  23370952.9224                   23370946.9574
        40.5004         36.7504
  -3947118.01047  -3043420.65044  24332754.6094                   24332748.2934
        42.0004         29.0004
    830564.21048    654952.53047  21422253.0004                   21422244.9264
        50.2504         47.0004
  -3504057.71147  -2673596.71344  22582685.2664                   22582675.9614
        43.2504         29.2504
   2912221.12046   2256348.97144  24964778.8524                   24964773.3554
        36.5004         27.2504
   2624187.15046   2035146.43944  23575296.5704                   23575288.4964
        41.0004         25.0004
    670266.22448    529957.50148  20639524.7274                   20639515.7154
        51.7504         51.0004
 25  7 14 22 38 15.0000000  0 11G18G01G02G08G27G31G10G28G24G23G32
   2663434.06546   2055749.50042  25198898.9224                   25198894.4264
        37.7504         15.5004
  -2723288.69546  -2044604.34543  24777629.8984                   24777622.2934
        39.7504         19.5004
  -4499283.73647  -3461612.48545  22669796.5634                   22669784.6214
        45.0004         31.5004
   1386386.84647   1085560.70545  22978638.3984                   22978632.7854
        42.5004         35.7504
   3276155.56146   2539660.66646  23379011.2664                   23379005.7114
        41.0004         37.0004
  -4003553.27246  -3087396.05044  24322014.8204                   24322008.9734
        40.2504         29.7504
    841217.03348    663253.41847  21424280.3524                   21424272.3364
        49.7504         47.0004
  -3548617.89047  -2708318.88645  22574205.3914                   22574196.7894
        43.5004         30.5004
   2958760.05446   2292613.05144  24973635.4694                   24973629.7384
        36.2504         26.0004
   2657724.22446   2061279.19543  23581678.9304                   23581670.9144
        40.5004         22.5004
    681065.85448    538372.79548  20641580.0084                   20641571.4064
        51.7504         51.0004
 25  7 14 22 38 30.0000000  0 11G18G01G02G08G27G31G10G28G24G23G32
   2718138.83146   2098376.49842  25209309.1954                   25209304.9344
        38.0004         14.7504
  -2775018.95846  -2084913.61843  24767785.4924                   24767778.3554
        39.2504         18.2504
  -4536023.43547  -3490240.80045  22662804.6254                   22662793.0354
        45.2504         31.5004
   1407033.97347   1101649.35245  22982567.6564                   22982561.3984
        43.0004         35.7504
   3318547.47446   2572693.28346  23387078.5314                   23387072.6254
        41.2504         37.0004
  -4059996.86646  -3131377.92544  24311274.0864                   24311267.9454
        40.5004         28.5004
    851909.88748    671585.51647  21426315.2194                   21426306.6764
        49.2504         46.7504
  -3593110.93247  -2742988.73744  22565738.8674                   22565729.3284
        44.0004         29.0004
   3005384.10946   2328943.46444  24982506.6954                   24982502.3754
        36.5004         26.2504
   2691286.92846   2087431.91044  23588065.4614                   23588057.4454
        40.7504         24.2504
    691960.85948    546862.40748  20643652.8674                   20643644.3834
        52.0004         50.7504
 25  7 14 22 38 45.0000000  0 11G18G01G02G08G27G31G10G28G24G23G32
   2772870.56846   2141024.49042  25219723.9694                   25219719.8244
        37.2504         13.7504
  -2826742.36046  -2125217.51043  24757943.0944                   24757934.9024
        40.2504         18.2504
  -4572697.43347  -3518817.92545  22655826.1174                   22655814.5864
        46.0004         31.0004
   1427785.61347   1117819.43545  22986516.9224                   22986510.4884
        42.7504         35.7504
   3360982.26346   2605759.30946  23395154.0474                   23395147.6134
        40.7504         36.5004
  -4116448.07446  -3175365.73844  24300531.6954                   24300525.4384
        39.2504         28.0004
    862643.14948    679949.09747  21428357.5394                   21428349.1134
        49.7504         46.5004
  -3637536.12047  -2777605.73345  22557284.1804                   22557275.4614
        44.2504         30.2504
   3052093.03846   2365340.02144  24991396.9694                   24991391.1214
        37.0004         26.0004
   2724875.69746   2113604.95143  23594457.7974                   23594449.3134
        41.2504         22.5004
    702951.40548    555426.46748  20645744.4774                   20645735.8754
        52.0004         51.0004
 25  7 14 22 39  0.0000000  0 11G18G01G02G08G27G31G10G28G24G23G32
   2827628.99446   2183693.36342  25230144.6484                   25230140.7384
        37.2504         14.7504
  -2878458.67046  -2165515.87643  24748101.0554                   24748093.6254
        40.7504         18.2504
  -4609305.56247  -3547343.71545  22648860.0164                   22648847.9574
        45.5004         31.5004
   1448641.38047   1134070.65745  22990485.5554                   22990479.3554
        43.7504         35.7504
   3403459.40246   2638858.33745  23403236.3524                   23403230.6804
        40.2504         35.7504
  -4172906.55546  -3219359.22944  24289787.4304                   24289781.5234
        39.7504         26.5004
    873416.85948    688344.18447  21430407.5864                   21430399.2774
        49.2504         46.7504
  -3681893.08947  -2812169.55644  22548844.2814                   22548834.8594
        43.2504         29.5004
   3098886.57746   2401802.49444  25000299.6024                   25000295.3984
        36.5004         26.2504
   2758490.41246   2139798.21443  23600854.0394                   23600845.9654
        40.7504         23.0004
    714037.19148    564064.74548  20647854.0554                   20647845.5704
        51.2504         51.0004
 25  7 14 22 39 15.0000000  0 11G18G01G02G08G27G31G10G28G24G23G32
   2882414.15146   2226383.00342  25240569.9384                   25240566.6724
        36.5004         13.7504
  -2930167.38646  -2205808.39643  24738262.3594                   24738253.7584
        40.7504         18.2504
  -4645847.22647  -3575817.71945  22641906.2974                   22641894.5314
        45.7504         32.0004
   1469601.23747   1150403.00145  22994474.2974                   22994467.6884
        43.0004         35.7504
   3445978.81046   2671990.30046  23411327.7664                   23411321.4494
        40.5004         36.7504
  -4229371.64446  -3263357.87044  24279042.8984                   24279036.5234
        38.7504         26.2504
    884231.27148    696770.99947  21432466.0634                   21432457.5204
        49.0004         46.7504
  -3726181.26047  -2846679.78345  22540416.3834                   22540406.8444
        44.2504         30.0004
   3145764.65545   2438330.83943  25009220.6334                   25009215.6684
        35.7504         22.5004
   2792131.36246   2166011.90444  23607255.8364                   23607247.6454
        41.0004         24.7504
    725218.29748    572777.28948  20649981.8594                   20649973.3164
        51.7504         51.0004
 25  7 14 22 39 30.0000000  0 11G18G01G02G08G27G31G10G28G24G23G32
   2937225.58346   2269093.09542  25250999.9534                   25250996.8634
        36.0004         14.7504
  -2981868.44046  -2246094.90343  24728423.4064                   24728415.4494
        41.5004         19.5004
  -4682322.43947  -3604239.94645  22634965.5004                   22634953.6764
        45.0004         31.5004
   1490664.72547   1166816.08646  22998482.5394                   22998476.4574
        43.0004         36.0004
   3488539.87746   2705154.72746  23419427.2974                   23419421.3914
        40.2504         36.5004
  -4285843.24746  -3307361.56744  24268296.2194                   24268290.1954
        38.0004         26.5004
    895086.25648    705229.43047  21434531.0394                   21434522.7894
        49.0004         46.7504
  -3770400.45647  -2881136.25845  22532001.5004                   22531992.3714
        44.2504         30.0004
   3192726.61145   2474924.54244  25018156.5474                   25018152.2854
        35.0004         25.0004
   2825798.48546   2192246.01043  23613662.5944                   23613654.6374
        40.5004         22.5004
    736494.32348    581563.80048  20652127.9454                   20652119.1684
        52.0004         51.0004
 25  7 14 22 39 45.0000000  0 11G18G01G02G08G27G31G10G28G24G23G32
   2992062.979 5                  25261435.930
        35.500
  -3033561.67047  -2286375.30243  24718586.3204                   24718577.8954
        42.0004         20.5004
  -4718731.02447  -3632610.24745  22628037.2504                   22628025.3674
        45.7504         32.2504
   1511831.47347   1183309.63645  23002510.0394                   23002503.8984
        43.0004         35.5004
   3531142.15346   2738351.25646  23427534.0944                   23427528.1884
        40.0004         36.5004
  -4342321.14046  -3351370.20144  24257549.4064                   24257542.5044
        38.0004         25.5004
    905981.78748    713719.45147  21436604.5164                   21436596.3834
        48.5004         46.7504
  -3814550.35347  -2915538.73644  22523600.1024                   22523590.9144
        44.2504         29.5004
   3239772.07646   2511583.32844  25027109.5634                   25027104.7734
        36.2504         25.7504
   2859491.56946   2218500.33344  23620074.0474                   23620066.0314
        40.5004         24.7504
    747864.96548    590424.04348  20654291.2894                   20654282.8054
        51.2504         51.0004
 25  7 14 22 40  0.0000000  0 11G18G01G02G08G27G31G10G28G24G23G32
   3046926.381 5                  25271876.008
        34.500
  -3085246.57046  -2326649.21943  24708750.9144                   24708743.0164
        41.7504         20.0004
  -4755072.43147  -3660928.20245  22621121.3754                   22621109.7274
        45.5004         32.0004
   1533101.48947   1199883.64645  23006558.6254                   23006551.3134
        43.0004         35.5004
   3573785.50746   2771579.79546  23435648.8364                   23435642.9304
        39.7504         36.2504
  -4398804.73246  -3395383.25443  24246800.1094                   24246794.0274
        36.7504         23.2504
    916918.23847    722241.35847  21438685.7034                   21438677.3364
        47.5004         47.0004
  -3858630.31347  -2949886.71144  22515211.7664                   22515203.1644
        44.2504         29.5004
   3286900.97445   2548307.11343  25036077.9844                   25036073.1374
        35.5004         22.2504
   2893211.00746   2244775.18944  23626490.4844                   23626483.0554
        40.5004         24.0004
    759330.32148    599358.08548  20656473.3984                   20656464.7384
        50.0004         51.0004
 25  7 14 22 40 15.0000000  0 11G18G01G02G08G27G31G10G28G24G23G32
   3101815.104 5                  25282321.305
        34.000
  -3136923.32046  -2366916.81643  24698917.6174                   24698909.0164
        41.5004         20.2504
  -4791346.75147  -3689193.88445  22614218.2664                   22614206.6174
        45.2504         31.2504
   1554474.05747   1216537.58145  23010625.0004                   23010618.6254
        43.0004         35.5004
   3616469.15746   2804839.72446  23443771.3444                   23443765.4384
        40.2504         36.5004
  -4455293.95045  -3439400.68243  24236051.3524                   24236044.0984
        35.5004         22.0004
    927895.19847    730794.83147  21440774.5944                   21440766.4024
        47.7504         46.7504
  -3902640.39847  -2984180.25444  22506836.7424                   22506827.9654
        43.5004         28.7504
   3334112.62645   2585095.40843  25045062.2974                   25045056.7424
        35.7504         22.0004
   2926956.38346   2271070.28643  23632911.9844                   23632904.1454
        41.0004         23.2504
    770889.76348    608365.43948  20658672.7584                   20658663.6294
        50.0004         50.7504
 25  7 14 22 40 30.0000000  0 11G18G01G02G08G27G31G10G28G24G23G32
   3156729.310 5                  25292771.273
        33.500
  -3188591.20946  -2407177.45143  24689085.2344                   24689077.1024
        40.7504         19.7504
  -4827553.23347  -3717406.70645  22607328.6644                   22607316.7814
        45.2504         31.5004
   1575949.31347   1233271.52445  23014711.3284                   23014705.3634
        42.7504         35.5004
   3659193.10646   2838131.06446  23451901.0164                   23451895.8134
        40.0004         36.7504
  -4511788.13846  -3483422.00444  24225300.5704                   24225293.4924
        36.5004         24.0004
    938913.17148    739380.26147  21442870.9844                   21442862.9104
        48.0004         46.7504
  -3946579.80547  -3018418.69844  22498475.6414                   22498466.8634
        43.7504         28.7504
   3381406.92946   2621948.07644  25054061.1954                   25054056.3484
        37.0004         25.5004
   2960728.11246   2297385.86943  23639338.2814                   23639330.6764
        40.2504         22.5004
    782543.49248    617446.27048  20660890.4694                   20660882.1604
        51.0004         50.7504
 25  7 14 22 40 45.0000000  0 11G18G01G02G08G27G31G10G28G24G23G32
   3211668.579 5                  25303225.289
        32.250
  -3240250.31546  -2447431.27843  24679255.5084                   24679246.8484
        40.7504         20.0004
  -4863691.96447  -3745566.73945  22600451.7034                   22600439.5864
        45.5004         31.5004
   1597526.72047   1250085.06846  23018817.7344                   23018811.8284
        43.0004         36.0004
   3701956.75746   2871453.33446  23460039.4924                   23460033.2344
        40.0004         36.0004
  -4568287.03545  -3527447.00243  24214548.2344                   24214542.4454
        35.7504         22.7504
    949971.93548    747997.47647  21444975.5234                   21444967.6254
        48.7504         47.0004
  -3990448.36747  -3052601.95544  22490127.6414                   22490118.5124
        44.0004         29.2504
   3428783.38146   2658864.76644  25063077.3754                   25063071.5864
        36.7504         27.5004
   2994526.02646   2323721.88143  23645770.3754                   23645762.0664
        40.7504         22.0004
    794291.11348    626600.26048  20663125.9694                   20663117.1914
        51.7504         51.0004
 25  7 14 22 41  0.0000000  0 11G18G01G02G08G27G31G10G28G24G23G32
   3266632.813 5                  25313684.352
        32.250
  -3291900.11746  -2487677.85243  24669425.7734                   24669418.1684
        40.5004         18.5004
  -4899762.59447  -3773673.70345  22593587.5234                   22593575.4654
        45.5004         31.5004
   1619206.16447   1266978.12345  23022943.1954                   23022936.8794
        42.7504         35.7504
   3744759.90246   2904806.38746  23468184.2974                   23468178.6254
        40.0004         36.5004
  -4624790.25346  -3571475.33344  24203795.8674                   24203789.9614
        36.2504         25.5004
    961071.79948    756646.71747  21447088.0234                   21447079.4224
        49.2504         46.7504
  -4034245.55547  -3086729.59245  22481793.0164                   22481784.1214
        43.7504         30.2504
   3476241.78946   2695845.31044  25072108.4774                   25072103.3364
        37.5004         27.0004
   3028350.31946   2350078.45843  23652206.7114                   23652198.9304
        40.7504         22.5004
    806132.55748    635827.35948  20665379.1174                   20665370.2814
        51.5004         51.0004
 25  7 14 22 41 15.0000000  0 11G18G01G02G08G27G31G10G28G24G23G32
   3321621.715 5                  25324148.945
        31.000
  -3343540.51346  -2527917.10543  24659599.3754                   24659591.0664
        40.0004         18.5004
  -4935764.71947  -3801727.28845  22586737.1484                   22586725.0904
        46.0004         31.7504
   1640987.30047   1283950.41645  23027087.7664                   23027081.9774
        42.5004         35.7504
   3787602.04746   2938189.83146  23476336.8364                   23476330.9884
        40.0004         36.0004
  -4681297.40046  -3615506.73044  24193044.1094                   24193036.9734
        38.0004         28.2504
    972212.70348    765327.94347  21449207.6484                   21449199.6914
        49.7504         46.7504
  -4077971.05147  -3120801.36145  22473472.4304                   22473463.4774
        43.2504         30.5004
   3523781.65545   2732889.34344  25081154.2194                   25081149.7234
        35.5004         25.2504
   3062200.91646   2376455.52043  23658648.3364                   23658640.4964
        40.2504         22.0004
    818067.59948    645127.38448  20667650.9614                   20667642.0664
        52.2504         51.0004
 25  7 14 22 41 30.0000000  0 11G18G01G02G08G27G31G10G28G24G23G32
   3376634.636 5                  25334618.031
        31.750
  -3395171.47046  -2568148.99543  24649773.9384                   24649766.4494
        39.5004         19.0004
  -4971698.44347  -3829727.58345  22579898.6414                   22579886.9924
        46.0004         31.5004
   1662869.51147   1301001.47145  23031252.0314                   23031245.8914
        42.5004         35.5004
   3830482.54546   2971603.15445  23484496.5004                   23484490.8874
        40.0004         35.0004
  -4737808.47746  -3659541.18644  24182289.5704                   24182283.2544
        38.2504         28.5004
    983394.42448    774040.96647  21451335.6174                   21451327.0164
        49.5004         46.7504
  -4121624.80547  -3154817.24445  22465165.4924                   22465156.4224
        44.2504         30.2504
   3571402.43446   2769996.39944  25090217.5164                   25090211.8444
        36.0004         25.5004
   3096077.53446   2402852.85943  23665094.8524                   23665087.1294
        40.0004         22.5004
    830095.66048    654499.90148  20669939.3674                   20669930.4144
        51.2504         50.7504
 25  7 14 22 41 45.0000000  0 11G18G01G02G08G27G31G10G28G24G23G32
   3431671.676 5                  25345091.234
        30.500
  -3446792.53446  -2608373.14543  24639950.9534                   24639943.2304
        39.0004         19.0004
  -5007563.22047  -3857674.14045  22573074.0944                   22573061.9184
        45.5004         31.5004
   1684852.79847   1318131.29145  23035435.8444                   23035429.4104
        42.2504         35.5004
   3873401.21946   3005046.23545  23492663.7894                   23492658.0594
        39.7504         35.5004
  -4794322.84946  -3703578.21844  24171535.3834                   24171528.8324
        39.2504         29.5004
    994617.27548    782786.03747  21453471.3674                   21453463.2344
        49.7504         47.0004
  -4165206.15447  -3188776.69844  22456872.1174                   22456863.2234
        44.2504         29.7504
   3619104.07546   2807166.50144  25099294.3364                   25099289.0164
        37.0004         25.0004
   3129980.48546   2429270.71343  23671546.7974                   23671538.7234
        39.5004         22.0004
    842216.90348    663945.02248  20672246.1564                   20672237.2034
        51.5004         50.7504
 25  7 14 22 42  0.0000000  0 11G18G01G02G08G27G31G10G28G24G23G32
                                  25355569.195
        28.750
  -3498401.68046  -2648588.07542  24630130.5394                   24630122.4064
        38.2504         17.7504
  -5043357.14847  -3885565.49645  22566262.8984                   22566250.3134
        46.2504         32.7504
   1706938.64947   1335341.02545  23039638.4384                   23039632.0044
        43.0004         35.7504
   3916359.52646   3038520.20345  23500838.6804                   23500832.9494
        39.7504         35.2504
  -4850838.38146  -3747616.15644  24160781.2584                   24160773.8284
        40.2504         29.5004
   1005883.03548    791564.55347  21455614.9224                   21455606.7894
        50.2504         47.0004
  -4208712.94947  -3222678.04044  22448593.0864                   22448584.0744
        44.0004         29.2504
   3666887.80346   2844400.54044  25108387.6644                   25108381.9924
        37.0004         24.7504
   3163911.53146   2455710.43943  23678002.8914                   23677995.4614
        40.0004         21.7504
    854432.81248    673463.91648  20674570.6174                   20674561.7234
        52.2504         50.7504
 25  7 14 22 42 15.0000000  0 11G18G01G02G08G27G31G10G28G24G23G32
   1966397.28814                  25366051.875
        26.750
  -3550003.92346  -2688797.58842  24620310.5394                   24620302.6414
        37.2504         17.7504
  -5079085.14547  -3913405.47945  22559464.0784                   22559451.5514
        46.0004         32.7504
   1729121.43147   1352626.28845  23043859.4774                   23043852.8094
        43.0004         35.2504
   3959351.73946   3072020.57545  23509020.1954                   23509013.8204
        39.7504         35.0004
  -4907360.01746  -3791658.86845  24150024.4844                   24150018.4024
        40.7504         30.5004
   1017186.52748    800372.46547  21457766.1644                   21457757.7384
        49.5004         47.2504
  -4252150.14047  -3256525.16845  22440327.0394                   22440318.0864
        44.0004         30.5004
   3714748.14846   2881694.28444  25117494.6414                   25117489.6174
        37.0004         24.0004
   3197865.39946   2482168.00643  23684464.2584                   23684456.1254
        39.0004         21.7504
    866737.89448    683052.29448  20676912.1094                   20676903.0394
        52.0004         50.7504
 25  7 14 22 42 30.0000000  0 11G18G01G02G08G27G31G10G28G24G23G32
                                  25376538.547
        25.250
  -3601591.68246  -2728995.80242  24610493.6254                   24610485.5514
        36.5004         17.2504
  -5114739.55047  -3941188.10845  22552678.6884                   22552667.0394
        45.2504         32.0004
   1751408.18847   1369992.57745  23048100.1954                   23048094.2894
        42.2504         35.2504
   4002384.73646   3105552.73545  23517208.9924                   23517202.9694
        39.2504         34.5004
  -4963880.06846  -3835700.32445  24139269.3364                   24139262.6684
        40.7504         32.0004
   1028535.14648    809215.54447  21459925.8204                   21459917.2194
        49.5004         47.0004
  -4295510.01647  -3290312.04145  22432075.8834                   22432066.9884
        43.7504         30.2504
   3762692.04046   2919053.14344  25126618.1564                   25126613.1334
        36.7504         25.0004
   3231849.50846   2508649.08043  23690931.4844                   23690923.4694
        40.0004         22.5004
    879139.32248    692715.74048  20679272.0704                   20679263.4694
        52.2504         51.0004
 25  7 14 22 42 45.0000000  0 11G18G01G02G08G27G31G10G28G24G23G32
                                  25387028.773
        26.750
  -3653170.32446  -2769186.91142  24600678.5784                   24600670.3874
        37.5004         17.7504
  -5150325.79047  -3968917.63245  22545906.9224                   22545894.9804
        45.5004         31.5004
   1773793.00447   1387435.26545  23052360.0234                   23052354.0004
        42.5004         35.5004
   4045452.66046   3139112.10245  23525404.6644                   23525398.6994
        40.0004         35.5004
  -5020403.81046  -3879744.67145  24128513.4304                   24128506.8204
        41.2504         33.2504
   1039923.29348    818089.41947  21462092.7114                   21462084.7544
        49.7504         47.0004
  -4338797.83347  -3324042.78045  22423838.3984                   22423829.7974
        44.2504         30.0004
   3810713.44046   2956472.37844  25135756.8204                   25135751.2664
        37.5004         26.2504
   3265858.18446   2535149.33843  23697403.9064                   23697395.3634
        40.0004         22.0004
    891631.24348    702449.70948  20681649.3284                   20681640.6094
        51.7504         50.7504
 25  7 14 22 43  0.0000000  0 11G18G01G02G08G27G31G10G28G24G23G32
   2131791.67414                  25397524.117
        29.000
  -3704739.41346  -2809370.57842  24590864.7344                   24590857.5984
        36.7504         16.7504
  -5185843.36847  -3996593.64445  22539148.3204                   22539135.7934
        45.2504         31.7504
   1796275.81047   1404954.32745  23056638.6024                   23056632.2274
        42.5004         35.5004
   4088555.23746   3172698.48046  23533606.9614                   23533601.1724
        39.7504         36.0004
  -5076930.76147  -3923791.52145  24117756.0704                   24117749.9304
        42.0004         34.2504
   1051351.25148    826994.31447  21464267.5554                   21464259.4224
        49.5004         47.0004
  -4382012.98147  -3357716.88345  22415615.4534                   22415605.6214
        44.2504         30.5004
   3858812.29046   2993951.97244  25144909.2584                   25144904.2934
        36.2504         24.5004
   3299891.67746   2561668.91543  23703879.6724                   23703871.3634
        41.2504         22.7504
    904213.63048    712254.17148  20684043.5784                   20684035.0944
        52.0004         50.7504
 25  7 14 22 43 15.0000000  0 11G18G01G02G08G27G31G10G28G24G23G32
   2186968.70615                  25408023.656
        30.250
  -3756295.49746  -2849544.09043  24581054.4224                   24581046.6414
        36.2504         19.2504
  -5221288.87147  -4024213.50945  22532403.0084                   22532390.9494
        45.2504         32.0004
   1818859.51847   1422552.00046  23060936.0944                   23060929.7774
        42.7504         36.0004
   4131695.26146   3206314.02845  23541815.8674                   23541810.3134
        39.7504         35.7504
  -5133457.31247  -3967838.05345  24107000.0704                   24106993.2274
        42.2504         34.7504
   1062822.28748    835932.77747  21466450.1724                   21466442.2154
        49.2504         47.0004
  -4425151.88147  -3391331.56645  22407405.8834                   22407396.6954
        44.7504         30.5004
   3906991.36346   3031494.08744  25154077.1174                   25154072.7974
        36.2504         24.5004
   3333953.19546   2588210.31943  23710361.7114                   23710353.5204
        39.7504         22.0004
    916889.52248    722131.48548  20686455.6414                   20686446.8634
        51.7504         51.0004
 25  7 14 22 43 30.0000000  0 11G18G01G02G08G27G31G10G28G24G23G32
                                  25418528.320
        30.500
  -3807838.18646  -2889707.21143  24571246.4064                   24571238.6254
        36.5004         18.5004
  -5256661.80047  -4051776.80845  22525671.9844                   22525659.9264
        45.5004         32.5004
   1841543.76647   1440228.02645  23065252.8524                   23065246.4774
        42.5004         35.0004
   4174872.42146   3239958.51945  23550032.6334                   23550026.7274
        40.0004         35.5004
  -5189982.91847  -4011883.85045  24096243.0394                   24096236.4884
        42.0004         34.5004
   1074336.47948    844904.87847  21468641.6174                   21468633.6024
        49.2504         47.0004
  -4468214.18047  -3424886.56045  22399211.9064                   22399202.4264
        44.2504         30.5004
   3955250.33146   3069098.45244  25163260.4774                   25163255.6294
        36.0004         24.0004
   3368042.82646   2614773.65043  23716848.1644                   23716840.6764
        40.0004         22.7504
    929658.71848    732081.50448  20688885.6334                   20688876.8554
        51.7504         50.7504
 25  7 14 22 43 45.0000000  0 11G18G01G02G08G27G31G10G28G24G23G32
   2297390.30545   1421160.37952  25429037.7664                   25429031.8014
        30.5004         17.2504
  -3859371.81246  -2929863.23743  24561438.6484                   24561431.7464
        36.2504         18.2504
  -5291966.38847  -4079286.85045  22518953.2274                   22518941.8714
        45.5004         32.7504
   1864324.04647   1457978.87046  23069587.6644                   23069581.4654
        43.0004         36.0004
   4218081.94946   3273628.23445  23558255.1094                   23558249.2034
        40.7504         35.7504
  -5246511.62447  -4055932.07845  24085486.4844                   24085479.1724
        43.7504         35.0004
   1085889.59948    853907.30547  21470839.9614                   21470832.4734
        49.5004         47.0004
  -4511203.79847  -3458384.93945  22391031.4614                   22391021.6884
        44.7504         30.2504
   4003584.67245   3106761.55543  25172458.3444                   25172453.5554
        35.0004         22.5004
   3402156.23246   2641355.49443  23723340.3754                   23723331.8324
        40.2504         23.0004
    942516.69348    742100.70848  20691332.3204                   20691323.9534
        52.0004         50.7504
 25  7 14 22 44  0.0000000  0 11G18G01G02G08G27G31G10G28G24G23G32
   2352633.85645   1464207.17242  25439550.2194                   25439545.1954
        32.7504         17.2504
  -3910892.11546  -2970008.86843  24551635.5314                   24551627.6334
        36.2504         20.5004
  -5327198.74847  -4106740.61645  22512249.2114                   22512237.3874
        45.7504         32.5004
   1887203.66847   1475807.12246  23073941.7504                   23073935.6094
        43.2504         36.0004
   4261327.19546   3307325.78046  23566484.5474                   23566478.1724
        40.2504         36.0004
  -5303039.51247  -4099979.65845  24074728.7974                   24074721.8364
        43.0004         35.7504
   1097485.30248    862942.91547  21473046.3364                   21473038.4384
        50.0004         47.2504
  -4554116.74347  -3491823.54745  22382865.3364                   22382855.7974
        44.7504         31.2504
   4051997.58046   3144485.85043  25181671.9694                   25181666.0634
        36.2504         22.7504
   3436297.14046   2667958.75143  23729836.7504                   23729829.1454
        39.5004         21.7504
    955466.89648    752191.77848  20693796.8284                   20693787.9344
        51.7504         50.7504
 25  7 14 22 44 15.0000000  0 11G18G01G02G08G27G31G10G28G24G23G32
   2407899.17545   1507270.95642  25450067.0704                   25450062.6334
        34.0004         17.7504
  -3962399.88845  -3010144.75143  24541833.5084                   24541826.4884
        35.0004         19.2504
  -5362359.35547  -4134138.47045  22505558.2034                   22505546.3794
        45.2504         32.0004
   1910181.52547   1493711.92546  23078313.7344                   23078307.8874
        42.5004         36.0004
   4304606.89546   3341050.17646  23574720.3914                   23574714.6604
        40.2504         36.0004
  -5359566.96347  -4144026.89645  24063972.3754                   24063965.1214
        43.5004         35.5004
   1109122.89148    872011.16847  21475261.2034                   21475252.7774
        49.0004         47.0004
  -4596953.38847  -3525202.71345  22374713.4774                   22374703.7624
        44.5004         30.2504
   4100487.97446   3182270.56043  25190898.9694                   25190893.7664
        36.2504         22.7504
   3470464.73046   2694582.83543  23736338.8444                   23736330.4774
        40.2504         22.7504
    968508.33148    762353.93348  20696278.5314                   20696269.5204
        51.7504         50.7504
 25  7 14 22 44 30.0000000  0 11G18G01G02G08G27G31G10G28G24G23G32
   2463187.69145   1550352.82143  25460588.0314                   25460583.4184
        33.7504         19.2504
  -4013893.22046  -3050269.34543  24532034.6334                   24532027.8484
        36.0004         19.0004
  -5397446.16147  -4161478.82845  22498881.3054                   22498869.4224
        44.7504         31.7504
   1933258.88847   1511694.26145  23082705.9694                   23082699.0664
        42.5004         35.7504
   4347922.28446   3374802.38146  23582962.8754                   23582957.0864
        40.7504         36.0004
  -5416092.03147  -4188072.26745  24053215.6954                   24053208.8524
        42.5004         35.0004
   1120803.97248    881113.29947  21477484.0004                   21477476.0434
        49.0004         47.0004
  -4639711.85347  -3558520.96345  22366576.4534                   22366567.2664
        45.2504         30.0004
   4149056.89746   3220116.43944  25200141.1724                   25200136.0904
        36.0004         24.5004
   3504660.55146   2721228.89943  23742845.5634                   23742837.8984
        39.7504         22.0004
    981642.30348    772588.20048  20698777.8134                   20698769.0354
        51.7504         51.0004
 25  7 14 22 44 45.0000000  0 11G18G01G02G08G27G31G10G28G24G23G32
   2518496.16745   1593450.22643  25471112.2194                   25471108.7194
        34.5004         18.5004
  -4065374.89846  -3090384.90443  24522238.5164                   24522230.2664
        36.5004         19.0004
  -5432462.15047  -4188763.99445  22492218.4384                   22492206.1454
        46.0004         32.2504
   1956432.37947   1529751.50546  23087115.3984                   23087109.0234
        42.5004         36.0004
   4391269.93446   3408579.72246  23591212.0314                   23591205.7154
        41.0004         36.0004
  -5472617.42347  -4232117.89645  24042458.9924                   24042452.3834
        42.0004         35.0004
   1132525.55448    890246.99347  21479714.3594                   21479706.7544
        49.7504         47.0004
  -4682394.79547  -3591780.36045  22358453.5084                   22358444.6724
        44.5004         30.5004
   4197700.91745   3258020.85143  25209398.1414                   25209392.7034
        35.2504         23.7504
   3538881.61846   2747894.63543  23749357.6484                   23749349.8674
        39.5004         22.5004
    994865.60648    782892.07448  20701293.9144                   20701285.4884
        51.5004         51.0004
 25  7 14 22 45  0.0000000  0 11G18G01G02G08G27G31G10G28G24G23G32
   2573825.33145   1636563.75343  25481641.2974                   25481636.9774
        35.0004         20.2504
  -4116843.65146  -3130490.36743  24512443.7734                   24512436.3444
        36.0004         19.7504
  -5467406.02647  -4215992.97145  22485568.5164                   22485556.1644
        45.0004         32.2504
   1979702.76147   1547884.24945  23091543.7274                   23091537.5864
        42.2504         35.0004
   4434650.38246   3442382.60846  23599466.5634                   23599460.9494
        41.2504         36.0004
  -5529141.79547  -4276162.73846  24031703.1094                   24031695.8554
        42.2504         36.0004
   1144288.74148    899413.11447  21481953.1174                   21481944.6914
        49.2504         47.0004
  -4725000.79847  -3624979.81545  22350346.2814                   22350336.8014
        45.0004         30.0004
   4246420.88345   3295984.42043  25218669.4064                   25218664.2664
        34.0004         20.7504
   3573129.03346   2774580.90843  23755875.4304                   23755866.8874
        40.2504         22.2504
   1008179.00748    793266.15148  20703827.6724                   20703818.6024
        52.0004         51.0004
 25  7 14 22 45 15.0000000  0 11G18G01G02G08G27G31G10G28G24G23G32
   2629175.63846   1679693.77043  25492174.1094                   25492170.6684
        37.0004         20.0004
  -4168298.48745  -3170584.99243  24502652.1484                   24502645.5394
        35.5004         19.7504
  -5502276.78747  -4243164.96945  22478932.8914                   22478920.6564
        45.2504         32.2504
   2003070.52447   1566092.86746  23095990.4224                   23095984.4574
        42.2504         36.0004
   4478064.15946   3476211.48445  23607727.9384                   23607722.5004
        40.2504         35.2504
  -5585663.94647  -4320205.84645  24020946.8754                   24020940.0314
        42.0004         34.5004
   1156094.35647    908612.29247  21484199.5474                   21484191.3554
        47.7504         47.0004
  -4767528.71847  -3658118.41245  22342253.7114                   22342244.4654
        44.2504         30.0004
   4295217.33145   3334007.59343  25227955.4224                   25227949.9844
        33.7504         19.7504
   3607403.50846   2801288.26943  23762397.6024                   23762389.3524
        39.2504         22.7504
   1021583.16048    803710.94548  20706378.2344                   20706369.3984
        50.0004         51.0004
 25  7 14 22 45 30.0000000  0 11G18G01G02G08G27G31G10G28G24G23G32
   2684546.82146   1722840.02843  25502711.5944                   25502707.0394
        37.0004         20.0004
  -4219739.14946  -3210668.56443  24492862.7734                   24492856.3984
        36.0004         20.0004
  -5537074.16747  -4270279.79845  22472310.9224                   22472298.9224
        45.2504         32.5004
   2026535.20647   1584377.01746  23100455.1414                   23100449.5864
        42.0004         36.5004
   4521510.72046   3510065.89745  23615995.2344                   23615989.8554
        40.7504         35.2504
  -5642183.54846  -4364246.96545  24010191.1954                   24010184.5864
        40.7504         34.2504
   1167942.39048    917844.52247  21486453.9454                   21486445.8714
        48.7504         47.0004
  -4809978.27247  -3691195.96045  22334175.9454                   22334166.4064
        45.0004         30.7504
   4344089.60546   3372089.88043  25237254.5004                   25237249.5944
        36.0004         22.2504
   3641705.08346   2828016.72943  23768923.9534                   23768916.8754
        39.2504         22.2504
   1035077.72148    814226.17948  20708946.0394                   20708937.6724
        51.0004         51.0004
 25  7 14 22 45 45.0000000  0 11G18G01G02G08G27G31G10G28G24G23G32
   2739937.92745   1766001.86543  25513251.7504                   25513247.7814
        35.0004         19.2504
  -4271166.15546  -3250741.51843  24483076.1254                   24483069.9264
        36.0004         19.7504
  -5571798.70247  -4297337.86045  22465702.8284                   22465691.3554
        45.0004         32.0004
   2050095.88547   1602735.96246  23104939.2584                   23104933.1174
        42.5004         36.5004
   4564989.00446   3543945.03045  23624269.5314                   23624263.5084
        40.7504         35.0004
  -5698700.95046  -4408286.37145  23999436.3594                   23999429.1644
        41.0004         32.7504
   1179832.21548    927109.31747  21488716.7814                   21488708.7664
        48.0004         47.0004
  -4852349.83847  -3724212.73045  22326112.4844                   22326103.2384
        44.5004         31.0004
   4393036.61745   3410230.38443  25246569.4384                   25246564.0594
        34.5004         22.5004
   3676032.97946   2854765.70243  23775456.5944                   23775448.9884
        39.0004         21.5004
   1048661.78248    824811.16448  20711531.0234                   20711522.5984
        50.0004         50.7504
 25  7 14 22 46  0.0000000  0 11G18G01G02G08G27G31G10G28G24G23G32
   2795349.17046   1809179.34943  25523797.3054                   25523792.2814
        37.5004         19.2504
  -4322578.82446  -3290803.29843  24473294.1954                   24473286.0044
        38.2504         21.5004
  -5606449.70747  -4324338.62345  22459109.3444                   22459097.4024
        45.5004         31.7504
   2073752.54047   1621169.69746  23109441.0704                   23109434.9884
        43.0004         36.0004
   4608498.92846   3577848.82145  23632549.3444                   23632543.0864
        40.5004         35.2504
  -5755215.43446  -4452323.51845  23988681.9454                   23988675.1604
        41.2504         33.2504
   1191764.19548    936406.96047  21490987.3984                   21490979.0904
        49.5004         47.2504
  -4894642.63547  -3757168.11945  22318064.1484                   22318055.3134
        45.0004         30.5004
   4442058.44645   3448429.18643  25255896.7734                   25255892.4534
        32.7504         21.5004
   3710387.55146   2881535.49343  23781994.5864                   23781986.8054
        39.0004         21.7504
   1062335.45348    835465.97148  20714133.2114                   20714124.4924
        51.0004         50.7504
 25  7 14 22 46 15.0000000  0 11G18G01G02G08G27G31G10G28G24G23G32
   2850780.09646   1852372.17243  25534344.3984                   25534341.0744
        37.2504         21.2504
  -4373977.13046  -3330853.89443  24463513.6174                   24463505.0744
        38.5004         21.0004
  -5641027.05547  -4351281.99945  22452529.7034                   22452517.4104
        44.5004         32.5004
   2097504.67247   1639677.83645  23113960.4224                   23113954.2814
        43.0004         35.5004
   4652039.95046   3611776.83945  23640834.9304                   23640828.7894
        40.0004         34.7504
  -5811726.97346  -4496358.35545  23977927.8674                   23977921.1414
        40.5004         32.5004
   1203738.23848    945737.38247  21493266.3524                   21493258.0434
        49.2504         47.0004
  -4936856.53247  -3790062.02345  22310031.1954                   22310021.8914
        44.7504         30.5004
   4491154.48245   3486685.80543  25265240.1334                   25265235.4024
        33.0004         19.5004
   3744768.72446   2908325.98143  23788537.2274                   23788529.2704
        38.7504         21.5004
   1076098.36148    846190.30948  20716752.2584                   20716743.5984
        51.0004         51.0004
 25  7 14 22 46 30.0000000  0 11G18G01G02G08G27G31G10G28G24G23G32
   2906230.73446   1895580.39143  25544896.6564                   25544892.5124
        38.2504         21.5004
  -4425360.47046  -3370892.82543  24453735.1334                   24453727.7624
        39.5004         21.0004
  -5675530.16747  -4378167.51545  22445963.7034                   22445951.5864
        45.5004         33.0004
   2121352.41047   1658260.45945  23118499.0704                   23118492.4024
        42.0004         35.0004
   4695612.05246   3645729.07745  23649126.6254                   23649120.3674
        40.5004         35.2504
  -5868234.85346  -4540390.35645  23967174.4844                   23967167.6414
        40.2504         31.2504
   1215754.80648    955100.93447  21495552.4534                   21495544.0274
        49.0004         47.0004
  -4978990.77647  -3822893.86845  22302013.7034                   22302004.0474
        45.0004         30.2504
   4540325.00345   3525000.47643  25274596.5554                   25274592.1174
        33.5004         22.0004
   3779176.79746   2935137.43443  23795084.9384                   23795076.9804
        39.7504         21.2504
   1089950.66648    856984.32048  20719388.2814                   20719379.5044
        50.7504         51.0004
 25  7 14 22 46 45.0000000  0 11G18G01G02G08G27G31G10G28G24G23G32
   2961700.55646   1938803.54243  25555453.2274                   25555448.3204
        37.2504         19.7504
  -4476728.72846  -3410920.01243  24443960.0084                   24443952.5784
        40.0004         22.5004
  -5709958.95147  -4404995.11945  22439412.1804                   22439400.3554
        44.7504         32.0004
   2145295.17247   1676917.13845  23123055.3284                   23123048.7194
        42.0004         35.0004
   4739214.60246   3679705.05845  23657423.9384                   23657417.5634
        40.2504         34.7504
  -5924738.90246  -4584419.37445  23956421.4384                   23956415.1804
        41.0004         31.0004
   1227813.65148    964497.43247  21497847.3914                   21497839.4344
        48.0004         47.0004
  -5021045.24347  -3855663.54345  22294010.6174                   22294001.6644
        45.0004         31.0004
   4589568.89945   3563372.30043  25283967.7424                   25283962.5394
        33.5004         22.5004
   3813611.64746   2961969.75543  23801637.7504                   23801629.7344
        39.5004         21.2504
   1103891.92348    867847.63448  20722040.8674                   20722032.3834
        50.5004         51.0004
 25  7 14 22 47  0.0000000  0 11G18G01G02G08G27G31G10G28G24G23G32
   3017189.52646   1982041.58543  25566012.5164                   25566007.6094
        39.7504         21.0004
  -4528081.60246  -3450935.19943  24434187.8754                   24434180.0944
        40.7504         22.0004
  -5744313.18147  -4431764.63845  22432874.9924                   22432862.5234
        45.2504         32.2504
   2169332.73847   1695647.68046  23127629.5084                   23127623.4264
        42.2504         36.0004
   4782847.35246   3713704.55045  23665726.8674                   23665720.4344
        40.0004         35.0004
  -5981238.48246  -4628444.90545  23945670.4304                   23945663.4104
        39.5004         31.5004
   1239915.01648    973927.06247  21500150.0554                   21500142.2734
        49.0004         47.0004
  -5063019.43347  -3888370.66945  22286023.4774                   22286014.2894
        44.7504         30.7504
   4638886.16245   3601801.31143  25293351.9534                   25293347.2814
        34.2504         21.2504
   3848073.35346   2988822.99843  23808195.7974                   23808187.9574
        39.5004         21.5004
   1117922.02048    878780.17648  20724710.9224                   20724702.0864
        51.2504         51.0004
 25  7 14 22 47 15.0000000  0 11G18G01G02G08G27G31G10G28G24G23G32
   3072697.57846   2025294.53743  25576574.4614                   25576570.5514
        36.5004         19.7504
  -4579418.58746  -3490938.03143  24424418.8054                   24424410.7304
        41.5004         22.2504
  -5778592.32647  -4458475.64145  22426352.0944                   22426339.8594
        45.2504         32.0004
   2193465.01046   1714452.03545  23132221.2194                   23132215.3714
        41.5004         35.5004
   4826510.09346   3747727.42745  23674035.7034                   23674029.5634
        40.5004         35.0004
  -6037733.07046  -4672466.54844  23934919.0944                   23934912.6024
        39.0004         28.5004
   1252059.13748    983390.01347  21502460.9304                   21502452.8554
        49.7504         46.7504
  -5104912.79947  -3921014.80945  22278051.5004                   22278042.0784
        45.0004         30.5004
   4688276.73345   3640287.44843  25302751.6414                   25302746.3204
        33.5004         21.2504
   3882562.08546   3015697.31643  23814758.5784                   23814750.5044
        39.0004         21.0004
   1132040.95648    889781.94348  20727397.6334                   20727389.0904
        51.0004         51.0004
 25  7 14 22 47 30.0000000  0 11G18G01G02G08G27G31G10G28G24G23G32
   3128224.16546   2068561.88543  25587141.2664                   25587137.0634
        37.7504         21.0004
  -4630739.88746  -3530928.60943  24414652.6884                   24414644.8484
        40.5004         23.5004
  -5812796.50547  -4485128.22645  22419842.6804                   22419830.4454
        45.2504         32.7504
   2217691.23647   1733329.58045  23136832.0704                   23136825.3444
        42.0004         34.7504
   4870202.03046   3781773.04445  23682349.8054                   23682343.4304
        39.5004         34.0004
  -6094222.72346  -4716484.35244  23924170.0554                   23924162.9184
        39.2504         28.5004
   1264245.59948    992885.95647  21504779.7034                   21504771.9224
        49.0004         46.7504
  -5146725.39147  -3953596.03245  22270094.3834                   22270085.1954
        45.5004         30.5004
   4737739.69945   3678830.00543  25312162.7274                   25312158.4654
        32.0004         19.7504
   3917077.54546   3042592.43743  23821327.1334                   23821318.5904
        40.0004         21.5004
   1146248.06948    900852.41948  20730101.4304                   20730092.9454
        51.2504         51.0004
 25  7 14 22 47 45.0000000  0 11G18G01G02G08G27G31G10G28G24G23G32
   3183769.18846   2111843.60743  25597710.6024                   25597706.9844
        36.5004         19.0004
  -4682044.99546  -3570906.57144  24404889.9694                   24404881.7194
        41.5004         24.0004
  -5846925.12847  -4511721.94245  22413348.3204                   22413336.4384
        45.2504         32.5004
   2242011.39647   1752280.33845  23141459.9694                   23141453.3594
        42.5004         35.2504
   4913922.98846   3815841.27645  23690669.3364                   23690664.1334
        39.2504         34.2504
  -6150706.93046  -4760497.91644  23913421.4304                   23913413.9414
        39.0004         28.0004
   1276474.81348   1002415.20947  21507107.1954                   21507099.1804
        48.7504         46.5004
  -5188456.57247  -3986113.79645  22262153.6644                   22262143.5394
        45.0004         30.2504
   4787275.31045   3717429.20143  25321590.9534                   25321585.4574
        33.5004         19.5004
   3951619.94746   3069508.54643  23827900.5394                   23827892.1134
        39.2504         21.0004
   1160543.42948    911991.65548  20732821.5234                   20732812.9804
        51.7504         51.0004
 25  7 14 22 48  0.0000000  0 11G18G01G02G08G27G31G10G28G24G23G32
   3239332.42845   2155139.53443  25608284.2344                   25608280.6764
        35.7504         18.5004
  -4733333.52446  -3610871.64143  24395130.0394                   24395121.9064
        41.0004         22.7504
  -5880977.96747  -4538256.61345  22406868.6644                   22406856.2544
        44.5004         32.5004
   2266425.19747   1771304.04845  23146104.8444                   23146099.2894
        42.0004         35.2504
   4957672.72346   3849931.92945  23698995.2194                   23698989.2544
        39.5004         34.5004
  -6207185.14946  -4804506.81244  23902673.9614                   23902666.9414
        39.0004         28.0004
   1288746.83448   1011977.82447  21509442.1484                   21509434.4844
        48.0004         46.5004
  -5230105.98047  -4018567.85445  22254227.6804                   22254218.0234
        44.5004         31.0004
   4836883.03845   3756084.49743  25331030.3444                   25331025.0824
        34.5004         22.5004
   3986189.35246   3096445.74243  23834477.9924                   23834470.2704
        39.5004         20.5004
   1174926.86648    923199.53048  20735558.7034                   20735549.9844
        51.5004         50.7504
 25  7 14 22 48 15.0000000  0 11G18G01G02G08G27G31G10G28G24G23G32
   3294914.05646   2198449.80143  25618861.0164                   25618857.5744
        37.0004         18.5004
  -4784605.03446  -3650823.40644  24385373.0784                   24385365.4734
        40.7504         24.2504
  -5914954.44147  -4564731.76945  22400402.7664                   22400390.4144
        44.5004         33.2504
   2290932.59946   1790400.69845  23150769.0164                   23150762.5824
        41.5004         35.2504
   5001451.03346   3884044.85145  23707325.6954                   23707319.4964
        39.5004         34.0004
  -6263656.80946  -4848510.58944  23891927.5474                   23891920.1174
        39.0004         27.7504
   1301061.98547   1021574.03747  21511785.8984                   21511778.1174
        47.7504         46.5004
  -5271672.97347  -4050957.69545  22246317.8914                   22246308.4694
        45.5004         32.0004
   1735722.57955   1339595.78153  25340484.7274                   25340479.5234
        32.7504         19.5004
   4020786.06346   3123404.17643  23841062.0164                   23841054.0004
        39.5004         21.5004
   1189398.40548    934476.05348  20738312.1564                   20738303.6724
        52.0004         51.0004
 25  7 14 22 48 30.0000000  0 11G18G01G02G08G27G31G10G28G24G23G32
   3350512.97646   2241773.54643  25629440.7504                   25629437.8364
        37.0004         18.5004
  -4835860.00146  -3690762.31443  24375619.2424                   24375611.6374
        41.2504         22.5004
  -5948855.10847  -4591147.86145  22393952.0634                   22393939.5354
        45.5004         32.0004
   2315532.48947   1809569.42145  23155450.3444                   23155443.9694
        42.5004         35.5004
   5045256.74046   3918179.11845  23715661.5864                   23715655.8554
        38.7504         33.5004
  -6320122.34046  -4892509.60144  23881182.3134                   23881175.1764
        38.7504         27.2504
   1313419.54547   1031203.30547  21514137.4534                   21514129.4384
        47.5004         46.5004
  -5313157.98647  -4083283.64345  22238423.5784                   22238414.0984
        45.5004         32.2504
   1785473.18245   1378362.48143  25349950.9064                   25349946.5274
        33.5004         21.7504
   4055409.28146   3150383.27243  23847650.2734                   23847642.9024
        39.2504         20.5004
   1203957.03748    945820.44848  20741082.8134                   20741073.8594
        51.0004         51.0004
 25  7 14 22 48 45.0000000  0 11G18G01G02G08G27G31G10G28G24G23G32
   3406129.60046   2285111.07843  25640025.1484                   25640021.2384
        38.0004         20.7504
  -4887097.38546  -3730687.51343  24365869.3594                   24365861.1094
        40.5004         22.7504
  -5982678.86447  -4617504.00945  22387515.2734                   22387503.0984
        45.0004         32.5004
   2340225.36047   1828810.59845  23160148.8834                   23160143.0944
        42.5004         35.5004
   5089090.29546   3952335.07245  23724002.9224                   23723997.4264
        39.0004         34.2504
  -6376580.66046  -4936502.99844  23870439.3594                   23870431.5784
        39.2504         27.2504
   1325820.39948   1040866.30347  21516497.2584                   21516489.2424
        49.0004         46.7504
  -5354559.82047  -4115544.78445  22230544.6334                   22230535.4454
        45.5004         31.5004
   1835294.88745   1417184.54243  25359432.0704                   25359426.9884
        32.5004         20.5004
   4090059.87146   3177383.69843  23854243.7424                   23854236.7814
        39.2504         20.7504
   1218603.40848    957233.19848  20743869.9064                   20743861.1294
        51.0004         51.0004
 25  7 14 22 49  0.0000000  0 11G18G01G02G08G27G31G10G28G24G23G32
   3461763.62346   2328462.16743  25650612.0234                   25650608.4064
        36.5004         19.7504
  -4938317.09246  -3770598.91343  24356122.1254                   24356114.9304
        41.0004         22.5004
  -6016425.70947  -4643800.24145  22381093.1724                   22381081.1724
        45.0004         32.5004
   2365010.68947   1848123.81745  23164865.4224                   23164859.5744
        42.0004         35.0004
   5132951.16546   3986512.31945  23732349.8754                   23732344.0864
        39.5004         33.7504
  -6433031.56046  -4980490.60444  23859696.4694                   23859688.9224
        40.2504         28.5004
   1338264.44247   1050562.95047  21518865.5394                   21518857.2304
        47.5004         46.7504
  -5395878.29647  -4147740.95545  22222682.1334                   22222672.8874
        45.2504         31.5004
   1885187.40545   1456061.82743  25368925.9924                   25368922.3754
        30.7504         20.0004
   4124737.63446   3204405.32643  23860843.0474                   23860835.5004
        39.0004         21.5004
   1233337.08948    968713.98448  20746673.5394                   20746664.7624
        50.7504         51.0004
 25  7 14 22 49 15.0000000  0 11G18G01G02G08G27G31G10G28G24G23G32
   3517414.48345   2371826.40342  25661202.0314                   25661199.1764
        33.2504         16.2504
  -4989519.10346  -3810496.54443  24346379.1024                   24346371.0274
        40.2504         22.7504
  -6050095.62047  -4670036.52545  22374686.2664                   22374673.7384
        45.2504         32.7504
   2389887.92547   1867508.64345  23169600.5234                   23169593.6804
        42.5004         35.0004
   5176838.60146   4020710.28545  23740701.7664                   23740695.4494
        39.5004         34.0004
  -6489475.01446  -5024472.42644  23848956.0084                   23848948.2854
        39.5004         27.7504
   1350751.43148   1060293.07347  21521241.1884                   21521233.1134
        48.5004         46.5004
  -5437113.35047  -4179872.12645  22214835.5394                   22214826.1764
        45.5004         30.7504
   1935150.03445   1494993.68943  25378433.5004                   25378429.3554
        35.5004         22.7504
   4159442.34646   3231447.92143  23867447.1094                   23867439.6804
        39.0004         21.0004
   1248157.53948    980262.39048  20749493.9844                   20749485.1484
        51.0004         51.0004
 25  7 14 22 49 30.0000000  0 11G18G01G02G08G27G31G10G28G24G23G32
   3573082.296 5                  25671795.133
        33.000
  -5040703.10246  -3850380.13343  24336639.0314                   24336631.0744
        40.5004         22.7504
  -6083688.21447  -4696212.55645  22368293.9384                   22368281.4104
        46.0004         33.0004
   2414856.82846   1886964.91145  23174351.1254                   23174344.9844
        41.5004         34.5004
   5220752.32646   4054928.72645  23749057.4844                   23749052.2814
        39.7504         34.5004
  -6545910.27346  -5068447.85044  23838216.1884                   23838209.1094
        40.0004         27.7504
   1363281.55648   1070056.80547  21523625.8674                   21523617.4414
        48.7504         46.5004
  -5478264.51447  -4211937.93945  22207004.3284                   22206994.9064
        45.5004         31.5004
   1985182.53345   1533980.05943  25387954.7814                   25387950.2854
        33.5004         21.2504
   4194174.09446   3258511.58943  23874057.1484                   23874048.6644
        39.7504         22.2504
   1263064.71648    991878.36948  20752330.5234                   20752321.9224
        52.0004         51.0004
 25  7 14 22 49 45.0000000  0 11G18G01G02G08G27G31G10G28G24G23G32
   3628767.090 5                  25682391.594
        34.000
  -5091868.66446  -3890249.36243  24326902.5394                   24326894.8164
        40.7504         21.7504
  -6117203.08547  -4722328.02045  22361916.2664                   22361903.7974
        45.5004         32.7504
   2439917.19346   1906492.43245  23179119.5554                   23179113.7664
        41.2504         34.5004
   5264692.12546   4089167.48145  23757418.8914                   23757413.3364
        39.2504         34.5004
  -6602336.98546  -5112416.64144  23827479.4304                   23827471.1804
        39.7504         29.2504
   1375854.92748   1079854.23647  21526018.5234                   21526010.5664
        48.5004         46.7504
  -5519331.30647  -4243938.01845  22199189.7584                   22199180.4534
        45.5004         31.5004
   2035284.49745   1573020.50343  25397489.1254                   25397484.0434
        34.2504         21.0004
   4228933.01746   3285596.44643  23880670.9064                   23880663.5354
        39.7504         21.7504
   1278058.47548   1003561.81448  20755183.8674                   20755174.9144
        51.2504         51.0004
 25  7 14 22 50  0.0000000  0 11G18G01G02G08G27G31G10G28G24G23G32
   3684468.450 5                  25692991.953
        34.250
  -5143015.33946  -3930103.85243  24317169.7424                   24317162.0784
        39.2504         22.0004
  -6150639.82047  -4748382.60445  22355553.3914                   22355540.8054
        46.0004         32.2504
   2465068.89747   1926091.13845  23183906.7114                   23183900.1604
        42.0004         34.7504
   5308657.82746   4123426.42745  23765786.0784                   23765779.7034
        39.7504         35.0004
  -6658754.66546  -5156378.35244  23816743.1094                   23816735.2704
        40.2504         29.7504
   1388471.84648   1089685.59147  21528419.8674                   21528411.0904
        48.5004         46.7504
  -5560313.20447  -4275871.93545  22191391.2194                   22191381.9734
        45.7504         31.5004
   2085455.91445   1612115.10343  25407037.4614                   25407031.6724
        33.5004         20.0004
   4263719.29646   3312702.60043  23887290.5634                   23887282.9574
        40.0004         21.0004
   1293138.79348   1015312.70948  20758053.6414                   20758045.0394
        52.0004         51.0004
 25  7 14 22 50 15.0000000  0 11G18G01G02G08G27G31G10G28G24G23G32
   3740185.846 5                  25703594.250
        31.750
  -5194143.30146  -3969943.78943  24307439.8674                   24307432.4964
        39.7504         21.0004
  -6183998.55447  -4774376.41045  22349205.5084                   22349193.3324
        45.0004         33.0004
   2490311.14146   1945760.40845  23188709.8054                   23188703.0784
        41.7504         35.2504
   5352648.54646   4157704.86045  23774156.9304                   23774151.0824
        39.2504         34.2504
  -6715163.34846  -5200333.06245  23806008.3054                   23806000.8754
        40.2504         30.7504
   1401131.93748   1099550.59147  21530828.6174                   21530821.1294
        48.5004         46.5004
  -5601210.28147  -4307739.75345  22183608.5164                   22183599.4454
        45.2504         32.5004
   2135696.07445   1651263.24143  25416596.8524                   25416591.4734
        34.2504         21.5004
   4298532.54946   3339829.77543  23893915.5784                   23893907.6804
        40.0004         20.2504
   1308305.00148   1027130.53548  20760939.4534                   20760930.8524
        51.2504         50.7504
 25  7 14 22 50 30.0000000  0 11G18G01G02G08G27G31G10G28G24G23G32
   3795919.131 4                  25714201.469
        27.500
  -5245252.15646  -4009768.83343  24297714.3134                   24297706.7074
        40.5004         20.0004
  -6217278.85647  -4800309.09945  22342872.6644                   22342860.2544
        46.0004         33.0004
   2515643.80547   1965500.12145  23193530.3284                   23193523.8954
        42.0004         34.7504
   5396664.06846   4192002.62045  23782533.1884                   23782527.2814
        38.7504         34.0004
  -6771562.31346  -5244280.22245  23795275.9614                   23795268.3554
        39.7504         30.0004
   1413835.41348   1109449.39947  21533246.0784                   21533237.8874
        49.0004         46.5004
  -5642022.01147  -4339541.07245  22175842.4304                   22175833.2424
        45.0004         32.0004
   2186004.68245   1690464.71043  25426169.4844                   25426165.2234
        31.5004         19.2504
   4333372.94146   3366978.10643  23900544.9144                   23900537.4844
        40.2504         22.2504
   1323557.05348   1039015.25048  20763841.8834                   20763833.4574
        52.5004         50.7504
 25  7 14 22 50 45.0000000  0 11G18G01G02G08G27G31G10G28G24G23G32
   3851669.22515                  25724809.289
        31.750
  -5296340.73746  -4049578.07643  24287992.3364                   24287984.5554
        40.2504         20.2504
  -6250479.68247  -4826179.85545  22336554.1954                   22336541.9024
        45.5004         33.7504
   2541067.41446   1985310.69845  23198368.0314                   23198361.8914
        40.5004         34.5004
   5440704.83546   4226320.05145  23790912.9774                   23790907.7154
        39.0004         34.0004
  -6827950.55646  -5288219.01145  23784545.6644                   23784537.8834
        40.7504         30.7504
   1426583.21748   1119382.75347  21535671.6254                   21535663.6684
        48.7504         46.5004
  -5682747.17247  -4371274.93145  22168093.0164                   22168083.3014
        46.0004         31.5004
   2236382.49245   1729720.11143  25435757.2194                   25435752.0784
        34.0004         19.7504
   4368241.39146   3394148.28043  23907180.4844                   23907172.4104
        40.0004         20.0004
   1338895.63948   1050967.39048  20766760.9304                   20766752.4454
        51.7504         51.0004
 25  7 14 22 51  0.0000000  0 11G18G01G02G08G27G31G10G28G24G23G32
   3907434.289 5                  25735419.922
        35.000
  -5347410.01946  -4089372.27043  24278273.7734                   24278266.6374
        39.5004         20.7504
  -6283601.91547  -4851989.36745  22330251.8754                   22330238.9384
        45.7504         32.7504
   2566580.40546   2005190.91845  23203222.9454                   23203216.8054
        41.7504         34.7504
   5484769.27346   4260655.92945  23799298.5554                   23799292.7664
        38.7504         33.2504
  -6884328.98846  -5332150.16145  23773817.1564                   23773809.3754
        40.7504         31.7504
   1439374.12948   1129349.69147  21538105.9304                   21538097.3874
        48.5004         46.5004
  -5723386.61947  -4402942.00645  22160359.1484                   22160350.0784
        45.2504         31.7504
   2286827.79344   1769028.14042  25445355.0784                   25445351.8134
        29.7504         17.7504
   4403136.57446   3421339.31143  23913821.3834                   23913812.5474
        40.5004         21.5004
   1354319.21948   1062985.76448  20769695.7894                   20769687.0124
        51.0004         50.7504
 25  7 14 22 51 15.0000000  0 11G18G01G02G08G27G31G10G28G24G23G32
   3963214.202 5                  25746033.930
        31.750
  -5398459.34646  -4129150.93743  24268559.5164                   24268551.3834
        39.2504         20.5004
  -6316644.93447  -4877737.15945  22323963.3444                   22323951.1684
        45.5004         33.0004
   2592182.94146   2025140.91945  23208094.8054                   23208089.0164
        41.0004         34.2504
   5528857.54646   4295010.38345  23807688.9454                   23807682.8054
        38.5004         33.0004
  -6940696.65447  -5376072.93145  23763090.8284                   23763082.8714
        42.0004         32.7504
   1452208.80348   1139350.73247  21540548.3134                   21540540.2384
        48.5004         46.5004
  -5763939.55147  -4434541.66245  22152641.9454                   22152632.6994
        45.5004         32.0004
   2337341.01645   1808389.05243  25454967.5394                   25454963.6884
        32.5004         18.5004
   4438059.08546   3448551.60243  23920466.3134                   23920458.2974
        40.0004         22.5004
   1369828.11648   1075070.61148  20772646.8834                   20772638.2814
        51.0004         51.0004
 25  7 14 22 51 30.0000000  0 11G18G01G02G08G27G31G10G28G24G23G32
                                  25756652.445
        28.250
  -5449487.58946  -4168913.18943  24258848.8914                   24258840.8164
        39.7504         20.2504
  -6349607.87347  -4903422.54745  22317690.9924                   22317678.6414
        46.2504         33.0004
   2617875.39446   2045160.97345  23212984.5864                   23212978.3284
        41.2504         34.0004
   5572969.85346   4329383.55745  23816082.3134                   23816076.7584
        38.0004         33.0004
  -6997052.60846  -5419986.57445  23752366.0784                   23752358.4144
        41.2504         32.5004
   1465087.80648   1149386.31047  21542998.6174                   21542990.7194
        49.2504         46.2504
  -5804404.93847  -4466073.10245  22144941.9614                   22144932.5394
        45.0004         32.0004
   2387922.06845   1847802.79842  25464593.6804                   25464589.1254
        33.5004         17.7504
   4473009.56246   3475785.72243  23927117.5474                   23927109.4734
        40.2504         22.0004
   1385422.74848   1087222.27248  20775614.7504                   20775606.0314
        51.2504         51.0004
 25  7 14 22 51 45.0000000  0 11G18G01G02G08G27G31G10G28G24G23G32
                                  25767272.914
        24.500
  -5500495.83146  -4208659.81343  24249142.7424                   24249134.3754
        39.5004         20.5004
  -6382491.60147  -4929046.21545  22311433.1564                   22311420.8634
        45.7504         33.0004
   2643656.17446   2065249.86445  23217890.6884                   23217884.0784
        41.5004         35.2504
   5617104.54646   4363774.17145  23824480.8834                   23824475.5634
        37.5004         33.0004
  -7053397.48046  -5463891.57645  23741644.7974                   23741636.5474
        41.5004         32.5004
   1478010.14548   1159455.65947  21545458.2114                   21545449.5514
        48.5004         46.5004
  -5844783.62347  -4497536.98245  22137258.3364                   22137248.5634
        45.7504         32.0004
   2438569.52245   1887268.33843  25474231.4924                   25474226.9964
        34.0004         22.2504
   4507986.92146   3503040.75843  23933772.9304                   23933765.2074
        39.7504         22.0004
   1401101.72048   1099439.64948  20778598.2664                   20778589.5474
        52.0004         51.0004
 25  7 14 22 52  0.0000000  0 10G01G02G08G27G31G10G28G24G23G32
  -5551483.59246  -4248390.49943  24239439.3914                   24239431.9024
        39.5004         21.0004
  -6415295.68947  -4954607.82545  22305190.3984                   22305178.6334
        46.0004         33.5004
   2669525.17646   2085407.51245  23222813.0234                   23222806.5904
        40.7504         34.7504
   5661261.57846   4398182.19745  23832884.1804                   23832878.5084
        37.7504         33.0004
  -7109730.85247  -5507787.63245  23730924.3524                   23730916.2194
        42.0004         33.2504
   1490976.01948   1169558.93747  21547924.9774                   21547916.9614
        49.0004         46.5004
  -5885075.05847  -4528932.87845  22129590.8204                   22129580.9884
        45.2504         32.0004
   2489282.89745   1926785.20643  25483881.7664                   25483877.1524
        32.7504         20.0004
   4542991.17246   3530316.76543  23940434.8284                   23940426.2274
        40.5004         21.5004
   1416864.93748   1111722.67748  20781598.0784                   20781589.4184
        51.5004         50.7504
 25  7 14 22 52 15.0000000  0 10G01G02G08G27G31G10G28G24G23G32
  -5602449.97246  -4288104.50143  24229741.3134                   24229733.4144
        40.0004         20.2504
  -6448019.11647  -4980106.58445  22298963.9774                   22298951.6844
        45.5004         34.0004
   2695482.63346   2105634.07545  23227751.9774                   23227746.5394
        40.7504         35.0004
   5705440.96446   4432607.64245  23841291.0944                   23841285.5394
        37.5004         32.7504
  -7166051.83147  -5551674.02445  23720206.8444                   23720198.6524
        43.0004         33.7504
   1503986.00748   1179696.58647  21550401.1884                   21550393.1724
        48.2504         46.7504
  -5925278.34647  -4560260.08745  22121940.7894                   22121931.0164
        45.5004         32.2504
   2540062.47845   1966353.69143  25493544.6094                   25493540.6994
        33.2504         20.0004
   4578022.99546   3557614.26543  23947101.0554                   23947092.1024
        40.2504         21.7504
   1432712.80148   1124071.65148  20784613.6564                   20784605.2304
        51.5004         51.0004
 25  7 14 22 52 30.0000000  0 10G01G02G08G27G31G10G28G24G23G32
  -5653394.54446  -4327801.52043  24220047.3364                   24220039.3204
        40.0004         21.5004
  -6480661.49447  -5005542.18845  22292752.7034                   22292739.6484
        46.5004         34.0004
   2721528.43946   2125929.47945  23232708.9384                   23232702.8554
        41.0004         34.0004
   5749642.64046   4467050.44845  23849701.6334                   23849697.0204
        37.5004         32.7504
  -7222359.73947  -5595550.22245  23709491.8204                   23709483.9224
        42.5004         34.5004
   1517040.45848   1189868.87747  21552885.1804                   21552876.8134
        48.5004         46.5004
  -5965392.92347  -4591518.16545  22114306.7194                   22114297.4734
        45.7504         32.0004
   2590908.14545   2005973.67843  25503221.4384                   25503216.1174
        34.0004         20.2504
   4613082.65446   3584933.43543  23953772.4924                   23953764.5944
        40.5004         22.0004
   1448645.27948   1136486.56948  20787645.5004                   20787636.8404
        51.5004         51.0004
 25  7 14 22 52 45.0000000  0 10G01G02G08G27G31G10G28G24G23G32
  -5704317.23646  -4367481.48943  24210356.1334                   24210348.9384
        39.7504         22.2504
  -6513222.80047  -5030914.61845  22286556.2424                   22286543.9494
        46.0004         34.0004
   2747662.09146   2146293.33045  23237681.8914                   23237676.3364
        41.0004         34.5004
   5793866.05646   4501510.20545  23858117.2974                   23858112.3914
        38.7504         33.5004
  -7278654.36747  -5639416.08345  23698778.8134                   23698771.0314
        43.0004         34.0004
   1530139.21248   1200075.69847  21555377.6954                   21555370.2664
        49.0004         46.5004
  -6005418.59947  -4622706.97945  22106690.5634                   22106680.8484
        45.5004         31.2504
   2641819.35045   2045644.69043  25512908.6094                   25512904.7584
        31.7504         19.0004
   4648169.94446   3612274.15043  23960449.3524                   23960441.2774
        40.5004         22.5004
   1464661.98948   1148967.11748  20790693.1884                   20790684.8204
        51.5004         50.7504
 25  7 14 22 53  0.0000000  0 10G01G02G08G27G31G10G28G24G23G32
  -5755218.21946  -4407144.54643  24200670.6174                   24200662.3674
        40.7504         21.5004
  -6545703.17347  -5056223.99045  22280374.9224                   22280362.8634
        45.5004         33.0004
   2773882.76946   2166724.99745  23242671.0704                   23242665.5744
        40.2504         34.0004
   5838110.34746   4535986.22845  23866537.3364                   23866531.7814
        38.7504         33.0004
  -7334935.87147  -5683271.70545  23688069.1174                   23688061.0434
        42.7504         33.7504
   1543281.91448   1210316.76547  21557878.9454                   21557870.3444
        48.7504         46.7504
  -6045355.46047  -4653826.58245  22099090.4614                   22099080.9804
        45.7504         32.0004
   2692795.19445   2085366.10143  25522609.8134                   25522605.1994
        32.5004         20.2504
   4683284.45346   3639636.06443  23967130.7894                   23967123.9454
        40.0004         22.5004
   1480762.24248   1161512.77448  20793756.9384                   20793748.3954
        50.0004         51.0004
 25  7 14 22 53 15.0000000  0 10G01G02G08G27G31G10G28G24G23G32
  -5806096.58046  -4446789.98643  24190988.5704                   24190980.6724
        40.0004         22.5004
  -6578101.77347  -5081469.63245  22274209.7034                   22274197.6454
        46.5004         33.2504
   2800190.80646   2187224.73045  23247677.8914                   23247671.9844
        40.5004         35.0004
   5882375.68946   4570478.65345  23874960.8594                   23874955.3634
        38.2504         34.2504
  -7391203.33947  -5727116.39845  23677361.7034                   23677353.8634
        43.0004         34.5004
   1556469.21048   1220592.57047  21560388.5004                   21560380.2504
        48.2504         46.7504
  -6085202.54347  -4684876.22145  22091507.6884                   22091498.0904
        45.5004         32.2504
   2743836.20644   2125138.29242  25532323.1174                   25532318.2704
        28.5004         16.2504
   4718426.79046   3667019.67643  23973818.8524                   23973810.8364
        40.2504         22.0004
   1496946.44048   1174123.83348  20796836.9224                   20796827.9694
        51.0004         51.0004
 25  7 14 22 53 30.0000000  0  9G01G02G08G27G31G10G28G23G32
  -5856961.40146  -4486424.86743  24181309.3984                   24181301.0904
        40.5004         22.0004
  -6610427.73047  -5106658.67645  22268058.4614                   22268046.2854
        46.0004         33.5004
   2826576.44046   2207784.94845  23252698.7974                   23252693.1844
        40.2504         35.0004
   5926652.38846   4604979.92645  23883386.5004                   23883380.9454
        39.0004         34.2504
  -7447465.60947  -5770957.04345  23666655.3914                   23666646.9064
        42.5004         33.7504
   1569691.81348   1230895.89547  21562904.8054                   21562896.5554
        48.7504         47.0004
  -6124968.90947  -4715862.96145  22083940.6884                   22083930.8554
        45.7504         32.0004
   4753587.62146   3694417.67343  23980510.3834                   23980502.1914
        40.5004         21.7504
   1513204.99648   1186792.83048  20799930.7344                   20799922.3674
        51.0004         50.7504
 25  7 14 22 53 45.0000000  0  9G01G02G08G27G31G10G28G23G32
  -5907796.45746  -4526036.54643  24171635.6334                   24171627.8524
        40.7504         21.2504
  -6642664.75847  -5131778.41645  22261923.8284                   22261912.1214
        46.2504         33.5004
   2853055.38046   2228417.85645  23257737.5314                   23257731.2734
        40.5004         34.2504
   5970956.04746   4639502.21745  23891817.2504                   23891811.7544
        38.7504         34.0004
  -7503706.44046  -5814780.98745  23655952.9454                   23655944.8714
        41.2504         33.7504
   1582965.75548   1241239.21847  21565430.5084                   21565422.4924
        48.5004         47.0004
  -6164638.17947  -4746774.05145  22076391.7034                   22076381.7544
        45.2504         32.5004
   4788782.92746   3721842.58543  23987206.9774                   23987199.9574
        40.5004         21.2504
   1529553.64048   1199532.03348  20803041.7504                   20803033.3244
        51.0004         51.0004
 25  7 14 22 54  0.0000000  0  9G01G02G08G27G31G10G28G23G32
  -5958608.48946  -4565630.30343  24161966.1724                   24161958.6254
        40.7504         22.5004
  -6674819.74847  -5156834.24245  22255804.7344                   22255793.2034
        45.7504         33.5004
   2879620.27046   2249117.74245  23262792.8134                   23262786.6134
        40.0004         34.5004
   6015279.22946   4674039.70445  23900251.4304                   23900246.4064
        38.5004         33.7504
  -7559932.53947  -5858593.43445  23645253.3444                   23645245.2114
        42.0004         33.5004
   1596284.09948   1251617.14747  21567964.7584                   21567956.5084
        48.7504         46.7504
  -6204217.03447  -4777614.68645  22068860.2114                   22068850.7304
        46.0004         32.5004
   4824005.66046   3749288.83143  23993910.0084                   23993902.8714
        40.0004         21.0004
   1545985.14748   1212335.79948  20806168.6884                   20806160.2034
        51.5004         50.7504
 25  7 14 22 54 15.0000000  0  9G01G02G08G27G31G10G28G23G32
  -6009397.01646  -4605205.72043  24152302.1724                   24152293.6294
        40.7504         22.2504
  -6706892.08047  -5181825.65845  22249702.1414                   22249689.4964
        45.5004         33.7504
   2906270.94146   2269884.47445  23267864.2584                   23267858.4104
        40.5004         34.0004
   6059621.80346   4708592.30045  23908689.5784                   23908684.2584
        39.0004         34.5004
  -7616143.15846  -5902393.83045  23634556.9534                   23634548.4104
        41.2504         34.0004
   1609647.12748   1262029.89347  21570507.7894                   21570499.4224
        49.2504         46.7504
  -6243704.92147  -4808384.43945  22061346.0634                   22061336.2304
        45.5004         31.7504
   4859256.11946   3776756.68943  24000617.8204                   24000610.3324
        39.0004         21.5004
   1562499.51448   1225204.13448  20809311.1094                   20809302.5664
        52.0004         50.7504
 25  7 14 22 54 30.0000000  0  9G01G02G08G27G31G10G28G23G32
  -6060162.08946  -4644762.88743  24142641.7734                   24142632.9384
        41.2504         21.0004
  -6738881.81447  -5206752.70345  22243614.5314                   22243602.4144
        46.0004         33.2504
   2933006.76246   2290717.55045  23272952.1254                   23272946.4534
        40.7504         34.5004
   6103983.00846   4743159.42345  23917131.7034                   23917125.7384
        38.5004         33.7504
  -7672338.34546  -5946182.19545  23623863.4384                   23623855.1294
        41.5004         33.7504
   1623054.56748   1272477.24447  21573059.3914                   21573050.7304
        48.2504         46.7504
  -6283101.82947  -4839083.29845  22053849.0784                   22053839.0704
        46.0004         32.0004
   4894533.91246   3804245.84843  24007330.8204                   24007323.4494
        39.5004         21.5004
   1579096.17648   1238136.59548  20812469.4454                   20812460.6684
        51.0004         50.7504
 25  7 14 22 54 45.0000000  0  9G01G02G08G27G31G10G28G23G32
  -6110902.84746  -4684301.06343  24132986.0944                   24132977.4924
        40.7504         22.2504
  -6770788.27247  -5231614.86345  22237542.5234                   22237530.5824
        46.0004         33.7504
   2959828.00346   2311617.18745  23278055.7664                   23278050.0944
        40.0004         34.7504
   6148363.09346   4777741.26845  23925576.9144                   23925571.8324
        38.7504         34.5004
  -7728517.22146  -5989957.86645  23613172.3364                   23613164.3794
        41.5004         34.0004
   1636507.05948   1282959.70647  21575618.9534                   21575610.8204
        48.5004         46.7504
  -6322406.80647  -4869710.52145  22046368.8984                   22046359.4774
        45.7504         32.0004
   4929839.72346   3831756.85743  24014048.4454                   24014041.4264
        40.0004         22.5004
   1595775.50748   1251133.47548  20815643.7504                   20815635.0314
        51.2504         51.0004
 25  7 14 22 55  0.0000000  0  9G01G02G08G27G31G10G28G23G32
  -6161619.88946  -4723820.82343  24123335.1024                   24123326.1484
        40.2504         21.7504
  -6802611.95547  -5256412.52445  22231486.9384                   22231474.9384
        46.0004         33.2504
   2986733.41846   2332582.41645  23283175.8674                   23283170.3714
        40.7504         34.7504
   6192760.76646   4812336.79945  23934025.3134                   23934020.2304
        38.7504         34.2504
  -7784680.07347  -6033721.03045  23602484.7814                   23602477.1174
        42.0004         34.2504
   1650003.80848   1293476.64847  21578187.3674                   21578179.0594
        49.0004         46.5004
  -6361620.38747  -4900266.52745  22038906.6884                   22038897.5594
        45.5004         31.5004
   4965172.67646   3859289.00643  24020773.0864                   24020765.3054
        39.2504         21.5004
   1612536.39948   1264193.90648  20818833.0944                   20818824.1414
        51.7504         50.7504
 25  7 14 22 55 15.0000000  0  9G01G02G08G27G31G10G28G23G32
  -6212312.55646  -4763321.57043  24113688.1174                   24113679.6334
        39.5004         21.5004
  -6834352.25247  -5281145.20545  22225446.7974                   22225434.7384
        45.5004         33.0004
   3013723.06646   2353613.28645  23288312.5164                   23288306.1994
        40.2504         34.5004
   6237176.08246   4846946.07245  23942477.5864                   23942472.3834
        38.7504         35.0004
  -7840826.22946  -6077471.20645  23591800.3134                   23591792.4734
        41.7504         35.2504
   1663545.22748   1304028.39947  21580764.0234                   21580755.8914
        48.5004         46.5004
  -6400741.84747  -4930750.74845  22031462.6884                   22031452.7384
        46.0004         32.5004
   5000533.14346   3886842.56443  24027502.4144                   24027494.9844
        40.0004         21.0004
   1629379.04048   1277318.04748  20822037.9844                   20822029.5004
        51.2504         50.5004
 25  7 14 22 55 30.0000000  0  9G01G02G08G27G31G10G28G23G32
  -6262980.53946  -4802803.06743  24104045.8204                   24104038.1564
        39.7504         20.0004
  -6866008.81547  -5305812.64345  22219422.6804                   22219410.6214
        46.7504         33.2504
   3040796.69546   2374709.59045  23293463.1954                   23293458.1134
        39.7504         34.5004
   6281608.67346   4881568.81445  23950932.9924                   23950927.7304
        39.2504         35.5004
  -7896955.29646  -6121208.05345  23581119.5474                   23581111.6484
        40.7504         34.5004
   1677131.47848   1314615.08447  21583349.5084                   21583341.5514
        48.0004         46.5004
  -6439770.82047  -4961162.90645  22024035.1094                   22024025.6884
        45.5004         32.5004
   5035921.10846   3914417.58943  24034236.4064                   24034229.2114
        40.5004         21.2504
   1646303.20448   1290505.69648  20825258.5784                   20825250.0354
        51.2504         50.5004
 25  7 14 22 55 45.0000000  0  9G01G02G08G27G31G10G28G23G32
  -6313623.34546  -4842264.96143  24094408.9064                   24094400.3054
        39.2504         20.2504
  -6897581.25447  -5330414.53345  22213414.7504                   22213402.6914
        46.5004         33.5004
   3067954.14946   2395871.20445  23298631.8364                   23298625.8714
        40.5004         34.2504
   6326058.30846   4916204.83945  23959391.8914                   23959386.3954
        39.2504         35.7504
  -7953066.59446  -6164931.05145  23570441.4224                   23570434.0514
        41.5004         34.5004
   1690762.79048   1325236.87947  21585943.7274                   21585935.6524
        49.2504         46.5004
  -6478706.69647  -4991502.53245  22016626.0634                   22016616.9344
        45.0004         33.0004
   5071336.91846   3942014.29443  24040975.6484                   24040968.2194
        40.0004         21.2504
   1663308.90948   1303756.89848  20828494.7194                   20828485.7664
        51.7504         50.5004
 25  7 14 22 56  0.0000000  0  9G01G02G08G27G31G10G28G23G32
  -6364240.59946  -4881706.95543  24084777.3134                   24084768.8284
        39.2504         19.5004
  -6929069.21747  -5354950.60145  22207423.5394                   22207410.6604
        46.2504         33.0004
   3095195.14146   2417097.91645  23303815.6804                   23303809.7734
        39.7504         33.5004
   6370524.78346   4950853.98546  23967853.9144                   23967847.7734
        40.0004         36.0004
  -8009159.73446  -6208639.89845  23559767.1254                   23559759.7544
        40.2504         34.5004
   1704439.33948   1335893.92747  21588546.0084                   21588537.8754
        49.0004         46.5004
  -6517549.10547  -5021769.31145  22009234.5634                   22009224.9064
        46.0004         32.7504
   5106780.62246   3969632.71743  24047720.2504                   24047713.1724
        39.7504         21.2504
   1680396.00548   1317071.51048  20831746.0634                   20831737.4614
        52.0004         50.5004
 25  7 14 22 56 15.0000000  0  9G01G02G08G27G31G10G28G23G32
  -6414832.64746  -4921129.26143  24075149.6884                   24075141.4384
        39.7504         20.0004
  -6960472.82947  -5379420.93245  22201446.9534                   22201434.4844
        47.0004         33.7504
   3122518.78646   2438389.03945  23309015.0314                   23309009.0084
        40.7504         34.5004
   6415007.05846   4985515.43845  23976317.5864                   23976312.6804
        39.0004         35.2504
  -8065234.95246  -6252334.78245  23549096.7194                   23549089.0554
        41.0004         35.0004
   1718160.57048   1346585.78847  21591157.2344                   21591149.1604
        49.2504         46.5004
  -6556298.27847  -5051963.43545  22001860.6954                   22001851.4494
        46.0004         32.7504
   5142251.61546   3997272.41743  24054470.0944                   24054462.8984
        39.2504         20.5004
   1697563.62048   1330448.87248  20835013.1174                   20835004.2814
        51.0004         50.5004
 25  7 14 22 56 30.0000000  0  9G01G02G08G27G31G10G28G23G32
  -6465398.50546  -4960531.17043  24065526.9304                   24065519.0314
        39.0004         19.7504
  -6991791.39247  -5403824.99945  22195486.9694                   22195474.5594
        46.0004         33.7504
   3149925.40646   2459744.82345  23314230.3134                   23314224.2304
        41.0004         34.7504
   6459505.48346   5020189.46645  23984786.1804                   23984780.5084
        38.7504         34.7504
  -8121291.21446  -6296014.90945  23538429.1254                   23538421.4614
        40.5004         33.7504
   1731927.29148   1357313.10347  21593777.0634                   21593768.9884
        48.5004         46.2504
  -6594953.13347  -5082084.08545  21994505.3284                   21994495.7304
        45.7504         32.0004
   5177750.61846   4024933.95843  24061225.9224                   24061217.7894
        39.7504         21.5004
   1714812.30748   1343889.41248  20838295.2814                   20838286.7974
        51.2504         50.2504
 25  7 14 22 56 45.0000000  0  9G01G02G08G27G31G10G28G23G32
  -6515938.40546  -4999912.88643  24055909.3054                   24055901.6994
        38.5004         19.0004
  -7023025.11547  -5428162.95445  22189543.7034                   22189530.5904
        46.7504         34.5004
   3177414.15246   2481164.60245  23319461.4064                   23319455.3834
        41.0004         34.0004
   6504019.19546   5054875.42845  23993256.2664                   23993251.1254
        39.2504         34.2504
  -8177328.73346  -6339680.41345  23527765.6334                   23527758.0864
        40.0004         33.2504
   1745738.99048   1368075.46047  21596405.3364                   21596397.4964
        49.2504         46.5004
  -6633513.90947  -5112131.41245  21987167.1644                   21987157.6844
        45.7504         32.0004
   5213277.11846   4052616.91143  24067985.9534                   24067978.4064
        39.5004         21.0004
   1732141.28348   1357392.50548  20841592.6954                   20841584.2114
        51.7504         50.2504
 25  7 14 22 57  0.0000000  0  9G01G02G08G27G31G10G28G23G32
  -6566451.93146  -5039274.04843  24046297.5474                   24046289.1804
        39.0004         20.0004
  -7054173.60047  -5452434.48845  22183615.8754                   22183602.9964
        45.7504         34.0004
   3204984.76846   2502648.16545  23324707.7974                   23324702.0084
        39.7504         34.5004
   6548547.78546   5089572.97245  24001729.9454                   24001724.8054
        40.0004         35.5004
  -8233346.95946  -6383330.89745  23517106.0704                   23517098.0554
        40.0004         32.5004
   1759595.87948   1378873.02847  21599042.2344                   21599033.9844
        48.7504         46.5004
  -6671980.13547  -5142105.06445  21979847.4224                   21979837.8244
        46.0004         32.0004
   5248831.26646   4080321.40743  24074752.2504                   24074744.4694
        40.2504         21.2504
   1749550.42048   1370958.06248  20844905.7274                   20844897.3014
        52.0004         50.2504
 25  7 14 22 57 15.0000000  0  9G01G02G08G27G31G10G28G23G32
  -6616938.79446  -5078614.39643  24036689.8984                   24036681.7664
        39.0004         20.7504
  -7085236.57847  -5476639.39245  22177705.1414                   22177692.7304
        46.2504         34.5004
   3232637.05546   2524195.36545  23329969.3984                   23329964.0784
        39.0004         34.0004
   6593091.10046   5124281.99145  24010206.9694                   24010201.0044
        39.5004         35.5004
  -8289345.27246  -6426965.85845  23506449.3984                   23506441.5594
        39.5004         32.7504
   1773498.08748   1389705.91647  21601687.3444                   21601679.4454
        48.5004         46.2504
  -6710351.36647  -5172004.69245  21972545.5704                   21972536.0904
        46.2504         32.5004
   5284413.14346   4108047.54443  24081523.6334                   24081515.0904
        39.7504         21.5004
   1767039.58948   1384585.98348  20848233.7734                   20848225.2304
        51.0004         50.2504
 25  7 14 22 57 30.0000000  0  9G01G02G08G27G31G10G28G23G32
  -6667398.61146  -5117933.70343  24027087.9144                   24027079.6054
        38.7504         21.2504
  -7116213.64847  -5500777.35745  22171810.5784                   22171798.2854
        46.0004         34.5004
   3260370.72246   2545805.97445  23335247.3524                   23335241.6214
        39.5004         33.7504
   6637648.74146   5159002.17345  24018685.5784                   24018680.4384
        39.5004         35.0004
  -8345323.36546  -6470585.06645  23495796.5314                   23495789.2774
        39.0004         32.0004
   1787445.77548   1400574.24147  21604341.7664                   21604333.3984
        48.5004         46.2504
  -6748627.21247  -5201830.00545  21965262.2974                   21965252.1134
        46.5004         32.2504
   5320022.79246   4135795.26643  24088299.0704                   24088291.4654
        39.0004         21.5004
   1784608.61748   1398276.13348  20851577.2114                   20851568.6094
        51.7504         50.5004
 25  7 14 22 57 45.0000000  0  9G01G02G08G27G31G10G28G23G32
  -6717831.14046  -5157231.73243  24017491.3364                   24017482.3834
        39.5004         21.2504
  -7147104.58647  -5524848.22045  22165931.6724                   22165919.8484
        45.7504         33.7504
   3288185.40946   2567479.72845  23340541.0554                   23340534.6214
        39.7504         34.0004
   6682220.34046   5193733.23745  24027167.6884                   24027161.8404
        40.0004         35.2504
  -8401280.86746  -6514188.21945  23485148.4844                   23485140.9964
        38.7504         31.5004
   1801438.99348   1411478.04647  21607004.4534                   21606995.9694
        49.0004         46.0004
  -6786807.34347  -5231580.72845  21957996.1724                   21957986.7504
        45.7504         31.5004
   5355660.24546   4163564.67543  24095080.9304                   24095072.9734
        39.5004         20.2504
   1802257.30048   1412028.34948  20854935.6564                   20854926.7034
        51.7504         50.2504
 25  7 14 22 58  0.0000000  0  9G01G02G08G27G31G10G28G23G32
  -6768235.92346  -5196508.13943  24007898.8914                   24007890.9924
        40.0004         20.7504
  -7177909.00447  -5548851.64845  22160070.0314                   22160057.9144
        46.7504         34.2504
   3316080.86046   2589216.41645  23345849.0864                   23345843.0044
        39.5004         33.7504
   6726805.66446   5228474.99045  24035651.2734                   24035646.5434
        40.0004         34.5004
  -8457217.21846  -6557774.89845  23474504.4224                   23474496.4064
        39.2504         32.2504
   1815477.91748   1422417.46147  21609676.2814                   21609667.9144
        49.5004         46.2504
  -6824891.28847  -5261256.50945  21950749.4304                   21950739.4804
        46.5004         32.5004
   5391325.68246   4191355.87843  24101868.2504                   24101859.7664
        39.0004         22.0004
   1819985.52648   1425842.54748  20858308.9844                   20858300.3244
        51.2504         50.0004
 25  7 14 22 58 15.0000000  0  9G01G02G08G27G31G10G28G23G32
  -6818612.89246  -5235762.88443  23998312.2894                   23998304.6844
        39.5004         19.5004
  -7208626.93347  -5572787.67945  22154224.9694                   22154212.5004
        46.7504         34.0004
   3344056.59146   2611015.65345  23351172.3444                   23351166.8484
        39.2504         34.0004
   6771404.12346   5263226.98145  24044138.5944                   24044133.2154
        40.5004         34.2504
  -8513132.32146  -6601345.02845  23463863.3984                   23463856.1454
        39.0004         32.7504
   1829562.38347   1433392.36747  21612356.0394                   21612348.3164
        47.5004         46.0004
  -6862878.93547  -5290857.24045  21943520.5234                   21943510.9264
        45.7504         31.5004
   5427018.82846   4219168.70543  24108659.8984                   24108652.0594
        39.2504         20.2504
   1837792.83548   1439718.37648  20861697.6564                   20861688.9384
        50.7504         50.0004
 25  7 14 22 58 30.0000000  0  9G01G02G08G27G31G10G28G23G32
  -6868961.68046  -5274995.66843  23988731.8754                   23988723.3324
        38.7504         21.2504
  -7239258.01447  -5596656.04845  22148395.9694                   22148383.5004
        46.5004         34.0004
   3372112.35346   2632877.27245  23356511.6644                   23356505.9344
        39.7504         34.7504
   6816015.43446   5297988.98145  24052627.8594                   24052622.2464
        40.5004         34.5004
  -8569025.65346  -6644898.18645  23453227.3054                   23453219.6994
        39.0004         32.2504
   1843692.64248   1444402.95247  21615045.0784                   21615037.5314
        48.0004         46.2504
  -6900769.78747  -5320382.55845  21936309.8834                   21936300.3444
        46.0004         32.2504
   5462739.84246   4247003.21043  24115457.9694                   24115449.7194
        39.5004         20.2504
   1855679.14948   1453655.75448  20865101.3594                   20865092.6994
        51.0004         50.0004
 25  7 14 22 58 45.0000000  0  9G01G02G08G27G31G10G28G23G32
  -6919282.10246  -5314206.34443  23979155.8914                   23979147.3484
        39.2504         20.0004
  -7269802.06047  -5620456.59345  22142583.6484                   22142571.4734
        46.5004         34.5004
   3400247.69746   2654800.88645  23361865.0084                   23361859.9264
        40.5004         34.5004
   6860639.15446   5332760.65445  24061119.4384                   24061114.0594
        40.5004         33.7504
  -8624896.95546  -6688434.18145  23442595.6174                   23442587.3094
        40.2504         32.5004
   1857868.57248   1455449.12647  21617742.8914                   21617734.6994
        48.2504         46.2504
  -6938563.64547  -5349832.29245  21929118.0704                   21929108.4734
        46.2504         32.2504
   5498488.61246   4274859.36843  24122260.2194                   24122252.1454
        39.0004         20.5004
   1873644.10648   1467654.42148  20868520.0634                   20868511.2274
        51.5004         50.0004
 25  7 14 22 59  0.0000000  0  9G01G02G08G27G31G10G28G23G32
  -6969573.57446  -5353394.50443  23969584.9224                   23969576.6724
        39.0004         20.7504
  -7300258.42647  -5644188.82645  22136787.6884                   22136775.5124
        46.2504         34.5004
   3428462.54046   2676786.44545  23367234.3594                   23367228.6884
        39.5004         34.5004
   6905275.14546   5367541.89545  24069613.3594                   24069607.9804
        40.7504         34.0004
  -8680745.53046  -6731952.47745  23431968.4144                   23431959.9884
        40.7504         33.0004
   1872090.61548   1466531.23647  21620449.2734                   21620440.9064
        48.7504         46.2504
  -6976259.88147  -5379205.95945  21921944.7114                   21921934.7034
        46.0004         32.0004
   5534265.47746   4302737.41543  24129068.2424                   24129060.7544
        38.5004         20.7504
   1891687.82548   1481714.45448  20871953.5164                   20871944.9734
        52.0004         50.0004
 25  7 14 22 59 15.0000000  0  9G01G02G08G27G31G10G28G23G32
  -7019835.94046  -5392559.91843  23960021.5004                   23960012.8404
        40.0004         21.5004
  -7330627.05847  -5667852.68345  22131008.7034                   22130996.7034
        46.5004         34.5004
   3456756.49046   2698833.64245  23372618.9774                   23372613.3054
        39.2504         34.5004
   6949922.94046   5402332.33345  24078109.0704                   24078103.8094
        41.0004         34.0004
  -8736571.13946  -6775452.87445  23421344.3984                   23421336.5004
        40.2504         32.5004
   1886358.67547   1477649.19947  21623164.2424                   21623155.8164
        47.7504         46.2504
  -7013858.24647  -5408503.36445  21914790.1884                   21914779.9454
        46.5004         31.7504
   5570070.34246   4330637.26743  24135882.1334                   24135873.8834
        39.5004         21.5004
   1909809.92448   1495835.57148  20875402.4534                   20875393.5004
        51.5004         50.0004
 25  7 14 22 59 30.0000000  0  9G01G02G08G27G31G10G28G23G32
  -7070069.32046  -5431702.78443  23950462.0864                   23950453.4844
        40.2504         22.0004
  -7360908.17147  -5691448.34545  22125246.6644                   22125234.4304
        46.0004         34.5004
   3485128.65646   2720941.79145  23378017.9614                   23378011.9964
        40.0004         33.5004
   6994581.74246   5437131.35645  24086608.3364                   24086602.3134
        41.2504         33.5004
  -8792373.86846  -6818935.44645  23410725.4694                   23410717.3954
        40.5004         32.5004
   1900672.38948   1488802.74147  21625888.2114                   21625879.7854
        48.0004         46.2504
  -7051358.88247  -5437724.61345  21907653.5474                   21907644.1254
        45.7504         32.0004
   5605902.70646   4358558.55043  24142700.4224                   24142693.1094
        39.0004         20.5004
   1928009.72448   1510017.23048  20878865.4384                   20878856.6024
        52.0004         50.0004
 25  7 14 22 59 45.0000000  0  9G01G02G08G27G31G10G28G23G32
  -7120272.98546  -5470822.48243  23940908.8204                   23940899.5164
        40.7504         22.7504
  -7391101.10647  -5714975.29545  22119501.1174                   22119488.4144
        46.0004         34.7504
   3513579.28246   2743111.07845  23383431.6024                   23383426.0474
        39.2504         34.0004
   7039251.59846   5471938.97145  24095108.4924                   24095102.8794
        41.2504         34.2504
  -8848152.85046  -6862399.52545  23400110.9064                   23400102.6564
        41.0004         33.0004
   1915032.29048   1499992.26747  21628620.7974                   21628612.8404
        48.5004         46.2504
  -7088760.93347  -5466869.04845  21900536.0554                   21900526.4574
        46.2504         32.5004
   5641763.16246   4386501.75143  24149524.7034                   24149517.1564
        39.2504         21.2504
   1946287.48748   1524259.63648  20882343.5164                   20882334.7974
        51.7504         50.0004
 25  7 14 23  0  0.0000000  0  9G01G02G08G27G31G10G28G23G32
  -7170446.65246  -5509918.81343  23931360.3594                   23931352.5204
        40.5004         22.0004
  -7421205.54747  -5738433.29845  22113772.1644                   22113759.9304
        46.0004         34.2504
   3542107.96646   2765341.19245  23388860.1094                   23388854.7304
        40.0004         34.0004
   7083932.17546   5506754.94445  24103611.0234                   24103605.6454
        41.2504         34.0004
  -8903907.69046  -6905844.77745  23389501.7194                   23389493.5274
        41.5004         34.0004
   1929438.45548   1511217.84447  21631362.3054                   21631353.9964
        48.0004         46.0004
  -7126064.14247  -5495936.46145  21893437.6644                   21893428.1844
        46.2504         33.0004
   5677651.62946   4414466.75243  24156354.2894                   24156345.8634
        39.5004         20.5004
   1964642.97648   1538562.61548  20885836.6804                   20885828.0784
        51.5004         50.0004
 25  7 14 23  0 15.0000000  0  9G01G02G08G27G31G10G28G23G32
  -7220590.26746  -5548991.72143  23921819.1024                   23921810.5004
        41.2504         23.2504
  -7451221.24447  -5761822.13945  22108060.2894                   22108048.0554
        46.2504         34.5004
   3570714.13446   2787631.69445  23394304.6564                   23394298.1644
        40.0004         34.0004
   7128622.88146   5541578.81245  24112115.0634                   24112110.0984
        41.0004         33.2504
  -8959638.18946  -6949271.06345  23378896.5554                   23378887.9534
        41.7504         34.2504
   1943890.73048   1522479.35047  21634112.1724                   21634104.1564
        48.0004         46.0004
  -7163268.31847  -5524926.70645  21886357.8524                   21886348.4884
        45.5004         32.2504
   5713567.93346   4442453.47743  24163188.7194                   24163180.7034
        39.0004         20.0004
   1983075.77848   1552925.82948  20889344.1484                   20889335.3714
        51.0004         49.7504
 25  7 14 23  0 30.0000000  0  9G01G02G08G27G31G10G28G23G32
  -7270703.12346  -5588040.66943  23912282.7344                   23912274.1914
        41.5004         23.2504
  -7481147.69947  -5785141.44145  22102365.7734                   22102353.0704
        46.5004         35.0004
   3599397.89346   2809982.64145  23399762.6954                   23399757.1994
        39.7504         33.5004
   7173323.74846   5576410.60345  24120621.9774                   24120616.3054
        41.0004         33.2504
  -9015343.48847  -6992677.71945  23368296.5004                   23368287.4304
        42.2504         34.2504
   1958389.62347   1533777.18647  21636871.2344                   21636863.2774
        47.5004         46.2504
  -7200372.76847  -5553839.23945  21879297.3754                   21879287.6024
        46.0004         31.7504
   5749512.51746   4470462.17443  24170028.0314                   24170021.0124
        38.7504         20.2504
   2001586.07648   1567349.43448  20892866.5784                   20892857.8014
        51.0004         50.0004
 25  7 14 23  0 45.0000000  0  9G01G02G08G27G31G10G28G23G32
  -7320785.41346  -5627065.80243  23902752.3054                   23902743.6454
        41.5004         23.2504
  -7510985.19347  -5808391.43645  22096688.0554                   22096675.2934
        46.2504         34.5004
   3628158.34346   2832393.35145  23405235.4614                   23405229.8484
        38.7504         33.5004
   7218033.88146   5611249.61445  24129129.5084                   24129124.7194
        40.5004         33.7504
  -9071023.73347  -7036064.85445  23357700.6564                   23357691.5864
        42.2504         34.0004
   1972934.68847   1545110.99547  21639639.0554                   21639631.2154
        47.7504         46.2504
  -7237377.55847  -5582674.12245  21872255.4614                   21872245.7464
        46.0004         33.0004
   5785484.86846   4498492.54943  24176873.9694                   24176866.2464
        39.0004         19.2504
   2020173.12548   1581832.85048  20896403.8284                   20896395.1094
        51.5004         50.0004
 25  7 14 23  1  0.0000000  0  9G01G02G08G27G31G10G28G23G32
  -7370836.70846  -5666066.76544  23893227.9224                   23893219.5554
        41.2504         24.5004
  -7540733.34447  -5831571.80545  22091027.0084                   22091014.6564
        46.2504         34.2504
   3656995.40546   2854863.75445  23410722.5004                   23410717.3594
        39.0004         34.0004
   7262753.12746   5646095.71245  24137639.4534                   24137634.4884
        40.2504         33.0004
  -9126678.50547  -7079432.12945  23347109.5784                   23347101.1524
        42.0004         34.0004
   1987526.13848   1556480.95147  21642415.8674                   21642407.6174
        48.5004         46.0004
  -7274282.23547  -5611430.98045  21865232.7734                   21865223.3524
        46.5004         32.5004
   5821485.19946   4526544.71843  24183724.7504                   24183716.9694
        39.0004         19.5004
   2038836.89148   1596376.03248  20899955.4454                   20899946.6094
        51.0004         50.0004
 25  7 14 23  1 15.0000000  0  9G01G02G08G27G31G10G28G23G32
  -7420856.41046  -5705043.11544  23883709.0784                   23883700.7114
        41.0004         25.2504
  -7570391.73447  -5854682.22145  22085383.2274                   22085371.3444
        46.2504         34.0004
   3685908.89246   2877393.70845  23416225.5784                   23416219.6724
        39.5004         34.0004
   7307481.37946   5680948.83445  24146151.0394                   24146146.0164
        39.5004         33.0004
  -9182307.21246  -7122779.09945  23336523.3204                   23336515.0124
        41.7504         33.7504
   2002164.38048   1567887.36747  21645201.6254                   21645193.3164
        48.0004         46.0004
  -7311086.23447  -5640109.40145  21858229.2584                   21858219.8954
        46.5004         32.7504
   5857513.75946   4554618.89643  24190580.4304                   24190572.9414
        38.2504         20.2504
   2057577.40648   1610979.03148  20903521.2584                   20903512.5394
        50.7504         49.7504
 25  7 14 23  1 30.0000000  0  9G01G02G08G27G31G10G28G23G32
  -7470844.65946  -5743994.95643  23874197.5944                   23874188.3484
        41.5004         23.7504
  -7599960.26647  -5877722.62445  22079756.6884                   22079744.0434
        46.2504         34.7504
   3714898.10146   2899982.66745  23421741.1334                   23421736.1684
        39.5004         34.0004
   7352217.75646   5715808.28245  24154664.0084                   24154659.2774
        38.7504         31.7504
  -9237909.72046  -7166105.64945  23325942.6334                   23325933.9734
        41.2504         33.5004
   2016848.98648   1579329.90747  21647995.7734                   21647987.5824
        48.2504         46.0004
  -7347789.61247  -5668709.41445  21851244.9064                   21851235.0744
        46.2504         33.0004
   5893570.14346   4582714.73543  24197441.8284                   24197434.6914
        39.0004         20.7504
   2076394.01848   1625641.32048  20907101.9844                   20907093.5004
        51.2504         49.7504
 25  7 14 23  1 45.0000000  0  9G01G02G08G27G31G10G28G23G32
  -7520800.68346  -5782921.70844  23864691.0864                   23864682.1334
        41.7504         24.5004
  -7629438.18547  -5900692.42345  22074146.9224                   22074134.5124
        46.2504         35.0004
   3743963.18446   2922630.76145  23427272.0554                   23427267.0904
        39.5004         33.5004
   7396962.41346   5750674.16945  24163178.4774                   24163173.6294
        38.7504         31.2504
  -9293485.18147  -7209411.14345  23315366.6954                   23315358.0354
        42.0004         33.0004
   2031580.55547   1590809.05347  21650798.9614                   21650790.8284
        47.7504         46.0004
  -7384391.55447  -5697230.39445  21844279.3054                   21844269.7664
        45.7504         32.2504
   5929654.88146   4610832.68143  24204308.3054                   24204301.5784
        38.7504         20.5004
   2095287.02048   1640363.12748  20910697.3524                   20910688.4574
        51.2504         49.7504
 25  7 14 23  2  0.0000000  0  9G01G02G08G27G31G10G28G23G32
  -7570724.68047  -5821823.49044  23855190.5314                   23855181.9304
        42.0004         25.2504
  -7658825.81347  -5923591.85745  22068554.8984                   22068542.4884
        46.2504         34.5004
   3773103.31246   2945337.31445  23432817.9384                   23432812.3244
        39.2504         34.2504
   7441714.58446   5785545.92245  24171694.1644                   24171689.5514
        37.7504         30.0004
  -9349033.69647  -7252695.62245  23304796.6484                   23304787.9304
        42.5004         33.2504
   2046358.68948   1602324.47947  21653611.4384                   21653603.0124
        48.0004         46.0004
  -7420892.20947  -5725672.43145  21837334.2114                   21837323.9694
        46.2504         33.0004
   5965767.46546   4638972.33643  24211180.8134                   24211172.9734
        39.0004         21.0004
   2114255.66048   1655143.88548  20914307.1564                   20914298.3794
        51.0004         49.5004
 25  7 14 23  2 15.0000000  0  9G01G02G08G27G31G10G28G23G32
  -7620615.92146  -5860699.74344  23845696.6174                   23845687.7814
        41.5004         24.0004
  -7688122.44647  -5946420.39645  22062979.4614                   22062967.1684
        46.2504         35.0004
   3802318.45546   2968102.33345  23438377.2034                   23438371.8244
        39.0004         34.0004
   7486474.20046   5820423.48444  24180211.8984                   24180206.8164
        37.2504         29.5004
  -9404554.44147  -7295958.46845  23294231.2504                   23294222.4144
        43.0004         33.5004
   2061183.86948   1613876.55847  21656432.5864                   21656424.4534
        48.2504         46.0004
  -7457290.85647  -5754034.99445  21830406.9304                   21830397.8594
        46.0004         32.2504
   6001908.36946   4667134.01343  24218057.1094                   24218050.8524
        38.5004         20.0004
   2133300.16048   1669983.74948  20917930.8914                   20917922.2304
        50.7504         49.7504
 25  7 14 23  2 30.0000000  0 10G03G01G02G08G27G31G10G28G23G32
   -239504.45655   -151043.56553  25415005.1414                   25415000.7034
        34.5004         22.5004
  -7670469.67146  -5899546.78343  23836209.7894                   23836200.7194
        41.5004         22.2504
  -7717323.43347  -5969174.40045  22057422.8594                   22057410.5664
        46.0004         34.5004
   3831612.89746   2990929.12845  23443951.4924                   23443945.4694
        40.0004         33.2504
   7531245.52146   5855310.15945  24188731.9384                   24188726.9144
        37.5004         30.0004
  -9460042.55247  -7339195.90045  23283673.1414                   23283663.6024
        42.7504         33.5004
   2076060.62548   1625468.82447  21659263.3914                   21659255.4344
        48.2504         46.0004
  -7493582.59647  -5782314.24545  21823501.1094                   21823491.3954
        46.5004         32.5004
   6038082.03646   4695321.30543  24224942.4304                   24224933.9454
        38.7504         19.7504
   2152424.80548   1684886.06648  20921570.4454                   20921561.5514
        51.2504         49.5004
 25  7 14 23  2 45.0000000  0 10G03G01G02G08G27G31G10G28G23G32
   -280430.75645   -182934.13743  25407216.7894                   25407212.4104
        34.2504         22.0004
  -7720295.67546  -5938372.21843  23826727.9844                   23826719.3834
        41.2504         23.2504
  -7746438.62247  -5991861.55445  22051882.7194                   22051870.1334
        46.0004         34.7504
   3860976.14346   3013809.55945  23449539.6334                   23449533.9024
        39.7504         34.0004
   7576017.93646   5890197.69645  24197251.9454                   24197246.7424
        38.2504         30.5004
  -9515507.77247  -7382415.47845  23273117.4534                   23273108.6764
        43.2504         34.0004
   2090978.97148   1637093.51547  21662101.9534                   21662093.6454
        48.2504         45.7504
  -7529777.27347  -5810517.87745  21816613.2734                   21816603.6174
        46.5004         32.7504
   6074278.46146   4723526.27243  24231829.6564                   24231821.8754
        37.5004         19.7504
   2171619.22848   1699842.75648  20925222.5234                   20925214.0394
        51.5004         49.5004
 25  7 14 23  3  0.0000000  0 10G03G01G02G08G27G31G10G28G23G32
   -321368.17945   -214833.39444  25399426.8984                   25399422.0514
        35.7504         26.5004
  -7770087.90846  -5977171.33344  23817252.4694                   23817244.0434
        40.5004         24.5004
  -7775461.93947  -6014477.11545  22046359.7584                   22046347.0554
        46.2504         35.5004
   3890413.61446   3036747.81345  23455141.5164                   23455135.7854
        39.7504         34.2504
   7620796.94646   5925090.35345  24205773.6804                   24205768.2424
        37.7504         30.0004
  -9570943.90747  -7425612.39345  23262568.7114                   23262559.7584
        43.2504         34.5004
   2105944.78048   1648755.17347  21664950.1024                   21664942.0864
        48.5004         46.0004
  -7565868.73747  -5838641.07245  21809745.2894                   21809736.1024
        46.5004         33.0004
   6110503.40046   4751753.45343  24238722.8914                   24238715.2854
        38.5004         21.2504
   2190889.03548   1714858.18048  20928889.7344                   20928881.0164
        51.7504         49.5004
 25  7 14 23  3 15.0000000  0 10G03G01G02G08G27G31G10G28G23G32
   -362317.90645   -246742.19544  25391634.4534                   25391629.4304
        35.5004         25.0004
  -7819846.86746  -6015944.50444  23807783.6484                   23807774.9884
        41.0004         24.5004
  -7804394.11947  -6037021.65445  22040853.5634                   22040841.1524
        46.0004         35.5004
   3919924.16646   3059743.00745  23460757.3674                   23460751.4024
        40.0004         35.0004
   7665581.30046   5959987.19744  24214295.9454                   24214290.3324
        37.7504         29.7504
  -9626351.45747  -7468787.03545  23252024.7114                   23252016.1094
        43.0004         34.7504
   2120957.25747   1660453.20547  21667807.1484                   21667799.3094
        47.2504         46.0004
  -7601857.50247  -5866684.24445  21802896.9144                   21802887.3754
        46.7504         33.2504
   6146756.01546   4780002.19543  24245621.9844                   24245614.0274
        38.2504         20.5004
   2210233.12048   1729931.49348  20932570.8984                   20932562.1804
        51.0004         49.5004
 25  7 14 23  3 30.0000000  0 10G03G01G02G08G27G31G10G28G23G32
   -403278.95446   -278659.89044  25383839.6804                   25383834.9494
        36.0004         28.2504
  -7869571.49046  -6054690.91044  23798321.3444                   23798312.7424
        41.0004         24.0004
  -7833233.99847  -6059494.27945  22035366.1484                   22035353.3874
        46.2504         35.0004
   3949508.15646   3082795.43545  23466386.4304                   23466380.9344
        40.0004         34.2504
   7710371.48746   5994888.57544  24222819.4534                   24222813.8984
        37.0004         29.5004
  -9681729.18647  -7511938.43145  23241486.7894                   23241478.0704
        43.5004         35.5004
   2136017.26948   1672188.26947  21670673.0004                   21670664.5744
        48.2504         45.5004
  -7637742.45947  -5894646.52345  21796068.0634                   21796058.4654
        46.0004         33.0004
   6183037.09946   4808273.15243  24252525.8204                   24252518.5084
        38.5004         19.7504
   2229652.08748   1745063.15448  20936266.2584                   20936257.2464
        51.5004         49.5004
 25  7 14 23  3 45.0000000  0 10G03G01G02G08G27G31G10G28G23G32
   -444251.78446   -310586.75144  25376043.6334                   25376038.0784
        36.5004         28.7504
  -7919261.71946  -6093410.51644  23788865.2734                   23788857.1414
        40.0004         24.2504
  -7861981.46947  -6081894.89145  22029895.4064                   22029882.6454
        46.2504         35.5004
   3979165.07946   3105904.69745  23472030.8284                   23472024.6884
        40.0004         33.5004
   7755166.79746   6029793.95644  24231343.1174                   24231338.7384
        37.7504         29.2504
  -9737077.04947  -7555066.56046  23230953.8444                   23230945.5944
        43.0004         36.0004
   2151124.66747   1683960.26447  21673547.5704                   21673539.5554
        47.5004         45.7504
  -7673523.51847  -5922527.84245  21789259.1564                   21789249.9694
        46.5004         34.0004
   6219346.47846   4836566.12743  24259436.0704                   24259427.8204
        38.5004         20.2504
   2249145.46848   1760252.79348  20939975.6094                   20939966.8324
        51.2504         49.5004
 25  7 14 23  4  0.0000000  0 10G03G01G02G08G27G31G10G28G23G32
   -485236.47346   -342522.81444  25368244.4844                   25368239.9304
        36.2504         26.7504
  -7968917.46446  -6132103.27043  23779416.0474                   23779407.9734
        40.5004         23.0004
  -7890636.56847  -6104223.53245  22024442.6334                   22024429.7544
        46.0004         35.5004
   4008894.32946   3129070.30745  23477687.5634                   23477681.7154
        39.0004         33.0004
   7799966.82246   6064702.99445  24239868.4534                   24239863.4884
        37.0004         30.0004
  -9792394.66247  -7598171.12145  23220427.7114                   23220418.8754
        43.2504         35.5004
   2166279.30248   1695769.06047  21676431.8524                   21676423.3094
        48.0004         45.7504
  -7709200.51147  -5950328.07145  21782470.1884                   21782460.4734
        46.2504         33.2504
   6255683.95546   4864881.02843  24266350.1644                   24266342.6174
        38.2504         21.5004
   2268712.83248   1775500.08548  20943699.2114                   20943690.2584
        51.5004         49.5004
 25  7 14 23  4 15.0000000  0 10G03G01G02G08G27G31G10G28G23G32
   -526232.75146   -374467.92944  25360442.6334                   25360437.4924
        36.0004         27.5004
  -8018538.08746  -6170768.66244  23769973.6334                   23769965.2074
        41.2504         24.7504
  -7919198.73447  -6126479.75045  22019007.1174                   22018994.9414
        46.0004         35.5004
   4038695.92446   3152292.29645  23483358.7034                   23483352.5634
        40.0004         33.2504
   7844771.36346   6099615.54644  24248393.9614                   24248389.6414
        37.0004         28.2504
  -9847681.50547  -7641251.70745  23209906.6024                   23209898.5274
        43.7504         35.5004
   2181481.57548   1707614.98147  21679324.6414                   21679316.0984
        48.0004         45.7504
  -7744772.85247  -5978046.76645  21775701.0704                   21775691.0634
        47.0004         33.5004
   6292049.75646   4893217.96743  24273270.5394                   24273263.2274
        39.0004         21.0004
   2288354.24848   1790805.08348  20947437.0234                   20947428.1884
        51.0004         49.2504
 25  7 14 23  4 30.0000000  0 10G03G01G02G08G27G31G10G28G23G32
   -567241.44746   -406422.71744  25352638.6484                   25352634.1524
        36.0004         27.0004
  -8068124.10946  -6209407.08044  23760537.7344                   23760528.7814
        41.2504         25.5004
  -7947668.64547  -6148664.08645  22013589.0864                   22013577.0274
        45.7504         35.0004
   4068568.69046   3175569.74345  23489042.8444                   23489037.5824
        39.7504         33.0004
   7889579.35846   6134530.79145  24256920.9224                   24256916.5434
        37.7504         30.0004
  -9902937.85547  -7684308.52946  23199391.7584                   23199383.1564
        43.5004         36.5004
   2196730.76248   1719497.45447  21682226.3444                   21682218.0354
        48.0004         45.7504
  -7780240.96647  -6005684.23745  21768951.8444                   21768941.8364
        46.2504         33.5004
   6328443.18746   4921576.45143  24280196.1334                   24280188.7624
        38.5004         21.2504
   2308068.76148   1806167.03248  20951188.4924                   20951179.7734
        51.0004         49.2504
 25  7 14 23  4 45.0000000  0 10G03G01G02G08G27G31G10G28G23G32
   -608261.12046   -438386.06244  25344833.4384                   25344828.1174
        36.7504         29.0004
  -8117673.85446  -6248017.22544  23751108.9774                   23751100.1414
        41.5004         25.0004
  -7976044.48447  -6170775.11945  22008189.6884                   22008177.5704
        46.2504         35.5004
   4098513.71746   3198903.50145  23494741.2584                   23494735.9384
        40.0004         33.5004
   7934391.71446   6169449.44644  24265448.7034                   24265443.8554
        37.0004         29.7504
  -9958161.90647  -7727340.17645  23188883.0704                   23188874.3524
        43.0004         35.2504
   2212028.33447   1731417.63347  21685137.6484                   21685128.9884
        47.7504         45.7504
  -7815603.15147  -6033239.15845  21762222.7194                   21762212.5944
        46.5004         34.0004
   6364865.70246   4949957.58743  24287127.4144                   24287119.3984
        38.0004         20.2504
   2327857.47648   1821586.80848  20954953.7974                   20954945.2544
        51.5004         49.2504
 25  7 14 23  5  0.0000000  0 10G03G01G02G08G27G31G10G28G23G32
   -649292.77846   -470358.73445  25337025.0004                   25337020.6214
        38.0004         31.2504
  -8167187.87746  -6286599.53844  23741686.6094                   23741677.8914
        40.7504         25.0004
  -8004326.87747  -6192813.34045  22002807.5944                   22002795.1254
        46.5004         34.7504
   4128529.66246   3222292.51745  23500453.5554                   23500447.7074
        39.5004         33.5004
   7979207.21246   6204370.52345  24273976.2974                   24273972.3284
        37.0004         30.0004
 -10013354.17947  -7770347.05845  23178379.8284                   23178371.4024
        43.5004         35.7504
   2227373.45848   1743374.87047  21688057.4304                   21688049.1214
        48.0004         45.5004
  -7850860.00447  -6060712.01745  21755513.5944                   21755503.6454
        46.0004         33.2504
   6401316.32346   4978360.60143  24294063.6174                   24294055.8954
        37.5004         21.0004
   2347719.29748   1837063.55348  20958733.6724                   20958724.7194
        51.0004         49.2504
 25  7 14 23  5 15.0000000  0 10G03G01G02G08G27G31G10G28G23G32
   -690336.44946   -502340.79245  25329214.5864                   25329210.1484
        37.5004         30.2504
  -8216665.85046  -6325153.78044  23732270.8284                   23732262.5784
        41.2504         25.2504
  -8032515.53447  -6214778.51745  21997443.7894                   21997431.4384
        46.0004         34.7504
   4158616.34746   3245736.65545  23506178.2274                   23506172.8484
        39.5004         33.5004
   8024025.66946   6239293.94045  24282505.8284                   24282500.8054
        37.0004         30.5004
 -10068514.31347  -7813328.91146  23167883.4454                   23167874.6094
        43.0004         36.5004
   2242766.29147   1755369.27647  21690986.7664                   21690978.1644
        47.7504         45.5004
  -7886011.07547  -6088102.43345  21748824.2814                   21748814.4494
        46.5004         33.5004
   6437795.18446   5006785.67443  24301004.9224                   24300997.1994
        37.0004         20.5004
   2367654.08948   1852597.14648  20962527.1414                   20962518.3634
        51.0004         49.5004
 25  7 14 23  5 30.0000000  0 10G03G01G02G08G27G31G10G28G23G32
   -731391.75646   -534331.90445  25321401.9694                   25321397.8834
        37.0004         30.2504
  -8266107.10546  -6363679.40343  23722863.6724                   23722854.2504
        41.5004         23.7504
  -8060609.98847  -6236670.28745  21992097.4924                   21992084.9064
        46.5004         35.0004
   4188773.69646   3269235.86045  23511917.7584                   23511911.7344
        39.7504         32.5004
   8068846.95346   6274219.54244  24291034.8444                   24291030.2304
        37.7504         29.7504
 -10123641.55047  -7856285.13145  23157392.5394                   23157384.1134
        42.5004         35.5004
   2258207.22847   1767401.16847  21693924.8674                   21693916.6174
        47.5004         45.5004
  -7921055.77447  -6115409.97045  21742155.7344                   21742145.7854
        46.2504         33.5004
   6474302.62346   5035232.97943  24307951.9384                   24307944.3324
        38.5004         20.7504
   2387661.91948   1868187.65848  20966334.5164                   20966325.6804
        51.0004         49.5004
 25  7 14 23  5 45.0000000  0 10G03G01G02G08G27G31G10G28G23G32
   -772459.09046   -566332.38845  25313587.3444                   25313582.2034
        37.0004         31.0004
  -8315511.82047  -6402176.54343  23713461.8444                   23713452.8324
        42.5004         22.5004
  -8088610.34447  -6258488.73845  21986769.1414                   21986756.8484
        46.0004         34.7504
   4219000.94446   3292789.51845  23517669.7194                   23517663.9884
        39.5004         33.5004
   8113670.28246   6309146.74444  24299564.6564                   24299560.0434
        38.0004         29.5004
 -10178735.88647  -7899215.72245  23146908.5634                   23146900.0204
        42.7504         35.5004
   2273695.93248   1779470.28147  21696872.3054                   21696864.1724
        48.0004         45.5004
  -7955994.18047  -6142634.68345  21735507.0554                   21735496.8134
        46.5004         33.7504
   6510838.15746   5063702.19343  24314904.6954                   24314897.3834
        37.5004         20.5004
   2407742.14048   1883834.57948  20970155.5084                   20970147.0824
        51.0004         49.5004
 25  7 14 23  6  0.0000000  0 10G03G01G02G08G27G31G10G28G23G32
   -813538.18546   -598342.03645  25305769.8284                   25305765.5664
        37.0004         32.0004
  -8364879.32747  -6440644.70443  23704067.5554                   23704058.5434
        42.0004         23.0004
  -8116516.02347  -6280233.42045  21981459.3134                   21981446.6094
        46.5004         35.5004
   4249298.09946   3316397.66645  23523435.0554                   23523429.6174
        39.2504         33.5004
   8158495.62746   6344075.50545  24308094.9534                   24308089.9884
        38.2504         30.0004
 -10233796.69947  -7942120.18245  23136430.8754                   23136422.2734
        43.0004         35.5004
   2289232.79847   1791576.92947  21699828.8134                   21699820.9144
        47.7504         45.5004
  -7990825.62447  -6169776.03845  21728878.6804                   21728868.7894
        47.0004         33.5004
   6547402.27446   5092193.70043  24321862.2344                   24321854.9804
        37.5004         20.2504
   2427894.91748   1899538.04248  20973990.6724                   20973982.0124
        51.5004         49.5004
 25  7 14 23  6 15.0000000  0 10G03G01G02G08G27G31G10G28G23G32
   -854629.25546   -630361.00145  25297949.1884                   25297946.3324
        36.5004         30.7504
  -8414209.52846  -6479083.80643  23694680.0474                   23694671.5044
        40.2504         22.5004
  -8144326.76047  -6301904.11046  21976166.5634                   21976153.8594
        46.2504         36.0004
   4279664.69246   3340059.90445  23529213.4844                   23529207.5784
        39.5004         33.2504
   8203322.61346   6379005.55045  24316624.7034                   24316620.0904
        36.2504         30.7504
 -10288823.67447  -7984998.28345  23125959.6174                   23125950.8984
        42.5004         35.5004
   2304817.83247   1803721.09947  21702794.6564                   21702786.3484
        47.5004         45.5004
  -8025549.86547  -6196833.86345  21722271.1254                   21722260.9414
        47.0004         33.0004
   6583994.77046   5120707.29943  24328826.3284                   24328818.2544
        36.5004         19.7504
   2448119.92948   1915297.78148  20977839.1724                   20977830.2774
        51.2504         49.2504
 25  7 14 23  6 30.0000000  0 10G03G01G02G08G27G31G10G28G23G32
   -895732.33545   -662389.33744  25290129.1724                   25290124.2664
        32.7504         25.2504
  -8463501.97846  -6517493.45144  23685299.5164                   23685291.2664
        41.0004         24.0004
  -8172042.53447  -6323500.80845  21970892.3754                   21970880.0824
        47.0004         35.0004
   4310100.32246   3363775.93545  23535005.0704                   23534999.6914
        39.5004         33.5004
   8248150.75446   6413936.47845  24325155.2584                   24325151.5824
        36.7504         30.7504
 -10343816.35946  -8027849.64945  23115494.3284                   23115485.8444
        41.5004         35.5004
   2320451.04747   1815902.82447  21705769.5864                   21705761.3954
        47.7504         45.5004
  -8060166.67047  -6223807.98045  21715683.5394                   21715673.5314
        47.0004         33.5004
   6620615.67146   5149243.03243  24335794.5164                   24335787.7894
        36.2504         19.7504
   2468416.83848   1931113.55348  20981701.7274                   20981692.8324
        51.7504         49.5004
 25  7 14 23  6 45.0000000  0 10G03G01G02G08G27G31G10G28G23G32
   -936847.14045   -694426.81444  25282304.3914                   25282300.6564
        32.5004         24.5004
  -8512756.39146  -6555873.46843  23675927.1644                   23675918.2114
        41.2504         22.7504
  -8199662.95647  -6345023.20245  21965636.4534                   21965623.9844
        47.2504         35.5004
   4340604.68046   3387545.53945  23540809.8284                   23540804.8634
        39.7504         34.2504
   8292979.72546   6448868.04545  24333686.9384                   24333681.7344
        37.2504         31.2504
 -10398774.33946  -8070673.98045  23105035.9534                   23105027.5864
        41.5004         35.0004
   2336132.54548   1828122.16647  21708753.5474                   21708745.6484
        48.0004         45.2504
  -8094675.64547  -6250698.07145  21709117.0314                   21709106.7894
        46.7504         34.0004
   6657264.99845   5177800.86943  24342768.7194                   24342760.9384
        35.7504         19.5004
   2488785.52548   1946985.24548  20985577.9924                   20985568.8634
        51.7504         49.7504
 25  7 14 23  7  0.0000000  0 10G03G01G02G08G27G31G10G28G23G32
   -977973.49545   -726473.28844  25274479.0944                   25274474.2464
        34.5004         26.0004
  -8561972.52646  -6594223.66944  23666561.7894                   23666552.8364
        41.7504         26.0004
  -8227187.85747  -6366471.17245  21960398.8834                   21960386.1804
        47.5004         35.5004
   4371177.42546   3411368.43245  23546627.8524                   23546622.2974
        40.5004         33.0004
   8337809.15346   6483800.00345  24342217.7584                   24342212.4964
        37.2504         31.5004
 -10453697.38446  -8113471.09445  23094584.3674                   23094576.4104
        41.5004         35.0004
   2351862.41447   1840379.19847  21711746.9224                   21711738.4964
        47.7504         45.2504
  -8129076.50747  -6277503.90945  21702570.6254                   21702560.3834
        47.0004         34.2504
   6693942.78345   5206380.92043  24349748.3594                   24349740.9884
        35.7504         20.0004
   2509225.70448   1962912.65548  20989467.5474                   20989458.7114
        52.0004         49.7504
 25  7 14 23  7 15.0000000  0 10G03G01G02G08G27G31G10G28G23G32
  -1019111.92046   -758529.15244  25266651.5164                   25266645.8444
        36.5004         29.5004
  -8611150.34447  -6632544.01143  23657203.5784                   23657194.8014
        42.0004         22.7504
  -8254617.27047  -6387844.73146  21955179.1174                   21955166.5904
        47.2504         36.0004
   4401817.88546   3435244.07845  23552458.4064                   23552453.2034
        39.5004         33.0004
   8382638.41746   6518731.80945  24350747.7814                   24350743.2854
        37.7504         31.0004
 -10508585.28146  -8156240.80945  23084140.2584                   23084131.2464
        41.7504         35.5004
   2367640.43347   1852673.75047  21714749.2814                   21714741.3244
        47.5004         45.5004
  -8163369.21747  -6304225.48545  21696045.0004                   21696035.2274
        47.0004         34.0004
   6730648.69046   5234982.88243  24356733.1564                   24356726.3714
        36.0004         19.7504
   2529736.90848   1978895.40548  20993370.6724                   20993361.6024
        52.0004         49.5004
 25  7 14 23  7 30.0000000  0 10G03G01G02G08G27G31G10G28G23G32
  -1060262.31645   -790594.38144  25258820.7344                   25258815.5314
        35.5004         28.2504
  -8660289.39946  -6670834.14343  23647852.6094                   23647843.5394
        41.2504         23.5004
  -8281950.81147  -6409143.58845  21949977.7504                   21949965.5164
        46.5004         35.7504
   4432525.81646   3459172.30645  23558302.2424                   23558296.7464
        39.7504         33.0004
   8427467.30046   6553663.31745  24359278.3834                   24359274.1214
        38.5004         31.5004
 -10563437.41146  -8198982.65445  23073702.2584                   23073693.4224
        41.5004         35.2504
   2383466.79348   1865005.97347  21717761.0634                   21717752.9304
        48.0004         45.5004
  -8197553.30847  -6330862.41445  21689540.0394                   21689529.4454
        47.5004         34.5004
   6767382.89146   5263606.87443  24363723.7814                   24363716.1764
        36.5004         19.7504
   2550319.02648   1994933.41248  20997287.0474                   20997278.4454
        51.5004         49.5004
 25  7 14 23  7 45.0000000  0 10G03G01G02G08G27G31G10G28G23G32
  -1101424.33445   -822668.64944  25250987.0084                   25250982.3364
        33.5004         27.5004
  -8709389.10446  -6709093.63144  23638508.6484                   23638500.3984
        41.7504         26.0004
  -8309187.84147  -6430367.23945  21944794.6884                   21944782.3954
        47.0004         35.5004
   4463301.30746   3483153.16945  23564157.8134                   23564152.9654
        39.7504         32.5004
   8472295.69746   6588594.46145  24367809.1484                   24367804.3014
        38.5004         32.7504
 -10618253.09346  -8241696.09745  23063270.4614                   23063261.8014
        41.2504         35.5004
   2399341.95147   1877376.22247  21720781.8444                   21720773.6524
        47.5004         45.5004
  -8231628.16247  -6357414.23045  21683055.5704                   21683045.6214
        46.7504         34.5004
   6804145.73946   5292253.20843  24370719.3984                   24370712.0274
        36.0004         20.5004
   2570972.17948   2011026.77348  21001217.2894                   21001208.6884
        51.2504         49.5004
 25  7 14 23  8  0.0000000  0 10G03G01G02G08G27G31G10G28G23G32
  -1142598.27445   -854752.20144  25243150.8284                   25243147.2704
        33.0004         25.7504
  -8758449.47346  -6747322.47743  23629172.6254                   23629164.3164
        40.7504         22.7504
  -8336328.50147  -6451515.79945  21939629.8594                   21939617.4494
        47.0004         35.2504
   4494143.52946   3507186.03745  23570027.3054                   23570022.3984
        40.2504         33.0004
   8517123.01246   6623524.77045  24376340.0314                   24376335.1844
        39.0004         33.0004
 -10673032.38947  -8284381.19946  23052846.5864                   23052837.5744
        42.0004         36.0004
   2415265.59047   1889784.24347  21723812.4384                   21723803.9534
        47.5004         45.0004
  -8265593.77147  -6383880.90945  21676591.8444                   21676582.0124
        47.0004         33.7504
   6840936.92746   5320921.64643  24377720.3364                   24377712.9654
        36.7504         20.0004
   2591695.79248   2027175.03448  21005161.0314                   21005152.2544
        51.5004         49.7504
 25  7 14 23  8 15.0000000  0 10G03G01G02G08G27G31G10G28G23G32
  -1183783.61045   -886844.67144  25235314.2114                   25235309.8914
        32.7504         24.2504
  -8807469.70346  -6785520.01444  23619844.6804                   23619835.8444
        41.2504         24.0004
  -8363372.09247  -6472588.71146  21934483.7974                   21934471.4454
        47.5004         36.2504
   4525052.71346   3531271.07745  23575909.8134                   23575903.9654
        39.5004         33.5004
   8561949.28746   6658454.24345  24384869.6024                   24384865.2814
        39.0004         34.0004
 -10727774.38147  -8327037.22346  23042429.1414                   23042420.4224
        42.2504         36.2504
   2431238.27147   1902230.47747  21726852.0394                   21726843.5554
        47.7504         45.2504
  -8299449.34547  -6410261.86145  21670149.6564                   21670139.7664
        47.0004         34.0004
   6877756.89846   5349612.48943  24384727.4614                   24384719.6214
        36.0004         19.5004
   2612490.12248   2043378.40048  21009118.0394                   21009109.2034
        51.5004         49.5004
 25  7 14 23  8 30.0000000  0 10G03G01G02G08G27G31G10G28G23G32
  -1224981.20245   -918946.63844  25227474.1484                   25227470.1804
        31.5004         26.0004
  -8856450.35746  -6823686.73343  23610524.3364                   23610515.2664
        40.7504         23.2504
  -8390319.18647  -6493586.43746  21929355.9144                   21929343.2114
        47.2504         36.0004
   4556027.59946   3555407.31445  23581803.9454                   23581798.5084
        39.5004         33.2504
   8606773.36846   6693382.01945  24393399.0864                   24393395.5274
        39.2504         34.0004
 -10782479.37547  -8369664.42546  23032019.4534                   23032010.5004
        42.2504         36.2504
   2447259.28147   1914714.37847  21729900.4694                   21729891.9264
        47.5004         45.0004
  -8333195.46247  -6436557.51145  21663728.1254                   21663718.1174
        46.7504         33.5004
   6914604.86345   5378325.16343  24391738.8754                   24391731.6804
        35.5004         19.7504
   2633354.11748   2059636.05448  21013088.5004                   21013079.3134
        51.5004         49.5004
 25  7 14 23  8 45.0000000  0 10G03G01G02G08G27G31G10G28G23G32
  -1266190.35045   -951057.62243  25219632.0634                   25219628.3874
        32.7504         22.5004
  -8905390.45046  -6861821.81243  23601210.6804                   23601202.4884
        40.5004         22.7504
  -8417168.84347  -6514508.24246  21924246.8594                   21924234.2734
        47.0004         36.0004
   4587068.54946   3579595.03645  23587711.4144                   23587705.5664
        39.2504         33.2504
   8651595.56446   6728308.33045  24401928.6954                   24401924.4344
        39.0004         33.0004
 -10837146.44247  -8412262.07246  23021616.7734                   23021607.9384
        43.0004         36.2504
   2463329.33247   1927236.48947  21732958.3754                   21732950.3594
        47.5004         45.5004
  -8366831.07347  -6462767.05545  21657327.1564                   21657317.3834
        46.5004         34.0004
   6951481.47545   5407060.14143  24398756.8984                   24398749.3524
        35.5004         19.5004
   2654288.23648   2075948.34748  21017071.6954                   21017063.1524
        51.7504         49.5004
 25  7 14 23  9  0.0000000  0 10G03G01G02G08G27G31G10G28G23G32
  -1307411.18745   -983177.73843  25211789.5234                   25211784.0864
        32.0004         23.2504
  -8954289.63846  -6899925.04743  23591905.8054                   23591897.0864
        40.0004         22.5004
  -8443920.88547  -6535353.98846  21919155.6484                   21919143.1804
        47.5004         36.0004
   4618175.18646   3603833.94145  23593630.8754                   23593624.6764
        39.2504         33.5004
   8696415.49546   6763232.87645  24410458.0164                   24410453.5784
        39.2504         33.0004
 -10891775.20847  -8454829.87146  23011221.2894                   23011212.2194
        42.5004         36.2504
   2479448.53247   1939796.89347  21736025.8364                   21736017.7034
        47.0004         45.2504
  -8400355.87547  -6488890.26445  21650947.6804                   21650937.8484
        46.2504         34.0004
   6988386.73546   5435817.47143  24405779.4694                   24405772.3324
        36.2504         19.0004
   2675292.25348   2092315.11048  21021068.9064                   21021060.0124
        52.0004         49.5004
 25  7 14 23  9 15.0000000  0 10G03G01G02G08G27G31G10G28G23G32
  -1348644.11645  -1015307.23543  25203942.0554                   25203937.5594
        31.5004         22.5004
  -9003148.09046  -6937996.53444  23582608.2344                   23582599.8674
        41.2504         24.0004
  -8470575.55147  -6556123.83445  21914083.3134                   21914070.7274
        47.7504         35.2504
   4649346.75746   3628123.43745  23599562.1954                   23599556.2894
        38.7504         33.0004
   8741232.46146   6798155.11045  24418986.2974                   24418981.9184
        38.7504         34.0004
 -10946365.77047  -8497367.90446  23000832.6884                   23000824.0274
        42.0004         36.0004
   2495616.45847   1952395.27247  21739102.3204                   21739094.1294
        47.2504         45.2504
  -8433769.99847  -6514927.20945  21644588.7274                   21644579.3054
        46.5004         33.7504
   7025320.32745   5464596.85743  24412808.0704                   24412800.1724
        35.5004         19.0004
   2696365.51248   2108735.81948  21025079.0234                   21025070.1294
        51.5004         49.5004
 25  7 14 23  9 30.0000000  0 10G03G01G02G08G27G31G10G28G23G32
  -1389888.85655  -1047445.94853  25196094.1484                   25196089.1844
        31.7504         22.7504
  -9051965.19346  -6976035.81244  23573318.4614                   23573310.2114
        41.5004         25.2504
  -8497132.15847  -6576817.29045  21909029.7424                   21909017.8014
        47.5004         35.5004
   4680583.14046   3652463.43845  23605506.2114                   23605500.4804
        39.7504         33.5004
   8786046.25246   6833074.86245  24427514.5164                   24427509.8444
        39.7504         33.7504
 -11000917.26747  -8539875.51046  22990451.4694                   22990442.7504
        42.2504         36.2504
   2511833.54348   1965031.94947  21742188.5164                   21742180.0314
        48.0004         45.2504
  -8467072.86347  -6540877.48245  21638251.3834                   21638241.7854
        47.0004         33.2504
   7062282.46045   5493398.45543  24419840.9774                   24419834.2504
        34.5004         18.5004
   2717508.08748   2125210.55148  21029102.4064                   21029093.6884
        52.0004         49.5004
 25  7 14 23  9 45.0000000  0 10G03G01G02G08G27G31G10G28G23G32
  -1431144.93645  -1079593.51043  25188242.0394                   25188238.1294
        33.0004         22.2504
  -9100740.39446  -7014042.42444  23564036.7194                   23564028.0594
        41.0004         26.0004
  -8523590.30847  -6597434.02445  21903994.9384                   21903982.5864
        47.5004         35.2504
   4711884.29246   3676853.91645  23611461.7664                   23611456.6254
        39.2504         32.5004
   8830856.92346   6867992.18445  24436041.9694                   24436037.0044
        39.7504         34.2504
 -11055429.14947  -8582352.24146  22980078.9144                   22980069.9024
        42.5004         36.7504
   2528100.10348   1977707.18447  21745284.0634                   21745275.6954
        48.2504         45.2504
  -8500263.85647  -6566740.57245  21631935.4144                   21631926.4024
        46.5004         34.0004
   7099273.36545   5522222.50443  24426880.5864                   24426873.5084
        35.2504         18.2504
   2738719.99048   2141739.29348  21033139.0314                   21033130.1374
        51.7504         49.5004
 25  7 14 23 10  0.0000000  0 10G03G01G02G08G27G31G10G28G23G32
  -1472412.96345  -1111750.36843  25180389.6644                   25180385.1094
        33.0004         22.5004
  -9149473.88746  -7052016.53144  23554763.7664                   23554754.6954
        41.0004         24.2504
  -8549950.35447  -6617974.30446  21898978.8594                   21898966.5084
        47.2504         36.0004
   4743249.27346   3701294.12545  23617431.4384                   23617425.5904
        39.7504         33.2504
   8875663.46746   6902906.28145  24444566.9614                   24444563.2854
        38.5004         34.2504
 -11109901.49047  -8624798.16646  22969713.2274                   22969703.4534
        42.0004         36.0004
   2544415.66948   1990420.60647  21748388.3754                   21748380.3014
        48.2504         45.2504
  -8533343.21047  -6592516.66645  21625640.3054                   21625630.9414
        46.7504         34.0004
   7136292.59945   5551068.61743  24433925.0944                   24433917.9574
        33.5004         19.0004
   2760000.49548   2158321.49748  21037188.2504                   21037179.4734
        51.7504         49.5004
 25  7 14 23 10 15.0000000  0 10G03G01G02G08G27G31G10G28G23G32
  -1513692.78545  -1143916.44344  25172533.5784                   25172529.7274
        34.0004         24.0004
  -9198165.22646  -7089957.80944  23545497.9844                   23545488.9144
        41.2504         25.7504
  -8576211.70447  -6638437.68845  21893981.3914                   21893969.0984
        47.7504         35.2504
   4774677.97446   3725783.97245  23623411.6024                   23623406.2814
        40.0004         32.2504
   8920465.77546   6937817.09845  24453093.6804                   24453089.6524
        39.7504         35.0004
 -11164333.65847  -8667212.77846  22959354.6334                   22959345.5634
        42.7504         36.7504
   2560780.52648   2003172.43747  21751502.3594                   21751494.8134
        48.0004         45.0004
  -8566310.47247  -6618205.42245  21619367.0314                   21619357.7274
        46.2504         34.0004
   7173340.34445   5579936.93543  24440975.1024                   24440967.6724
        34.7504         19.0004
   2781349.56548   2174957.12848  21041251.0704                   21041242.0594
        51.5004         49.5004
 25  7 14 23 10 30.0000000  0 10G03G01G02G08G27G31G10G28G23G32
  -1554984.26945  -1176091.58544  25164676.6724                   25164672.2344
        34.7504         25.7504
  -9246814.02346  -7127865.93844  23536239.9304                   23536231.6214
        41.0004         25.2504
  -8602374.10648  -6658823.96445  21889002.8594                   21888990.6254
        48.0004         35.5004
   4806170.10046   3750323.25345  23629405.2424                   23629399.3364
        39.5004         32.7504
   8965263.53846   6972724.35645  24461618.3364                   24461614.1914
        38.7504         33.5004
 -11218725.32347  -8709595.83246  22949004.5474                   22948995.3014
        42.2504         36.2504
   2577194.82348   2015962.78747  21754626.2114                   21754618.0784
        48.0004         45.0004
  -8599165.22547  -6643806.51045  21613115.3984                   21613105.2734
        45.5004         34.5004
   7210416.63746   5608827.52543  24448030.7814                   24448023.3524
        36.5004         18.2504
   2802767.02448   2191646.05148  21045326.2424                   21045317.2894
        51.0004         49.5004
 25  7 14 23 10 45.0000000  0 10G03G01G02G08G27G31G10G28G23G32
  -1596287.38946  -1208275.83044  25156816.7894                   25156812.3524
        36.7504         26.0004
  -9295419.94146  -7165740.63644  23526991.0234                   23526981.3094
        41.5004         25.0004
  -8628437.36047  -6679132.98445  21884043.6254                   21884030.9224
        47.5004         34.7504
   4837725.29646   3774911.68345  23635408.7894                   23635404.0594
        40.0004         33.5004
   9010056.40646   7007627.80345  24470142.8754                   24470138.0864
        39.0004         34.5004
 -11273076.04647  -8751946.98146  22938661.8134                   22938652.6844
        42.5004         37.0004
   2593658.61547   2028791.70047  21757759.2344                   21757750.6914
        47.5004         45.0004
  -8631907.18547  -6669319.70745  21606884.6954                   21606874.6294
        46.7504         34.2504
   7247521.56345   5637740.40643  24455091.4534                   24455083.7304
        35.0004         19.7504
   2824252.66648   2208388.10548  21049415.1724                   21049406.2194
        51.5004         49.2504
 25  7 14 23 11  0.0000000  0 10G03G01G02G08G27G31G10G28G23G32
  -1637602.71346  -1240469.56544  25148954.3754                   25148949.9964
        36.7504         26.0004
  -9343983.10646  -7203582.03144  23517748.8054                   23517740.3794
        41.0004         24.0004
  -8654401.79447  -6699365.00945  21879102.2194                   21879090.0434
        47.5004         35.2504
   4869342.74046   3799548.60945  23641425.7344                   23641420.5944
        39.5004         32.7504
   9054843.65746   7042526.87045  24478665.6564                   24478660.9264
        39.2504         35.0004
 -11327385.82947  -8794266.23346  22928327.5314                   22928317.6414
        42.7504         36.5004
   2610171.57147   2041658.92947  21760901.3444                   21760893.1524
        47.7504         45.0004
  -8664536.46647  -6694745.10845  21600675.1804                   21600665.4064
        46.5004         33.5004
   7284654.56646   5666675.15443  24462157.7974                   24462150.0744
        36.2504         21.2504
   2845805.86248   2225182.79048  21053516.5784                   21053507.7424
        51.5004         49.2504
 25  7 14 23 11 15.0000000  0 10G03G01G02G08G27G31G10G28G23G32
  -1678929.56046  -1272672.31544  25141090.8204                   25141086.1484
        36.2504         28.0004
  -9392502.63046  -7241389.43343  23508516.2424                   23508507.3484
        41.2504         23.0004
  -8680266.36547  -6719519.20645  21874180.6644                   21874168.2544
        47.5004         35.2504
   4901022.65946   3824234.22545  23647454.1174                   23647448.9774
        39.0004         32.5004
   9099625.43246   7077421.66445  24487186.6724                   24487182.7624
        39.5004         35.5004
 -11381653.78747  -8836552.89646  22917999.9144                   22917990.6684
        43.2504         36.7504
   2626734.32048   2054564.96347  21764053.5704                   21764045.2034
        48.0004         45.2504
  -8697052.20347  -6720082.02145  21594487.9614                   21594477.9534
        45.7504         33.2504
   7321816.37546   5695632.38943  24469229.2504                   24469221.8794
        36.5004         21.0004
   2867426.91848   2242030.35848  21057630.9224                   21057622.6134
        51.5004         49.5004
 25  7 14 23 11 30.0000000  0 10G03G01G02G08G27G31G10G28G23G32
  -1720267.88445  -1304883.97644  25133224.1094                   25133219.6724
        35.0004         27.2504
  -9440978.28046  -7279162.64144  23499291.0784                   23499282.5354
        41.2504         24.5004
  -8706030.86747  -6739595.43145  21869277.4224                   21869265.1884
        47.5004         35.5004
   4932764.70446   3848968.23945  23653494.9224                   23653489.4264
        39.7504         31.7504
   9144401.36246   7112311.90645  24495707.6024                   24495703.7504
        39.5004         34.7504
 -11435879.35947  -8878806.53946  22907681.2114                   22907671.6724
        43.0004         36.7504
   2643346.92447   2067509.83547  21767214.4534                   21767206.2624
        47.7504         45.5004
  -8729454.07547  -6745330.21245  21588322.0084                   21588311.8834
        46.5004         33.2504
   7359006.81546   5724611.92943  24476306.1484                   24476299.3634
        37.0004         21.0004
   2889115.62148   2258930.64048  21061757.9534                   21061749.1174
        51.2504         49.5004
 25  7 14 23 11 45.0000000  0 10G03G01G02G08G27G31G10G28G23G32
  -1761618.21745  -1337104.99244  25125355.5784                   25125350.9654
        35.7504         26.0004
  -9489410.16546  -7316901.74643  23490074.8524                   23490065.9574
        41.0004         22.5004
  -8731695.63147  -6759593.94145  21864393.7664                   21864381.5314
        47.5004         35.5004
   4964567.94846   3873749.95045  23659546.1174                   23659541.4454
        40.0004         31.5004
   9189170.58446   7147196.91945  24504226.8914                   24504223.3914
        39.5004         35.2504
 -11490062.85847  -8921027.40046  22897370.3284                   22897360.5554
        42.5004         36.7504
   2660008.93747   2080493.21347  21770384.9144                   21770377.0164
        47.7504         45.0004
  -8761742.31247  -6770489.85945  21582177.8284                   21582167.7624
        46.5004         33.7504
   7396225.52446   5753613.49643  24483388.4224                   24483381.8134
        36.2504         20.0004
   2910871.23348   2275883.05648  21065898.3204                   21065889.6024
        51.7504         49.2504
 25  7 14 23 12  0.0000000  0 10G03G01G02G08G27G31G10G28G23G32
  -1802979.58945  -1369334.60744  25117484.6804                   25117480.5944
        34.7504         27.7504
  -9537797.06246  -7354605.78344  23480868.0704                   23480858.2974
        41.2504         24.0004
  -8757259.48947  -6779513.82045  21859528.9144                   21859516.9144
        47.5004         35.7504
   4996433.11046   3898579.90745  23665610.5634                   23665605.3014
        39.2504         31.7504
   9233933.77446   7182077.22645  24512745.5164                   24512741.3134
        39.5004         35.2504
 -11544202.81447  -8963214.31546  22887067.3754                   22887058.5984
        42.5004         36.0004
   2676721.48947   2093515.97047  21773565.4694                   21773557.3954
        47.7504         44.7504
  -8793915.63047  -6795559.96245  21576055.5634                   21576045.6134
        46.0004         34.0004
   7433473.48346   5782637.83543  24490476.4534                   24490469.7274
        36.5004         19.5004
   2932694.53748   2292888.21948  21070051.1644                   21070042.1524
        51.5004         49.2504
 25  7 14 23 12 15.0000000  0 10G03G01G02G08G27G31G10G28G23G32
  -1844353.17645  -1401573.74144  25109610.6724                   25109606.9964
        33.7504         26.0004
  -9586139.79546  -7392275.43744  23471668.5944                   23471659.1724
        41.0004         24.7504
  -8782723.36448  -6799355.79245  21854683.5314                   21854671.3554
        48.0004         35.5004
   5028358.57246   3923456.85445  23671685.7584                   23671680.2624
        39.5004         33.0004
   9278689.38346   7216951.63545  24521261.8054                   24521258.1294
        38.5004         34.5004
 -11598300.01747  -9005367.92046  22876773.0634                   22876763.9344
        42.7504         36.5004
   2693483.38848   2106577.18247  21776755.1724                   21776747.1564
        48.2504         45.0004
  -8825974.94147  -6820541.22145  21569954.8284                   21569944.8204
        46.0004         33.2504
   7470749.47746   5811684.02243  24497570.4224                   24497563.3444
        36.7504         18.5004
   2954584.10148   2309945.01948  21074216.5084                   21074207.4384
        50.7504         49.2504
 25  7 14 23 12 30.0000000  0 10G03G01G02G08G27G31G10G28G23G32
  -1885738.16245  -1433821.73744  25101736.3834                   25101731.5944
        33.2504         25.2504
  -9634437.25146  -7429909.79643  23462478.2424                   23462468.1764
        41.7504         22.5004
  -8808086.06747  -6819118.93146  21849856.9924                   21849844.8164
        47.2504         36.0004
   5060344.87746   3948381.20545  23677772.8754                   23677767.7934
        39.7504         32.5004
   9323437.90946   7251820.51645  24529777.9384                   24529773.3834
        39.0004         35.0004
 -11652353.18047  -9047487.21446  22866486.9224                   22866477.7934
        42.7504         36.7504
   2710295.66548   2119677.65847  21779954.5944                   21779946.3444
        48.5004         45.0004
  -8857919.00747  -6845432.67345  21563875.7344                   21563865.9024
        46.5004         33.5004
   7508054.41246   5840752.78543  24504669.3834                   24504662.5984
        36.2504         19.2504
   2976540.58848   2327053.95848  21078394.6804                   21078385.6094
        50.5004         49.0004
 25  7 14 23 12 45.0000000  0 10G03G01G02G08G27G31G10G28G23G32
  -1927134.81845  -1466078.80644  25093859.0864                   25093854.0634
        31.0004         24.2504
  -9682689.42546  -7467508.85843  23453295.3594                   23453286.1134
        40.7504         23.0004
  -8833347.85147  -6838803.42945  21845050.1644                   21845037.4024
        47.7504         35.2504
   5092391.31646   3973352.41545  23683870.3594                   23683865.3364
        39.2504         33.0004
   9368178.69446   7286683.36545  24538291.4774                   24538287.5084
        39.5004         34.5004
 -11706362.34347  -9089572.22046  22856210.1414                   22856200.7194
        42.7504         36.5004
   2727157.96748   2132817.09747  21783163.5704                   21783155.2034
        48.0004         45.0004
  -8889747.93047  -6870234.42245  21557818.9924                   21557808.5164
        46.5004         33.5004
   7545387.91445   5869843.75943  24511772.9384                   24511766.6214
        35.5004         18.2504
   2998563.42348   2344214.60448  21082585.3834                   21082576.8404
        51.0004         49.2504
 25  7 14 23 13  0.0000000  0 10G03G01G02G08G27G31G10G28G23G32
  -1968542.62745  -1498344.61243  25085978.1484                   25085974.6484
        32.2504         23.0004
  -9730895.64246  -7505072.10243  23444122.0634                   23444113.0514
        40.5004         22.7504
  -8858508.02347  -6858408.74246  21840262.1954                   21840249.7274
        47.7504         36.0004
   5124497.92646   3998370.52545  23689980.5944                   23689975.1564
        39.5004         32.0004
   9412911.70946   7321540.15345  24546804.2894                   24546799.8524
        39.5004         33.7504
 -11760326.63947  -9131622.27846  22845940.6174                   22845930.9024
        43.0004         36.7504
   2744070.78848   2145995.91047  21786381.6564                   21786373.6994
        48.5004         45.0004
  -8921461.04347  -6894945.91645  21551784.1954                   21551773.8954
        45.5004         33.7504
   7582750.39245   5898957.32543  24518883.0164                   24518876.4654
        35.0004         18.2504
   3020652.74948   2361427.05248  21086788.8284                   21086780.1684
        51.5004         49.2504
 25  7 14 23 13 15.0000000  0 10G03G01G02G08G27G31G10G28G23G32
  -2009962.33245  -1530619.64644  25078096.1334                   25078092.8094
        32.2504         25.0004
  -9779056.22246  -7542599.79243  23434957.2734                   23434948.4964
        41.2504         22.7504
  -8883567.06847  -6877935.27146  21835493.5234                   21835481.1724
        47.5004         36.0004
   5156663.65146   4023434.69245  23696101.6484                   23696096.3284
        39.0004         32.5004
   9457636.02246   7356390.16245  24555314.8284                   24555310.4494
        38.5004         33.0004
 -11814246.30547  -9173637.55746  22835679.8914                   22835670.3524
        42.5004         36.7504
   2761033.56748   2159213.64747  21789609.7424                   21789601.2584
        48.0004         45.5004
  -8953058.64647  -6919567.41545  21545771.0784                   21545761.1294
        46.0004         34.5004
   7620141.13746   5928092.95143  24525998.6024                   24525990.8794
        36.7504         18.5004
   3042807.75248   2378690.67548  21091004.6564                   21090996.1134
        51.5004         49.0004
 25  7 14 23 13 30.0000000  0 10G03G01G02G08G27G31G10G28G23G32
  -2051393.65045  -1562903.73044  25070212.0394                   25070208.6564
        33.5004         26.0004
  -9827170.65546  -7580091.54143  23425802.0784                   23425792.9494
        41.2504         22.2504
  -8908524.46447  -6897382.58146  21830744.6644                   21830732.1374
        47.7504         36.5004
   5188888.42446   4048544.86445  23702233.9534                   23702228.6334
        39.7504         32.2504
   9502351.38846   7391233.20445  24563824.4304                   24563819.9344
        38.7504         32.0004
 -11868120.74647  -9215617.58946  22825428.0084                   22825418.2344
        43.0004         36.0004
   2778046.60548   2172470.55647  21792847.3524                   21792838.8094
        48.7504         45.2504
  -8984540.25247  -6944098.51245  21539780.6414                   21539770.6334
        46.0004         34.0004
   7657560.50846   5957250.82543  24533119.4224                   24533112.7544
        37.5004         19.0004
   3065028.37848   2396005.44748  21095233.2504                   21095224.5314
        50.5004         49.0004
 25  7 14 23 13 45.0000000  0 10G03G01G02G08G27G31G10G28G23G32
  -2092836.23545  -1595196.61444  25062326.3284                   25062322.2424
        34.2504         27.7504
  -9875238.23446  -7617546.75443  23416654.8524                   23416645.4304
        40.5004         23.2504
  -8933379.52547  -6916750.14946  21826014.5164                   21826002.0474
        47.5004         36.0004
   5221172.19646   4073701.00945  23708377.3914                   23708371.7774
        40.0004         32.2504
   9547057.94046   7426069.39045  24572330.8054                   24572326.9534
        37.5004         31.2504
 -11921949.28747  -9257561.86346  22815184.9454                   22815175.2304
        43.5004         36.0004
   2795110.30348   2185766.93547  21796094.0944                   21796086.4884
        48.0004         45.0004
  -9015905.22747  -6968538.73345  21533812.2034                   21533802.1954
        46.2504         34.2504
   7695008.73046   5986431.21043  24540245.9694                   24540238.8324
        38.2504         20.7504
   3087314.77148   2413371.46548  21099474.5084                   21099465.6134
        51.2504         49.0004
 25  7 14 23 14  0.0000000  0 10G03G01G02G08G27G31G10G28G23G32
  -2134290.90745  -1627498.92244  25054437.8444                   25054433.6414
        34.7504         26.5004
  -9923259.46846  -7654965.87843  23407517.1334                   23407506.9494
        41.0004         22.0004
  -8958132.88247  -6936038.47645  21821304.2424                   21821291.8324
        47.7504         35.5004
   5253513.83946   4098902.23845  23714531.0084                   23714526.3954
        39.0004         32.0004
   9591754.51246   7460897.79045  24580837.2114                   24580832.8324
        38.0004         30.2504
 -11975732.25247  -9299470.61046  22804950.5314                   22804940.7584
        43.2504         37.0004
   2812223.99348   2199102.26547  21799351.0004                   21799342.5164
        48.5004         45.0004
  -9047153.99747  -6992888.40945  21527865.2274                   21527855.7464
        45.0004         33.0004
   7732485.18346   6015633.61343  24547377.5004                   24547370.1884
        38.5004         21.0004
   3109665.93648   2430787.94248  21103727.3834                   21103718.8984
        51.0004         49.0004
 25  7 14 23 14 15.0000000  0 10G03G01G02G08G27G31G10G28G23G32
  -2175756.89945  -1659810.03644  25046547.7664                   25046542.8014
        35.0004         25.7504
  -9971233.37746  -7692348.12743  23398387.2664                   23398378.1954
        41.7504         23.0004
  -8982783.82448  -6955246.98545  21816613.6174                   21816601.1484
        48.0004         35.2504
   5285913.65646   4124148.80845  23720696.9614                   23720692.1724
        39.5004         32.2504
   9636441.45446   7495718.68344  24589339.9144                   24589336.0634
        36.5004         29.2504
 -12029468.66547  -9341343.09146  22794725.0394                   22794714.8554
        43.5004         36.5004
   2829388.39648   2212477.11647  21802617.3284                   21802609.2544
        48.0004         45.0004
  -9078285.66547  -7017146.83445  21521941.1174                   21521931.3444
        46.5004         34.0004
   7769990.40046   6044858.44043  24554514.2504                   24554507.4064
        39.0004         21.0004
   3132082.32848   2448255.25748  21107993.0084                   21107984.5824
        51.0004         49.0004
 25  7 14 23 14 30.0000000  0 10G03G01G02G08G27G31G10G28G23G32
  -2217234.43845  -1692130.18544  25038653.7894                   25038650.4064
        34.2504         25.5004
 -10019159.79446  -7729693.36643  23389266.6094                   23389258.0664
        41.0004         23.0004
  -9007332.08747  -6974375.49445  21811941.9304                   21811929.4024
        47.2504         35.5004
   5318371.08146   4149440.26645  23726873.7424                   23726868.7194
        40.0004         32.0004
   9681118.15546   7530531.57744  24597841.9924                   24597838.3164
        36.0004         27.2504
 -12083158.19247  -9383179.04046  22784507.7734                   22784498.1174
        43.5004         37.0004
   2846603.41948   2225891.40947  21805893.2894                   21805885.0394
        48.2504         45.5004
  -9109300.06847  -7041313.87545  21516039.7034                   21516029.8714
        46.7504         33.5004
   7807524.25546   6074105.57243  24561658.0164                   24561649.5904
        39.5004         21.0004
   3154563.54348   2465773.08048  21112271.3914                   21112262.6134
        51.2504         49.0004
 25  7 14 23 14 45.0000000  0 10G03G01G02G08G27G31G10G28G23G32
  -2258723.44345  -1724459.25644  25030759.5554                   25030754.9414
        33.2504         24.0004
 -10067038.35646  -7767001.29443  23380155.5944                   23380147.3444
        41.5004         22.0004
  -9031777.51947  -6993423.87845  21807290.0164                   21807277.7814
        47.7504         35.7504
   5350885.83146   4174776.41445  23733061.4064                   23733055.6764
        40.0004         32.5004
   9725784.33845   7565336.28844  24606341.8674                   24606338.0744
        35.7504         26.7504
 -12136800.39547  -9424978.11446  22774299.4694                   22774290.3404
        43.2504         37.5004
   2863869.18448   2239345.24447  21809178.7504                   21809170.7934
        48.2504         45.0004
  -9140196.90147  -7065389.31545  21510160.1334                   21510150.1844
        46.2504         33.7504
   7845086.78746   6103375.03243  24568804.8674                   24568797.7304
        39.2504         21.0004
   3177109.37248   2483341.25448  21116561.5944                   21116552.8754
        50.5004         49.0004
 25  7 14 23 15  0.0000000  0 10G03G01G02G08G27G31G10G28G23G32
  -2300223.92245  -1756797.24544  25022862.0784                   25022857.1724
        32.2504         24.0004
 -10114868.78446  -7804271.72644  23371054.3674                   23371045.4144
        41.5004         24.7504
  -9056119.94947  -7012391.99046  21802657.7734                   21802645.6564
        47.5004         36.0004
   5383457.59346   4200156.96145  23739259.4694                   23739254.1484
        40.0004         31.5004
   9770439.78046   7600132.65044  24614839.9924                   24614835.9654
        36.5004         27.0004
 -12190394.78847  -9466739.92346  22764101.7034                   22764091.5784
        43.5004         37.5004
   2881185.78648   2252838.69347  21812473.9224                   21812465.6134
        48.5004         44.7504
  -9170975.90147  -7089372.93645  21504303.1484                   21504293.0824
        47.0004         34.2504
   7882678.05146   6132666.89743  24575958.0634                   24575951.1604
        39.0004         21.7504
   3199719.66748   2500959.65048  21120864.3054                   21120855.8794
        50.7504         49.0004
 25  7 14 23 15 15.0000000  0 10G03G01G02G08G27G31G10G28G23G32
  -2341735.54545  -1789143.92543  25014961.8834                   25014957.7974
        32.0004         23.0004
 -10162650.55946  -7841504.23944  23361961.0164                   23361952.7074
        41.2504         24.5004
  -9080358.78147  -7031279.37845  21798045.5084                   21798032.8054
        47.5004         35.7504
   5416086.15246   4225581.77045  23745468.2664                   23745463.3014
        39.7504         32.2504
   9815084.22245   7634920.43944  24623335.0944                   24623331.0664
        34.5004         25.5004
 -12243940.87247  -9508464.09046  22753911.3444                   22753901.8054
        42.7504         37.0004
   2898553.48648   2266371.95147  21815778.8284                   21815770.9884
        48.5004         44.7504
  -9201636.52647  -7113264.31745  21498468.3834                   21498458.9614
        47.0004         34.5004
   7920298.22846   6161981.27543  24583117.4614                   24583109.6214
        39.0004         22.7504
   3222394.36848   2518628.25048  21125179.2734                   21125170.4384
        50.7504         49.0004
 25  7 14 23 15 30.0000000  0 10G03G01G02G08G27G31G10G28G23G32
  -2383258.88045  -1821499.74244  25007060.5164                   25007056.2544
        33.0004         24.5004
 -10210383.85447  -7878698.98744  23352878.1174                   23352869.6914
        42.0004         25.7504
  -9104494.33347  -7050086.29445  21793452.6804                   21793440.2114
        47.0004         35.7504
   5448770.64846   4251050.16345  23751688.0234                   23751683.0004
        39.2504         32.0004
   9859716.79245   7669698.93443  24631828.9924                   24631824.4384
        34.0004         23.0004
 -12297438.80147  -9550150.73646  22743731.5554                   22743721.4304
        43.5004         37.0004
   2915971.84548   2279944.69547  21819093.7274                   21819085.5354
        48.2504         45.0004
  -9232179.01547  -7137063.64545  21492656.5474                   21492646.4804
        46.5004         34.5004
   7957946.79246   6191317.76243  24590281.6724                   24590274.2424
        39.2504         22.0004
   3245132.75148   2536346.45548  21129506.3284                   21129497.3164
        50.5004         49.0004
 25  7 14 23 15 45.0000000  0 10G03G01G02G08G27G31G10G28G23G32
  -2424793.32745  -1853864.18444  24999157.9384                   24999152.3834
        32.7504         24.7504
 -10258067.77547  -7915855.26344  23343804.1644                   23343795.5634
        42.0004         24.7504
  -9128525.74947  -7068812.06645  21788879.5394                   21788867.1884
        47.0004         35.2504
   5481511.28946   4276562.32345  23757918.8524                   23757913.1214
        39.2504         32.5004
   9904337.70245   7704468.36343  24640319.3984                   24640315.8984
        33.0004         22.2504
 -12350887.69047  -9591799.16646  22733560.0554                   22733550.6914
        42.7504         37.2504
   2933441.54848   2293557.43747  21822417.9454                   21822409.7544
        48.2504         44.7504
  -9262602.48147  -7160770.21545  21486867.0164                   21486857.4774
        46.5004         34.0004
   7995624.35646   6220676.85843  24597451.3054                   24597443.8754
        38.7504         22.2504
   3267935.17848   2554114.57748  21133845.1484                   21133836.5474
        51.0004         49.0004
 25  7 14 23 16  0.0000000  0 10G03G01G02G08G27G31G10G28G23G32
  -2466339.21445  -1886237.54543  24991250.7424                   24991246.5984
        32.5004         23.7504
 -10305702.32147  -7952973.06743  23334739.8134                   23334730.3914
        42.0004         23.2504
  -9152453.09947  -7087456.75345  21784325.9694                   21784313.5594
        47.5004         35.7504
   5514307.36946   4302117.68445  23764159.3594                   23764154.1564
        39.0004         31.5004
   9948946.46745   7739228.32543  24648807.7504                   24648804.7774
        32.2504         22.0004
 -12404287.32747  -9633409.21846  22723398.7344                   22723388.6094
        43.5004         36.5004
   2950962.34448   2307210.00547  21825751.8134                   21825743.7974
        48.2504         44.7504
  -9292906.99947  -7184384.11945  21481100.3914                   21481090.6174
        47.0004         34.5004
   8033330.65946   6250058.34643  24604625.9064                   24604619.1804
        39.2504         22.0004
   3290801.12348   2571932.18748  21138196.3674                   21138187.8244
        51.0004         49.0004
 25  7 14 23 16 15.0000000  0 10G03G01G02G08G27G31G10G28G23G32
  -2507896.41045  -1918619.77843  24983343.1254                   24983338.3954
        32.5004         22.7504
 -10353287.19746  -7990052.17744  23325684.4694                   23325675.8674
        41.5004         24.5004
  -9176276.29947  -7106020.27046  21779792.6564                   21779780.1294
        47.0004         36.0004
   5547158.68246   4327716.08445  23770410.8914                   23770405.5704
        39.2504         31.2504
   9993542.62045   7773978.44843  24657294.8204                   24657291.0274
        33.5004         22.5004
 -12457637.23547  -9674980.51746  22713246.7114                   22713236.7624
        42.5004         37.0004
   2968534.28648   2320902.41647  21829095.7734                   21829087.6994
        48.7504         44.7504
  -9323092.22247  -7207905.05845  21475356.2894                   21475346.1644
        46.2504         34.5004
   8071065.52646   6279462.08143  24611807.1024                   24611800.1994
        39.0004         22.7504
   3313730.35548   2589799.11648  21142559.6954                   21142550.9184
        51.0004         49.0004
 25  7 14 23 16 30.0000000  0 10G03G01G02G08G27G31G10G28G23G32
  -2549465.18545  -1951010.98543  24975432.9144                   24975427.8914
        32.0004         22.5004
 -10400822.14047  -8027092.37044  23316638.5314                   23316629.9884
        42.2504         26.0004
  -9199995.21447  -7124502.53746  21775279.3594                   21775266.5394
        46.2504         36.0004
   5580064.63246   4353357.03745  23776672.3984                   23776667.6094
        38.7504         31.7504
  10038125.67245   7808718.34643  24665779.7974                   24665775.5354
        34.5004         22.7504
 -12510937.18247  -9716512.89246  22703103.9534                   22703094.1214
        43.5004         37.2504
   2986157.40748   2334634.70847  21832449.3524                   21832441.2774
        48.2504         45.0004
  -9353157.99247  -7231332.91345  21469634.7504                   21469624.8014
        47.0004         35.0004
   8108829.07946   6308888.18243  24618993.7974                   24618986.3674
        38.2504         22.5004
   3336722.54848   2607715.10648  21146934.9924                   21146926.1564
        50.0004         49.0004
 25  7 14 23 16 45.0000000  0 10G03G01G02G08G27G31G10G28G23G32
  -2591045.10245  -1983410.91243  24967521.5474                   24967515.1724
        32.2504         21.7504
 -10448306.72147  -8064093.30644  23307602.5634                   23307594.1954
        42.0004         25.5004
  -9223609.33047  -7142903.13945  21770785.7274                   21770773.0234
        47.7504         35.7504
   5613024.98646   4379040.37545  23782944.3054                   23782939.7504
        39.2504         31.5004
  10082695.54345   7843448.01643  24674261.4144                   24674256.6844
        35.5004         22.7504
 -12564186.69747  -9758005.97146  22692971.0864                   22692961.0784
        44.0004         37.5004
   3003831.93748   2348407.05847  21835812.7194                   21835804.4694
        48.0004         45.0004
  -9383103.88947  -7254667.35645  21463936.2814                   21463926.6844
        46.5004         34.5004
   8146621.37646   6338336.69143  24626185.0474                   24626178.0274
        38.2504         21.5004
   3359777.68048   2625680.13848  21151322.0314                   21151313.5474
        50.7504         49.0004
 25  7 14 23 17  0.0000000  0 10G03G01G02G08G27G31G10G28G23G32
  -2632636.66645  -2015819.85543  24959604.1644                   24959600.7814
        31.0004         20.2504
 -10495740.96646  -8101055.03344  23298576.3364                   23298567.6174
        41.5004         26.0004
  -9247118.90247  -7161222.27646  21766312.1564                   21766299.5704
        47.0004         36.0004
   5646039.15846   4404765.65745  23789227.8364                   23789222.3984
        39.7504         32.0004
  10127251.42646   7878166.78044  24682739.4844                   24682735.0474
        36.0004         24.7504
 -12617385.77847  -9799459.75446  22682847.2424                   22682837.3524
        44.0004         38.0004
   3021557.57048   2362219.23447  21839185.7194                   21839177.5864
        48.0004         44.5004
  -9412929.94647  -7277908.42945  21458260.2974                   21458250.8754
        46.7504         34.2504
   8184442.04946   6367807.30143  24633382.5394                   24633375.1094
        39.0004         21.5004
   3382895.15448   2643693.75448  21155721.3364                   21155712.7344
        50.5004         49.0004
 25  7 14 23 17 15.0000000  0 10G03G01G02G08G27G31G10G28G23G32
  -4249659.02755  -3275837.22853  24951688.5554                   24951683.9414
        30.0004         21.0004
 -10543123.71847  -8137976.62344  23289560.0634                   23289551.1094
        42.0004         26.7504
  -9270522.88547  -7179459.13346  21761858.4924                   21761846.0234
        47.5004         36.0004
   5679107.51246   4430533.18145  23795520.8204                   23795514.6804
        40.7504         32.0004
  10171793.85346   7912875.09344  24691215.8134                   24691211.3754
        38.2504         26.7504
 -12670532.99947  -9840873.12446  22672733.1094                   22672723.8054
        43.7504         37.5004
   3039335.22648   2376071.95047  21842568.8284                   21842560.5204
        48.0004         44.5004
  -9442635.07747  -7301055.26445  21452607.9224                   21452597.8554
        46.5004         35.0004
   8222292.03146   6397300.74243  24640584.8984                   24640577.7034
        39.0004         21.7504
   3406075.58448   2661756.41048  21160132.3834                   21160123.7814
        51.0004         48.7504
 25  7 14 23 17 30.0000000  0 10G03G01G02G08G27G31G10G28G23G32
                                  24943769.4534                   24943765.6604
        28.7504         20.0004
 -10590455.22847  -8174858.28444  23280553.2504                   23280543.8284
        42.0004         26.7504
  -9293821.57947  -7197613.95546  21757425.0554                   21757411.8834
        47.7504         36.2504
   5712229.20346   4456342.25645  23801822.4534                   23801817.8404
        40.0004         31.5004
  10216321.99846   7947572.28644  24699689.1254                   24699685.0984
        37.7504         27.5004
 -12723628.46347  -9882246.16546  22662629.4454                   22662620.2584
        43.2504         37.2504
   3057164.41748   2389964.80947  21845961.6724                   21845953.5984
        48.2504         44.5004
  -9472219.54447  -7324108.07945  21446978.2974                   21446967.8794
        46.5004         34.2504
   8260170.68846   6426816.57043  24647792.4614                   24647785.9694
        39.5004         21.0004
   3429318.18948   2679867.52948  21164555.4534                   21164546.5594
        50.5004         48.7504
 25  7 14 23 17 45.0000000  0 10G03G01G02G08G27G31G10G28G23G32
                                  24935849.0394                   24935844.7194
        31.0004         19.2504
 -10637735.52246  -8211700.04944  23271555.6414                   23271546.8634
        41.7504         25.0004
  -9317015.06147  -7215686.78446  21753011.5004                   21752998.2704
        47.2504         36.0004
   5745403.46946   4482192.30145  23808135.1414                   23808130.6454
        39.2504         32.0004
  10260835.10246   7982257.71844  24708159.8674                   24708155.8984
        38.2504         28.5004
 -12776672.17547  -9923578.86646  22652535.5864                   22652526.2814
        43.5004         37.5004
   3075044.88247   2403897.63547  21849364.0784                   21849355.9454
        47.7504         44.5004
  -9501683.43947  -7347066.95345  21441371.6024                   21441361.5354
        45.7504         34.2504
   8298077.68346   6456354.43443  24655006.6484                   24654999.9804
        39.0004         21.7504
   3452622.42548   2698026.67048  21168989.9844                   21168981.3834
        50.7504         48.7504
 25  7 14 23 18  0.0000000  0 10G03G01G02G08G27G31G10G28G23G32
  -4374534.80855  -3373142.89453  24927926.1804                   24927920.8014
        31.5004         20.0004
 -10684964.30847  -8248501.67244  23262568.2974                   23262559.5784
        42.2504         25.0004
  -9340103.23047  -7233677.56046  21748617.9844                   21748605.3984
        46.7504         36.0004
   5778629.91546   4508083.00345  23814458.4144                   23814453.2114
        40.0004         32.5004
  10305332.83846   8016931.17144  24716628.1804                   24716623.5084
        39.0004         29.5004
 -12829663.80947  -9964870.99946  22642451.6954                   22642441.6294
        43.5004         36.7504
   3092976.65348   2417870.43447  21852776.3524                   21852768.2774
        48.2504         44.0004
  -9531026.51547  -7369931.67345  21435787.6094                   21435777.3674
        46.0004         35.0004
   8336012.93646   6485914.35443  24662225.5314                   24662218.3954
        39.5004         20.2504
   3475987.98948   2716233.59648  21173436.2584                   21173427.8324
        50.0004         48.7504
 25  7 14 23 18 15.0000000  0 10G03G01G02G08G27G31G10G28G23G32
  -4416182.47545  -3405595.56343  24920000.3834                   24919995.5354
        32.7504         21.0004
 -10732140.41747  -8285262.26244  23253591.4144                   23253582.2274
        42.2504         24.5004
  -9363084.82447  -7251585.28946  21744244.5234                   21744231.8204
        47.0004         36.2504
   5811909.03846   4534014.75345  23820791.3364                   23820786.8404
        39.7504         32.0004
  10349815.65046   8051592.99745  24725092.5314                   24725088.4454
        40.0004         30.5004
 -12882602.16847 -10006121.62246  22632378.0164                   22632368.1254
        43.2504         37.2504
   3110960.64748   2431883.92347  21856198.7194                   21856190.4104
        48.5004         44.2504
  -9560247.62947  -7392701.35245  21430226.4614                   21430217.0394
        46.5004         34.5004
   8373977.35346   6515496.99143  24669449.8914                   24669442.4614
        40.0004         19.5004
   3499415.54648   2734488.82548  21177894.3834                   21177885.9574
        50.0004         48.7504
 25  7 14 23 18 30.0000000  0 10G03G01G02G08G27G31G10G28G23G32
  -4457841.10645  -3438056.81243  24912072.6804                   24912068.3014
        33.2504         22.5004
 -10779263.77647  -8321981.74144  23244623.3984                   23244614.7974
        42.2504         25.2504
  -9385959.99247  -7269410.08545  21739891.3914                   21739878.4534
        47.0004         35.2504
   5845240.27846   4559987.11945  23827133.6254                   23827128.9534
        38.5004         32.5004
  10394283.06846   8086242.81745  24733555.3524                   24733550.6214
        39.7504         31.5004
 -12935487.16447 -10047330.66146  22622313.6254                   22622304.6134
        42.7504         38.0004
   3128996.80948   2445938.07447  21859630.7814                   21859622.4734
        48.5004         44.7504
  -9589346.71147  -7415375.94745  21424689.5394                   21424679.6484
        45.7504         34.5004
   8411970.72046   6545102.17743  24676679.5474                   24676672.8204
        38.5004         19.7504
   3522904.69748   2752792.05348  21182364.2194                   21182355.4414
        50.5004         48.5004
 25  7 14 23 18 45.0000000  0 10G03G01G02G08G27G31G10G28G23G32
  -4499510.98845  -3470526.79043  24904143.5314                   24904138.8014
        34.7504         23.7504
 -10826334.46146  -8358660.17544  23235666.4304                   23235657.2424
        41.2504         24.0004
  -9408728.94047  -7287152.11545  21735558.5234                   21735545.9384
        47.2504         35.5004
   5878622.88346   4585999.49845  23833486.6484                   23833481.3874
        39.5004         31.5004
  10438734.25046   8120879.99045  24742013.5164                   24742009.3134
        40.0004         31.7504
 -12988318.76047 -10088498.08246  22612260.4534                   22612250.6804
        44.0004         37.2504
   3147084.70448   2460032.52747  21863073.0944                   21863064.7274
        48.0004         44.5004
  -9618323.91247  -7437955.56445  21419175.6254                   21419165.3244
        45.7504         35.0004
   8449992.64446   6574729.61043  24683914.7734                   24683907.9304
        39.2504         19.5004
   3546454.75348   2771142.73948  21186845.6804                   21186836.9614
        50.5004         48.5004
 25  7 14 23 19  0.0000000  0 10G03G01G02G08G27G31G10G28G23G32
  -4541191.71845  -3503005.26043  24896211.7114                   24896207.0394
        35.2504         22.7504
 -10873351.76746  -8395297.01844  23226719.3914                   23226710.2034
        41.7504         25.2504
  -9431391.08747  -7304810.92545  21731245.8204                   21731233.1764
        47.5004         35.5004
   5912056.82546   4612051.87845  23839848.7734                   23839844.1024
        39.2504         31.5004
  10483169.31146   8155504.61745  24750469.4844                   24750464.9884
        39.7504         31.7504
 -13041096.01147 -10129623.15446  22602217.3674                   22602207.7704
        43.5004         38.0004
   3165224.84148   2474167.68847  21866524.8984                   21866516.8834
        48.0004         44.7504
  -9647178.57147  -7460439.69645  21413684.1954                   21413674.1294
        46.0004         35.0004
   8488043.47846   6604379.58743  24691155.7274                   24691148.0634
        39.0004         19.5004
   3570065.93348   2789541.06248  21191338.7814                   21191330.1804
        50.5004         48.5004
 25  7 14 23 19 15.0000000  0 10G03G01G02G08G27G31G10G28G23G32
  -4582883.70145  -3535492.48043  24888277.9064                   24888272.7034
        34.5004         22.7504
 -10920315.63846  -8431892.21144  23217782.7974                   23217773.0824
        41.7504         25.5004
  -9453946.44847  -7322386.51845  21726953.7504                   21726941.2814
        46.2504         35.7504
   5945541.53246   4638143.81945  23846220.6174                   23846215.8874
        39.0004         31.0004
  10527587.59946   8190116.16245  24758921.8754                   24758917.6724
        40.2504         32.7504
 -13093818.80947 -10170705.80946  22592184.4534                   22592174.8554
        43.2504         37.2504
   3183417.05648   2488343.43047  21869986.7894                   21869978.4804
        48.5004         44.5004
  -9675910.65547  -7482828.32245  21408216.6954                   21408206.5704
        45.7504         34.5004
   8526123.00446   6634051.89843  24698402.0164                   24698395.1724
        39.5004         18.5004
   3593737.73248   2807986.61048  21195843.6484                   21195834.5204
        50.5004         48.5004
 25  7 14 23 19 30.0000000  0 10G03G01G02G08G27G31G10G28G23G32
  -4624586.70145  -3567988.28943  24880342.2734                   24880337.4844
        32.7504         21.7504
 -10967225.70347  -8468445.48044  23208855.8834                   23208846.6374
        42.2504         26.5004
  -9476394.71447  -7339878.66845  21722681.9384                   21722669.3524
        47.0004         35.5004
   5979076.61346   4664275.00445  23852602.4614                   23852597.0234
        40.5004         31.5004
  10571988.89746   8224714.48445  24767371.2194                   24767367.3674
        40.0004         32.5004
 -13146486.88647 -10211745.81546  22582161.9774                   22582152.6134
        43.5004         38.0004
   3201661.43448   2502559.81747  21873458.7974                   21873450.3714
        48.0004         44.2504
  -9704519.91647  -7505121.24445  21402772.6954                   21402762.6884
        46.0004         34.5004
   8564231.27546   6663746.65442  24705653.6024                   24705646.8754
        38.0004         17.7504
   3617469.99348   2826479.27748  21200359.5314                   21200350.6954
        50.0004         48.5004
 25  7 14 23 19 45.0000000  0 11G03G01G02G08G27G31G10G28G25G23G32
  -4666303.26145  -3600494.65243  24872403.9304                   24872398.4344
        33.7504         21.2504
 -11014084.04347  -8504958.46844  23199939.1564                   23199929.3834
        42.7504         26.0004
  -9498738.12947  -7357289.11546  21718430.2344                   21718417.7664
        46.7504         36.0004
   6012659.34446   4690443.32945  23858993.7664                   23858988.3284
        39.7504         31.7504
  10616370.40546   8259297.37445  24775816.9144                   24775813.2384
        40.0004         33.0004
 -13199102.15247 -10252744.68046  22572149.6484                   22572140.2274
        43.2504         38.0004
   3219955.64647   2516815.04547  21876940.0634                   21876931.8134
        47.5004         44.5004
  -9733008.41447  -7527320.06045  21397351.5234                   21397341.5744
        46.5004         35.0004
    229354.55855    204611.61953  25310698.6334                   25310694.1954
        31.5004         18.2504
   8602365.76246   6693461.80643  24712910.8834                   24712903.9804
        38.5004         18.2504
   3641260.07748   2845016.99548  21204886.5084                   21204877.5554
        50.5004         48.5004
 25  7 14 23 20  0.0000000  0 11G03G01G02G08G27G31G10G28G25G23G32
  -4708028.37945  -3633007.69843  24864464.4304                   24864458.2304
        33.5004         21.7504
 -11060885.49947  -8541427.10344  23191032.7814                   23191023.5354
        42.5004         26.0004
  -9520971.56847  -7374613.86645  21714199.4614                   21714187.1094
        46.5004         35.5004
   6046294.20546   4716652.27245  23865393.0004                   23865388.8554
        39.5004         31.5004
  10660736.58246   8293868.30845  24784258.9534                   24784255.6294
        39.0004         32.5004
 -13251659.41747 -10293698.34546  22562148.2584                   22562138.7194
        43.2504         38.5004
   3238304.62948   2531112.94947  21880431.7424                   21880423.1414
        48.0004         44.2504
  -9761371.09147  -7549420.83245  21391954.2344                   21391944.5204
        46.7504         35.0004
    199978.56745    181721.23243  25305107.4614                   25305103.8444
        32.0004         18.2504
   8640531.43046   6723201.30742  24720173.2114                   24720166.5434
        38.7504         17.7504
   3665112.59948   2863603.37048  21209425.6954                   21209416.9774
        49.7504         48.5004
 25  7 14 23 20 15.0000000  0 11G03G01G02G08G27G31G10G28G25G23G32
  -4749764.74445  -3665529.50743  24856521.4614                   24856516.1994
        33.5004         22.0004
 -11107632.51246  -8577853.32344  23182137.3594                   23182128.0554
        41.5004         25.7504
  -9543097.56347  -7391854.88945  21709989.3524                   21709976.8244
        46.2504         35.7504
   6079978.10846   4742899.43245  23871803.6884                   23871798.6054
        38.5004         31.2504
  10705084.49546   8328425.00545  24792698.3524                   24792695.0864
        39.5004         31.5004
 -13304160.94947 -10334608.57846  22552157.4064                   22552148.1604
        43.0004         38.2504
   3256705.72747   2545451.45247  21883933.0474                   21883924.9734
        47.5004         44.5004
  -9789610.36847  -7571425.45045  21386580.5234                   21386570.5744
        46.0004         34.5004
    170654.03245    158870.92843  25299527.1724                   25299523.6724
        31.7504         18.5004
   8678725.52346   6752962.90942  24727441.9614                   24727435.0004
        39.0004         16.7504
   3689024.62748   2882236.11048  21213976.0084                   21213967.2894
        49.5004         48.5004
 25  7 14 23 20 30.0000000  0 11G03G01G02G08G27G31G10G28G25G23G32
  -4791511.87145  -3698059.70643  24848577.0084                   24848572.3364
        35.2504         22.2504
 -11154324.17347  -8614236.41644  23173252.3524                   23173242.9304
        42.0004         26.7504
  -9565115.29747  -7409011.55946  21705799.2734                   21705786.6294
        46.2504         36.0004
   6113711.21746   4769184.92945  23878222.9224                   23878217.6604
        38.7504         31.0004
  10749414.28746   8362967.57445  24801134.2814                   24801130.9574
        39.2504         32.2504
 -13356605.74447 -10375474.61146  22542177.6334                   22542168.0944
        43.2504         38.2504
   3275159.56348   2559831.05447  21887444.6174                   21887436.6024
        48.0004         44.5004
  -9817725.43447  -7593333.27145  21381230.5314                   21381220.1724
        45.5004         35.0004
    141381.98144    136061.58742  25293958.7504                   25293953.6684
        29.0004         17.7504
   8716948.65446   6782747.13542  24734715.4694                   24734708.9774
        39.0004         17.2504
   3712996.51448   2900915.49648  21218537.5004                   21218528.7234
        49.2504         48.2504
 25  7 14 23 20 45.0000000  0 11G03G01G02G08G27G31G10G28G25G23G32
  -4833270.10645  -3730598.53243  24840631.7114                   24840626.3914
        34.7504         23.0004
 -11200960.58647  -8650576.46144  23164377.4614                   23164368.5084
        42.2504         27.0004
  -9587024.97847  -7426084.03346  21701629.9224                   21701617.0434
        47.0004         36.5004
   6147492.84346   4795508.22844  23884651.1334                   23884645.9924
        39.0004         29.2504
  10793725.21446   8397495.46145  24809566.2734                   24809563.1254
        38.5004         32.2504
 -13408993.80247 -10416296.42446  22532209.0634                   22532198.4104
        43.5004         38.0004
   3293665.83447   2574251.51747  21890966.3834                   21890958.4264
        47.7504         44.5004
  -9845716.44347  -7615144.43845  21375904.1954                   21375893.7194
        45.7504         35.5004
    112162.31545    113293.04843  25288396.9064                   25288393.1134
        31.2504         19.5004
   8755200.34546   6812553.63043  24741993.8984                   24741987.5234
        38.7504         18.2504
   3737027.62648   2919641.03148  21223110.7734                   21223101.9384
        50.0004         48.2504
 25  7 14 23 21  0.0000000  0 11G03G01G02G08G27G31G10G28G25G23G32
  -4875038.98746  -3763145.69744  24832683.0474                   24832678.0234
        36.2504         25.0004
 -11247541.04546  -8686872.89244  23155513.4304                   23155504.4184
        41.2504         26.2504
  -9608826.16247  -7443071.96646  21697481.5944                   21697468.5984
        47.2504         36.2504
   6181322.89746   4821869.27445  23891089.0314                   23891083.6524
        39.0004         30.0004
  10838017.29146   8432008.64745  24817994.5234                   24817991.4924
        38.5004         31.7504
 -13461324.44547 -10457073.50146  22522250.0314                   22522240.6094
        43.7504         38.0004
   3312224.96247   2588713.16947  21894498.3914                   21894490.0234
        47.7504         44.5004
  -9873582.76447  -7636858.44045  21370601.4614                   21370591.2194
        46.2504         35.2504
     82995.86845     90565.93943  25282845.6484                   25282842.9104
        31.0004         18.5004
   8793480.90546   6842382.60143  24749278.1334                   24749271.9344
        38.5004         18.5004
   3761118.10648   2938412.83348  21227694.8984                   21227686.2974
        50.2504         48.5004
 25  7 14 23 21 15.0000000  0 11G03G01G02G08G27G31G10G28G25G23G32
  -4916815.66545  -3795698.93244  24824732.9304                   24824727.4344
        35.5004         25.5004
 -11294062.36746  -8723123.24944  23146660.6884                   23146651.5004
        41.5004         27.5004
  -9630515.78347  -7459972.96646  21693354.0474                   21693340.6994
        46.7504         36.5004
   6215203.92346   4848270.04345  23897536.0234                   23897531.5864
        38.2504         30.0004
  10882293.09146   8466509.16445  24826420.3134                   24826416.6954
        39.7504         33.0004
 -13513594.37347 -10497803.27446  22512303.3054                   22512293.8834
        43.5004         38.5004
   3330839.91447   2603218.30947  21898040.5004                   21898032.4844
        47.5004         45.0004
  -9901321.21047  -7658472.80945  21365322.7734                   21365312.2384
        46.0004         35.0004
                                  25277307.0784                   25277303.3444
        30.2504         17.2504
   8831793.32946   6872236.39343  24756569.4534                   24756563.5474
        38.5004         19.2504
   3785270.62548   2957232.97548  21232290.8674                   21232281.6804
        50.5004         48.2504
 25  7 14 23 21 30.0000000  0 11G03G01G02G08G27G31G10G28G25G23G32
  -4958609.43646  -3828265.45444  24816780.0554                   24816775.0314
        36.5004         24.7504
 -11340533.53647  -8759334.53344  23137817.9614                   23137808.3634
        42.5004         26.0004
  -9652102.91247  -7476794.09746  21689245.7504                   21689233.4574
        47.0004         36.5004
   6249126.23946   4874702.96345  23903991.8914                   23903987.0434
        38.5004         30.0004
  10926542.93446   8500989.45045  24834840.7664                   24834837.8524
        39.5004         33.0004
 -13565812.45647 -10538492.63446  22502366.2194                   22502356.7384
        43.7504         38.7504
   3349501.44247   2617759.75147  21901591.3204                   21901583.3634
        47.2504         44.5004
  -9928940.91447  -7679994.63745  21360067.1094                   21360056.7504
        46.2504         35.0004
     24823.28145     45236.74342  25271777.6564                   25271772.6334
        31.7504         17.2504
   8870128.22146   6902107.69643  24763864.1174                   24763857.6254
        37.2504         18.2504
   3809475.65248   2976094.02548  21236896.6884                   21236888.2034
        50.5004         48.2504
 25  7 14 23 21 45.0000000  0 11G03G01G02G08G27G31G10G28G25G23G32
  -5000410.84246  -3860837.94444  24808824.9534                   24808819.8714
        36.7504         26.0004
 -11386944.90747  -8795499.21144  23128986.2344                   23128976.5204
        42.7504         27.5004
  -9673577.88747  -7493527.84946  21685159.5084                   21685146.6884
        47.5004         36.5004
   6283098.90146   4901175.11645  23910456.2114                   23910451.7154
        38.5004         30.5004
  10970775.88546   8535456.57945  24843258.7114                   24843255.0944
        38.5004         31.7504
 -13617968.99947 -10579134.05746  22492441.5474                   22492432.1844
        43.5004         38.5004
   3368218.95547   2632344.81947  21905153.2664                   21905145.1334
        47.2504         44.7504
  -9956432.17447  -7701416.38845  21354835.4924                   21354825.4264
        46.0004         34.5004
     -4182.10845     22635.18043  25266257.0784                   25266253.1094
        32.7504         20.5004
   8908495.01046   6932003.84942  24771164.7894                   24771158.7074
        37.0004         17.2504
   3833742.32648   2995003.11048  21241514.5864                   21241506.1024
        50.5004         48.2504
