     2.11           OBSERVATION DATA    G (GPS)             RINEX VERSION / TYPE
teqc  2019Feb25     K Rivera            20250819 20:52:29UTCPGM / RUN BY / DATE
Linux 2.6.32-573.12.1.x86_64|x86_64|gcc -static|Linux 64|=+ COMMENT
teqc  2019Feb25                         20250819 20:46:36UTCCOMMENT
BIT 2 OF LLI FLAGS DATA COLLECTED UNDER A/S CONDITION       COMMENT
PASO                                                        MARKER NAME
                                                            MARKER NUMBER
katie Baraggiotta   University of California, Riverside     OBSERVER / AGENCY
0220413523          TRIMBLE R7          2.32                REC # / TYPE / VERS
12606420            TRM41249.00                             ANT # / TYPE
 -2416964.2299 -4602396.8203  3684965.9599                  APPROX POSITION XYZ
        0.9027        0.0000        0.0000                  ANTENNA: DELTA H/E/N
     1     1                                                WAVELENGTH FACT L1/2
     7    L1    L2    C1    P1    P2    S1    S2            # / TYPES OF OBSERV
    18                                                      LEAP SECONDS
 SNR is mapped to RINEX snr flag value [0-9]                COMMENT
  L1 & L2: min(max(int(snr_dBHz/6), 0), 9)                  COMMENT
  2025     8     7    20    30    0.0000000     GPS         TIME OF FIRST OBS
                                                            END OF HEADER
 25  8  7 20 30  0.0000000  0  7G27G02G10G28G32G08G23
     56935.81356     26009.73055  24404395.2194                   24404403.2504
        38.7504         34.2504
   -192473.49657   -131646.89555  21982739.1094                   21982737.5664
        46.5004         35.7504
    -21545.50857    -14543.59857  21723968.5004                   21723970.9264
        47.0004         46.5004
   -226499.28957   -150897.07855  21823488.9454                   21823490.2734
        46.7504         34.2504
     -8149.06658     -5566.52358  20972835.6644                   20972837.5704
        51.2504         50.2504
     28035.43056     14010.62155  23583636.6174                   23583642.7584
        39.7504         34.2504
     39033.14556     22230.48853  24351679.1954                   24351683.2424
        38.5004         21.2504
 25  8  7 20 30 30.0000000  0  9G27G02G31G10G01G28G32G08G23
    103446.00046     62251.19145  24413244.7894                   24413253.7704
        39.2504         34.2504
   -291076.32847   -208480.23845  21963975.6334                   21963974.0554
        46.2504         35.5004
   -317238.64856   -185930.58655  23286147.1254                   23286151.1414
        41.5004         35.2504
    -32928.01647    -23413.14547  21721802.3914                   21721804.9774
        46.7504         46.2504
   -285045.05156   -167897.75453  23720372.8364                   23720376.5394
        40.5004         23.0004
   -341699.18047   -240663.16845  21801566.8834                   21801568.3094
        47.0004         33.7504
    -12546.68448     -8993.27048  20971998.7974                   20972000.6724
        52.0004         50.5004
     47655.78546     29299.10945  23587369.2974                   23587376.6134
        40.2504         35.2504
     69606.60946     46053.83243  24357497.0554                   24357501.6954
        40.5004         19.7504
 25  8  7 20 31  0.0000000  0  9G27G02G31G10G01G28G32G08G23
    149683.43446     98280.09445  24422043.7424                   24422053.2304
        37.7504         31.7504
   -389564.25047   -285224.04345  21945234.1174                   21945231.9614
        45.5004         35.7504
   -473047.34046   -307339.75045  23256497.3594                   23256501.5824
        41.5004         35.2504
    -44382.94547    -32339.11347  21719622.3594                   21719624.9964
        47.0004         46.0004
   -428202.84046   -279449.18743  23693130.7814                   23693134.1524
        41.5004         23.5004
   -456745.09447   -330309.28145  21779674.3914                   21779675.7344
        46.5004         34.0004
    -16919.84848    -12400.96148  20971166.8524                   20971168.4964
        51.5004         50.5004
     67265.90646     44579.54345  23591100.6094                   23591108.7034
        39.0004         34.2504
    100019.85556     69752.05153  24363283.9534                   24363289.8134
        37.2504         19.0004
 25  8  7 20 31 30.0000000  0  9G27G02G31G10G01G28G32G08G23
    195672.30146    134115.32845  24430795.3914                   24430804.6414
        36.2504         31.2504
   -487908.19147   -361855.65646  21926519.9144                   21926518.2114
        46.0004         36.2504
   -628975.84446   -428842.27045  23226825.2114                   23226829.1214
        40.7504         35.7504
    -55882.62547    -41299.95347  21717433.7584                   21717436.7544
        47.5004         46.0004
   -571449.27746   -391069.68744  23665871.9224                   23665875.3754
        41.2504         25.2504
   -571607.36747   -419812.28945  21757816.7194                   21757818.2194
        46.5004         34.2504
    -21243.17248    -15769.81648  20970344.2664                   20970346.2584
        51.5004         50.5004
     86890.35246     59871.18045  23594835.5634                   23594842.9144
        41.0004         34.2504
    130301.85246     93348.25443  24369047.2734                   24369051.9694
        37.0004         20.0004
 25  8  7 20 32  0.0000000  0  9G27G02G31G10G01G28G32G08G23
    241434.44546    169773.85245  24439504.0004                   24439512.7734
        37.5004         31.0004
   -586081.12947   -438354.02346  21907838.0634                   21907836.4104
        45.5004         36.2504
   -784996.33246   -550416.46545  23197134.8594                   23197139.3914
        41.2504         35.2504
    -67401.70748    -50275.91447  21715242.0164                   21715244.9844
        48.0004         45.7504
   -714757.11346   -502738.02043  23638601.1484                   23638604.3984
        40.7504         23.7504
   -686258.63747   -509150.88745  21735999.1094                   21736000.3524
        46.5004         34.5004
    -25493.72348    -19081.97348  20969535.4454                   20969537.0514
        51.5004         50.7504
    106550.84046     75190.89845  23598577.7894                   23598584.4184
        39.5004         34.7504
    160476.48046    116860.79343  24374789.6414                   24374794.1764
        38.2504         20.0004
 25  8  7 20 32 30.0000000  0  9G27G02G31G10G01G28G32G08G23
    286983.28946    205266.22745  24448171.6644                   24448181.0234
        36.7504         31.2504
   -684065.27747   -514705.28545  21889192.2974                   21889190.4734
        46.0004         35.5004
   -941089.07046   -672046.96145  23167431.5394                   23167435.2624
        41.0004         35.2504
    -78923.39147    -59253.89147  21713049.6724                   21713052.4184
        47.5004         46.0004
   -858107.67246   -614439.66444  23611322.3754                   23611325.5984
        41.2504         24.7504
   -800680.14847   -598310.45745  21714225.5314                   21714226.9654
        46.7504         34.5004
    -29656.94148    -22326.07848  20968743.2424                   20968745.0314
        50.7504         50.5004
    126260.78146     90549.15245  23602327.8594                   23602335.0984
        40.7504         35.0004
    190560.05946    140302.35543  24380514.5864                   24380518.7544
        37.7504         20.5004
 25  8  7 20 33  0.0000000  0  9G27G02G31G10G01G28G32G08G23
    332328.94946    240600.21545  24456800.8204                   24456810.1334
        38.5004         33.5004
   -781845.97347   -590898.02345  21870585.3204                   21870583.6414
        46.2504         35.5004
  -1097237.87546   -793721.14546  23137717.1724                   23137721.5514
        41.2504         36.2504
    -90434.20748    -68223.39547  21710859.3284                   21710861.8754
        48.0004         45.7504
  -1001485.65246   -726162.67244  23584038.5234                   23584041.7934
        40.7504         24.5004
   -914856.36347   -687278.88345  21692498.6334                   21692500.1094
        46.2504         34.7504
    -33721.67648    -25493.44148  20967969.6644                   20967971.4774
        51.2504         50.5004
    146030.28146    105953.80545  23606089.8984                   23606097.2774
        40.2504         34.7504
    220565.47346    163683.05543  24386223.8594                   24386229.7774
        37.5004         21.5004
 25  8  7 20 33 30.0000000  0  9G27G02G31G10G01G28G32G08G23
    377477.41446    275780.57445  24465393.0234                   24465402.1484
        38.7504         33.7504
   -879412.20747   -666923.62945  21852018.9064                   21852016.9964
        46.2504         35.0004
  -1253430.99646   -915429.87145  23107994.3674                   23107998.6724
        41.2504         35.5004
   -101924.72348    -77177.08247  21708672.9844                   21708675.1134
        48.7504         45.7504
  -1144879.75846   -837898.24643  23556751.1724                   23556754.7194
        41.5004         23.7504
  -1028775.86747   -776047.27045  21670819.8524                   21670821.9574
        46.5004         34.5004
    -37680.83248    -28578.53548  20967216.4144                   20967218.0084
        51.5004         50.2504
    165865.34046    121409.52745  23609864.7194                   23609872.3914
        39.7504         35.0004
    250501.68046    187009.82443  24391921.2734                   24391926.2274
        38.2504         20.0004
 25  8  7 20 34  0.0000000  0  9G27G02G31G10G01G28G32G08G23
    422429.98046    310808.25045  24473946.0474                   24473956.4774
        37.7504         33.5004
   -976758.08247   -742777.55145  21833494.5634                   21833492.9734
        46.2504         35.7504
  -1409661.27346  -1037167.55546  23078264.7894                   23078268.9184
        41.7504         36.0004
   -113390.16047    -86111.23047  21706491.5394                   21706493.7894
        47.7504         46.0004
  -1288283.29746   -949641.19144  23529462.4924                   23529465.4654
        41.2504         25.5004
  -1142432.05547   -864610.48445  21649192.1094                   21649193.4614
        46.7504         34.2504
    -41531.97348    -31579.46948  20966483.6334                   20966484.9924
        51.0004         50.2504
    185767.18846    136917.28145  23613652.1094                   23613659.2974
        40.5004         35.2504
    280372.80946    210285.82443  24397604.9924                   24397610.8054
        38.2504         20.0004
 25  8  7 20 34 30.0000000  0  9G27G02G31G10G01G28G32G08G23
    467188.51646    345684.74245  24482463.7814                   24482473.7814
        37.7504         32.0004
  -1073876.82447   -818454.48846  21815013.5864                   21815011.5864
        46.2504         36.0004
  -1565920.94947  -1158928.15246  23048529.4774                   23048533.6054
        42.5004         36.5004
   -124825.49648    -95021.92647  21704315.4144                   21704317.3754
        48.7504         46.0004
  -1431689.25846  -1061386.01644  23502173.4224                   23502176.3244
        41.7504         24.5004
  -1255817.75447   -952962.93745  21627615.4844                   21627616.9804
        47.0004         33.7504
    -45272.23048    -34493.99648  20965771.6174                   20965773.5044
        50.2504         50.0004
    205737.63746    152478.50445  23617451.7424                   23617459.5084
        39.2504         34.5004
    310183.44146    233514.71943  24403278.6804                   24403283.4184
        36.5004         19.7504
 25  8  7 20 35  0.0000000  0  9G27G02G31G10G01G28G32G08G23
    511756.46146    380412.71545  24490945.9844                   24490955.3054
        38.5004         31.5004
  -1170760.23447   -893948.03545  21796577.1884                   21796575.6454
        46.2504         35.5004
  -1722200.24247  -1280704.02346  23018790.4064                   23018794.1804
        42.0004         36.5004
   -136223.67648   -103903.65647  21702146.2274                   21702148.4614
        48.7504         46.0004
  -1575088.79746  -1173125.80544  23474885.0704                   23474888.8794
        41.7504         25.2504
  -1368924.11747  -1041097.71145  21606091.9924                   21606093.4964
        47.0004         33.5004
    -48896.97348    -37318.49248  20965081.8524                   20965083.6994
        51.5004         49.7504
    225780.15246    168095.89845  23621266.2974                   23621273.8594
        39.7504         34.5004
    339940.25846    256701.68443  24408940.6484                   24408946.3594
        39.0004         18.5004
 25  8  7 20 35 30.0000000  0  9G27G02G31G10G01G28G32G08G23
    556134.77746    414992.93845  24499391.9304                   24499400.4774
        39.0004         30.7504
  -1267402.73047   -969253.85545  21778186.5554                   21778185.2504
        46.2504         35.7504
  -1878492.31247  -1402489.84446  22989048.6724                   22989052.3404
        42.5004         36.5004
   -147580.57448   -112753.21147  21699985.2194                   21699987.3164
        48.0004         45.5004
  -1718475.80546  -1284855.85244  23447599.2894                   23447602.6484
        41.7504         26.0004
  -1481744.98047  -1129010.02345  21584622.8674                   21584624.2274
        47.0004         34.0004
    -52404.33248    -40051.51648  20964414.6334                   20964416.2894
        50.2504         49.5004
    245895.52746    183770.05145  23625093.8204                   23625102.2074
        39.5004         34.7504
    369646.64146    279849.45643  24414594.0164                   24414598.9454
        38.0004         21.0004
 25  8  7 20 36  0.0000000  0  9G27G02G31G10G01G28G32G08G23
    600322.00446    449424.30145  24507800.1254                   24507809.1954
        37.7504         30.5004
  -1363801.40647  -1044369.68445  21759842.7034                   21759840.9924
        45.7504         35.7504
  -2034792.96146  -1524282.35546  22959305.6024                   22959309.1134
        41.7504         37.0004
   -158894.16048   -121569.02747  21697832.3594                   21697834.9104
        48.7504         45.7504
  -1861846.38346  -1396573.10243  23420316.7344                   23420319.9264
        41.5004         23.7504
  -1594276.45347  -1216696.83245  21563208.7814                   21563209.9104
        45.5004         34.2504
    -55794.65648    -42693.35248  20963769.2584                   20963771.3364
        50.5004         49.7504
    266082.30546    199499.83645  23628935.6884                   23628943.3094
        40.7504         35.0004
    399304.19546    302959.05143  24420237.6884                   24420242.5474
        37.7504         21.7504
 25  8  7 20 36 30.0000000  0  9G27G02G31G10G01G28G32G08G23
    644319.00046    483707.39845  24516172.2504                   24516181.1564
        37.2504         30.7504
  -1459950.31647  -1119290.88745  21741546.3524                   21741544.4654
        46.2504         35.5004
  -2191095.13347  -1646076.04746  22929562.1954                   22929565.5904
        42.5004         37.0004
   -170160.25448   -130347.84047  21695687.9924                   21695690.8134
        48.0004         45.7504
  -2005194.39546  -1508272.75844  23393038.6024                   23393041.2344
        41.0004         25.0004
  -1706512.52047  -1304153.45345  21541850.8594                   21541851.9264
        46.5004         34.5004
    -59066.00448    -45242.46948  20963147.0084                   20963148.5704
        50.0004         49.7504
    286341.14146    215285.75845  23632790.8674                   23632798.2034
        41.0004         34.0004
    428916.55946    326033.47743  24425873.2664                   24425877.1094
        37.0004         18.5004
 25  8  7 20 37  0.0000000  0  9G27G02G31G10G01G28G32G08G23
    688127.51646    517843.64144  24524508.4534                   24524518.0744
        38.2504         29.7504
  -1555843.32847  -1194012.69946  21723298.1954                   21723296.7384
        46.5004         36.2504
  -2347391.19947  -1767864.99246  22899819.6254                   22899823.2304
        42.5004         36.7504
   -181373.67248   -139085.60547  21693553.9924                   21693556.8014
        48.7504         45.5004
  -2148512.84446  -1619949.38744  23365765.7034                   23365768.5824
        41.0004         26.0004
  -1818446.02747  -1391374.31245  21520550.3444                   21520551.8914
        46.0004         34.7504
    -62215.57848    -47696.70748  20962547.3984                   20962549.2194
        50.2504         49.7504
    306673.91846    231129.35945  23636659.9454                   23636667.8594
        39.7504         34.0004
    458488.18846    349076.21143  24431500.4694                   24431504.4574
        37.2504         20.2504
 25  8  7 20 37 30.0000000  0  9G27G02G31G10G01G28G32G08G23
    731743.56646    551829.90645  24532808.7734                   24532818.0044
        37.7504         30.2504
  -1651480.03147  -1268534.79345  21705099.4304                   21705097.2074
        46.5004         35.7504
  -2503679.31647  -1889647.75046  22870078.8674                   22870082.6684
        43.0004         36.7504
   -192535.17648   -147782.91047  21691430.7274                   21691433.5354
        48.5004         45.5004
  -2291800.48046  -1731601.98844  23338499.3914                   23338501.9064
        40.5004         25.0004
  -1930075.91047  -1478358.58245  21499308.2974                   21499309.2544
        46.5004         34.7504
    -65246.37548    -50058.40248  20961970.7504                   20961972.7704
        51.0004         50.0004
    327076.28546    247027.14145  23640542.7274                   23640550.0164
        39.7504         33.5004
    488018.01646    372086.29343  24437118.9694                   24437124.5514
        36.0004         21.5004
 25  8  7 20 38  0.0000000  0  9G27G02G31G10G01G28G32G08G23
    775168.17646    585667.00445  24541072.8444                   24541082.1914
        37.5004         30.0004
  -1746854.93047  -1342852.88345  21686950.0704                   21686948.5234
        46.2504         35.5004
  -2659952.24647  -2011418.67246  22840341.1724                   22840344.3874
        42.7504         37.0004
   -203640.36348   -156436.34047  21689317.1334                   21689320.0164
        48.7504         45.7504
  -2435050.96946  -1843225.65244  23311239.3444                   23311242.4414
        41.0004         24.5004
  -2041395.93447  -1565101.40645  21478124.6414                   21478125.8164
        46.5004         34.0004
    -68156.33648    -52325.92248  20961416.9844                   20961419.2704
        50.5004         49.7504
    347549.18846    262979.87945  23644439.2734                   23644446.6884
        39.5004         33.5004
    517509.66845    395066.54743  24442731.0864                   24442737.9694
        32.5004         20.2504
 25  8  7 20 38 30.0000000  0  9G27G02G31G10G01G28G32G08G23
    818401.44146    619354.98044  24549299.5234                   24549310.2584
        37.0004         29.5004
  -1841962.54747  -1416962.70746  21668851.2664                   21668849.5044
        46.0004         36.0004
  -2816204.12547  -2133173.21146  22810607.0314                   22810610.7584
        42.7504         37.2504
   -214685.77748   -165043.20347  21687215.3594                   21687218.4454
        48.0004         46.0004
  -2578258.94946  -1954816.21544  23283987.8134                   23283990.6174
        40.7504         24.7504
  -2152400.76247  -1651598.63345  21457001.0474                   21457002.2584
        46.5004         34.2504
    -70944.29748    -54498.38748  20960886.6484                   20960888.2934
        50.2504         50.0004
    368092.70746    278987.63345  23648348.0084                   23648355.9384
        39.0004         31.5004
    546966.05945    418019.42243  24448337.1804                   24448342.9884
        35.5004         19.5004
 25  8  7 20 39  0.0000000  0  9G27G02G31G10G01G28G32G08G23
    861442.09046    652892.82445  24557489.7894                   24557500.1604
        37.5004         31.2504
  -1936800.08647  -1490862.07845  21650804.6254                   21650802.6214
        47.0004         35.5004
  -2972430.18447  -2254907.63746  22780878.2974                   22780881.2304
        43.0004         36.5004
   -225669.28148   -173601.81647  21685125.5864                   21685128.2034
        48.5004         45.7504
  -2721420.34046  -2066370.46144  23256745.3134                   23256748.1374
        41.2504         25.5004
  -2263086.50447  -1737847.22345  21435938.1724                   21435939.5664
        45.7504         34.5004
    -73610.46548    -56575.95748  20960379.3284                   20960380.9884
        51.2504         50.0004
    388705.43446    295049.33645  23652270.7814                   23652278.8284
        39.0004         33.0004
    576388.90245    440946.09443  24453936.9614                   24453942.5314
        35.0004         20.7504
 25  8  7 20 39 30.0000000  0  9G27G02G31G10G01G28G32G08G23
    904292.05146    686282.12945  24565644.2424                   24565655.0864
        39.5004         31.7504
  -2031360.89547  -1564545.80945  21632810.0784                   21632808.4654
        46.0004         35.5004
  -3128622.77747  -2376615.98046  22751155.5864                   22751158.7504
        43.5004         36.2504
   -236585.83248   -182108.26247  21683048.1414                   21683050.7774
        48.0004         45.5004
  -2864528.13746  -2177882.92644  23229512.6094                   23229515.1334
        40.7504         25.5004
  -2373446.27047  -1823841.80145  21414937.5944                   21414938.6524
        46.0004         34.5004
    -76152.03948    -58556.41848  20959895.9534                   20959897.3874
        50.7504         50.0004
    409389.04746    311166.27345  23656206.6724                   23656214.5944
        38.5004         32.2504
    605782.60246    463850.16043  24459529.8834                   24459535.8674
        36.5004         20.0004
 25  8  7 20 40  0.0000000  0  9G27G02G31G10G01G28G32G08G23
    946948.76246    719520.81345  24573762.4774                   24573771.8874
        37.7504         31.5004
  -2125643.33247  -1638012.62545  21614868.9064                   21614866.9224
        45.7504         35.5004
  -3284778.47347  -2498295.56246  22721439.6644                   22721442.9024
        43.2504         36.5004
   -247434.58648   -190561.87147  21680983.7034                   21680986.4384
        49.5004         45.7504
  -3007579.62946  -2289351.52344  23202290.0784                   23202293.0554
        40.7504         24.2504
  -2483477.44547  -1909580.32845  21393998.7584                   21394000.1764
        46.0004         34.2504
    -78570.52748    -60440.96548  20959435.5784                   20959437.3484
        50.7504         50.0004
    430140.80946    327336.30945  23660156.4304                   23660163.9924
        39.5004         32.7504
    635147.52045    486731.73843  24465117.6024                   24465124.2464
        34.7504         19.0004
 25  8  7 20 40 30.0000000  0  9G27G02G31G10G01G28G32G08G23
   2564830.40646   1980207.53545  24881635.1254                   24881645.5744
        38.5004         32.0004
   -644219.87147   -483656.66845  21896774.2274                   21896772.3284
        46.0004         35.5004
  -1865466.48847  -1392338.00046  22991525.7344                   22991528.6844
        43.0004         36.7504
   1317207.73048   1028639.89547  21978725.0784                   21978727.6994
        48.0004         45.5004
  -1575145.03146  -1173168.60944  23474873.5394                   23474876.3594
        41.2504         26.2504
  -1017751.65647   -767456.29745  21672917.0234                   21672918.4264
        45.7504         34.0004
   1494554.80148   1165370.96548  21258791.0944                   21258793.1174
        51.0004         50.0004
   2026379.60946   1571158.60245  23963911.0164                   23963918.2194
        40.0004         32.2504
   2239904.92246   1737191.91043  24770492.7584                   24770499.2114
        37.0004         19.5004
 25  8  7 20 41  0.0000000  0  9G27G02G31G10G01G28G32G08G23
   2607103.41446   2013147.27045  24889679.8054                   24889689.7734
        39.0004         30.5004
   -737929.05547   -556676.78545  21878942.1954                   21878940.1454
        46.5004         35.5004
  -2021527.74247  -1513944.00046  22961828.5234                   22961831.3204
        43.5004         36.5004
   1306507.25447   1020301.79747  21976688.9144                   21976691.7704
        47.5004         45.2504
  -1718065.16446  -1284534.83244  23447676.6174                   23447679.2194
        41.0004         26.0004
  -1127107.62547   -852668.69145  21652107.7194                   21652108.5744
        46.2504         34.7504
   1492388.35548   1163682.81348  21258378.9304                   21258381.4144
        50.5004         50.0004
   2047270.11346   1587436.77745  23967886.3054                   23967893.3014
        39.2504         33.0004
   2269223.06646   1760037.09043  24776073.1884                   24776077.8674
        38.5004         22.0004
 25  8  7 20 41 30.0000000  0  9G27G02G31G10G01G28G32G08G23
   2649187.57446   2045939.89545  24897687.1804                   24897698.2974
        37.5004         30.5004
   -831341.79347   -629465.91046  21861166.2194                   21861164.1954
        46.5004         36.2504
  -2177529.69547  -1635503.79346  22932141.8204                   22932144.6054
        43.0004         37.0004
   1295888.94947   1012027.78547  21974668.8134                   21974670.7704
        47.5004         45.5004
  -1860908.71146  -1395841.37944  23420494.2814                   23420497.0664
        41.7504         25.5004
  -1236115.46547   -937609.82445  21631364.2114                   21631365.3014
        46.5004         35.7504
   1490352.39548   1162096.33248  21257991.5164                   21257993.1294
        50.7504         49.7504
   2068232.68846   1603771.09045  23971874.8204                   23971882.8754
        39.2504         32.0004
   2298524.95746   1782869.57043  24781649.1644                   24781654.6684
        36.7504         22.2504
 25  8  7 20 42  0.0000000  0  9G27G02G31G10G01G28G32G08G23
   2691082.32046   2078584.88344  24905660.4384                   24905670.4184
        38.2504         29.0004
   -924454.11347   -702020.95346  21843447.2274                   21843445.4774
        46.5004         36.2504
  -2333467.11747  -1757013.30546  22902467.4694                   22902470.6174
        43.5004         36.5004
   1285355.43047   1003819.81347  21972663.9384                   21972666.3554
        47.7504         45.2504
  -2003671.05147  -1507084.66444  23393327.3914                   23393330.3244
        42.5004         26.7504
  -1344770.66847  -1022276.16445  21610688.1094                   21610688.8834
        47.0004         35.0004
   1488447.35948   1160611.87948  21257629.1414                   21257630.8794
        50.2504         49.7504
   2089266.57446   1620160.97345  23975878.5554                   23975885.5314
        39.7504         32.0004
   2327812.68046   1805691.05543  24787222.1724                   24787227.6884
        36.5004         19.2504
 25  8  7 20 42 30.0000000  0  9G27G02G31G10G01G28G32G08G23
   2732784.40646   2111079.73045  24913596.4224                   24913606.8444
        38.0004         30.0004
  -1017264.97347   -774341.09046  21825785.9384                   21825784.1054
        46.7504         36.0004
  -2489337.64147  -1878470.69146  22872806.6254                   22872809.1414
        43.5004         36.0004
   1274906.57848    995677.80947  21970675.9534                   21970678.1644
        48.5004         45.2504
  -2146350.28946  -1618263.18044  23366176.4694                   23366179.0354
        41.7504         26.0004
  -1453071.65247  -1106666.49245  21590078.8134                   21590079.7704
        47.0004         35.0004
   1486670.89548   1159227.60248  21257291.2034                   21257292.6174
        51.5004         49.7504
   2110368.28946   1636603.71145  23979893.2424                   23979901.2624
        38.5004         33.0004
   2357085.59046   1828500.98843  24792792.2664                   24792797.7974
        37.2504         18.2504
 25  8  7 20 43  0.0000000  0  9G27G02G31G10G01G28G32G08G23
   2774290.79346   2143422.08644  24921495.1644                   24921505.6764
        37.5004         29.7504
  -1109773.07047   -846425.30946  21808182.3054                   21808180.7274
        47.2504         36.5004
  -2645138.35547  -1999873.67645  22843158.3754                   22843161.0394
        43.5004         35.5004
   1264542.89848    987602.17647  21968703.9454                   21968706.3444
        49.0004         45.7504
  -2288944.00847  -1729375.07044  23339041.6414                   23339044.2384
        42.0004         26.7504
  -1561016.32047  -1190779.16845  21569537.2344                   21569538.0664
        46.7504         34.5004
   1485021.11748   1157942.04348  21256977.1954                   21256979.0864
        51.2504         49.5004
   2131534.73046   1653096.89045  23983921.2344                   23983929.3244
        38.0004         32.5004
   2386343.32746   1851299.03543  24798360.3834                   24798365.5944
        38.2504         19.2504
 25  8  7 20 43 30.0000000  0  9G27G02G31G10G01G28G32G08G23
   2815601.37546   2175611.83644  24929356.1024                   24929366.2274
        37.0004         29.5004
  -1201973.96148   -918270.15245  21790636.9774                   21790635.4104
        48.0004         35.2504
  -2800863.37947  -2121217.68046  22813525.3284                   22813528.0554
        43.7504         36.7504
   1254267.34448    979595.20347  21966748.5084                   21966750.7774
        48.5004         45.7504
  -2431447.08647  -1840416.32844  23311924.7974                   23311927.3054
        42.5004         27.5004
  -1668599.95347  -1274610.52345  21549064.8754                   21549065.9024
        47.5004         34.7504
   1483498.78148   1156755.80148  21256687.5864                   21256689.0594
        51.5004         49.5004
   2152765.36746   1669640.06645  23987960.8444                   23987969.6804
        37.5004         31.7504
   2415588.64145   1874087.39543  24803925.5554                   24803931.0514
        35.0004         18.2504
 25  8  7 20 44  0.0000000  0  9G27G02G31G10G01G28G32G08G23
   2856710.32046   2207644.48045  24937178.7664                   24937189.9414
        37.0004         30.0004
  -1293869.07847   -989876.71946  21773150.2034                   21773147.9844
        47.5004         36.2504
  -2956512.77347  -2242502.75446  22783905.7274                   22783908.4574
        43.7504         37.2504
   1244077.37548    971654.93047  21964809.2664                   21964811.7424
        48.0004         45.5004
  -2573860.34047  -1951387.59444  23284824.3364                   23284826.0234
        43.0004         28.0004
  -1775823.50047  -1358161.27745  21528660.9774                   21528661.8484
        46.5004         35.2504
   1482099.01248   1155665.05148  21256421.0314                   21256422.7464
        51.2504         49.2504
   2174054.19946   1686228.61745  23992011.7194                   23992020.3324
        37.7504         32.0004
   2444818.15646   1896863.47743  24809488.0394                   24809493.0124
        36.5004         19.2504
 25  8  7 20 44 30.0000000  0  9G27G02G31G10G01G28G32G08G23
   2897616.80946   2239519.33644  24944963.4774                   24944974.4304
        36.7504         27.7504
  -1385455.02348  -1061242.37545  21755722.0784                   21755719.7544
        48.0004         35.7504
  -3112081.44147  -2363724.93046  22754301.6804                   22754304.7154
        44.0004         37.5004
   1233975.52348    963783.32447  21962886.8364                   21962889.2034
        48.2504         45.2504
  -2716179.14147  -2062285.28544  23257741.9614                   23257743.9454
        42.5004         25.7504
  -1882682.78947  -1441428.20346  21508326.3444                   21508327.3014
        46.7504         36.0004
   1480821.99248   1154669.95348  21256178.2664                   21256179.6214
        51.5004         49.2504
   2195400.35946   1702861.80545  23996074.8914                   23996083.1174
        38.0004         32.0004
   2474033.84046   1919628.79743  24815047.2274                   24815053.0904
        37.2504         18.5004
 25  8  7 20 45  0.0000000  0  9G27G02G31G10G01G28G32G08G23
   2938321.50445   2271236.98844  24952709.6334                   24952720.4184
        35.5004         28.0004
  -1476726.59047  -1132363.06246  21738353.3444                   21738351.3794
        47.2504         36.0004
  -3267562.87547  -2484879.13346  22724714.7344                   22724717.3914
        44.0004         38.0004
   1223965.46948    955983.23447  21960981.8914                   21960985.0084
        48.0004         45.0004
  -2858397.80547  -2173104.93444  23230678.0944                   23230680.4144
        42.5004         25.5004
  -1989172.46547  -1524407.10945  21488061.5004                   21488063.1214
        46.2504         35.0004
   1479669.26648   1153771.71148  21255958.6094                   21255960.1294
        51.0004         49.2504
   2216804.02046   1719539.80945  24000148.5004                   24000156.0314
        38.7504         32.0004
   2503238.84045   1942385.75043  24820604.6174                   24820611.4614
        35.7504         19.2504
 25  8  7 20 45 30.0000000  0  9G27G02G31G10G01G28G32G08G23
   2978821.04745   2302794.76644  24960416.8134                   24960427.7664
        34.7504         25.7504
  -1567683.01247  -1203238.17646  21721045.0474                   21721042.9774
        47.7504         36.2504
  -3422954.57047  -2605963.41446  22695144.6724                   22695147.1484
        44.2504         37.7504
   1214047.16848    948254.64147  21959094.6724                   21959097.0784
        48.5004         44.7504
  -3000514.38747  -2283845.03144  23203634.5004                   23203636.5664
        42.0004         27.5004
  -2095290.99247  -1607096.81645  21467868.0084                   21467869.5164
        46.2504         35.0004
   1478638.41848   1152968.44148  21255762.2814                   21255764.5084
        51.2504         49.2504
   2238261.58246   1736259.81645  24004231.5554                   24004239.4924
        39.2504         31.5004
   2532432.39146   1965133.73043  24826161.5944                   24826166.9774
        36.2504         19.7504
 25  8  7 20 46  0.0000000  0  9G27G02G31G10G01G28G32G08G23
   3019113.92645   2334191.52744  24968085.0554                   24968094.8324
        35.5004         26.5004
  -1658321.51248  -1273865.55546  21703797.0634                   21703794.7584
        48.0004         36.0004
  -3578252.08247  -2726974.30546  22665592.0394                   22665595.1644
        44.2504         37.2504
   1204222.26648    940598.84047  21957225.0394                   21957227.9414
        48.2504         44.5004
  -3142525.22747  -2394502.73444  23176610.4924                   23176613.0824
        42.5004         26.2504
  -2201035.08247  -1689494.75045  21447745.8054                   21447746.3674
        47.0004         35.2504
   1477728.91048   1152259.71548  21255589.5164                   21255590.9344
        50.7504         49.5004
   2259771.27346   1753020.46145  24008325.7034                   24008332.7304
        39.0004         31.0004
   2561615.59046   1987873.66843  24831714.1644                   24831720.3404
        38.2504         19.7504
 25  8  7 20 46 30.0000000  0  9G27G02G31G10G01G28G32G08G23
   3059199.49245   2365426.74244  24975713.3834                   24975722.8914
        35.7504         28.0004
  -1748638.33247  -1344242.27346  21686610.4384                   21686608.2544
        47.7504         37.0004
  -3733450.35947  -2847907.86746  22636058.7814                   22636061.4384
        44.2504         37.7504
   1194493.39147    933017.85247  21955373.5164                   21955376.5554
        47.7504         44.5004
  -3284425.65647  -2505074.43444  23149607.4384                   23149609.7234
        42.2504         25.2504
  -2306400.60947  -1771597.69945  21427695.0474                   21427695.8874
        46.0004         35.2504
   1476941.00048   1151645.74648  21255439.4224                   21255441.4224
        51.0004         49.5004
   2281332.25846   1769821.09045  24012426.9454                   24012435.4844
        38.2504         30.5004
   2590790.55146   2010607.21543  24837267.2664                   24837272.3244
        38.5004         19.5004
 25  8  7 20 47  0.0000000  0  9G27G02G31G10G01G28G32G08G23
   3099074.56346   2396497.91844  24983300.5554                   24983311.1564
        36.0004         27.7504
  -1838632.48047  -1414367.55146  21669485.1564                   21669482.7774
        47.5004         36.5004
  -3888546.62147  -2968761.94146  22606544.9694                   22606547.2234
        44.5004         37.5004
   1184860.57447    925511.71947  21953540.5394                   21953543.5044
        47.5004         44.5004
  -3426213.65246  -2615558.51644  23122625.4304                   23122628.2384
        41.5004         25.2504
  -2411385.91047  -1853404.35945  21407717.1174                   21407717.9734
        47.5004         34.7504
   1476272.58648   1151124.88348  21255312.5704                   21255313.9104
        50.5004         49.5004
   2302941.04346   1786658.94545  24016539.5634                   24016548.1214
        37.0004         30.2504
   2619956.61746   2033333.87543  24842816.9774                   24842822.8524
        37.0004         18.5004
 25  8  7 20 47 30.0000000  0 10G27G02G31G10G01G03G28G32G08G23
   3138736.35246   2427402.87144  24990849.2504                   24990859.1844
        36.0004         28.2504
  -1928302.50447  -1484240.27746  21652421.2344                   21652418.9924
        47.0004         36.7504
  -4043538.19547  -3089534.44546  22577051.0314                   22577053.2304
        44.2504         37.2504
   1175324.16847    918080.71547  21951726.1954                   21951728.7274
        47.7504         44.2504
  -3567886.91047  -2725953.16444  23095666.1254                   23095668.4574
        42.2504         26.5004
   1357275.92256   1090446.34455  24879679.4304                   24879687.1684
        38.7504         30.5004
  -2515989.19947  -1934913.35545  21387811.8444                   21387812.1134
        46.5004         35.5004
   1475721.64548   1150695.56648  21255207.4694                   21255209.5824
        50.5004         49.2504
   2324594.52746   1803531.60244  24020660.3834                   24020668.4964
        38.7504         29.2504
   2649113.45346   2056053.28142  24848365.0704                   24848371.6024
        37.2504         16.7504
 25  8  7 20 48  0.0000000  0 10G27G02G31G10G01G03G28G32G08G23
   3178179.51646   2458137.48044  24998355.4534                   24998365.7504
        36.7504         28.5004
  -2017649.60247  -1553861.37146  21635419.1564                   21635416.6644
        46.7504         36.7504
  -4198424.41447  -3210224.85546  22547576.8134                   22547579.2624
        44.7504         38.0004
   1165881.87147    910723.03547  21949929.3674                   21949931.9574
        47.5004         44.2504
  -3709445.51647  -2836258.48044  23068728.7424                   23068730.7464
        43.0004         27.5004
   1222379.53545    985332.39144  24854009.0864                   24854018.4144
        35.0004         29.5004
  -2620211.14847  -2016125.20745  21367978.7734                   21367979.5514
        46.0004         35.5004
   1475283.72748   1150354.32448  21255124.2974                   21255126.1764
        50.7504         49.2504
   2346286.95746   1820434.62545  24024789.6724                   24024796.3404
        39.5004         30.5004
   2678258.23446   2078763.30943  24853911.5084                   24853917.4454
        36.7504         19.2504
 25  8  7 20 48 30.0000000  0 10G27G02G31G10G01G03G28G32G08G23
   3217401.09446   2488699.44544  25005818.4384                   25005830.0704
        37.0004         27.5004
  -2106672.38747  -1623229.75846  21618478.5634                   21618476.2894
        46.5004         36.2504
  -4353202.00047  -3330830.61746  22518123.3364                   22518125.9344
        45.0004         38.0004
   1156534.08647    903439.00847  21948150.6884                   21948153.0124
        47.5004         44.5004
  -3850887.19547  -2946472.69544  23041813.2664                   23041815.5474
        42.5004         27.0004
   1087317.26645    880089.19944  24828307.9774                   24828316.6724
        35.5004         28.0004
  -2724049.89847  -2097038.45346  21348218.9534                   21348219.6134
        46.7504         36.2504
   1474956.93848   1150099.67248  21255061.9614                   21255063.7854
        50.0004         49.0004
   2368015.27346   1837365.62144  24028923.9614                   24028931.6174
        39.5004         29.2504
   2707390.88345   2101463.88742  24859454.2344                   24859461.2114
        34.7504         17.7504
 25  8  7 20 49  0.0000000  0 10G27G02G31G10G01G03G28G32G08G23
   3256397.79746   2519086.23044  25013239.8754                   25013250.5944
        37.5004         28.5004
  -2195370.36347  -1692345.03546  21601600.2664                   21601598.0864
        46.7504         36.5004
  -4507868.89147  -3451350.13746  22488690.9844                   22488693.8444
        44.2504         37.5004
   1147280.47347    896228.36347  21946389.2734                   21946392.3204
        47.5004         44.5004
  -3992210.22347  -3056594.46544  23014920.3754                   23014922.6094
        42.0004         27.5004
    952088.53546    774716.28945  24802573.7344                   24802582.7664
        37.0004         31.5004
  -2827504.28547  -2177652.19145  21328532.3524                   21328532.8164
        46.5004         35.2504
   1474738.69148   1149929.60248  21255020.4844                   21255022.0274
        50.7504         49.0004
   2389775.62146   1854321.57444  24033065.0474                   24033072.6134
        39.5004         28.7504
   2736510.19955   2124153.99252  24864996.4694                   24865002.9734
        33.7504         15.5004
 25  8  7 20 49 30.0000000  0 10G27G02G31G10G01G03G28G32G08G23
   3295167.49246   2549296.10544  25020617.0944                   25020628.2974
        37.2504         28.7504
  -2283741.01247  -1761205.25845  21584783.6094                   21584781.3984
        46.5004         35.5004
  -4662421.52347  -3571780.62546  22459280.6724                   22459283.0744
        44.2504         38.0004
   1138122.16847    889091.98447  21944646.6884                   21944649.5984
        47.2504         44.2504
  -4133411.35247  -3166621.23444  22988050.4924                   22988052.5554
        43.0004         28.7504
    816694.40245    669214.51644  24776809.9144                   24776818.7074
        35.0004         29.2504
  -2930571.65247  -2257964.36745  21308919.0944                   21308919.5904
        46.2504         35.5004
   1474627.97748   1149843.31348  21254999.4384                   21255001.3954
        50.7504         49.0004
   2411565.73046   1871300.73445  24037210.7504                   24037219.4654
        38.5004         30.0004
   2765616.87945   2146834.29742  24870535.4224                   24870542.0554
        35.2504         16.2504
 25  8  7 20 50  0.0000000  0 10G27G02G31G10G01G03G28G32G08G23
   3333709.28946   2579328.39544  25027952.0474                   25027962.6024
        37.5004         29.5004
  -2371781.30147  -1829808.06246  21568029.9384                   21568027.5164
        47.0004         36.7504
  -4816854.89147  -3692118.17646  22429893.2584                   22429895.4454
        44.0004         37.2504
   1129061.38747    882031.60247  21942922.2584                   21942925.2974
        47.2504         44.7504
  -4274486.42647  -3276549.80144  22961205.0784                   22961206.9184
        43.0004         28.5004
    681136.73045    563585.32844  24751013.2504                   24751021.8524
        33.0004         28.0004
  -3033248.41847  -2337972.17245  21289380.1804                   21289380.8714
        46.0004         35.5004
   1474624.70348   1149840.74248  21254998.8914                   21255000.8874
        50.5004         49.0004
   2433384.29346   1888302.04344  24041362.4454                   24041371.0394
        37.7504         29.0004
   2794712.30145   2162855.90653  24876071.8594                   24876078.0824
        34.5004         18.5004
 25  8  7 20 50 30.0000000  0 10G27G02G31G10G01G03G28G32G08G23
   3372022.03546   2609182.15644  25035242.1804                   25035253.8834
        38.5004         29.7504
  -2459488.18447  -1898151.07046  21551339.8674                   21551337.6454
        47.0004         36.5004
  -4971164.44547  -3812359.25046  22400528.3594                   22400530.8834
        44.0004         38.0004
   1120100.17247    875048.81347  21941217.0554                   21941220.0664
        47.0004         44.5004
  -4415431.27047  -3386376.87544  22934383.7034                   22934385.7704
        43.2504         27.7504
    545417.41445    457830.20344  24725186.8594                   24725195.5864
        35.7504         29.2504
  -3135531.02047  -2417672.84445  21269916.5004                   21269917.3014
        46.0004         35.0004
   1474728.66048   1149921.72748  21255018.7814                   21255020.3634
        50.0004         49.2504
   2455229.84046   1905324.36344  24045520.0944                   24045528.7424
        37.7504         28.5004
   2823797.91846   2185519.80942  24881607.5164                   24881613.2624
        36.2504         17.7504
 25  8  7 20 51  0.0000000  0 10G27G02G31G10G01G03G28G32G08G23
   3410104.49646   2638856.53544  25042489.6094                   25042500.7384
        37.5004         29.5004
  -2546858.88747  -1966232.11746  21534713.9454                   21534711.6644
        46.2504         36.7504
  -5125345.67247  -3932500.33646  22371188.7114                   22371191.2774
        44.5004         39.0004
   1111240.23847    868144.93447  21939531.1724                   21939534.2114
        47.7504         44.2504
  -4556242.13747  -3496099.54344  22907587.9694                   22907590.3484
        43.5004         28.5004
    409537.80145    351950.15244  24699329.3594                   24699338.2934
        35.0004         27.7504
  -3237416.37547  -2497063.96145  21250528.2504                   21250529.0474
        46.5004         35.5004
   1474939.43048   1150085.94548  21255058.7664                   21255060.8094
        50.2504         49.0004
   2477100.85546   1922366.52044  24049682.7974                   24049691.1134
        37.5004         29.0004
   2852874.99646   2208177.06642  24887141.1804                   24887146.9384
        36.0004         17.7504
 25  8  7 20 51 30.0000000  0  9G27G02G31G10G01G03G28G32G08
   3447954.60946   2668349.69144  25049692.4844                   25049704.6334
        37.5004         29.5004
  -2633891.14847  -2034049.44946  21518152.3834                   21518150.0354
        46.5004         36.2504
  -5279394.50847  -4052538.25046  22341874.1564                   22341876.2734
        45.0004         39.2504
   1102482.89547    861320.99647  21937864.8834                   21937867.7894
        47.0004         44.5004
  -4696915.68747  -3605715.21944  22880818.9144                   22880821.1644
        43.0004         27.7504
    273499.00846    245946.04344  24673442.3444                   24673451.1524
        36.2504         27.5004
  -3338901.75847  -2576143.41446  21231216.0864                   21231217.0864
        46.2504         36.0004
   1475256.02748   1150332.62148  21255118.9064                   21255120.8984
        49.2504         49.0004
   2498994.89846   1939426.60244  24053848.5234                   24053857.1094
        37.5004         28.2504
 25  8  7 20 52  0.0000000  0  9G27G02G31G10G01G03G28G32G08
   3485570.23446   2697660.33645  25056850.6644                   25056862.3484
        38.5004         30.0004
  -2720583.69547  -2101602.07046  21501655.1024                   21501653.5434
        47.0004         36.5004
  -5433307.75447  -4172470.52046  22312585.2114                   22312587.3444
        45.2504         39.0004
   1093828.62547    854577.39147  21936217.8524                   21936220.9804
        47.0004         44.2504
  -4837449.35247  -3715221.88344  22854076.5784                   22854078.2584
        43.7504         28.2504
    137301.39146    139818.18844  24647525.9304                   24647532.8164
        36.2504         26.7504
  -3439985.25447  -2654909.71945  21211980.8444                   21211981.1954
        47.0004         35.7504
   1475676.82848   1150660.49648  21255199.2114                   21255201.0704
        49.5004         48.7504
   2520909.26646   1956502.57845  24058019.3364                   24058027.2734
        38.5004         30.2504
 25  8  7 20 52 30.0000000  0  9G27G02G31G10G01G03G28G32G08
   3522953.87546   2726790.16044  25063965.3444                   25063976.2194
        36.5004         28.0004
  -2806929.78947  -2168884.72746  21485223.8674                   21485221.8524
        46.2504         36.5004
  -5587077.25447  -4292290.77046  22283324.1254                   22283326.4184
        45.7504         39.0004
   1085283.30547    847918.66847  21934591.6094                   21934594.8324
        46.5004         44.2504
  -4977835.21947  -3824613.39144  22827362.0314                   22827363.4734
        44.2504         28.0004
       950.60946     33570.95344  24621578.0164                   24621586.5314
        36.0004         27.2504
  -3540659.73047  -2733357.31245  21192822.7194                   21192823.5514
        45.7504         35.2504
   1476205.40248   1151072.35248  21255299.6724                   21255301.4804
        50.0004         49.0004
   2542846.22746   1973596.13744  24062193.5784                   24062201.7274
        38.2504         29.5004
 25  8  7 20 53  0.0000000  0  9G27G02G31G10G01G03G28G32G08
   3560106.35545   2755739.62143  25071035.8524                   25071047.3094
        31.7504         22.7504
  -2892923.95347  -2235893.15646  21468859.5864                   21468857.6484
        47.0004         36.7504
  -5740695.72347  -4411993.33246  22254091.1884                   22254093.5044
        46.0004         38.7504
   1076851.17647    841348.15247  21932987.5474                   21932990.3444
        47.0004         44.2504
  -5118066.96547  -3933884.79344  22800676.3364                   22800678.3594
        43.0004         28.5004
   -135549.32045    -72792.48844  24595603.1414                   24595611.2304
        35.0004         27.5004
  -3640919.48447  -2811481.74245  21173743.9694                   21173744.6884
        46.5004         35.0004
   1476843.83248   1151569.82048  21255421.3054                   21255423.1454
        50.0004         49.0004
   2564806.50046   1990707.85944  24066373.1724                   24066381.2304
        37.5004         29.2504
 25  8  7 20 53 30.0000000  0  9G27G02G31G10G01G03G28G32G08
   3597024.50045   2784506.95344  25078060.7974                   25078072.5514
        34.7504         27.2504
  -2978566.47347  -2302627.57446  21452562.4774                   21452560.3324
        47.5004         36.5004
  -5894161.96147  -4531577.27346  22224887.9614                   22224889.4454
        46.0004         39.0004
   1068531.04347    834864.90647  21931404.1884                   21931406.5984
        47.0004         44.2504
  -5258143.67247  -4043035.38744  22774020.9454                   22774022.7464
        43.5004         28.5004
   -272199.61745   -179273.07844  24569598.9384                   24569607.7424
        35.5004         26.5004
  -3740764.42647  -2889282.94145  21154744.1334                   21154744.5944
        47.0004         35.7504
   1477588.75848   1152150.24648  21255562.8914                   21255565.3874
        50.2504         48.7504
   2586785.61346   2007834.23045  24070555.5784                   24070563.7624
        38.5004         30.0004
 25  8  7 20 54  0.0000000  0  9G27G02G31G10G01G03G28G32G08
   3633705.67645   2813089.37944  25085041.0944                   25085052.6764
        35.0004         25.7504
  -3063855.00447  -2369086.16446  21436332.7584                   21436330.6604
        47.5004         37.2504
  -6047471.66047  -4651039.24646  22195713.7504                   22195715.6294
        45.2504         39.2504
   1060324.33247    828470.03947  21929842.5634                   21929845.3874
        47.7504         43.5004
  -5398061.85947  -4152062.47744  22747394.9844                   22747397.3484
        43.2504         28.5004
   -408999.01245   -285869.85544  24543567.6644                   24543575.0004
        35.5004         27.0004
  -3840191.77747  -2966758.75046  21135823.6804                   21135824.1644
        47.2504         36.0004
   1478439.48448   1152813.14148  21255724.7194                   21255726.9184
        50.2504         48.7504
   2608781.43846   2024973.62144  24074742.1804                   24074749.8594
        38.7504         29.5004
 25  8  7 20 54 30.0000000  0  9G27G02G31G10G01G03G28G32G08
   3670147.78546   2841485.61744  25091975.8594                   25091987.1334
        36.2504         25.7504
  -3148788.48847  -2435268.09846  21420169.9534                   21420168.4104
        47.5004         37.0004
  -6200621.89147  -4770376.95346  22166569.9844                   22166571.9694
        45.5004         39.7504
   1052231.49247    822163.90647  21928302.6174                   21928305.2894
        47.5004         43.5004
  -5537818.98447  -4260964.05944  22720799.7664                   22720802.4494
        43.2504         28.5004
   -545947.32445   -392582.70744  24517506.2504                   24517514.7774
        34.7504         26.2504
  -3939199.82047  -3043907.82846  21116982.7664                   21116983.4024
        46.5004         36.0004
   1479394.20348   1153557.05948  21255906.4064                   21255908.3674
        50.5004         48.7504
   2630791.06346   2042123.81644  24078929.4924                   24078938.1724
        39.7504         29.7504
 25  8  7 20 55  0.0000000  0  9G27G02G31G10G01G03G28G32G08
   3706346.56645   2869692.16044  25098864.5314                   25098876.1174
        35.0004         26.5004
  -3233366.89147  -2501173.34446  21404075.6024                   21404073.6954
        46.5004         36.5004
  -6353611.15647  -4889589.23446  22137456.8524                   22137459.1414
        45.5004         40.0004
   1044251.54747    815945.73047  21926783.7034                   21926786.8754
        47.2504         43.5004
  -5677413.99247  -4369739.31644  22694235.9384                   22694237.4454
        43.5004         28.0004
   -683045.66445   -499412.45344  24491417.7274                   24491425.3484
        35.0004         26.5004
  -4037788.27048  -3120729.95345  21098222.1254                   21098222.8794
        48.0004         35.7504
   1480449.74648   1154379.54748  21256107.5164                   21256109.2114
        50.0004         48.5004
   2652810.03946   2059281.25045  24083119.6954                   24083128.2664
        40.0004         30.7504
 25  8  7 20 55 30.0000000  0  9G27G02G31G10G01G03G28G32G08
   3742298.04746   2897705.99644  25105705.6954                   25105717.4144
        36.2504         25.0004
  -3317590.12947  -2566801.82846  21388048.4144                   21388046.2464
        46.7504         36.2504
  -6506437.57047  -5008674.60546  22108375.1254                   22108376.8634
        46.0004         39.7504
   1036383.48448    809814.75447  21925286.5634                   21925289.6024
        48.0004         43.5004
  -5816845.77747  -4478387.37944  22667702.7034                   22667704.5234
        42.7504         28.2504
   -820294.98045   -606359.85944  24465299.6174                   24465307.4064
        34.5004         24.5004
  -4135956.92647  -3197224.96146  21079541.5004                   21079542.2114
        47.5004         36.0004
   1481603.03948   1155278.20748  21256326.8674                   21256328.7584
        50.2504         48.5004
   2674833.96146   2076442.54745  24087312.0004                   24087319.6914
        40.7504         30.2504
 25  8  7 20 56  0.0000000  0  9G27G02G31G10G01G03G28G32G08
   3778000.15246   2925525.52344  25112500.3984                   25112512.6134
        36.7504         25.0004
  -3401456.77047  -2632152.44546  21372089.2034                   21372086.7774
        47.7504         36.2504
  -6659097.61347  -5127630.34446  22079324.7894                   22079326.6374
        46.5004         40.5004
   1028628.27748    803771.70347  21923811.2974                   21923813.5984
        48.0004         43.0004
  -5956111.25847  -4586905.84844  22641201.5394                   22641203.4064
        43.0004         28.7504
   -957694.69946   -713424.45344  24439154.5474                   24439161.5514
        36.2504         26.5004
  -4233703.51247  -3273391.08245  21060940.5784                   21060940.9144
        46.7504         35.5004
   1482852.77048   1156252.00448  21256564.8914                   21256566.4804
        50.0004         48.5004
   2696860.25846   2093605.70345  24091502.1094                   24091511.1604
        40.5004         30.5004
 25  8  7 20 56 30.0000000  0  9G27G02G31G10G01G03G28G32G08
   5388870.51245   4180748.94944  25419039.0084                   25419050.5474
        35.5004         25.2504
  -1909541.17247  -1469620.80146  21655991.2814                   21655989.1564
        47.5004         37.0004
  -5236161.98047  -4018849.19546  22350100.0944                   22350101.8484
        45.7504         40.7504
   2596407.78547   2025418.04747  22222149.5314                   22222152.2154
        47.0004         43.0004
  -4519782.10247  -3467688.25044  22914525.7504                   22914527.6174
        43.5004         29.2504
    480181.50846    406998.70344  24712772.5944                   24712779.6374
        36.7504         28.0004
  -2755601.91847  -2121623.55945  21342213.9224                   21342214.5434
        47.2504         35.7504
   3059618.49648   2384900.60948  21556613.2664                   21556615.1844
        50.0004         48.2504
   4294306.43446   3338368.77045  24395486.3984                   24395495.5514
        39.5004         30.0004
 25  8  7 20 57  0.0000000  0  9G27G02G31G10G01G03G28G32G08
   5424066.97345   4208174.50844  25425737.1024                   25425748.4694
        34.7504         24.5004
  -1992689.79348  -1534411.93046  21640168.2974                   21640166.8914
        48.0004         37.0004
  -5388479.44947  -4137537.99246  22321114.8754                   22321116.8554
        45.5004         40.7504
   2588880.08647   2019552.27347  22220717.1174                   22220719.7074
        47.2504         43.0004
  -4658706.91047  -3575941.27345  22888089.5784                   22888091.1764
        43.0004         30.0004
    342482.82846    299701.19544  24686568.7344                   24686576.0984
        36.0004         26.0004
  -2852498.93747  -2197127.68045  21323775.3204                   21323775.7234
        47.2504         35.5004
   3061056.65248   2386021.23448  21556887.0164                   21556888.8164
        49.5004         48.2504
   4316329.19546   3355529.16045  24399677.5864                   24399686.6174
        38.2504         30.5004
 25  8  7 20 57 30.0000000  0  9G27G02G31G10G01G03G28G32G08
   5459007.26646   4235400.44144  25432385.3834                   25432398.2034
        36.5004         26.5004
  -2075477.16448  -1598921.55946  21624414.5394                   21624412.8014
        48.0004         36.7504
  -5540620.57047  -4256089.39146  22292163.5944                   22292165.0864
        45.7504         40.5004
   2581467.21547   2013775.96947  22219306.4144                   22219308.8834
        47.0004         43.2504
  -4797457.12547  -3684058.23445  22861685.6644                   22861688.2894
        43.2504         30.0004
    204635.72345    192288.02044  24660337.8594                   24660345.0984
        35.7504         26.5004
  -2948968.20347  -2272298.49245  21305417.5554                   21305417.7464
        47.2504         35.7504
   3062586.90648   2387213.62948  21557177.9614                   21557179.6564
        50.2504         48.2504
   4338346.14846   3372685.03144  24403867.5234                   24403876.3204
        39.0004         29.7504
 25  8  7 20 58  0.0000000  0  9G27G02G31G10G01G03G28G32G08
   5493688.76645   4262424.70744  25438986.8284                   25438997.9344
        35.7504         26.0004
  -2157901.74647  -1663148.49246  21608729.7894                   21608727.9414
        47.7504         37.0004
  -5692581.94947  -4374500.72346  22263245.6564                   22263247.7734
        45.0004         40.0004
   2574169.59847   2008089.47347  22217917.8754                   22217920.2584
        47.2504         43.5004
  -4936030.23047  -3792037.19944  22835316.0234                   22835318.0824
        44.0004         28.5004
     66640.35246     84759.27344  24634076.7584                   24634085.4924
        36.0004         26.7504
  -3045008.25847  -2347134.85245  21287141.9614                   21287142.3244
        47.0004         35.7504
   3064207.51648   2388476.42648  21557486.5784                   21557488.5744
        50.5004         48.2504
   4360354.31646   3389834.04345  24408055.5784                   24408064.3984
        39.0004         30.2504
 25  8  7 20 58 30.0000000  0  9G27G02G31G10G01G03G28G32G08
   5528108.77346   4289245.20344  25445536.1644                   25445548.6174
        36.0004         26.7504
  -2239962.93448  -1727092.25846  21593114.1484                   21593111.8714
        48.0004         37.0004
  -5844361.33647  -4492770.25046  22234363.4924                   22234364.4454
        45.0004         39.5004
   2566987.50047   2002492.98447  22216551.4144                   22216553.8674
        47.5004         43.2504
  -5074423.91847  -3899876.35544  22808980.8674                   22808982.9924
        43.0004         28.7504
    -71503.12546    -22884.85244  24607790.1564                   24607797.0554
        36.5004         26.7504
  -3140617.71547  -2421635.67245  21268948.4774                   21268948.6524
        46.5004         35.5004
   3065916.62548   2389808.18448  21557811.9694                   21557813.5124
        50.2504         48.0004
   4382350.50846   3406973.73045  24412241.0784                   24412250.4064
        37.7504         30.0004
 25  8  7 20 59  0.0000000  0  9G27G02G31G10G01G03G28G32G08
   5562265.91445   4315860.85544  25452036.0944                   25452048.5744
        35.0004         26.0004
  -2321658.36347  -1790751.02346  21577568.0234                   21577565.9184
        47.5004         36.7504
  -5995954.28147  -4610894.48446  22205516.0704                   22205517.7384
        45.0004         40.2504
   2559922.39147   1996987.66447  22215206.6254                   22215209.7154
        46.7504         43.5004
  -5212634.54347  -4007572.86344  22782679.8674                   22782681.3524
        43.2504         29.2504
   -209793.25846   -130643.27344  24581473.2894                   24581481.3204
        36.5004         26.7504
  -3235793.90247  -2495798.88346  21250836.3284                   21250836.8484
        47.0004         36.2504
   3067713.60548   2391208.40648  21558154.1024                   21558155.5634
        50.2504         48.0004
   4404332.76646   3424102.52744  24416425.1414                   24416433.6644
        38.5004         29.5004
 25  8  7 20 59 30.0000000  0  9G27G02G31G10G01G03G28G32G08
   5596158.07445   4342270.04344  25458484.2194                   25458498.2034
        34.2504         25.5004
  -2402986.34848  -1854123.46146  21562091.6724                   21562089.2624
        48.0004         36.5004
  -6147357.10947  -4728870.57046  22176704.8984                   22176706.3444
        45.0004         40.2504
   2552975.11747   1991574.16847  22213884.8134                   22213887.3284
        46.7504         43.2504
  -5350659.15647  -4115124.41844  22756414.6884                   22756415.9104
        43.2504         28.2504
   -348229.14145   -238515.27744  24555130.5554                   24555137.6644
        35.7504         27.0004
  -3330534.87547  -2569622.97745  21232807.7034                   21232808.0314
        46.5004         35.5004
   3069597.20348   2392676.12948  21558512.6174                   21558514.0204
        49.7504         48.0004
   4426298.63346   3441218.56644  24420604.6644                   24420614.1414
        38.0004         29.2504
 25  8  7 21  0  0.0000000  0  9G27G02G31G10G01G03G28G32G08
   5629782.87546   4368470.86344  25464884.0864                   25464897.5824
        36.0004         27.0004
  -2483945.69948  -1917208.65246  21546685.4534                   21546683.4414
        48.0004         36.7504
  -6298566.86347  -4846696.21946  22147930.5314                   22147932.2114
        44.7504         40.5004
   2546146.18847   1986252.88347  22212585.1564                   22212588.2854
        46.2504         43.2504
  -5488495.12147  -4222528.98844  22730185.0164                   22730187.0634
        43.2504         28.2504
   -486810.36345   -346500.55144  24528758.1174                   24528766.1804
        33.7504         24.7504
  -3424839.04747  -2643106.70346  21214861.8054                   21214862.2424
        46.5004         36.0004
   3071565.85248   2394210.12548  21558887.0234                   21558888.0864
        49.7504         48.0004
   4448245.25446   3458319.57845  24424781.9614                   24424790.6844
        38.5004         30.2504
 25  8  7 21  0 30.0000000  0  9G27G02G31G10G01G03G28G32G08
   5663137.30145   4394461.01644  25471232.5474                   25471244.6884
        35.5004         24.2504
  -2564535.75847  -1980006.08646  21531349.9774                   21531347.9144
        46.7504         37.0004
  -6449581.05947  -4964369.48446  22119193.3054                   22119194.9304
        45.0004         40.5004
   2539435.48047   1981023.71947  22211308.3054                   22211311.3284
        46.2504         43.0004
  -5626140.46147  -4329785.01644  22703992.2114                   22703993.7734
        43.0004         28.0004
   -625536.96945   -454599.08244  24502359.3594                   24502367.7274
        35.0004         26.5004
  -3518705.48847  -2716249.33246  21197000.1724                   21197000.5394
        46.0004         36.5004
   3073617.32048   2395808.65248  21559277.3284                   21559279.0204
        49.5004         48.0004
   4470169.05546   3475402.83245  24428953.4924                   24428963.4064
        37.7504         30.5004
 25  8  7 21  1  0.0000000  0  9G27G02G31G10G01G03G28G32G08
   5696222.22345   4420241.22343  25477527.5234                   25477540.4734
        33.5004         23.7504
  -2644752.16447  -2042512.35546  21516085.2664                   21516082.9064
        46.5004         36.5004
  -6600393.23447  -5081885.33246  22090494.2814                   22090496.3094
        44.2504         40.5004
   2532846.57047   1975889.45747  22210054.5554                   22210057.6054
        46.2504         43.0004
  -5763589.44147  -4436888.03144  22677836.2424                   22677838.0594
        43.0004         29.2504
   -764405.54746   -562808.25044  24475934.7194                   24475941.4964
        36.0004         26.0004
  -3612129.50047  -2789047.21546  21179221.7734                   21179222.3284
        46.0004         36.0004
   3075753.16048   2397472.93048  21559683.7194                   21559685.2234
        49.2504         48.0004
   4492070.17246   3492468.36345  24433121.7344                   24433130.2934
        38.0004         30.5004
 25  8  7 21  1 30.0000000  0  9G27G02G31G10G01G03G28G32G08
   5729032.43445   4445807.30944  25483772.0474                   25483784.0234
        34.0004         25.0004
  -2724596.13347  -2104728.41846  21500891.3834                   21500889.2774
        47.2504         36.2504
  -6751003.00047  -5199243.45346  22061834.7274                   22061835.4774
        44.5004         40.0004
   2526377.39847   1970848.49647  22208823.6884                   22208826.3404
        47.5004         42.7504
  -5900842.04347  -4543838.03144  22651718.1414                   22651720.0274
        43.0004         28.5004
   -903418.08246   -671129.59044  24449480.5634                   24449488.0904
        36.5004         25.2504
  -3705112.16847  -2861501.19546  21161527.7424                   21161528.4964
        47.0004         36.2504
   3077969.18048   2399199.67248  21560105.6804                   21560107.2304
        49.0004         48.2504
   4513943.29746   3509512.12144  24437284.0784                   24437292.9884
        37.7504         29.7504
 25  8  7 21  2  0.0000000  0  9G27G02G31G10G01G03G28G32G08
   5761564.02045   4471156.24643  25489962.1884                   25489975.0904
        32.5004         22.7504
  -2804068.23047  -2166654.71946  21485768.1024                   21485765.8204
        47.5004         36.2504
  -6901408.90647  -5316442.71946  22033213.0234                   22033214.6604
        43.7504         39.7504
   2520026.79347   1965899.92647  22207615.2894                   22207617.9264
        47.0004         42.5004
  -6037897.20347  -4650634.17644  22625637.1884                   22625639.0434
        43.5004         28.7504
  -1042575.59446   -779563.89844  24423000.4064                   24423007.1914
        36.0004         26.5004
  -3797653.59447  -2933611.34446  21143917.9534                   21143918.4184
        46.5004         37.0004
   3080262.23448   2400986.45347  21560541.9614                   21560543.5904
        49.0004         47.7504
   4535783.89546   3526530.55144  24441439.6644                   24441449.3914
        37.0004         29.2504
 25  8  7 21  2 30.0000000  0  9G27G02G31G10G01G03G28G32G08
   5793819.88345   4496290.35543  25496101.2274                   25496113.8054
        34.2504         23.7504
  -2883162.10947  -2228286.29746  21470717.0234                   21470714.9964
        46.5004         36.7504
  -7051602.50447  -5433476.56246  22004632.1644                   22004633.4064
        44.2504         39.5004
   2513800.50447   1961048.23047  22206430.2974                   22206433.1094
        47.0004         42.2504
  -6174747.16847  -4757270.42244  22599595.6024                   22599597.2504
        42.5004         28.5004
  -1181872.52046   -888106.83244  24396493.0864                   24396500.0594
        36.2504         26.5004
  -3889747.13347  -3005372.50046  21126392.9534                   21126393.1804
        47.0004         36.5004
   3082635.93048   2402836.07047  21560993.4064                   21560995.2624
        49.2504         47.7504
   4557594.35246   3543525.43045  24445590.9774                   24445599.4454
        38.2504         30.2504
 25  8  7 21  3  0.0000000  0  9G27G02G31G10G01G03G28G32G08
   5825796.68845   4521207.02344  25502185.5234                   25502199.2624
        32.2504         24.7504
  -2961877.43747  -2289622.90646  21455738.4144                   21455735.9104
        47.5004         36.7504
  -7201581.53147  -5550343.20346  21976091.7424                   21976093.0314
        44.2504         39.7504
   2507698.05947   1956293.03947  22205268.9304                   22205271.8554
        46.7504         42.0004
  -6311390.25047  -4863745.47344  22573593.0474                   22573594.7584
        43.5004         29.0004
  -1321309.11746   -996758.57044  24369958.2664                   24369965.9414
        36.7504         26.5004
  -3981392.19547  -3076784.19545  21108953.6724                   21108953.5434
        47.0004         35.7504
   3085087.76648   2404746.57047  21561460.0164                   21561462.0514
        49.2504         47.5004
   4579370.77346   3560493.84845  24449735.0864                   24449744.8594
        37.5004         30.7504
 25  8  7 21  3 30.0000000  0  9G27G02G31G10G01G03G28G32G08
   5857490.32445   4545903.03144  25508217.8524                   25508230.1884
        34.5004         26.7504
  -3040214.99247  -2350665.15246  21440830.9844                   21440828.5594
        47.2504         36.5004
  -7351344.86747  -5667041.77746  21947592.8754                   21947593.6334
        45.0004         40.0004
   2501718.02747   1951633.22347  22204131.4534                   22204134.2304
        47.0004         42.5004
  -6447825.69147  -4970058.73444  22547630.3204                   22547631.9694
        43.2504         29.5004
  -1460887.02046  -1105520.41844  24343397.7344                   24343404.8524
        36.2504         26.5004
  -4072589.29747  -3147846.82846  21091599.3914                   21091599.3714
        46.7504         37.0004
   3087614.32448   2406715.29347  21561940.7274                   21561942.5434
        49.0004         47.5004
   4601108.34846   3577431.96145  24453871.2424                   24453881.3834
        37.0004         30.0004
 25  8  7 21  4  0.0000000  0  9G27G02G31G10G01G03G28G32G08
   5888898.38345   4570376.55944  25514194.3754                   25514207.3874
        33.0004         24.5004
  -3118173.53547  -2411412.06246  21425995.9304                   21425993.3674
        47.0004         36.5004
  -7500889.30147  -5783569.78946  21919135.4224                   21919136.5434
        45.0004         40.5004
   2495861.02047   1947069.27047  22203016.7734                   22203019.6454
        47.5004         42.2504
  -6584050.76647  -5076208.07844  22521707.3674                   22521709.5664
        44.0004         29.0004
  -1600605.29745  -1214391.65644  24316809.6174                   24316817.3834
        35.2504         28.0004
  -4163336.85547  -3218559.15646  21074330.3754                   21074330.8674
        46.2504         37.0004
   3090214.17248   2408741.12947  21562435.6954                   21562437.2854
        48.5004         47.5004
   4622804.50846   3594337.81345  24457999.6804                   24458009.9534
        36.7504         30.0004
 25  8  7 21  4 30.0000000  0  9G27G02G31G10G01G03G28G32G08
   5920019.03145   4594626.05543  25520116.0864                   25520129.9384
        33.5004         23.5004
  -3195751.85947  -2471862.69546  21411233.1174                   21411230.8524
        47.5004         36.7504
  -7650211.42647  -5899924.56246  21890720.1884                   21890721.2814
        45.7504         40.5004
   2490127.64147   1942601.66047  22201925.8284                   22201928.8324
        47.2504         42.5004
  -6720062.66447  -5182191.29345  22495825.3444                   22495826.8554
        43.5004         30.0004
  -1740463.35946  -1323371.82044  24290195.1804                   24290202.9414
        37.5004         28.2504
  -4253633.32047  -3288920.00446  21057147.8054                   21057148.0474
        46.2504         36.5004
   3092885.96548   2410823.02347  21562944.3594                   21562945.9184
        48.5004         47.5004
   4644456.46546   3611209.21944  24462120.4924                   24462130.5984
        37.2504         29.2504
 25  8  7 21  5  0.0000000  0  9G27G02G31G10G01G03G28G32G08
   5950849.41846   4618649.40644  25525984.0784                   25525997.2344
        36.5004         26.5004
  -3272949.16048  -2532016.42246  21396543.3204                   21396540.9494
        48.0004         36.7504
  -7799308.41847  -6016103.90246  21862348.1564                   21862348.9144
        45.5004         41.2504
   2484518.16447   1938230.58647  22200858.2194                   22200860.8754
        47.0004         42.5004
  -6855859.07447  -5288006.61744  22469984.0234                   22469985.9304
        44.2504         29.5004
  -1880460.89546  -1432460.64844  24263554.7734                   24263562.0634
        36.5004         27.2504
  -4343477.63747  -3358928.51246  21040050.7274                   21040050.8794
        45.7504         37.0004
   3095627.89548   2412959.57847  21563466.1644                   21563467.4924
        48.7504         47.5004
   4666061.09046   3628043.71144  24466233.1884                   24466242.5434
        37.7504         29.5004
 25  8  7 21  5 30.0000000  0  9G27G02G31G10G01G03G28G32G08
   5981388.08245   4642445.49244  25531796.2894                   25531808.7194
        35.0004         28.5004
  -3349763.50047  -2591871.75046  21381925.8834                   21381923.7624
        47.7504         37.0004
  -7948176.40647  -6132104.80946  21834019.2584                   21834019.9774
        45.7504         41.2504
   2479033.79747   1933957.00847  22199815.0084                   22199817.6724
        47.5004         42.2504
  -6991436.68447  -5393651.45345  22444184.2734                   22444185.7664
        44.0004         30.2504
  -2020596.66845  -1541657.20344  24236888.7584                   24236894.8204
        35.5004         26.5004
  -4432867.65647  -3428583.03546  21023040.5084                   21023040.6134
        46.0004         36.5004
   3098439.15648   2415150.14547  21564000.7974                   21564002.6214
        48.7504         47.5004
   4687616.25846   3644839.72344  24470333.1094                   24470344.2274
        37.0004         29.2504
 25  8  7 21  6  0.0000000  0  9G27G02G31G10G01G03G28G32G08
   6011627.87545   4666008.71944  25537549.9534                   25537563.5434
        35.2504         28.5004
  -3426198.85247  -2651431.76246  21367380.5234                   21367378.8984
        47.5004         36.7504
  -8096817.41847  -6247928.85246  21805733.8444                   21805734.4224
        46.0004         41.0004
   2473670.08647   1929777.45347  22198793.9534                   22198797.1214
        46.7504         42.5004
  -7126797.65647  -5499127.46144  22418425.7274                   22418427.2194
        43.5004         29.7504
  -2160874.85945  -1650964.72344  24210193.0864                   24210200.4694
        35.5004         26.5004
  -4521806.95347  -3497886.33646  21006116.0634                   21006115.8914
        46.7504         36.7504
   3101313.37948   2417389.77747  21564547.9384                   21564549.6374
        48.5004         47.5004
   4709114.42246   3661591.25844  24474425.3204                   24474435.4614
        38.2504         28.7504
 25  8  7 21  6 30.0000000  0  8G02G31G10G01G03G28G32G08
  -3502251.34448  -2710693.44146  21352908.5474                   21352906.2074
        48.2504         37.0004
  -8245225.57847  -6363571.46146  21777492.9844                   21777493.6954
        46.0004         41.0004
   2468430.05947   1925694.27747  22197796.4924                   22197799.5594
        47.0004         42.2504
  -7261936.86347  -5604430.66445  22392709.6724                   22392711.5204
        44.5004         30.7504
  -2301292.49245  -1760380.89544  24183472.4774                   24183480.2624
        34.5004         27.0004
  -4610291.70747  -3566835.45346  20989277.3134                   20989277.6484
        46.7504         37.0004
   3104251.56348   2419679.25047  21565106.8284                   21565108.7424
        48.0004         47.5004
   4730555.19946   3678298.07444  24478506.0164                   24478515.6644
        37.5004         28.2504
 25  8  7 21  7  0.0000000  0  8G02G31G10G01G03G28G32G08
  -3577918.45748  -2769654.82446  21338509.3444                   21338507.1804
        48.2504         37.5004
  -8393395.90647  -6479028.74246  21749296.6094                   21749297.1954
        46.7504         41.7504
   2463316.00447   1921709.24247  22196824.3054                   22196826.8364
        47.5004         42.0004
  -7396849.89147  -5709557.62145  22367036.3444                   22367038.0634
        44.2504         31.0004
  -2441847.00846  -1869903.70344  24156725.6094                   24156733.2894
        36.0004         26.7504
  -4698318.74647  -3635427.91446  20972526.9144                   20972526.9774
        47.0004         36.5004
   3107254.11348   2422018.88347  21565678.7424                   21565680.0204
        49.2504         47.2504
   4751937.54346   3694959.42244  24482575.1484                   24482584.4384
        37.0004         28.2504
 25  8  7 21  7 30.0000000  0  8G02G31G10G01G03G28G32G08
  -3653194.26647  -2828311.29346  21324184.2584                   21324182.5354
        47.5004         36.5004
  -8541320.75047  -6594294.73846  21721147.1724                   21721148.1094
        45.7504         41.5004
   2458332.97347   1917826.32847  22195876.0394                   22195878.7304
        47.2504         42.5004
  -7531529.48447  -5814502.69945  22341407.5634                   22341409.4654
        45.0004         30.5004
  -2582533.26646  -1979529.17644  24129953.8674                   24129961.4414
        36.5004         27.5004
  -4785882.22347  -3703659.16446  20955863.5944                   20955863.6684
        46.2504         36.7504
   3110324.03148   2424411.00847  21566262.4534                   21566264.1054
        49.2504         47.5004
   4773263.24246   3711576.61744  24486632.8054                   24486643.2774
        37.2504         27.2504
 25  8  7 21  8  0.0000000  0  8G02G31G10G01G03G28G32G08
  -3728076.50448  -2886661.08246  21309935.3364                   21309933.2734
        48.0004         36.5004
  -8688996.02047  -6709366.25846  21693045.3054                   21693046.0274
        46.0004         41.5004
   2453482.72747   1914046.86747  22194952.7894                   22194955.5984
        46.7504         43.0004
  -7665971.73847  -5919262.83245  22315824.7894                   22315825.6644
        44.2504         30.7504
  -2723349.35546  -2089255.81644  24103158.7814                   24103164.5004
        37.5004         27.5004
  -4872979.71147  -3771527.30546  20939289.7504                   20939289.9924
        47.0004         36.0004
   3113461.17248   2426855.51247  21566859.7034                   21566861.2894
        48.2504         47.5004
   4794530.80546   3728148.50444  24490681.4384                   24490689.7304
        38.7504         27.7504
 25  8  7 21  8 30.0000000  0  8G02G31G10G01G03G28G32G08
  -3802563.29747  -2944702.74246  21295760.7974                   21295758.6374
        47.0004         36.7504
  -8836417.61347  -6824240.10547  21664991.8444                   21664992.8404
        45.5004         42.0004
   2448766.39147   1910371.76247  22194055.4384                   22194058.3244
        46.0004         42.5004
  -7800173.34847  -6023835.44545  22290286.5634                   22290288.5314
        45.0004         30.5004
  -2864293.93446  -2199082.59444  24076336.5164                   24076343.7974
        36.5004         27.7504
  -4959609.14147  -3839030.72346  20922804.4614                   20922804.7814
        46.2504         36.0004
   3116664.80548   2429351.82447  21567468.9064                   21567470.7304
        48.5004         47.0004
   4815737.96946   3744673.33644  24494715.7504                   24494726.0434
        37.5004         29.2504
 25  8  7 21  9  0.0000000  0  9G25G02G31G10G01G03G28G32G08
   2988728.27755   2350363.93454  24705237.8204                   24705243.1994
        35.2504         24.5004
  -3876655.07848  -3002436.59846  21281661.7344                   21281659.5744
        48.2504         36.5004
  -8983583.61747  -6938914.78546  21636986.8984                   21636988.2624
        45.5004         41.7504
   2444183.36747   1906800.52347  22193183.3594                   22193186.1054
        46.2504         42.5004
  -7934132.78947  -6128219.36745  22264795.1884                   22264796.3284
        45.5004         30.5004
  -3005367.54346  -2309009.91444  24049491.3594                   24049497.8364
        37.7504         26.5004
  -5045770.46947  -3906169.38746  20906408.3594                   20906408.5164
        46.0004         36.5004
   3119932.31348   2431897.91447  21568091.1254                   21568092.8834
        48.5004         46.7504
   4836881.05946   3761148.18844  24498740.5084                   24498750.1334
        37.2504         27.0004
 25  8  7 21  9 30.0000000  0  9G25G02G31G10G01G03G28G32G08
   2888961.59445   2272623.70743  24686252.5864                   24686258.1294
        34.5004         22.5004
  -3950354.06647  -3059864.37146  21267637.5164                   21267634.7624
        47.7504         36.7504
  -9130494.02047  -7053390.30147  21609030.6884                   21609032.0274
        45.2504         42.0004
   2439731.08247   1903331.16047  22192336.1174                   22192338.7974
        46.7504         42.2504
  -8067850.52347  -6232414.94945  22239349.5554                   22239350.7974
        45.0004         31.5004
  -3146572.51246  -2419039.58644  24022620.9304                   24022627.5824
        36.5004         27.7504
  -5131465.57447  -3972944.76646  20890101.4304                   20890101.4454
        45.2504         36.7504
   3123259.20748   2434490.27347  21568723.8914                   21568725.8444
        48.5004         46.5004
   4857954.11346   3777568.50444  24502749.9924                   24502760.5864
        37.5004         28.2504
 25  8  7 21 10  0.0000000  0  9G25G02G31G10G01G03G28G32G08
   2789438.33645   2195073.23044  24667314.3834                   24667319.6914
        35.2504         25.5004
  -4023666.35248  -3116990.82446  21253686.4774                   21253684.1524
        48.0004         36.5004
  -9277152.94947  -7167669.85246  21581122.1884                   21581123.0594
        46.2504         41.7504
   2435402.70347   1899958.35547  22191512.3674                   22191515.3484
        46.2504         42.5004
  -8201331.13347  -6336425.73444  22213948.3054                   22213950.0084
        45.0004         29.7504
  -3287915.39546  -2529176.73444  23995723.9454                   23995730.0164
        36.0004         27.7504
  -5216700.53547  -4039361.57846  20873881.8834                   20873881.9024
        45.2504         36.2504
   3126636.85947   2437122.18847  21569367.2734                   21569368.2934
        47.5004         46.2504
   4878947.27046   3793926.56644  24506745.8364                   24506755.2344
        38.0004         27.2504
 25  8  7 21 10 30.0000000  0  9G25G02G31G10G01G03G28G32G08
   2690160.93445   2117714.27744  24648422.6724                   24648428.0664
        34.0004         24.5004
  -4096591.18047  -3173815.35546  21239809.2344                   21239806.8874
        47.7504         37.0004
  -9423557.64547  -7281751.30947  21553262.4924                   21553263.4384
        45.7504         42.0004
   2431198.53547   1896682.32847  22190712.0784                   22190715.5664
        46.5004         42.2504
  -8334572.28947  -6440249.95745  22188593.9144                   22188595.6134
        45.2504         30.5004
  -3429395.71545  -2639420.94944  23968801.1174                   23968808.0084
        35.0004         28.0004
  -5301474.41447  -4105419.12146  20857749.7424                   20857749.5634
        46.0004         37.0004
   3130063.56348   2439792.32047  21570019.0864                   21570020.7274
        48.5004         46.2504
   4899857.34846   3810219.93444  24510724.3444                   24510734.4024
        36.2504         26.7504
 25  8  7 21 11  0.0000000  0  9G25G02G31G10G01G03G28G32G08
   2591130.32445   2040547.62144  24629577.0394                   24629582.6764
        35.5004         25.7504
  -4169129.44547  -3230338.67646  21226005.8284                   21226003.5784
        47.7504         37.0004
  -9569706.80147  -7395633.63747  21525450.7274                   21525451.4964
        45.0004         42.0004
   2427117.22347   1893502.03547  22189935.2194                   22189938.8284
        46.7504         42.0004
  -8467573.03547  -6543886.84445  22163284.7734                   22163285.8874
        45.0004         32.0004
  -3571014.63346  -2749773.17244  23941851.7814                   23941858.4844
        36.0004         29.0004
  -5385787.85947  -4171117.88346  20841705.2664                   20841705.2734
        45.7504         36.5004
   3133536.13748   2442498.20747  21570679.5474                   21570681.1764
        48.2504         46.2504
   4920679.84845   3826445.00444  24514686.6644                   24514697.1954
        35.0004         27.2504
 25  8  7 21 11 30.0000000  0  9G25G02G31G10G01G03G28G32G08
   4067777.50045   3191181.85544  24910573.6724                   24910579.2624
        32.7504         25.0004
  -2665852.69948  -2058954.19146  21512069.8134                   21512067.4654
        48.2504         37.2504
  -8140167.34047  -6281706.66447  21797483.4064                   21797484.0664
        46.0004         42.0004
   3998584.44547   3118021.89546  22488976.1804                   22488979.0394
        45.5004         41.7504
  -7024901.28547  -5419726.96945  22437815.5944                   22437817.0234
        45.0004         31.5004
  -2137341.59846  -1632625.18044  24214670.3914                   24214677.0004
        36.7504         29.0004
  -3894211.86747  -3008850.84446  21125542.8834                   21125542.9694
        45.2504         36.5004
   4712478.18848   3672842.62947  21871142.4924                   21871144.2664
        48.5004         46.2504
   6516836.37945   5070203.10944  24818424.1174                   24818435.7584
        34.2504         26.5004
 25  8  7 21 12  0.0000000  0  9G25G02G31G10G01G03G28G32G08
   3969257.93045   3114413.39143  24891826.1254                   24891831.3164
        33.0004         23.0004
  -2737605.63348  -2114865.57046  21498415.5554                   21498413.3054
        48.0004         37.0004
  -8285786.59447  -6395176.09047  21769772.8284                   21769773.2894
        45.7504         42.2504
   3994759.63347   3115041.46947  22488247.8204                   22488251.3984
        45.7504         42.0004
  -7157403.97747  -5522975.75445  22412601.2814                   22412602.3404
        45.0004         31.7504
  -2279225.98446  -1743184.28144  24187671.2114                   24187677.6684
        37.5004         29.5004
  -3977591.77347  -3073822.16046  21109676.1254                   21109676.3634
        45.5004         36.2504
   4716047.76648   3675624.10547  21871821.7734                   21871823.3484
        48.2504         46.2504
   6537485.02046   5086292.69944  24822354.9844                   24822364.5514
        37.0004         26.7504
 25  8  7 21 12 30.0000000  0  9G25G02G31G10G01G03G28G32G08
   3870999.30945   3037848.28544  24873127.4534                   24873133.5354
        33.5004         24.5004
  -2808963.16048  -2170468.84446  21484836.5474                   21484834.4264
        48.2504         37.5004
  -8431135.19147  -6508434.60947  21742114.1484                   21742114.4144
        45.5004         42.7504
   3991065.18847   3112162.62947  22487545.3134                   22487548.3984
        46.5004         42.2504
  -7289652.31247  -5626026.32845  22387435.2504                   22387436.7934
        45.5004         31.5004
  -2421240.77346  -1853844.98444  24160646.0944                   24160652.6454
        37.5004         29.0004
  -4060501.88747  -3138427.41846  21093898.6564                   21093899.1094
        45.5004         37.0004
   4719665.10547   3678442.78147  21872510.0784                   21872511.8244
        47.7504         46.2504
   6558043.96145   5102312.40244  24826266.4694                   24826277.6914
        35.5004         27.2504
 25  8  7 21 13  0.0000000  0  9G25G02G31G10G01G03G28G32G08
   3773006.38745   2961490.21544  24854480.7664                   24854486.9384
        34.2504         26.2504
  -2879922.12548  -2225761.54346  21471334.0634                   21471331.3524
        49.0004         37.7504
  -8576207.64847  -6621477.96547  21714507.5394                   21714507.7304
        45.5004         42.5004
   3987503.62147   3109387.34047  22486867.5164                   22486870.7734
        46.2504         42.7504
  -7421641.53547  -5728875.00045  22362318.3754                   22362319.7974
        44.5004         31.7504
  -2563382.96546  -1964604.99244  24133597.0944                   24133603.8754
        38.0004         28.7504
  -4142939.03547  -3202664.12146  21078211.6024                   21078211.5824
        46.2504         36.5004
   4723331.01648   3681299.31347  21873207.9304                   21873209.4694
        48.0004         46.2504
   6578512.54346   5118261.63744  24830163.3754                   24830173.1134
        37.5004         27.2504
 25  8  7 21 13 30.0000000  0  9G25G02G31G10G01G03G28G32G08
   3675276.91445   2885337.43844  24835883.4924                   24835889.0864
        34.5004         25.2504
  -2950487.05548  -2280747.19946  21457906.0084                   21457903.1914
        48.5004         37.2504
  -8721006.05147  -6734307.78147  21686952.9304                   21686953.6094
        46.0004         42.2504
   3984070.43447   3106712.07846  22486213.9924                   22486217.2344
        46.0004         41.7504
  -7553374.09447  -5831523.68445  22337250.5864                   22337252.1374
        44.7504         31.0004
  -2705656.87946  -2075467.63344  24106523.1254                   24106529.8244
        38.2504         29.5004
  -4224907.28547  -3266535.45346  21062613.8364                   21062613.6644
        47.0004         37.5004
   4727039.07048   3684188.68847  21873913.2344                   21873915.1914
        48.0004         46.2504
   6598883.12546   5134134.57844  24834040.5084                   24834049.5044
        39.0004         27.2504
 25  8  7 21 14  0.0000000  0  9G25G02G31G10G01G03G28G32G08
   3577817.14545   2809394.81344  24817338.1804                   24817342.9924
        33.5004         26.5004
  -3020653.26248  -2335422.17246  21444553.4064                   21444551.3284
        48.5004         37.7504
  -8865523.51247  -6846918.68047  21659452.2034                   21659452.3954
        45.5004         42.0004
   3980769.81347   3104140.11746  22485586.0234                   22485589.5664
        47.0004         41.7504
  -7684843.51647  -5933967.31645  22312232.6724                   22312233.7894
        45.5004         31.0004
  -2848058.03546  -2186429.41844  24079425.0314                   24079431.5314
        36.7504         29.5004
  -4306401.82847  -3330037.65246  21047105.4774                   21047105.2344
        45.7504         36.7504
   4730791.67648   3687112.77747  21874627.4534                   21874629.2854
        48.0004         46.0004
   6619156.69146   5149931.89544  24837898.0634                   24837908.2624
        38.0004         27.5004
 25  8  7 21 14 30.0000000  0  9G25G02G31G10G01G03G28G32G08
   3480631.38345   2733665.77343  24798842.0634                   24798849.0864
        31.2504         22.5004
  -3090418.23848  -2389784.50046  21431277.9144                   21431275.4224
        48.0004         38.0004
  -9009755.45347  -6959307.11347  21632005.4224                   21632005.9924
        45.2504         42.0004
   3977603.90647   3101673.12946  22484983.8134                   22484986.6334
        45.5004         41.5004
  -7816045.50047  -6036202.55545  22287265.7664                   22287266.4924
        45.7504         31.0004
  -2990583.73046  -2297488.25044  24052303.2344                   24052309.9654
        37.5004         29.7504
  -4387419.96147  -3393168.63746  21031688.5944                   21031688.4144
        47.0004         36.5004
   4734589.25048   3690071.90647  21875350.0234                   21875351.9264
        48.0004         46.0004
   6639332.30946   5165652.85944  24841737.0474                   24841747.4734
        38.7504         26.5004
 25  8  7 21 15  0.0000000  0  9G25G02G31G10G01G03G28G32G08
   3383720.69945   2658150.99243  24780402.0234                   24780407.5864
        34.0004         23.7504
  -3159782.87148  -2443834.86746  21418077.7344                   21418075.5314
        48.5004         37.5004
  -9153700.65647  -7071472.09847  21604613.2664                   21604614.1414
        46.0004         42.2504
   3974571.32847   3099310.02046  22484406.7734                   22484409.6334
        46.0004         41.7504
  -7946979.30547  -6138228.82445  22262349.5394                   22262350.7034
        45.2504         31.2504
  -3133235.25046  -2408645.12945  24025157.4384                   24025163.8794
        36.7504         30.5004
  -4467962.59847  -3455929.09046  21016361.5394                   21016361.5824
        46.5004         37.0004
   4738428.60547   3693063.58647  21876080.6484                   21876082.5234
        47.5004         46.0004
   6659405.39546   5181293.96944  24845557.5864                   24845567.9494
        39.0004         25.7504
 25  8  7 21 15 30.0000000  0  9G25G02G31G10G01G03G28G32G08
   3287086.65245   2582851.79744  24762012.5234                   24762018.2854
        32.2504         24.2504
  -3228747.14848  -2497573.27046  21404954.6414                   21404952.0904
        48.7504         36.7504
  -9297356.59847  -7183411.69147  21577276.8364                   21577276.9184
        45.7504         42.2504
   3971671.77347   3097050.57446  22483855.4384                   22483857.8634
        46.2504         41.0004
  -8077643.10247  -6240044.69145  22237485.2894                   22237486.2424
        45.0004         31.5004
  -3276012.47346  -2519899.98445  23997988.1094                   23997994.1454
        37.7504         30.0004
  -4548029.65648  -3518318.96946  21001125.6254                   21001125.2424
        48.0004         38.0004
   4742307.55547   3696086.13347  21876818.6334                   21876820.4264
        47.7504         45.7504
   6679372.50046   5196852.48844  24849356.2974                   24849367.7304
        38.2504         28.5004
 25  8  7 21 16  0.0000000  0  9G25G02G31G10G01G03G28G32G08
   3190732.53945   2507770.76243  24743677.0474                   24743682.0474
        33.5004         22.5004
  -3297309.89847  -2550998.79346  21391907.7814                   21391905.0704
        47.5004         37.5004
  -9440719.64847  -7295123.06647  21549995.4844                   21549996.1214
        46.5004         42.5004
   3968906.18047   3094895.51646  22483328.6564                   22483331.4844
        45.7504         40.7504
  -8208033.71547  -6341647.69545  22212672.4924                   22212673.6054
        45.0004         31.2504
  -3418914.05946  -2631251.73445  23970793.8754                   23970801.0514
        37.0004         30.0004
  -4627619.59847  -3580337.07846  20985979.7894                   20985980.1564
        47.2504         37.2504
   4746225.39848   3699138.98047  21877564.2734                   21877566.0984
        48.0004         45.7504
   6699231.46946   5212326.82844  24853135.4924                   24853147.1914
        37.0004         26.0004
 25  8  7 21 16 30.0000000  0  9G25G02G31G10G01G03G28G32G08
   3094660.96945   2432909.86343  24725394.5164                   24725400.5944
        31.5004         22.5004
  -3365470.18048  -2604110.72346  21378936.8284                   21378934.5634
        48.0004         37.5004
  -9583786.94147  -7406603.98847  21522771.0864                   21522771.2424
        46.0004         42.7504
   3966275.23047   3092845.36746  22482827.6254                   22482831.1094
        45.2504         41.0004
  -8338148.34847  -6443035.64145  22187912.2034                   22187913.5554
        45.2504         31.2504
  -3561939.03146  -2742699.64145  23943578.0704                   23943583.4844
        38.2504         30.0004
  -4706731.41447  -3641982.61346  20970925.1254                   20970924.9884
        47.0004         36.5004
   4750180.94547   3702221.20347  21878316.9224                   21878319.2344
        47.7504         45.7504
   6718979.80956   5227714.80954  24856894.5554                   24856905.2234
        38.2504         27.0004
 25  8  7 21 17  0.0000000  0  9G25G02G31G10G01G03G28G32G08
   2998875.39145   2358271.87144  24707168.5864                   24707173.2274
        32.7504         26.0004
  -3433226.43048  -2656907.81646  21366043.3834                   21366041.3244
        48.2504         38.0004
  -9726554.83247  -7517851.61747  21495603.1884                   21495603.4494
        47.0004         42.7504
   3963780.04747   3090900.99646  22482353.5394                   22482356.2234
        46.2504         41.0004
  -8467983.66047  -6544205.94145  22163205.6174                   22163206.7704
        45.7504         31.7504
  -3705085.80946  -2854242.46544  23916337.4384                   23916343.9184
        38.5004         29.2504
  -4785363.50447  -3703254.35246  20955962.1724                   20955962.0744
        47.2504         37.0004
   4754173.64548   3705332.37947  21879076.9614                   21879078.6134
        48.0004         45.7504
   6738615.60946   5243015.10944  24860631.2504                   24860642.1414
        36.5004         26.2504
 25  8  7 21 17 30.0000000  0  9G25G02G31G10G01G03G28G32G08
   2903379.55145   2283859.61744  24688996.0394                   24689001.4804
        33.5004         24.7504
  -3500576.64147  -2709388.50846  21353227.1414                   21353224.5044
        47.0004         38.0004
  -9869019.05947  -7628862.62947  21468492.9614                   21468493.0944
        47.0004         42.5004
   3961422.31347   3089063.71946  22481905.4694                   22481908.2814
        46.2504         41.2504
  -8597535.79347  -6645155.59445  22138552.4694                   22138553.6724
        44.5004         31.5004
  -3848352.25046  -2965878.53545  23889075.0394                   23889080.9144
        38.5004         30.0004
  -4863513.74647  -3764150.62146  20941090.5944                   20941090.3444
        47.0004         37.0004
   4758203.52348   3708472.53547  21879844.2814                   21879845.9654
        48.0004         45.7504
   6758137.42646   5258226.63344  24864346.2584                   24864357.1174
        36.0004         25.5004
 25  8  7 21 18  0.0000000  0  9G25G02G31G10G01G03G28G32G08
   2808174.60545   2209673.99643  24670879.0164                   24670883.9184
        33.5004         23.7504
  -3567521.62148  -2761553.43746  21340487.8674                   21340485.3014
        48.0004         37.2504
 -10011177.86347  -7739635.64147  21441440.6094                   21441441.2074
        46.0004         42.5004
   3959201.03547   3087332.79746  22481482.0704                   22481485.6374
        46.0004         41.2504
  -8726803.64847  -6745883.71945  22113953.5634                   22113954.8524
        45.5004         31.5004
  -3991739.00046  -3077608.34045  23861788.5784                   23861795.6174
        38.2504         30.2504
  -4941182.80147  -3824671.93446  20926310.5474                   20926310.6954
        47.7504         36.5004
   4762267.80948   3711639.49247  21880617.3204                   21880619.0944
        48.0004         45.5004
   6777541.16446   5273346.11744  24868039.4454                   24868050.3444
        39.2504         27.5004
 25  8  7 21 18 30.0000000  0  9G25G02G31G10G01G03G28G32G08
   2713262.11345   2135716.26644  24652818.0234                   24652822.7384
        34.0004         24.0004
  -3634061.58648  -2813402.76646  21327825.7814                   21327823.6294
        48.0004         37.0004
 -10153029.15247  -7850169.03947  21414447.3364                   21414447.6994
        47.5004         42.7504
   3957115.64147   3085707.75046  22481085.1564                   22481088.5514
        46.0004         41.0004
  -8855785.50447  -6846388.98845  22089408.8444                   22089410.2504
        44.5004         32.5004
  -4135246.10946  -3189431.92645  23834480.5004                   23834486.4734
        37.5004         31.0004
  -5018370.82847  -3884818.42646  20911622.2734                   20911622.3484
        47.5004         37.5004
   4766364.26648   3714831.51647  21881396.8134                   21881398.7624
        48.0004         45.7504
   6796823.28946   5288370.87144  24871709.3204                   24871719.0554
        38.2504         26.0004
 25  8  7 21 19  0.0000000  0  9G25G02G31G10G01G03G28G32G08
   2618648.80945   2061991.69143  24634811.6024                   24634817.7974
        31.7504         22.0004
  -3700191.76248  -2864932.78546  21315241.8204                   21315239.4454
        48.0004         37.0004
 -10294565.98847  -7960457.41047  21387513.6644                   21387513.7504
        47.0004         43.2504
   3955170.78947   3084192.21146  22480715.1564                   22480718.5984
        45.5004         41.0004
  -8984474.59847  -6946666.14145  22064919.8984                   22064921.3834
        44.7504         32.2504
  -4278868.43446  -3301345.30545  23807150.3594                   23807155.7704
        37.5004         30.0004
  -5095072.87147  -3944586.23846  20897026.0944                   20897025.9884
        47.5004         37.5004
   4770495.79748   3718050.87947  21882182.7424                   21882184.6844
        48.0004         45.7504
   6815985.20746   5303301.94544  24875354.6414                   24875365.7894
        36.7504         26.0004
 25  8  7 21 19 30.0000000  0  9G25G02G31G10G01G03G28G32G08
   2524333.57845   1988499.35944  24616865.5234                   24616870.1994
        32.5004         25.0004
  -3765915.07048  -2916145.75846  21302735.0784                   21302732.6294
        48.5004         37.2504
 -10435789.14547  -8070501.36347  21360639.5314                   21360639.9534
        47.0004         43.0004
   3953363.27047   3082783.68446  22480371.4534                   22480374.3674
        45.0004         40.5004
  -9112871.96547  -7046715.97745  22040486.8834                   22040488.6994
        44.7504         32.0004
  -4422608.78546  -3413350.62944  23779797.1954                   23779803.0634
        38.0004         29.2504
  -5171291.80948  -4003977.60546  20882522.2814                   20882522.4224
        48.0004         36.5004
   4774657.62148   3721293.84847  21882974.7034                   21882976.6954
        48.0004         45.5004
   6835020.86746   5318134.60944  24878976.8134                   24878988.6844
        36.5004         25.0004
 25  8  7 21 20  0.0000000  0  9G25G02G31G10G01G03G28G32G08
   2430320.71945   1915242.67644  24598976.0164                   24598980.6094
        33.0004         25.0004
  -3831229.07048  -2967039.79346  21290306.1094                   21290303.7304
        48.5004         37.7504
 -10576693.77047  -8180297.10247  21333826.2034                   21333826.8914
        47.2504         43.2504
   3951695.21947   3081483.84046  22480054.2584                   22480057.1804
        45.0004         40.2504
  -9240973.34847  -7146535.17245  22016110.0784                   22016111.5314
        45.7504         32.2504
  -4566464.59446  -3525445.94144  23752421.9534                   23752427.8524
        37.2504         29.5004
  -5247025.14847  -4062990.57846  20868110.9144                   20868110.6334
        47.0004         37.2504
   4778850.17647   3724560.75047  21883772.7734                   21883774.4494
        47.5004         45.7504
   6853929.28946   5332868.14844  24882576.3524                   24882587.8364
        40.0004         27.5004
 25  8  7 21 20 30.0000000  0  9G25G02G31G10G01G03G28G32G08
   2336614.30945   1842224.75044  24581144.0864                   24581148.5164
        33.5004         24.5004
  -3896131.80147  -3017613.35946  21277955.2894                   21277952.9264
        47.7504         37.5004
 -10717275.19947  -8289841.00847  21307074.3284                   21307074.8134
        47.5004         43.2504
   3950168.68847   3080294.25846  22479763.9844                   22479766.5864
        46.0004         40.5004
  -9368774.47747  -7246120.41045  21991790.2344                   21991791.3984
        45.5004         32.7504
  -4710433.17646  -3637629.10944  23725025.4694                   23725031.5124
        37.5004         29.7504
  -5322270.58248  -4121623.36746  20853791.8204                   20853791.8404
        48.0004         37.2504
   4783073.84447   3727851.91447  21884576.5234                   21884578.1914
        47.7504         45.5004
   6872709.55946   5347501.80544  24886150.0164                   24886161.4344
        37.0004         27.0004
 25  8  7 21 21  0.0000000  0 10G25G02G31G10G01G03G28G04G32G08
   2243213.98845   1769445.34843  24563370.2974                   24563374.7034
        32.0004         22.7504
  -3960625.14548  -3067867.92646  21265682.4694                   21265680.2114
        48.2504         37.0004
 -10857533.21547  -8399132.89847  21280384.3284                   21280384.6294
        47.2504         43.2504
   3948781.16847   3079213.00446  22479500.1254                   22479502.4344
        45.0004         40.0004
  -9496275.73447  -7345471.99245  21967527.6414                   21967528.9774
        45.7504         32.2504
  -4854516.56246  -3749901.70745  23697607.4774                   23697613.1414
        38.0004         30.0004
  -5397030.34047  -4179877.70746  20839565.6024                   20839565.6994
        47.7504         37.0004
   4494196.18455   3532414.87552  25027957.2114                   25027967.1684
        34.2504         16.7504
   4787324.52347   3731164.11347  21885385.5084                   21885386.8054
        47.5004         45.5004
   6891355.96946   5362031.16444  24889697.9844                   24889709.4844
        38.5004         27.0004
 25  8  7 21 21 30.0000000  0 10G25G02G31G10G01G03G28G04G32G08
   2150119.76245   1696904.43443  24545654.4224                   24545659.6524
        31.5004         22.0004
  -4024711.42247  -3117805.28946  21253487.6414                   21253485.0004
        47.2504         37.7504
 -10997467.67247  -8508172.66047  21253755.7424                   21253755.9494
        47.2504         43.7504
   3947530.71947   3078238.55946  22479261.8134                   22479264.4264
        45.7504         40.2504
  -9623476.87147  -7444589.69945  21943322.0704                   21943322.8554
        45.2504         32.2504
  -4998716.20746  -3862264.92245  23670166.8134                   23670172.4614
        38.7504         31.5004
  -5471306.12547  -4237754.91846  20825431.0784                   20825431.1954
        47.7504         37.2504
   4350898.62946   3420754.52042  25000693.9774                   25000699.8714
        39.5004         17.2504
   4791598.62147   3734494.56347  21886199.4144                   21886200.7584
        47.7504         45.5004
   6909863.77046   5376452.50844  24893220.3594                   24893232.0204
        38.5004         25.5004
 25  8  7 21 22  0.0000000  0 10G25G02G31G10G01G03G28G04G32G08
   2057331.43445   1624601.91044  24527998.1024                   24528002.5044
        33.7504         24.5004
  -4088392.35948  -3167426.80146  21241369.7814                   21241367.2624
        48.0004         38.0004
 -11137077.91847  -8616959.78947  21227188.9224                   21227188.8874
        47.7504         44.0004
   3946415.27347   3077369.30546  22479049.5634                   22479052.6724
        45.0004         40.0004
  -9750377.87147  -7543473.55545  21919173.5314                   21919174.9144
        45.2504         32.5004
  -5143033.69946  -3974719.96045  23642704.1024                   23642710.1484
        38.2504         31.0004
  -5545099.86348  -4295256.51646  20811388.5314                   20811388.6414
        48.5004         37.2504
   4207608.60255   3335896.01252  24973420.3444                   24973433.0434
        32.0004         16.2504
   4795892.38748   3737840.33647  21887015.6884                   21887018.1844
        48.2504         45.5004
   6928227.90246   5390761.84044  24896714.3594                   24896728.0274
        36.5004         24.5004
 25  8  7 21 22 30.0000000  0 10G25G02G31G10G01G03G28G04G32G08
   1964848.25445   1552537.10944  24510399.0394                   24510404.2854
        34.5004         26.0004
  -4151670.84447  -3216734.72746  21229327.9064                   21229326.0904
        47.7504         37.0004
 -11276364.76248  -8725494.92247  21200683.4304                   21200683.5904
        48.0004         44.0004
   3945431.46147   3076602.62546  22478862.2974                   22478865.5314
        44.5004         39.7504
  -9876979.85547  -7642124.39845  21895081.8834                   21895082.6294
        45.7504         33.0004
  -5287471.79346  -4087268.98845  23615218.9454                   23615224.0314
        38.2504         31.5004
  -5618414.60548  -4352384.85946  20797437.7504                   20797437.5824
        48.0004         37.0004
   4064323.55155   3224245.39852  24946156.9064                   24946166.6524
        34.0004         16.7504
   4800200.98447   3741197.66847  21887836.0314                   21887837.8244
        47.5004         45.5004
   6946441.89145   5404954.29743  24900180.9144                   24900192.5514
        35.5004         23.7504
 25  8  7 21 23  0.0000000  0 10G25G02G31G10G01G03G28G04G32G08
   1872676.73845   1480715.16443  24492858.9694                   24492864.1094
        32.7504         22.7504
  -4214542.08647  -3265725.33246  21217363.8674                   21217361.9884
        47.7504         37.2504
 -11415320.96548  -8833772.39847  21174240.5784                   21174241.1954
        48.0004         43.7504
   3944584.25447   3075942.38346  22478701.6954                   22478704.5634
        45.0004         40.2504
 -10003275.79347  -7740536.76645  21871048.3134                   21871049.7154
        45.7504         32.5004
  -5432024.94146  -4199907.64145  23587710.5314                   23587716.4694
        38.0004         31.2504
  -5691245.27748  -4409136.01246  20783577.8754                   20783577.7384
        48.5004         37.2504
                                  24918891.0474                   24918903.4304
        34.7504         15.5004
   4804527.75048   3744569.15247  21888659.3674                   21888661.0124
        48.0004         45.2504
   6964507.66446   5419031.25444  24903618.9844                   24903630.7734
        39.2504         24.2504
 25  8  7 21 23 30.0000000  0 10G25G02G31G10G01G03G28G04G32G08
   1780819.76645   1409138.33244  24475379.0784                   24475384.2234
        32.7504         24.0004
  -4277005.32847  -3314398.00446  21205477.8594                   21205475.0824
        46.7504         37.2504
 -11553943.33248  -8941789.75447  21147861.5944                   21147861.8914
        48.0004         43.5004
   3943874.25447   3075389.07846  22478566.1024                   22478569.2544
        45.5004         41.0004
 -10129262.75447  -7838708.37545  21847074.3984                   21847075.2974
        45.5004         33.0004
  -5576691.94946  -4312635.04345  23560181.1644                   23560186.9534
        37.5004         31.0004
  -5763591.02348  -4465509.29746  20769811.6484                   20769811.2384
        48.2504         37.2504
   3777784.00056   3021064.19152  24891632.1954                   24891639.5864
        37.7504         14.7504
   4808871.76247   3747954.07847  21889486.1254                   21889487.5904
        47.5004         45.2504
   6982423.17646   5432991.00044  24907029.7894                   24907040.7544
        40.5004         24.0004
 25  8  7 21 24  0.0000000  0 10G25G02G31G10G01G03G28G04G32G08
                                  24457957.6724                   24457965.4414
        30.7504         21.5004
  -4339057.21547  -3362750.13746  21193669.4454                   21193667.1954
        47.0004         37.5004
 -11692226.12148  -9049542.49247  21121546.9144                   21121547.4224
        48.0004         44.0004
   3943304.54347   3074945.07446  22478457.7344                   22478460.8834
        44.5004         40.2504
 -10254935.53947  -7936635.18045  21823159.2814                   21823160.9734
        45.7504         33.2504
  -5721469.12546  -4425448.28945  23532631.1724                   23532636.9144
        38.5004         30.7504
  -5835448.68748  -4521502.25446  20756137.3834                   20756137.3984
        48.0004         36.7504
   3634534.02355   2941440.84852  24864368.6414                   24864379.5474
        31.7504         16.7504
   4813234.48847   3751353.58647  21890316.2274                   21890317.7774
        47.7504         45.0004
   7000188.34046   5446833.70743  24910410.4304                   24910421.2504
        39.2504         22.7504
 25  8  7 21 24 30.0000000  0 10G25G02G31G10G01G03G28G04G32G08
   1598068.25455   1266734.57853  24440602.8524                   24440606.7304
        35.0004         22.5004
  -4400696.01248  -3410780.37546  21181940.2734                   21181938.1414
        48.2504         37.2504
 -11830165.07848  -9157027.31647  21095298.1254                   21095298.7304
        48.2504         44.0004
   3942876.98047   3074611.83246  22478376.5704                   22478379.7704
        44.0004         40.2504
 -10380290.30147  -8034314.16045  21799305.2814                   21799306.1334
        46.5004         32.7504
  -5866354.02346  -4538345.49645  23505060.4454                   23505066.1454
        39.0004         30.5004
  -5906816.29347  -4577113.35546  20742556.3134                   20742556.3054
        47.7504         37.2504
   3491299.12555   2829829.14152  24837110.3204                   24837123.2734
        32.5004         14.7504
   4817616.23047   3754767.91047  21891149.9304                   21891151.6914
        47.5004         44.7504
   7017802.24646   5460558.48443  24913763.1884                   24913773.1414
        38.5004         22.7504
 25  8  7 21 25  0.0000000  0 10G25G02G31G10G01G03G28G04G32G08
   3082606.37545   2423517.55544  24723101.0634                   24723105.6764
        35.2504         26.7504
  -2886495.84047  -2230884.16046  21470082.7034                   21470080.5634
        47.0004         37.0004
 -10392329.49248  -8036635.87147  21368909.5004                   21368909.4064
        48.7504         44.5004
   5518015.30947   4301992.25846  22778115.5234                   22778118.8134
        44.2504         40.2504
  -8929896.84847  -6904137.38745  22075305.7734                   22075306.9494
        46.2504         33.7504
  -4435917.30946  -3423719.36345  23777263.0704                   23777268.6214
        39.2504         31.2504
  -4402267.59847  -3404737.72346  21028862.7194                   21028862.5314
        47.7504         37.0004
   4923510.65645   3945838.25042  25109654.7894                   25109664.7034
        34.7504         15.5004
   6397439.13347   4985798.72347  22191780.0554                   22191782.3364
        47.7504         44.7504
   8610684.93046   6701765.43044  25216877.8914                   25216890.9454
        39.2504         26.0004
 25  8  7 21 25 30.0000000  0 10G25G02G31G10G01G03G28G04G32G08
   2992052.71946   2352956.28944  24705869.9614                   24705874.0904
        36.7504         28.2504
  -2947300.35247  -2278264.31646  21458512.2114                   21458509.8754
        46.5004         36.7504
 -10529565.60947  -8143573.01647  21342793.7974                   21342794.2624
        47.5004         44.2504
   5517879.77747   4301886.57046  22778089.6094                   22778092.4924
        43.2504         40.2504
  -9054601.17647  -7001309.55945  22051575.3524                   22051576.4414
        46.2504         33.5004
  -4581007.90246  -3536776.86345  23749652.9384                   23749658.6954
        39.0004         32.2504
  -4472646.99648  -3459578.77746  21015470.0084                   21015469.2854
        48.0004         36.5004
   4780318.11745   3834259.67642  25082403.0704                   25082416.2114
        31.0004         15.5004
   6401862.18447   4989245.23047  22192621.5704                   22192623.5084
        47.7504         44.5004
   8627995.18046   6715253.62544  25220171.6724                   25220184.7424
        37.7504         26.2504
 25  8  7 21 26  0.0000000  0 10G25G02G31G10G01G03G28G04G32G08
   2901835.18045   2282656.91444  24688701.4064                   24688705.8914
        34.7504         26.7504
  -3007684.82448  -2325317.16846  21447021.2664                   21447019.0274
        48.2504         37.2504
 -10666444.05148  -8250231.45747  21316746.8594                   21316746.7624
        48.5004         44.2504
   5517892.94947   4301896.75446  22778092.3204                   22778095.6174
        45.0004         40.0004
  -9178974.32847  -7098223.64845  22027907.6804                   22027908.7704
        45.7504         33.2504
  -4726197.61746  -3649911.59445  23722024.6484                   23722030.1454
        38.0004         31.5004
  -4542529.43048  -3514032.60246  21002171.8054                   21002171.4414
        48.5004         37.7504
   4637149.45346   3722699.92642  25055160.2114                   25055170.9654
        37.2504         16.7504
   6406306.39147   4992708.22747  22193467.5474                   22193469.5514
        47.2504         44.5004
   8645152.00045   6728622.25444  25223435.4454                   25223449.4654
        35.5004         25.5004
 25  8  7 21 26 30.0000000  0 10G25G02G31G10G01G03G28G04G32G08
   2811956.13746   2212621.37144  24671599.2344                   24671603.5394
        36.2504         28.2504
  -3067648.81248  -2372042.36346  21435610.7274                   21435607.7344
        48.0004         37.0004
 -10802961.70748  -8356608.76647  21290768.6334                   21290768.5314
        48.7504         44.0004
   5518055.36347   4302023.21946  22778122.8134                   22778126.8164
        44.0004         40.2504
  -9303013.71147  -7194877.65645  22004303.9144                   22004304.4064
        45.2504         33.0004
  -4871485.30946  -3763122.64845  23694376.6724                   23694382.2814
        39.0004         32.2504
  -4611914.41847  -3568098.80546  20988967.8444                   20988967.8634
        47.5004         37.7504
   4494005.41046   3611159.28942  25027923.7424                   25027932.8554
        38.7504         17.2504
   6410770.71547   4996186.89847  22194317.2894                   22194319.3364
        47.5004         44.5004
   8662153.00446   6741869.41444  25226672.3524                   25226684.9804
        37.5004         28.2504
 25  8  7 21 27  0.0000000  0 10G25G02G31G10G01G03G28G04G32G08
   2722421.14845   2142853.90643  24654559.4534                   24654564.7274
        35.2504         22.5004
  -3127188.80147  -2418437.18046  21424280.3204                   21424278.1724
        47.0004         37.0004
 -10939112.60548  -8462700.28947  21264859.7274                   21264859.4844
        48.5004         44.0004
   5518370.62147   4302268.79346  22778183.3134                   22778186.9734
        44.2504         40.2504
  -9426713.49247  -7291267.04345  21980763.8444                   21980765.0864
        45.0004         32.5004
  -5016866.62946  -3876406.66045  23666712.2664                   23666717.6884
        38.0004         31.7504
  -4680798.24247  -3621774.49246  20975859.3524                   20975859.6644
        47.5004         37.0004
   4350889.62545   3499640.64842  25000684.6414                   25000697.2504
        35.2504         15.5004
   6415257.33647   4999682.95347  22195170.8524                   22195173.1174
        46.5004         44.5004
   8678998.87945   6754995.77344  25229877.3284                   25229891.5124
        34.5004         25.5004
 25  8  7 21 27 30.0000000  0 10G25G02G31G10G01G03G28G04G32G08
   2633235.08245   2073358.25044  24637588.2734                   24637592.3874
        35.5004         26.2504
  -3186301.81647  -2464499.28546  21413031.5004                   21413029.2664
        47.0004         37.5004
 -11074891.07448  -8568501.62147  21239021.7734                   21239021.6954
        48.5004         44.0004
   5518841.72347   4302635.79746  22778272.9454                   22778276.2974
        43.0004         40.0004
  -9550068.55547  -7387387.82045  21957290.6884                   21957291.7424
        45.7504         33.2504
  -5162337.86346  -3989760.74645  23639029.9144                   23639034.3014
        38.2504         32.7504
  -4749177.91848  -3675057.33246  20962847.7504                   20962847.5514
        48.0004         37.0004
   4207805.77746   3388146.96142  24973458.5864                   24973469.9494
        36.5004         16.7504
   6419767.77047   5003197.55547  22196029.4224                   22196030.9804
        45.7504         44.2504
   8695689.89846   6768001.38744  25233054.2974                   25233068.9304
        36.0004         27.5004
 25  8  7 21 28  0.0000000  0 10G25G02G31G10G01G03G28G04G32G08
   2544402.91045   2004138.39544  24620684.4144                   24620689.1524
        34.7504         25.5004
  -3244984.94147  -2510226.41846  21401864.6724                   21401862.3284
        46.5004         37.2504
 -11210292.10948  -8674008.84447  21213255.4774                   21213255.5984
        49.0004         44.2504
   5519471.53547   4303126.48046  22778392.6414                   22778396.5744
        42.5004         39.2504
  -9673073.92647  -7483236.11745  21933883.2274                   21933884.5234
        46.0004         33.5004
  -5307895.39146  -4103182.07445  23611331.0314                   23611335.8554
        39.0004         32.2504
  -4817050.55547  -3727945.08246  20949931.9534                   20949931.6294
        47.7504         37.0004
   4064756.69545   3276680.41442  24946236.6724                   24946247.8834
        33.7504         15.5004
   6424303.55147   5006731.90647  22196892.1804                   22196894.4104
        46.5004         44.5004
   8712226.14846   6780886.46544  25236203.3054                   25236215.1134
        37.7504         26.7504
 25  8  7 21 28 30.0000000  0 10G25G02G31G10G01G03G28G04G32G08
   2455931.09445   1935199.39543  24603848.3364                   24603853.4024
        33.5004         23.7504
  -3303233.40247  -2555614.84446  21390780.3134                   21390778.3794
        46.7504         37.2504
 -11345308.42648  -8779216.27347  21187562.8834                   21187563.1604
        48.2504         44.5004
   5520264.77747   4303744.50846  22778544.0004                   22778547.2114
        43.0004         39.2504
  -9795722.75847  -7578806.58645  21910544.1334                   21910545.1604
        45.7504         32.5004
  -5453533.75446  -4216666.40645  23583616.3134                   23583621.6334
        39.7504         32.2504
  -4884411.53147  -3780434.12946  20937113.6724                   20937113.4304
        47.7504         37.2504
   3921747.59046   3165244.86342  24919023.0394                   24919034.2814
        36.0004         17.2504
   6428867.82447   5010288.46547  22197760.9304                   22197763.0904
        46.7504         44.2504
   8728609.41445   6793652.28944  25239318.9924                   25239332.9024
        34.7504         25.2504
 25  8  7 21 29  0.0000000  0 10G25G02G31G10G01G03G28G04G32G08
   2367825.64545   1866545.80544  24587082.3054                   24587087.2814
        34.2504         25.7504
  -3361043.10247  -2600661.38746  21379779.3914                   21379777.5044
        47.7504         37.5004
 -11479933.54348  -8884118.87147  21161944.3834                   21161944.6254
        49.0004         44.5004
   5521225.54347   4304493.07046  22778726.8134                   22778729.5474
        43.7504         39.2504
  -9918008.87947  -7674094.41845  21887273.7734                   21887275.0354
        45.0004         33.2504
  -5599248.18046  -4330210.00445  23555888.4844                   23555893.1564
        38.7504         33.0004
  -4951256.81247  -3832521.34046  20924393.1564                   20924392.4344
        47.5004         37.2504
   3778782.59046   3053843.78942  24891818.2734                   24891827.6214
        36.7504         15.5004
   6433463.30147   5013869.33647  22198635.3754                   22198637.5314
        47.0004         44.0004
   8744840.92245   6806299.90243  25242408.6564                   25242421.1294
        35.7504         23.7504
 25  8  7 21 29 30.0000000  0 10G25G02G31G10G01G03G28G04G32G08
   2280085.14545   1798176.66844  24570386.2974                   24570391.4884
        34.5004         24.7504
  -3418417.76647  -2645368.94146  21368861.6804                   21368859.3594
        47.7504         37.5004
 -11614168.66048  -8988717.59047  21136400.6804                   21136400.4494
        48.7504         44.2504
   5522350.34447   4305369.44946  22778940.7504                   22778944.0394
        43.0004         38.5004
 -10039933.57447  -7769100.62145  21864072.5394                   21864073.6254
        45.7504         33.0004
  -5745041.33646  -4443814.94145  23528144.5234                   23528149.5394
        39.5004         32.5004
  -5017589.91447  -3884209.44946  20911770.3204                   20911770.1644
        47.5004         37.2504
   3635858.69146   2942474.66042  24864619.6254                   24864631.3594
        36.7504         16.7504
   6438085.16047   5017470.76647  22199515.4224                   22199517.0594
        46.7504         44.5004
   8760914.46555   6818824.35553  25245467.9384                   25245481.9924
        33.0004         23.7504
 25  8  7 21 30  0.0000000  0 10G25G02G31G10G01G03G28G04G32G08
   2192719.28945   1730099.35244  24553761.1564                   24553764.9494
        34.5004         25.5004
  -3475349.40647  -2689731.28546  21358027.9534                   21358025.6484
        47.5004         37.2504
 -11748003.26248  -9093004.21547  21110932.4614                   21110932.6254
        49.0004         44.5004
   5523647.10947   4306379.83246  22779187.3134                   22779191.1994
        43.5004         39.0004
 -10161486.78547  -7863817.36745  21840941.6024                   21840942.3364
        45.2504         33.5004
  -5890904.47746  -4557474.41045  23500387.7344                   23500392.5274
        39.7504         34.0004
  -5083402.95748  -3935492.32046  20899246.5164                   20899246.4224
        48.0004         37.0004
   3492983.90246   2831143.85942  24837431.9064                   24837441.4574
        36.7504         17.7504
   6442739.89547   5021097.81347  22200401.1024                   22200402.6414
        47.7504         44.2504
   8776835.38755   6831229.99653  25248495.4224                   25248510.0744
        33.0004         22.2504
 25  8  7 21 30 30.0000000  0 10G25G02G31G10G01G03G28G04G32G08
   2105732.55945   1662317.52343  24537207.5084                   24537212.7234
        33.2504         22.5004
  -3531835.41447  -2733746.38346  21347278.9774                   21347276.9734
        47.0004         37.5004
 -11881432.30948  -9196974.82447  21085541.9224                   21085541.5824
        49.2504         44.5004
   5525118.43447   4307526.23046  22779467.9064                   22779471.6994
        43.5004         39.0004
 -10282663.84847  -7958240.99645  21817881.8674                   21817882.9144
        45.7504         33.0004
  -6036834.09846  -4671185.66445  23472617.9224                   23472623.1294
        39.7504         34.0004
  -5148693.46547  -3986368.01646  20886822.2344                   20886821.8094
        47.7504         37.2504
   3350161.43845   2719853.78142  24810253.3984                   24810263.4184
        34.7504         15.5004
   6447428.80547   5024751.49247  22201293.5314                   22201294.9104
        47.5004         44.2504
                                  25251497.6254                   25251509.1374
        28.0004         21.2504
 25  8  7 21 31  0.0000000  0 10G25G02G31G10G01G03G28G04G32G08
   2019129.40645   1594834.59444  24520727.8594                   24520733.0864
        33.7504         24.2504
  -3587873.44147  -2777412.40246  21336615.4534                   21336613.5204
        46.7504         37.5004
 -12014450.99248  -9300625.66847  21060228.9534                   21060229.1334
        49.0004         44.7504
   5526766.77747   4308810.57846  22779781.7814                   22779784.7814
        42.5004         38.7504
 -10403460.20747  -8052367.98845  21794895.3444                   21794896.1564
        45.2504         33.0004
  -6182827.05146  -4784946.28145  23444836.4534                   23444841.3134
        39.0004         33.5004
  -5213459.11747  -4036834.74246  20874497.7734                   20874497.4414
        47.5004         38.0004
   3207393.70346   2608606.46542  24783085.8284                   24783095.4344
        37.5004         16.2504
   6452152.90247   5028432.59847  22202192.4224                   22202194.0044
        46.7504         44.5004
   6323263.78955   6852169.05553  25254471.3364                   25254483.0004
        33.5004         22.2504
 25  8  7 21 31 30.0000000  0 10G25G02G31G10G01G03G28G04G32G08
   1932913.67655   1527653.55153  24504320.2194                   24504325.9104
        32.2504         22.2504
  -3643461.73448  -2820727.98046  21326037.0704                   21326035.4614
        48.0004         37.2504
 -12147054.93748  -9403953.33647  21034995.2344                   21034995.2034
        48.5004         45.0004
   5528594.21147   4310234.46546  22780129.5784                   22780132.4694
        43.5004         38.7504
 -10523871.65647  -8146195.04345  21771981.6804                   21771983.0944
        45.0004         34.0004
  -6328880.39846  -4898753.95745  23417042.8444                   23417048.3404
        39.0004         32.7504
  -5277698.04347  -4086891.02746  20862273.4774                   20862273.0554
        47.0004         37.5004
   3064683.07846   2497403.52042  24755929.2664                   24755937.6764
        38.2504         16.7504
   6456912.98447   5032141.72747  22203098.4304                   22203099.8014
        47.5004         44.2504
   6338725.28155   6864217.00453  25257411.4304                   25257426.9384
        33.5004         22.7504
 25  8  7 21 32  0.0000000  0 10G25G02G31G10G01G03G28G04G32G08
   1847087.93845   1460776.44544  24487989.2974                   24487994.1604
        35.0004         26.0004
  -3698599.68047  -2863692.63746  21315544.8834                   21315542.4774
        47.0004         37.5004
 -12279241.16048  -9506955.50847  21009840.9064                   21009840.9964
        48.5004         44.5004
   5530601.40247   4311798.42646  22780511.3054                   22780514.5634
        42.7504         39.0004
 -10643895.40247  -8239719.99645  21749142.0004                   21749143.2974
        45.5004         34.5004
  -6474992.53146  -5012607.45745  23389238.2504                   23389243.8054
        38.2504         32.5004
  -5341409.60947  -4136536.37946  20850149.2424                   20850148.8794
        46.0004         37.7504
   2922030.85545   2386246.15642  24728781.1644                   24728791.8054
        35.7504         16.7504
   6461708.42247   5035878.41447  22204010.4454                   22204012.2624
        47.2504         44.2504
   6354028.10254   6876140.42653  25260321.9774                   25260338.3674
        28.7504         22.0004
 25  8  7 21 32 30.0000000  0 10G25G02G31G10G01G03G28G04G32G08
   1761656.53545   1394206.60244  24471731.5704                   24471737.0044
        33.2504         24.2504
  -3753284.73047  -2906304.39546  21305138.3674                   21305136.2114
        47.0004         38.0004
 -12411004.73848  -9609628.35247  20984767.1414                   20984767.2154
        48.2504         44.7504
   5532790.84847   4313504.40246  22780928.1094                   22780931.4184
        42.7504         38.5004
 -10763526.83647  -8332939.24645  21726376.9224                   21726377.7234
        45.7504         33.2504
  -6621160.10246  -5126504.14145  23361424.1414                   23361428.9574
        38.0004         33.0004
  -5404591.52047  -4185769.00846  20838126.3674                   20838125.7854
        46.2504         37.5004
   2779439.54346   2275136.20342  24701649.5234                   24701657.1914
        37.7504         15.5004
   6466540.38347   5039643.54747  22204930.0234                   22204931.3714
        46.7504         44.0004
   6369176.28955   6887944.04754  25263209.0004                   25263221.4304
        35.0004         25.0004
 25  8  7 21 33  0.0000000  0 10G25G02G31G10G01G03G28G04G32G08
   1676621.60546   1327945.69144  24455550.8364                   24455554.3714
        36.5004         26.0004
  -3807516.65248  -2948563.05546  21294818.6174                   21294816.5234
        48.0004         37.0004
 -12542342.91048  -9711969.72347  20959774.7034                   20959773.9964
        49.0004         44.5004
   5535163.02347   4315352.77346  22781379.6024                   22781383.5204
        43.0004         38.5004
 -10882763.37947  -8425850.80145  21703687.0784                   21703688.0904
        45.5004         33.0004
  -6767381.74246  -5240442.96145  23333598.7274                   23333603.4804
        38.2504         32.7504
  -5467243.56647  -4234588.76646  20826204.0704                   20826203.7234
        47.7504         37.0004
   2636909.94546   2164074.32842  24674525.7664                   24674534.7934
        36.7504         17.2504
   6471408.04747   5043436.50847  22205856.5704                   22205857.8204
        47.0004         44.0004
   6384166.34045   6899624.39543  25266058.6414                   25266073.9494
        30.2504         22.7504
 25  8  7 21 33 30.0000000  0 10G25G02G31G10G01G03G28G04G32G08
   1591984.22345   1261994.53944  24439444.5944                   24439449.5944
        35.7504         27.2504
  -3861296.85248  -2990469.72346  21284584.3134                   21284582.5044
        48.0004         37.5004
 -12673254.11748  -9813978.37947  20934862.9534                   20934862.4804
        48.7504         45.0004
   5537717.08247   4317342.85946  22781865.8674                   22781869.2934
        42.7504         38.2504
 -11001603.90647  -8518453.75845  21681072.5864                   21681073.0634
        45.0004         33.5004
  -6913657.44146  -5354423.88345  23305763.3364                   23305768.5274
        38.0004         33.0004
  -5529366.85947  -4282996.50046  20814382.5164                   20814382.0004
        47.0004         37.5004
   2494441.37946   2053060.03142  24647414.2274                   24647424.2154
        36.7504         17.2504
   6476309.18847   5047255.55147  22206789.0474                   22206790.8054
        46.5004         44.0004
   6398994.46555   6911178.38753  25268880.0864                   25268896.2074
        30.5004         22.0004
 25  8  7 21 34  0.0000000  0 10G25G02G31G10G01G03G28G04G32G08
   1507747.71545   1196355.84844  24423414.8914                   24423420.3284
        34.0004         25.0004
  -3914623.65647  -3032023.10946  21274436.6024                   21274434.9104
        47.7504         37.5004
 -12803734.57848  -9915651.38747  20910033.0474                   20910032.8164
        49.2504         45.0004
   5540454.39847   4319475.74246  22782386.5394                   22782390.1954
        43.2504         38.7504
 -11120044.75847  -8610745.28945  21658533.5704                   21658534.7074
        44.2504         33.5004
  -7059984.82046  -5468445.10245  23277918.1414                   23277923.4184
        38.0004         33.2504
  -5590960.10947  -4330991.21546  20802661.2424                   20802661.2934
        45.2504         37.5004
   2352035.74246   1942094.79342  24620314.4844                   24620325.2934
        36.7504         16.7504
   6481244.11747   5051100.91847  22207728.5234                   22207729.9144
        47.0004         44.0004
   6413659.45755   6922605.28154  25271673.1254                   25271688.2424
        35.2504         26.2504
 25  8  7 21 34 30.0000000  0 10G25G02G31G10G01G03G28G04G32G08
   1423910.69545   1131028.30544  24407460.8134                   24407464.9734
        35.5004         25.5004
  -3967500.30948  -3073225.70746  21264375.0004                   21264372.8404
        48.0004         37.5004
 -12933785.02348 -10016989.32047  20885285.3054                   20885284.7584
        49.0004         45.2504
   5543371.98047   4321749.09446  22782941.6884                   22782945.6024
        42.7504         38.5004
 -11238086.96547  -8702726.17245  21636070.9224                   21636071.5394
        45.0004         33.2504
  -7206365.88746  -5582508.12145  23250062.4064                   23250067.5234
        38.5004         33.5004
  -5652026.63347  -4378575.50046  20791040.8444                   20791040.9024
        47.5004         37.7504
   2209690.39846   1831176.49242  24593227.6254                   24593237.6724
        37.5004         17.2504
   6486208.50847   5054969.24647  22208673.1334                   22208674.5084
        47.2504         44.2504
   6428155.58645   6933900.80144  25274430.9614                   25274445.6604
        33.2504         24.2504
 25  8  7 21 35  0.0000000  0 10G25G02G31G10G01G03G28G04G32G08
   1340475.18045   1066013.72743  24391582.4774                   24391588.9844
        33.0004         22.5004
  -4019926.83248  -3114077.55546  21254398.4844                   21254396.3284
        48.0004         37.5004
 -13063402.78548 -10117990.10547  20860619.4844                   20860619.4344
        48.7504         45.0004
   5546470.04347   4324163.09046  22783531.1094                   22783534.8914
        42.7504         38.5004
 -11355728.18747  -8794394.61745  21613684.7194                   21613685.2234
        44.7504         33.2504
  -7352799.51646  -5696612.10945  23222196.5314                   23222202.1724
        38.2504         33.0004
  -5712566.47347  -4425749.39146  20779520.7734                   20779520.4534
        47.0004         37.5004
   2067405.73846   1720305.52042  24566151.6724                   24566161.3594
        38.2504         17.2504
   6491201.38347   5058859.77047  22209623.1884                   22209625.0904
        46.0004         44.0004
   6442480.44145   6945062.69544  25277158.4224                   25277172.4144
        34.0004         25.7504
 25  8  7 21 35 30.0000000  0  9G25G02G31G10G01G03G28G04G32
   1257440.08246   1001311.12944  24375783.3284                   24375787.6954
        36.2504         26.5004
  -4071906.38747  -3154581.12146  21244506.8754                   21244505.0394
        47.7504         37.5004
 -13192588.72748 -10218654.40647  20836036.2584                   20836036.1644
        48.5004         45.0004
   5549745.60947   4326715.38346  22784154.2974                   22784158.1454
        42.5004         37.5004
 -11472969.41447  -8885751.36745  21591373.9304                   21591375.0744
        44.2504         33.2504
  -7499287.80546  -5810758.69945  23194320.6024                   23194326.2114
        38.2504         32.7504
  -5772582.89147  -4472515.40246  20768099.7584                   20768099.6684
        47.5004         37.5004
   1925178.91045   1609479.52742  24539086.1644                   24539096.4844
        35.2504         17.2504
   6496218.50847   5062769.19147  22210577.3524                   22210579.5664
        47.0004         44.0004
 25  8  7 21 36  0.0000000  0  9G25G02G31G10G01G03G28G04G32
   1174804.11345    936919.46144  24360057.3364                   24360061.4494
        34.5004         25.5004
  -4123442.42648  -3194739.09046  21234700.3594                   21234698.3164
        48.5004         37.7504
 -13321343.56648 -10318982.78547  20811535.5554                   20811534.7814
        48.5004         45.5004
   5553195.73047   4329403.68846  22784811.2194                   22784814.8984
        44.0004         38.7504
 -11589811.46147  -8976797.07045  21569139.7734                   21569140.9344
        44.5004         33.5004
  -7645832.59446  -5924949.32045  23166434.5634                   23166439.5784
        39.0004         33.2504
  -5832079.23847  -4518876.17246  20756778.1804                   20756777.9064
        47.7504         38.0004
   1783007.46545   1498696.66442  24512031.3054                   24512042.2734
        35.5004         16.2504
   6501255.67648   5066694.22347  22211536.5864                   22211538.4574
        48.0004         44.0004
 25  8  7 21 36 30.0000000  0  9G25G02G31G10G01G03G28G04G32
   1092571.36346    872842.10944  24344409.2664                   24344414.6214
        36.0004         26.5004
  -4174532.60548  -3234549.63346  21224977.8754                   21224975.7304
        48.0004         38.0004
 -13449662.44148 -10418971.44147  20787116.6884                   20787116.6724
        49.0004         46.0004
   5556822.77747   4332229.86346  22785501.5554                   22785505.4734
        43.5004         38.0004
 -11706249.84847  -9067528.24645  21546982.1334                   21546983.2234
        45.7504         34.0004
  -7792430.40646  -6039181.24645  23138537.3364                   23138542.5044
        38.7504         34.0004
  -5891053.27047  -4564829.94946  20745555.9694                   20745554.9964
        46.7504         37.5004
   1640894.15646   1387959.16042  24484989.2274                   24484998.5004
        37.2504         16.7504
   6506314.21547   5070635.90647  22212499.3674                   22212501.3364
        47.5004         44.2504
 25  8  7 21 37  0.0000000  0  9G25G02G31G10G01G03G28G04G32
   1010739.91046    809077.39144  24328837.1484                   24328841.5704
        36.7504         27.0004
  -4225180.91848  -3274015.86346  21215339.9224                   21215337.7974
        48.5004         38.0004
 -13577546.89548 -10518621.59847  20762781.5704                   20762780.9414
        49.5004         46.0004
   5560623.05147   4335191.00046  22786224.6484                   22786228.3554
        43.2504         38.5004
 -11822286.36347  -9157946.26245  21524901.2424                   21524902.3404
        45.5004         34.0004
  -7939084.07846  -6153456.70745  23110630.1564                   23110635.5634
        38.7504         34.5004
  -5949509.21947  -4610380.03146  20734431.9534                   20734431.2274
        46.2504         37.5004
   1498835.27345   1277264.08242  24457953.1804                   24457965.9224
        32.7504         15.5004
   6511389.09847   5074590.33247  22213464.5864                   22213466.7304
        47.2504         44.0004
 25  8  7 21 37 30.0000000  0  9G25G02G31G10G01G03G28G04G32
    929312.40646    745627.43444  24313341.1484                   24313345.3324
        36.2504         25.2504
  -4275386.61748  -3313137.19946  21205785.9844                   21205784.0164
        48.2504         37.7504
 -13704993.69948 -10617930.73047  20738528.7664                   20738528.5944
        49.5004         46.0004
   5564597.50447   4338287.87546  22786981.3204                   22786985.2154
        43.5004         39.0004
 -11937917.89147  -9248048.71945  21502897.5314                   21502897.9344
        44.7504         33.5004
  -8085791.53146  -6267774.08245  23082712.4534                   23082717.2774
        39.2504         34.2504
  -6007446.43747  -4655525.89546  20723406.6484                   20723406.0784
        45.5004         37.0004
   1356832.47746   1166612.70742  24430934.0164                   24430943.1564
        36.0004         15.5004
   6516480.27047   5078557.44547  22214433.5704                   22214435.5164
        47.0004         43.7504
 25  8  7 21 38  0.0000000  0  9G25G02G31G10G01G03G28G04G32
    848284.23846    682488.66844  24297923.1414                   24297927.5164
        37.5004         27.5004
  -4325156.48047  -3351918.93046  21196315.1804                   21196313.0354
        47.7504         37.0004
 -13832006.87148 -10716901.96547  20714358.8674                   20714358.7664
        48.7504         45.7504
   5568739.77347   4341515.52046  22787770.4304                   22787773.4924
        44.0004         39.0004
 -12053148.73847  -9337838.95745  21480969.3284                   21480970.4024
        45.7504         32.7504
  -8232558.09446  -6382137.50845  23054783.7664                   23054788.9494
        39.0004         34.5004
  -6064871.63347  -4700272.78546  20712479.0554                   20712478.9534
        46.5004         37.2504
   1214879.59045   1056000.21942  24403921.5704                   24403930.3524
        35.7504         16.7504
   6521580.18047   5082531.37147  22215404.1884                   22215406.1214
        46.7504         43.5004
 25  8  7 21 38 30.0000000  0  9G25G02G31G10G01G03G28G04G32
   2343082.04346   1847266.20344  24582372.5704                   24582378.0944
        36.2504         26.7504
  -2799066.79348  -2162758.15246  21486720.4304                   21486718.0984
        49.5004         38.0004
 -12383157.82048  -9587928.60547  20990065.8134                   20990065.4964
        49.0004         46.0004
   7148472.00047   5572475.59846  23088383.1174                   23088386.3914
        43.7504         39.0004
 -10592550.84847  -8199710.69945  21758912.1804                   21758912.9344
        45.2504         34.0004
  -6803955.47346  -5268940.54345  23326637.9924                   23326642.9734
        38.7504         34.0004
  -4546361.09047  -3517017.80546  21001442.0084                   21001441.7584
        45.5004         37.5004
   2648403.87145   2173032.24242  24676711.6174                   24676721.6844
        33.5004         16.7504
   8102109.82447   6314112.87947  22516168.8204                   22516170.8834
        46.2504         43.5004
 25  8  7 21 39  0.0000000  0  9G25G02G31G10G01G03G28G04G32
   2262863.55546   1784758.29344  24567106.9534                   24567111.6994
        36.5004         25.5004
  -2847959.84448  -2200856.64546  21477416.2344                   21477414.5944
        49.0004         38.0004
 -12509291.21948  -9686214.30947  20966063.3594                   20966063.0944
        49.0004         45.7504
   7152955.81647   5575969.38346  23089235.9924                   23089239.8634
        44.5004         38.5004
 -10706968.37547  -8288867.17645  21737139.0004                   21737139.5204
        44.7504         33.5004
  -6950831.01646  -5383388.89545  23298688.0164                   23298693.0234
        39.0004         34.0004
  -4602757.56247  -3560963.10246  20990710.0474                   20990709.9844
        46.0004         37.5004
   2506557.55146   2062502.86742  24649720.2344                   24649728.0314
        36.7504         16.2504
   8107229.83647   6318102.46947  22517143.3364                   22517145.2584
        46.2504         43.2504
 25  8  7 21 39 30.0000000  0  9G25G02G31G10G01G03G28G04G32
   2183047.16845   1722563.73044  24551918.5864                   24551924.4694
        35.0004         25.2504
  -2896420.16848  -2238617.95346  21468194.5704                   21468192.6094
        48.2504         37.2504
 -12634986.59448  -9784158.68747  20942144.0394                   20942143.3594
        48.5004         45.5004
   7157605.33647   5579592.27746  23090121.1024                   23090124.6954
        43.7504         38.7504
 -10820981.21547  -8377708.30945  21715443.1484                   21715443.7234
        45.5004         33.2504
  -7097764.39146  -5497882.30945  23270727.1024                   23270732.4574
        39.0004         34.2504
  -4658645.33247  -3604511.99646  20980075.0394                   20980074.5664
        46.2504         37.5004
   2364760.00045   1952011.44542  24622735.1804                   24622744.8674
        34.5004         17.7504
   8112353.19947   6322094.66847  22518117.9304                   22518120.3244
        47.0004         43.2504
 25  8  7 21 40  0.0000000  0  9G25G02G31G10G01G03G28G04G32
   2103636.20746   1660685.12944  24536807.2034                   24536812.4574
        37.2504         26.0004
  -2944446.61748  -2276041.17646  21459055.5704                   21459053.1684
        48.5004         37.2504
 -12760240.04748  -9881758.71947  20918309.2114                   20918308.5594
        49.5004         45.7504
   7162422.04747   5583345.45346  23091037.7114                   23091041.7854
        43.5004         38.7504
 -10934585.96947  -8466231.44145  21693824.9064                   21693825.7194
        45.2504         34.0004
  -7244753.09846  -5612418.85545  23242756.6484                   23242761.4804
        39.0004         34.5004
  -4714023.49647  -3647663.80546  20969537.0554                   20969536.4304
        46.2504         37.2504
   2223012.85245   1841559.34042  24595760.3594                   24595770.7304
        33.5004         17.7504
   8117480.23847   6326089.73047  22519093.7114                   22519095.7814
        46.7504         43.0004
 25  8  7 21 40 30.0000000  0  9G25G02G31G10G01G03G28G04G32
   2024629.63746   1599121.57444  24521773.8524                   24521776.8404
        36.7504         24.0004
  -2992041.96548  -2313128.47346  21449998.5634                   21449996.1094
        48.5004         37.2504
 -12885052.34448  -9979014.98447  20894558.2114                   20894557.6054
        48.7504         46.0004
   7167403.28147   5587226.83246  23091985.3834                   23091989.6604
        43.2504         38.5004
 -11047783.25847  -8554437.07845  21672284.1884                   21672284.7384
        46.0004         34.0004
  -7391798.49646  -5726999.56245  23214775.0864                   23214779.3444
        38.5004         35.0004
  -4768895.08247  -3690420.87546  20959094.8054                   20959094.6914
        46.2504         37.5004
   2081313.99645   1731144.85942  24568796.9384                   24568805.9384
        34.5004         17.7504
   8122607.28147   6330084.80147  22520069.4304                   22520071.7034
        46.5004         43.0004
 25  8  7 21 41  0.0000000  0  9G25G02G31G10G01G03G28G04G32
   1946029.83646   1537875.03544  24506815.2114                   24506821.2194
        36.7504         26.0004
  -3039206.06248  -2349879.73446  21441023.6564                   21441021.0944
        49.0004         38.0004
 -13009420.27747 -10075925.00047  20870891.9144                   20870891.5004
        47.7504         45.7504
   7172549.80547   5591237.00046  23092964.6564                   23092968.8634
        43.0004         38.0004
 -11160570.24647  -8642323.00445  21650821.6724                   21650822.3054
        46.0004         34.2504
  -7538898.82446  -5841623.08245  23186782.8204                   23186787.1294
        38.7504         34.7504
  -4823259.83247  -3732783.00046  20948749.9064                   20948749.7304
        47.2504         37.2504
   1939664.28145   1620768.64842  24541842.1414                   24541851.1954
        33.5004         17.2504
   8127734.05147   6334079.66847  22521044.8594                   22521046.7544
        46.2504         42.7504
 25  8  7 21 41 30.0000000  0  9G25G02G31G10G01G03G28G04G32
   1867833.75046   1476943.13344  24491935.8364                   24491941.0984
        37.0004         25.2504
  -3085943.91848  -2386298.85546  21432129.6024                   21432127.6724
        48.7504         37.7504
 -13133346.42648 -10172490.77047  20847309.2194                   20847309.0124
        48.5004         45.5004
   7177856.91447   5595372.30146  23093974.9144                   23093979.4024
        42.7504         38.5004
 -11272949.66447  -8729891.35245  21629436.2034                   21629436.9534
        46.2504         33.7504
  -7686057.53946  -5956292.10545  23158779.1484                   23158783.5944
        39.0004         33.5004
  -4877122.87147  -3774754.18746  20938500.2734                   20938499.8054
        46.2504         37.5004
   1798059.52745   1510427.44542  24514894.2424                   24514903.9884
        34.5004         17.7504
   8132854.86347   6338069.87947  22522019.2504                   22522021.5394
        45.2504         42.7504
 25  8  7 21 42  0.0000000  0  9G25G02G31G10G01G03G28G04G32
   1790046.28146   1416329.58243  24477132.2344                   24477137.8714
        36.0004         23.7504
  -3132252.39848  -2422383.41446  21423317.3054                   21423315.3954
        48.0004         37.7504
 -13256825.22348 -10268707.94547  20823811.6954                   20823811.4574
        48.5004         45.7504
   7183327.99247   5599635.35946  23095016.1094                   23095020.2154
        42.0004         38.0004
 -11384916.17647  -8817137.94545  21608129.8984                   21608130.7504
        46.0004         34.5004
  -7833269.99546  -6071003.01345  23130764.8754                   23130769.7114
        38.5004         34.7504
  -4930481.48047  -3816332.31246  20928346.4454                   20928345.6724
        47.0004         37.5004
   1656503.39145   1400124.16043  24487956.8674                   24487966.5554
        33.5004         18.2504
   8137972.02747   6342057.25047  22522993.0554                   22522995.1334
        45.7504         43.0004
 25  8  7 21 42 30.0000000  0  9G25G02G31G10G01G03G28G04G32
   1712669.29346   1356035.89844  24462409.1724                   24462413.2114
        36.2504         26.0004
  -3178132.14148  -2458133.89146  21414586.4924                   21414584.5594
        48.2504         37.5004
 -13379854.28148 -10364574.68047  20800400.0234                   20800399.6804
        48.5004         46.0004
   7188963.12947   5604026.25046  23096088.6724                   23096093.2274
        43.0004         37.2504
 -11496467.64147  -8904061.12545  21586901.9924                   21586902.5084
        46.2504         34.2504
  -7980534.78946  -6185754.69545  23102741.4384                   23102745.8054
        39.7504         34.0004
  -4983335.91447  -3857517.56246  20918288.2664                   20918288.0664
        47.5004         37.5004
   1514996.25846   1289859.12143  24461030.1484                   24461038.5984
        37.5004         18.5004
   8143084.69947   6346041.10947  22523966.6094                   22523968.3984
        47.0004         42.5004
 25  8  7 21 43  0.0000000  0  9G25G02G31G10G01G03G28G04G32
   1635705.98846   1296064.56644  24447763.8444                   24447768.0084
        36.7504         24.5004
  -3223581.52348  -2493549.00846  21405938.3444                   21405935.6684
        48.7504         37.2504
 -13502429.86348 -10460088.05147  20777074.9384                   20777074.5394
        49.0004         46.0004
   7194764.18447   5608546.44946  23097192.5234                   23097196.5314
        42.2504         37.7504
 -11607600.33647  -8990657.98845  21565754.3444                   21565755.0394
        46.5004         34.5004
  -8127849.08646  -6300544.95745  23074708.2274                   23074713.2704
        39.0004         34.2504
  -5035685.07847  -3898309.10546  20908326.6334                   20908326.1764
        47.0004         37.0004
   1373540.40246   1179633.94543  24434110.6804                   24434120.1334
        36.7504         19.0004
   8148193.69547   6350022.11747  22524938.1884                   22524940.3754
        46.0004         42.2504
 25  8  7 21 43 30.0000000  0  9G25G02G31G10G01G03G28G04G32
   1559157.10246   1236416.13344  24433197.0004                   24433200.3364
        36.7504         24.2504
  -3268601.78148  -2528629.75046  21397371.0164                   21397369.0234
        49.0004         37.2504
 -13624550.69548 -10555247.07847  20753835.8524                   20753835.2774
        48.0004         46.2504
   7200730.21147   5613195.20346  23098327.8444                   23098332.2854
        42.5004         37.7504
 -11718313.12147  -9076927.65245  21544686.1644                   21544686.6954
        46.5004         33.5004
  -8275212.39846  -6415373.41845  23046666.0084                   23046670.3014
        39.7504         34.0004
  -5087530.37547  -3938708.02046  20898461.0634                   20898460.5864
        47.7504         37.7504
   1232135.01246   1069448.13343  24407202.9774                   24407211.3524
        37.0004         19.2504
   8153297.12947   6353998.77747  22525910.2274                   22525911.6884
        47.2504         42.2504
 25  8  7 21 44  0.0000000  0  9G25G02G31G10G01G03G28G04G32
   1483027.02746   1177094.06644  24418709.7814                   24418714.5274
        37.0004         25.0004
  -3313190.71948  -2563374.40646  21388886.2274                   21388884.2344
        49.0004         36.7504
 -13746211.78948 -10650047.86747  20730684.3914                   20730684.1094
        48.2504         45.7504
   7206864.00847   5617974.67246  23099495.0704                   23099499.3324
        42.7504         37.7504
 -11828601.23047  -9162866.39845  21523698.7194                   21523699.5824
        46.2504         33.5004
  -8422620.55546  -6530236.80945  23018615.5864                   23018619.5904
        39.2504         33.7504
  -5138869.50047  -3978712.51246  20888691.0784                   20888691.1414
        47.5004         37.5004
   1090783.46946    959304.28543  24380304.5314                   24380312.7274
        37.5004         19.5004
   8158397.00447   6357972.67647  22526879.9924                   22526881.7424
        47.5004         42.5004
 25  8  7 21 44 30.0000000  0  9G25G02G31G10G01G03G28G04G32
   1407313.97746   1118096.94144  24404300.8674                   24404306.4104
        37.5004         25.2504
  -3357352.06648  -2597785.87546  21380482.2114                   21380480.2704
        48.7504         36.5004
 -13867414.23048 -10744491.25447  20707620.2194                   20707619.9574
        48.5004         45.7504
   7213162.31646   5622882.32046  23100693.8444                   23100698.2814
        41.7504         38.0004
 -11938466.00447  -9248475.28145  21502792.4844                   21502793.3404
        47.2504         34.5004
  -8570075.64146  -6645136.77345  22990555.3984                   22990559.9144
        39.0004         33.5004
  -5189706.44947  -4018325.69146  20879017.3284                   20879016.8054
        47.5004         37.7504
    949482.63746    849199.93443  24353414.8594                   24353423.7384
        37.0004         19.2504
   8163488.94547   6361940.38747  22527849.2114                   22527851.2034
        47.0004         42.5004
 25  8  7 21 45  0.0000000  0  9G25G02G31G10G01G03G28G04G32
   1332021.51646   1059427.53544  24389974.8364                   24389978.1604
        38.0004         26.7504
  -3401084.47748  -2631863.11346  21372160.4924                   21372158.5164
        48.5004         37.7504
 -13988154.08248 -10838574.19147  20684644.1564                   20684644.0984
        48.0004         45.7504
   7219627.18047   5627919.75046  23101924.3134                   23101928.7504
        42.0004         37.0004
 -12047903.55547  -9333751.25445  21481967.4924                   21481968.1764
        47.2504         34.5004
  -8717574.34446  -6760070.71945  22962486.7894                   22962490.9144
        39.0004         33.7504
  -5240039.78947  -4057546.46146  20869438.6724                   20869438.5944
        47.7504         37.2504
    808235.07446    739137.13343  24326535.9844                   24326545.6684
        36.2504         19.0004
   8168574.10547   6365902.81647  22528816.7734                   22528818.5824
        47.2504         42.7504
 25  8  7 21 45 30.0000000  0  9G25G02G31G10G01G03G28G04G32
   1257148.88746   1001085.29344  24375725.4384                   24375731.8914
        37.2504         27.7504
  -3444390.37548  -2665607.99646  21363919.7894                   21363917.6294
        49.0004         37.5004
 -14108431.61347 -10932296.88747  20661756.0394                   20661755.6254
        47.5004         45.5004
   7226256.34047   5633085.20746  23103185.5634                   23103190.3134
        42.2504         37.0004
 -12156914.06647  -9418694.47345  21461223.4534                   21461223.6844
        47.2504         33.7504
  -8865117.47746  -6875039.28145  22934410.1564                   22934415.7114
        40.2504         34.7504
  -5289872.35248  -4096377.00046  20859956.6484                   20859956.3594
        48.2504         37.5004
    667038.75445    629114.26643  24299667.0864                   24299675.8524
        35.7504         19.7504
   8173649.38747   6369857.54347  22529782.9694                   22529784.8834
        47.0004         42.0004
 25  8  7 21 46  0.0000000  0  9G25G02G31G10G01G03G28G04G32
   1182699.66446    943072.98044  24361559.4924                   24361564.3554
        37.0004         26.0004
  -3487268.27048  -2699019.37146  21355760.3594                   21355758.1914
        48.5004         37.5004
 -14228242.35948 -11025655.84847  20638956.6414                   20638956.2774
        48.2504         45.7504
   7233051.86747   5638380.28546  23104479.1884                   23104483.5204
        43.2504         36.7504
 -12265493.51647  -9503301.80545  21440561.3594                   21440561.5704
        47.2504         34.2504
  -9012701.64846  -6990039.84445  22906326.3204                   22906330.8524
        40.0004         35.5004
  -5339202.68748  -4134816.19946  20850569.1804                   20850568.6524
        48.5004         37.2504
    525896.31646    519133.36343  24272808.7274                   24272817.4964
        36.0004         19.5004
   8178716.00447   6373805.52347  22530747.6564                   22530748.5864
        47.5004         42.5004
 25  8  7 21 46 30.0000000  0  9G25G02G31G10G01G03G28G04G32
   1108679.80146    885395.15644  24347473.5474                   24347477.7934
        37.0004         26.7504
  -3529714.11348  -2732094.09046  21347682.9614                   21347680.7934
        48.5004         37.0004
 -14347580.01248 -11118646.16847  20616247.5634                   20616247.0784
        48.2504         46.0004
   7240018.23847   5643808.52046  23105804.8984                   23105808.7854
        43.5004         36.7504
 -12373635.60247  -9587568.33245  21419982.7274                   21419982.8674
        47.2504         34.5004
  -9160321.02346  -7105067.82045  22878235.0004                   22878239.3984
        40.2504         35.0004
  -5388027.02348  -4172861.11346  20841277.9844                   20841277.5984
        48.0004         37.5004
    384812.30545    409197.95343  24245961.8984                   24245969.8914
        35.5004         19.5004
   8183777.53947   6377749.56347  22531709.9694                   22531711.9774
        47.0004         42.0004
 25  8  7 21 47  0.0000000  0  9G25G02G31G10G01G03G28G04G32
   1035086.42246    828049.69944  24333469.4384                   24333474.1994
        37.2504         26.5004
  -3571733.03548  -2764836.14146  21339687.1564                   21339684.8914
        49.0004         36.7504
 -14466446.87148 -11211269.63347  20593628.1174                   20593627.1054
        48.0004         45.5004
   7247151.05947   5649366.45346  23107162.3674                   23107166.4964
        42.5004         37.0004
 -12481342.69947  -9671495.90645  21399486.5704                   21399487.1174
        47.5004         34.0004
  -9307978.59046  -7220125.55145  22850136.7034                   22850141.1524
        40.0004         35.2504
  -5436350.39148  -4210515.66046  20832082.6334                   20832081.7154
        48.5004         37.5004
    243783.05546    299305.29743  24219125.0864                   24219132.4064
        38.5004         21.5004
   8188828.81347   6381685.59847  22532671.2734                   22532673.3204
        46.2504         42.2504
 25  8  7 21 47 30.0000000  0  9G25G02G31G10G01G03G28G04G32
    961925.12146    771040.95744  24319547.7814                   24319551.9384
        38.7504         28.0004
  -3613321.46548  -2797242.73846  21331773.3594                   21331771.3244
        48.7504         37.5004
 -14584836.77047 -11303521.44947  20571099.3674                   20571098.3164
        47.7504         45.7504
   7254454.42247   5655057.24646  23108551.8524                   23108556.0984
        42.0004         37.0004
 -12588608.87947  -9755079.91445  21379074.5164                   21379074.8754
        47.7504         35.0004
  -9455668.86346  -7335208.77345  22822031.5164                   22822036.4694
        40.0004         34.5004
  -5484169.45348  -4247777.25046  20822982.6174                   20822982.2774
        48.7504         37.7504
    102812.74646    189458.53543  24192298.5634                   24192306.3714
        37.0004         21.2504
   8193873.09447   6385616.18047  22533631.0944                   22533633.0234
        46.5004         42.0004
 25  8  7 21 48  0.0000000  0  9G25G02G31G10G01G03G28G04G32
    889193.66446    714367.09843  24305706.3834                   24305710.1884
        36.5004         23.7504
  -3654483.21948  -2829316.87146  21323940.8054                   21323938.3364
        48.5004         37.2504
 -14702751.35248 -11395402.88347  20548660.4614                   20548659.9734
        48.5004         46.0004
   7261924.66847   5660878.09846  23109973.2664                   23109978.1884
        42.5004         36.5004
 -12695435.93447  -9838321.74645  21358746.1954                   21358746.3794
        47.7504         35.7504
  -9603394.07046  -7450319.21545  22793920.7114                   22793924.6804
        41.0004         35.0004
  -5531488.54748  -4284649.25846  20813978.1334                   20813977.7544
        48.0004         37.5004
    -38101.89846     79655.15243  24165483.1334                   24165491.2194
        37.2504         21.5004
   8198905.85947   6389537.78946  22534589.2424                   22534590.6454
        46.5004         41.7504
 25  8  7 21 48 30.0000000  0  9G25G02G31G10G01G03G28G04G32
    816896.74646    658031.87144  24291948.4694                   24291952.2114
        37.0004         25.2504
  -3695215.84447  -2861056.61746  21316189.3524                   21316186.7894
        47.7504         37.2504
 -14820185.18448 -11486909.70747  20526313.3834                   20526312.7074
        49.0004         46.2504
   7269565.23047   5666831.66446  23111427.5944                   23111431.9614
        43.5004         36.0004
 -12801818.49648  -9921217.23045  21338501.9844                   21338502.2814
        48.0004         35.0004
  -9751149.34846  -7565453.09845  22765804.1414                   22765808.1884
        41.2504         35.7504
  -5578304.99248  -4321129.57846  20805069.4144                   20805069.1524
        48.2504         37.5004
   -178957.16846    -30101.95343  24138679.3594                   24138687.4534
        38.5004         20.5004
   8203929.71147   6393452.46546  22535544.4844                   22535546.9264
        46.2504         41.5004
 25  8  7 21 49  0.0000000  0  9G25G02G31G10G01G03G28G04G32
    745032.47346    602033.80544  24278273.7584                   24278278.4964
        37.5004         28.0004
  -3735523.46148  -2892465.18046  21308518.8674                   21308516.5784
        48.0004         37.0004
 -14937139.98848 -11578043.25847  20504058.1334                   20504057.4654
        48.7504         46.5004
   7277372.53147   5672915.15646  23112913.7274                   23112917.1914
        43.0004         36.2504
 -12907758.23848 -10003767.64545  21318342.0944                   21318342.6914
        48.0004         35.0004
  -9898936.83246  -7680612.06245  22737680.4614                   22737684.9024
        40.7504         35.7504
  -5624623.05547  -4357221.55946  20796255.2664                   20796254.9774
        47.7504         37.5004
   -319756.09846   -139815.23043  24111886.0394                   24111893.9024
        38.5004         20.7504
   8208940.35247   6397356.84046  22536498.5314                   22536500.0314
        46.0004         41.5004
 25  8  7 21 49 30.0000000  0  9G25G02G31G10G01G03G28G04G32
    673606.30945    546377.14843  24264680.5784                   24264686.5314
        35.5004         23.2504
  -3775402.19548  -2923539.55546  21300930.4384                   21300928.4494
        48.0004         37.2504
 -15053609.25048 -11668798.47347  20481894.3754                   20481893.6484
        49.0004         46.5004
   7285350.89147   5679131.94546  23114431.9694                   23114436.0554
        43.5004         37.2504
 -13013248.96947 -10085968.18445  21298268.5084                   21298268.3134
        47.5004         35.5004
 -10046750.62146  -7795791.53545  22709553.2344                   22709556.6054
        40.7504         35.7504
  -5670439.20348  -4392922.42646  20787536.8444                   20787536.3014
        48.2504         37.0004
   -460493.96546   -249480.88343  24085103.5084                   24085111.6684
        38.7504         21.5004
   8213941.37147   6401253.71546  22537450.6644                   22537452.1914
        46.0004         41.5004
 25  8  7 21 50  0.0000000  0  9G25G02G31G10G01G03G28G04G32
    602621.18446    491064.07844  24251173.1174                   24251176.3834
        38.2504         24.0004
  -3814851.19147  -2954279.06646  21293423.4924                   21293421.6334
        47.7504         37.0004
 -15169589.75448 -11759172.84047  20459824.2424                   20459823.7274
        49.0004         46.2504
   7293501.79346   5685483.16846  23115982.6024                   23115987.3444
        41.7504         36.0004
 -13118287.47347 -10167816.33645  21278279.6884                   21278280.1524
        47.7504         35.5004
 -10194587.93446  -7910989.33645  22681420.2734                   22681424.3164
        41.0004         35.7504
  -5715752.74648  -4428231.66446  20778913.9144                   20778913.0084
        48.2504         37.2504
   -601169.14546   -359097.68043  24058333.4774                   24058342.3754
        38.2504         20.7504
   8218933.36347   6405143.56346  22538399.8524                   22538401.8634
        46.0004         41.0004
 25  8  7 21 50 30.0000000  0  9G25G02G31G10G01G03G28G04G32
    532079.02046    436096.18044  24237749.8834                   24237753.3164
        37.2504         25.5004
  -3853870.66448  -2984683.89146  21285998.7424                   21285996.4494
        48.7504         37.5004
 -15285079.12948 -11849164.50847  20437847.4144                   20437846.5124
        49.0004         46.2504
   7301825.60947   5691969.14545  23117566.8364                   23117571.9104
        42.2504         35.2504
 -13222871.32047 -10249310.20745  21258378.5474                   21258378.2424
        47.2504         35.0004
 -10342446.68746  -8026203.84445  22653283.7894                   22653287.6484
        41.5004         35.5004
  -5760563.96548  -4463149.47746  20770386.3984                   20770385.7814
        48.5004         37.2504
   -741780.58646   -468664.82043  24031576.5474                   24031584.5044
        38.5004         21.7504
   8223916.19947   6409026.27746  22539348.7424                   22539350.1334
        46.0004         41.7504
 25  8  7 21 51  0.0000000  0  9G25G02G31G10G01G03G28G04G32
    461983.92646    381476.71543  24224410.2424                   24224415.1804
        36.0004         23.7504
  -3892458.57848  -3014752.44146  21278655.1484                   21278653.0004
        48.5004         36.7504
 -15400072.29348 -11938769.52347  20415964.8364                   20415963.9654
        49.5004         46.2504
   7310325.14847   5698592.05545  23119184.1884                   23119188.6954
        42.0004         35.2504
 -13326995.92647 -10330446.23445  21238563.6334                   21238564.3984
        47.2504         34.7504
 -10490322.50446  -8141431.64845  22625144.1334                   22625147.2114
        40.5004         35.7504
  -5804870.91048  -4497674.35946  20761955.1884                   20761954.7154
        48.0004         37.0004
   -882325.13346   -578179.82843  24004832.0864                   24004839.4694
        40.2504         20.5004
   8228891.86347   6412903.40646  22540295.5944                   22540297.0044
        47.0004         41.2504
 25  8  7 21 51 30.0000000  0  9G25G02G31G10G01G03G28G04G32
   1967759.98046   1554808.77343  24510949.8594                   24510954.1454
        36.0004         22.7504
  -2355193.57048  -1816883.62946  21571186.8834                   21571184.9304
        48.0004         37.2504
 -13939143.27748 -10800383.22347  20693970.0864                   20693969.0634
        48.7504         46.5004
   8894420.78947   6932952.18045  23420628.3134                   23420632.3594
        42.5004         35.0004
 -11855235.49648  -9183619.90245  21518630.5004                   21518630.8914
        48.0004         35.2504
  -9062788.46946  -7029067.35946  22896794.2974                   22896798.2664
        41.5004         36.0004
  -4273252.39148  -3304205.36346  21053412.2974                   21053411.8984
        48.5004         37.0004
    552622.71546    539961.55943  24277892.3914                   24277900.5314
        38.0004         20.5004
   9809280.03547   7644374.69946  22841033.2274                   22841035.0474
        46.0004         41.0004
 25  8  7 21 52  0.0000000  0  9G25G02G31G10G01G03G28G04G32
   1898563.05146   1500889.12544  24497782.3674                   24497787.4304
        36.2504         24.5004
  -2392919.82048  -1846280.74646  21564008.1564                   21564005.8054
        48.0004         37.0004
 -14053138.89848 -10889210.92247  20672277.2814                   20672276.6644
        48.7504         46.5004
   8903272.06647   6939849.15245  23422312.1564                   23422317.0274
        42.5004         35.5004
 -11958436.00847  -9264035.84845  21498991.8674                   21498992.6174
        46.7504         34.7504
  -9210693.77746  -7144318.13745  22868648.1254                   22868652.9694
        40.7504         35.5004
  -4316553.10548  -3337946.17646  21045172.5474                   21045172.0124
        48.0004         37.0004
    412213.03946    430551.66043  24251174.1644                   24251181.0634
        39.2504         20.7504
   9814239.48447   7648239.18846  22841976.7034                   22841978.6174
        46.5004         41.2504
 25  8  7 21 52 30.0000000  0 10G25G02G31G10G01G03G28G04G32G26
   1829817.79346   1447321.48844  24484700.5164                   24484705.8634
        36.5004         25.5004
  -2430215.59447  -1875342.42646  21556911.1954                   21556908.9654
        47.0004         37.0004
 -14166632.02048 -10977647.07047  20650680.3594                   20650679.5164
        48.7504         46.5004
   8912299.85247   6946883.68445  23424030.9064                   23424035.0784
        42.5004         35.7504
 -12061171.11347  -9344089.14845  21479441.9844                   21479442.4184
        47.7504         35.2504
  -9358610.71547  -7259577.98045  22840500.7274                   22840504.5824
        42.0004         35.7504
  -4359351.27347  -3371295.38346  21037028.4064                   21037027.9654
        47.7504         37.0004
    271872.17646    321195.35943  24224468.2814                   24224474.9924
        38.2504         20.0004
   9819190.47347   7652097.05146  22842919.8984                   22842921.0514
        47.0004         41.5004
   9198999.79755   7230521.31353  24753238.2584                   24753249.4144
        33.5004         19.2504
 25  8  7 21 53  0.0000000  0 10G25G02G31G10G01G03G28G04G32G26
   1761527.41446   1394108.29344  24471705.7584                   24471709.4184
        36.5004         24.5004
  -2467079.69147  -1904067.73846  21549896.2274                   21549894.4184
        47.5004         36.5004
 -14279619.10547 -11065688.90247  20629179.7424                   20629178.8954
        47.7504         46.2504
   8921505.94946   6954057.13345  23425781.9144                   23425786.5554
        41.2504         33.7504
 -12163437.10547  -9423776.90245  21459981.6724                   21459982.3364
        47.5004         35.0004
  -9506535.89846  -7374844.25046  22812351.3984                   22812355.6174
        41.7504         36.0004
  -4401645.87147  -3404252.19946  21028980.1954                   21028979.4964
        47.5004         37.0004
    131602.26246    211894.31343  24197774.6724                   24197782.5634
        38.0004         18.2504
   9824134.27347   7655949.35246  22843860.7734                   22843861.6724
        44.7504         41.0004
   9046707.66045   7111852.45743  24724257.1334                   24724268.6764
        33.0004         19.7504
 25  8  7 21 53 30.0000000  0 10G25G02G31G10G01G03G28G04G32G26
   1693688.31346   1341246.69144  24458796.1094                   24458799.4454
        38.5004         24.7504
  -2503517.87147  -1932461.16446  21542962.0084                   21542959.9844
        47.5004         36.7504
 -14392103.02348 -11153338.65647  20607774.4694                   20607774.0944
        48.2504         46.5004
   8930885.45747   6961365.73445  23427567.1414                   23427572.6644
        42.0004         35.5004
 -12265237.10947  -9503101.56645  21440610.0554                   21440610.1564
        46.5004         34.5004
  -9654472.59846  -7490119.49245  22784200.1804                   22784204.0784
        41.5004         35.7504
  -4443442.74248  -3436821.17646  21021026.0704                   21021025.8714
        48.0004         37.2504
     -8601.31246    102644.95743  24171095.1564                   24171102.3834
        39.0004         19.5004
   9829065.32047   7659791.72346  22844797.8054                   22844800.0314
        44.5004         40.7504
   8894281.21555   6993078.93053  24695251.1414                   24695262.1134
        33.5004         20.2504
 25  8  7 21 54  0.0000000  0 10G25G02G31G10G01G03G28G04G32G26
   1626304.42646   1288739.83644  24445973.3594                   24445977.8484
        37.2504         26.0004
  -2539528.00047  -1960521.03546  21536109.7344                   21536107.4064
        47.7504         36.5004
 -14504079.03148 -11240592.64147  20586466.3134                   20586465.5514
        48.0004         46.7504
   8940441.14847   6968811.60545  23429386.4844                   23429389.7504
        42.2504         34.7504
 -12366566.74647  -9582059.70745  21421327.3524                   21421327.8524
        47.2504         34.7504
  -9802416.49247  -7605400.32845  22756047.0394                   22756050.8634
        42.2504         35.7504
  -4484740.07847  -3469000.91046  21013167.7344                   21013167.0124
        47.7504         36.7504
   -148735.30146     -6550.19543  24144428.5164                   24144435.1954
        38.2504         19.0004
   9833985.62947   7663625.69946  22845734.5474                   22845736.8244
        45.5004         41.0004
   8741726.38345   6874205.34843  24666219.6884                   24666231.8134
        34.2504         21.0004
 25  8  7 21 54 30.0000000  0 10G25G02G31G10G01G03G28G04G32G26
   1559381.17246   1236591.89144  24433238.0554                   24433242.1954
        36.7504         24.0004
  -2575106.56247  -1988244.62146  21529339.5634                   21529337.1294
        47.5004         36.5004
 -14615541.65648 -11327446.57847  20565255.2974                   20565254.6254
        48.7504         46.7504
   8950177.08647   6976397.93445  23431238.7584                   23431243.5354
        42.0004         35.0004
 -12467419.99247  -9660646.63745  21402135.9304                   21402136.2734
        47.2504         34.2504
  -9950361.71947  -7720682.21146  22727894.6564                   22727898.0984
        42.2504         36.5004
  -4525534.53147  -3500788.79346  21005404.5084                   21005404.3014
        47.5004         36.2504
   -288794.95746   -115687.43743  24117775.3914                   24117782.6374
        38.0004         20.0004
   9838898.87947   7667454.18446  22846669.0784                   22846671.8054
        45.0004         41.0004
   8589050.33645   6755237.32843  24637167.1804                   24637178.4844
        34.5004         22.0004
 25  8  7 21 55  0.0000000  0 10G25G02G31G10G01G03G28G04G32G26
   1492917.45346   1184802.00044  24420591.6334                   24420593.6254
        37.0004         24.5004
  -2610256.39547  -2015634.13346  21522650.5704                   21522648.5274
        47.5004         36.7504
 -14726491.17648 -11413900.68747  20544142.4694                   20544141.6954
        49.5004         47.0004
   8960091.04346   6984123.00045  23433125.1564                   23433129.3984
        40.7504         33.0004
 -12567797.36347  -9738862.75445  21383034.5944                   21383034.6604
        47.2504         35.5004
 -10098308.87146  -7835965.59046  22699740.7894                   22699744.2274
        41.7504         36.7504
  -4565829.30947  -3532187.30946  20997736.3444                   20997736.2664
        47.0004         36.5004
   -428782.46146   -224768.45743  24091137.6254                   24091144.2704
        39.0004         19.7504
   9843802.18847   7671274.92246  22847602.5474                   22847604.6094
        45.2504         41.0004
   8436253.87945   6636175.46943  24608090.3364                   24608101.8554
        34.0004         22.5004
 25  8  7 21 55 30.0000000  0 10G25G02G31G10G01G03G28G04G32G26
   1426912.03546   1133369.22344  24408030.8984                   24408034.0514
        38.2504         26.2504
  -2644981.00847  -2042692.30946  21516042.7114                   21516041.1374
        47.0004         36.7504
 -14836928.30148 -11499955.52747  20523127.0394                   20523126.3714
        49.0004         47.2504
   8970180.52747   6991984.80945  23435045.3594                   23435050.3484
        42.5004         35.5004
 -12667699.69147  -9816708.70745  21364023.6724                   21364024.1524
        47.0004         35.0004
 -10246258.82847  -7951251.16046  22671586.5084                   22671590.2624
        42.0004         37.5004
  -4605627.87547  -3563199.17246  20990163.3284                   20990162.8134
        47.5004         37.0004
   -568699.76646   -333794.78543  24064512.1564                   24064519.0474
        39.0004         20.5004
   9848692.44947   7675085.48446  22848533.4614                   22848535.0594
        45.5004         40.5004
   8283337.56345   6517020.22343  24578991.4534                   24579002.2114
        35.2504         22.0004
 25  8  7 21 56  0.0000000  0 10G25G02G31G10G01G03G28G04G32G26
   1361370.23446   1082297.74244  24395558.1024                   24395563.3014
        36.7504         26.5004
  -2679277.14847  -2069416.62146  21509516.4614                   21509514.4304
        47.0004         37.0004
 -14946847.06648 -11585606.45747  20502210.1414                   20502209.2464
        49.0004         47.2504
   8980449.64147   6999986.59045  23437000.3204                   23437003.8794
        43.7504         35.5004
 -12767121.09047  -9894179.91045  21345104.3524                   21345104.5744
        47.0004         35.0004
 -10394205.70747  -8066534.33246  22643433.0394                   22643436.7194
        42.0004         36.5004
  -4644927.07047  -3593821.91446  20982685.1174                   20982684.7934
        47.2504         36.7504
   -708542.21146   -442762.69943  24037900.0084                   24037907.4614
        39.7504         20.2504
   9853573.23047   7678888.66446  22849461.9534                   22849463.8954
        45.5004         40.2504
   8130308.63745   6397777.18444  24549870.1804                   24549881.9964
        35.5004         24.5004
 25  8  7 21 56 30.0000000  0 10G25G02G31G10G01G03G28G04G32G26
   1296285.94545   1031582.74644  24383172.9064                   24383176.2934
        35.7504         24.5004
  -2713152.68047  -2095813.17646  21503069.9224                   21503067.7854
        47.5004         36.5004
 -15056252.85548 -11670857.66847  20481390.8984                   20481390.2854
        49.5004         47.2504
   8990891.06647   7008122.62145  23438986.8134                   23438991.4224
        43.2504         34.7504
 -12866067.01647  -9971280.61345  21326275.5394                   21326275.9844
        47.0004         35.0004
 -10542155.04747  -8181819.42646  22615279.4064                   22615282.9654
        42.2504         37.0004
  -4683735.06647  -3624061.89546  20975300.2894                   20975299.4694
        47.7504         36.2504
   -848316.65246   -551677.68043  24011300.9614                   24011308.4694
        39.7504         20.7504
   9858436.75447   7682678.41446  22850387.2034                   22850389.9304
        45.0004         40.2504
   7977162.99646   6278443.22344  24520727.4694                   24520737.8754
        36.7504         25.5004
 25  8  7 21 57  0.0000000  0 10G25G02G31G10G01G03G28G04G32G26
   1231668.14545    981231.25444  24370876.5084                   24370879.7814
        35.2504         24.5004
  -2746600.36347  -2121876.33646  21496705.2114                   21496703.1524
        47.0004         36.0004
 -15165136.44148 -11755701.97347  20460670.8594                   20460670.4064
        50.0004         47.2504
   9001512.55547   7016399.02745  23441007.7814                   23441012.8834
        42.7504         34.0004
 -12964528.13747 -10048003.53945  21307539.4454                   21307539.4734
        47.0004         35.2504
 -10690097.35947  -8297099.04346  22587126.8284                   22587130.1844
        42.2504         37.0004
  -4722045.09047  -3653913.85946  20968010.0394                   20968009.5634
        47.5004         36.5004
   -988015.11346   -660533.44943  23984717.6334                   23984724.7274
        39.0004         20.7504
   9863290.30147   7686460.36746  22851311.2344                   22851313.1604
        46.0004         40.2504
   7823911.59046   6159026.84044  24491564.3054                   24491575.2424
        37.0004         24.2504
 25  8  7 21 57 30.0000000  0 10G25G02G31G10G01G03G28G04G32G26
   1167515.34845    931242.12143  24358668.4924                   24358672.9414
        34.7504         22.2504
  -2779624.04347  -2147609.10946  21490421.0394                   21490419.0314
        47.7504         36.5004
 -15273498.60548 -11840139.96547  20440050.2584                   20440049.4224
        49.7504         47.0004
   9012311.55147   7024813.67245  23443063.6334                   23443067.7304
        42.7504         35.7504
 -13062505.26647 -10124349.32845  21288894.7114                   21288894.7304
        47.0004         34.7504
 -10838033.47746  -8412373.84046  22558975.4844                   22558979.0204
        41.2504         37.0004
  -4759860.77047  -3683380.61746  20960813.6174                   20960813.2424
        47.5004         36.7504
  -1127639.67246   -769331.63343  23958147.2584                   23958155.4224
        37.7504         20.2504
   9868130.69947   7690232.09446  22852232.0704                   22852234.5084
        45.5004         40.2504
   7670554.89546   6039528.38344  24462381.1414                   24462391.8714
        37.2504         26.2504
 25  8  7 21 58  0.0000000  0 10G25G02G31G10G01G03G28G04G32G26
   1103834.90246    881621.01643  24346550.3984                   24346554.0634
        36.0004         23.0004
  -2812217.97347  -2173007.01246  21484218.5634                   21484216.7194
        47.5004         36.5004
 -15381331.09848 -11924165.23047  20419530.4614                   20419529.4024
        49.2504         47.0004
   9023294.25846   7033371.51245  23445153.3674                   23445158.0164
        41.2504         35.0004
 -13159990.52048 -10200311.84445  21270343.9774                   21270344.0204
        48.0004         35.0004
 -10985955.35547  -8527637.54346  22530826.4614                   22530830.1024
        42.0004         36.5004
  -4797176.74247  -3712457.99645  20953712.8984                   20953712.3794
        47.0004         35.7504
  -1267183.65246   -878067.02043  23931594.1484                   23931600.3524
        38.0004         19.7504
   9872963.85947   7693998.16046  22853152.0944                   22853154.2194
        46.0004         40.7504
   7517102.39846   5919955.28144  24433180.3594                   24433191.0864
        37.7504         27.7504
 25  8  7 21 58 30.0000000  0 10G25G02G31G10G01G03G28G04G32G26
   1040625.19145    832366.69543  24334520.8364                   24334524.7894
        35.5004         22.0004
  -2844385.76248  -2198072.85946  21478097.0004                   21478095.6454
        48.0004         36.0004
 -15488635.46148 -12007778.97347  20399111.1094                   20399110.1334
        49.0004         47.0004
   9034457.89146   7042070.30945  23447277.5944                   23447282.3284
        41.2504         33.7504
 -13256984.97747 -10275891.91845  21251886.1484                   21251886.7974
        46.2504         35.0004
 -11133863.87547  -8642890.84446  22502680.6254                   22502684.0704
        42.5004         37.0004
  -4833996.81247  -3741148.94946  20946706.1954                   20946705.5784
        47.5004         37.0004
  -1406649.27046   -986741.33643  23905053.7194                   23905060.8444
        38.5004         20.5004
   9877786.42247   7697755.99246  22854068.9534                   22854072.0274
        44.7504         40.5004
   7363554.52046   5800307.84044  24403960.8594                   24403971.4494
        37.5004         29.5004
 25  8  7 21 59  0.0000000  0 10G25G02G31G10G01G03G28G04G32G26
    977889.63745    783481.91444  24322583.6414                   24322588.1764
        34.7504         24.5004
  -2876126.17647  -2222805.68746  21472057.1884                   21472055.6484
        47.2504         36.0004
 -15595407.46148 -12090977.87947  20378792.8444                   20378792.0474
        48.7504         47.2504
   9045804.72746   7050911.87545  23449437.6884                   23449442.1374
        41.2504         35.7504
 -13353484.72747 -10351086.51645  21233523.1094                   21233523.0784
        46.0004         34.7504
 -11281755.09047  -8758130.66846  22474537.4924                   22474541.0044
        42.5004         37.2504
  -4870319.77347  -3769452.54746  20939794.4454                   20939793.9104
        47.0004         36.5004
  -1546033.91846  -1095352.57043  23878529.9064                   23878536.4144
        37.5004         20.5004
   9882600.18447   7701506.94946  22854985.7424                   22854987.7504
        45.7504         40.5004
   7209916.75046   5680590.37144  24374724.5004                   24374734.7624
        37.5004         29.5004
 25  8  7 21 59 30.0000000  0 10G25G02G31G10G01G03G28G04G32G26
    915629.17245    734967.26243  24310736.1724                   24310740.0824
        34.0004         23.2504
  -2907439.89547  -2247206.01646  21466098.5164                   21466096.4304
        46.7504         36.2504
 -15701645.57048 -12173760.77347  20358576.2814                   20358575.8324
        49.2504         47.5004
   9057334.67246   7059896.08645  23451630.8594                   23451635.8794
        39.7504         32.7504
 -13449488.23047 -10425894.41445  21215254.0084                   21215253.9304
        46.5004         35.0004
 -11429627.14847  -8873355.57046  22446398.3364                   22446402.1134
        42.7504         36.7504
  -4906146.72347  -3797369.64546  20932976.4304                   20932976.1374
        47.0004         36.5004
  -1685337.20346  -1203900.35243  23852020.6954                   23852027.9104
        38.5004         21.0004
   9887404.66047   7705250.68446  22855899.5634                   22855902.1054
        44.5004         40.0004
   7056192.19146   5560805.25845  24345471.7344                   24345481.7894
        37.5004         30.2504
 25  8  7 22  0  0.0000000  0 10G25G02G31G10G01G03G28G04G32G26
    853847.03145    686825.36344  24298978.8204                   24298983.8634
        33.5004         24.7504
  -2938325.48447  -2271272.74646  21460221.1804                   21460218.7624
        47.7504         36.0004
 -15807345.88748 -12256124.60947  20338462.6724                   20338461.3554
        49.2504         47.7504
   9069049.84846   7069024.71145  23453860.8984                   23453865.6294
        40.5004         34.5004
 -13544991.63747 -10500312.62945  21197080.4614                   21197080.9384
        46.5004         35.2504
 -11577476.07847  -8988562.43446  22418263.0634                   22418266.9924
        42.0004         37.2504
  -4941476.55147  -3824899.37146  20926253.3364                   20926252.8484
        46.5004         37.0004
  -1824556.50046  -1312382.68443  23825528.8134                   23825535.2584
        37.7504         21.7504
   9892201.64147   7708988.57046  22856812.7344                   22856815.1134
        45.5004         40.2504
   6902386.28546   5440956.75045  24316202.9694                   24316213.3444
        38.2504         30.7504
 25  8  7 22  0 30.0000000  0 10G25G02G31G10G01G03G28G04G32G26
    792543.41845    639056.33643  24287313.3984                   24287317.8054
        35.0004         23.0004
  -2968785.07047  -2295007.52345  21454425.0784                   21454422.9384
        46.5004         35.7504
 -15912507.66048 -12338068.80547  20318450.7114                   20318450.2114
        49.7504         47.7504
   9080949.40246   7078296.91445  23456125.5314                   23456129.3524
        41.5004         33.2504
 -13639994.36347 -10574340.71145  21179002.1174                   21179002.1804
        45.5004         35.2504
 -11725300.93747  -9103750.54346  22390133.5394                   22390136.8164
        42.2504         37.2504
  -4976311.16447  -3852043.21946  20919624.6174                   20919623.9144
        46.5004         36.5004
  -1963692.31246  -1420799.95343  23799051.7664                   23799058.8874
        39.5004         22.0004
   9896989.75047   7712719.53546  22857723.8984                   22857726.2854
        45.0004         40.0004
   6748501.40246   5321046.69145  24286919.2344                   24286929.8204
        39.0004         30.5004
 25  8  7 22  1  0.0000000  0 10G25G02G31G10G01G03G28G04G32G26
    731717.78946    591659.75444  24275738.5164                   24275742.5594
        36.2504         25.5004
  -2998820.87947  -2318412.07446  21448709.6174                   21448707.7194
        47.2504         36.5004
 -16017130.99248 -12419593.43447  20298541.5314                   20298540.6254
        50.5004         47.5004
   9093031.68446   7087711.56345  23458424.7274                   23458428.8754
        40.7504         33.0004
 -13734496.22347 -10647978.50845  21161018.7274                   21161019.1134
        47.2504         34.5004
 -11873101.37947  -9218919.62946  22362008.3364                   22362011.5554
        42.5004         37.5004
  -5010653.23047  -3878803.26246  20913089.7274                   20913088.9574
        46.5004         36.7504
  -2102745.70346  -1529152.94943  23772589.7344                   23772597.4534
        39.0004         21.7504
   9901767.07447   7716442.11346  22858632.2814                   22858635.4344
        45.5004         40.0004
   6594539.30946   5201076.47345  24257620.8054                   24257631.5704
        39.7504         31.0004
 25  8  7 22  1 30.0000000  0 10G25G02G31G10G01G03G28G04G32G26
    671373.16046    544638.02344  24264255.7664                   24264259.5044
        36.5004         26.0004
  -3028431.82847  -2341485.58246  21443074.6254                   21443073.1054
        47.5004         37.2504
 -16121212.36348 -12500695.75047  20278735.6954                   20278734.5354
        49.7504         47.5004
   9105298.61347   7097270.03945  23460759.1334                   23460763.0514
        42.5004         34.0004
 -13828493.69147 -10721223.28146  21143132.0634                   21143131.6214
        46.7504         36.0004
 -12020873.46547  -9334066.61746  22333887.4924                   22333890.9884
        42.2504         37.7504
  -5044501.91047  -3905178.84046  20906648.4144                   20906647.5204
        47.2504         37.0004
  -2241714.32046  -1637439.92643  23746145.9224                   23746152.3204
        39.2504         21.5004
   9906535.19147   7720157.50846  22859539.8594                   22859542.6334
        44.7504         39.7504
   6440505.21146   5081050.14545  24228309.2664                   24228319.2344
        39.7504         31.7504
 25  8  7 22  2  0.0000000  0 10G25G02G31G10G01G03G28G04G32G26
    611512.10946    497993.06644  24252864.9384                   24252868.5664
        36.2504         25.2504
  -3057617.09847  -2364227.38346  21437520.7034                   21437519.1724
        47.7504         36.0004
 -16224748.69948 -12581373.37147  20259033.1884                   20259032.0124
        49.5004         47.5004
   9117751.83647   7106973.71545  23463128.4454                   23463133.1604
        42.2504         34.5004
 -13921983.67647 -10794072.60545  21125341.2664                   21125341.7814
        46.7504         34.7504
 -12168613.77047  -9449188.84046  22305773.9694                   22305777.0314
        42.0004         37.2504
  -5077856.62947  -3931169.50846  20900301.2274                   20900300.2704
        46.7504         36.7504
  -2380596.12946  -1745659.20743  23719716.3204                   23719723.3954
        39.0004         20.5004
   9911295.38747   7723866.70746  22860446.7734                   22860448.5864
        44.2504         39.5004
   6286404.02046   4960971.52945  24198984.8594                   24198994.7814
        40.0004         32.7504
 25  8  7 22  2 30.0000000  0 10G25G02G31G10G01G03G28G04G32G26
    552135.44945    451725.54743  24241565.2344                   24241568.4264
        35.0004         22.7504
  -3086377.92247  -2386638.44546  21432047.6804                   21432045.8674
        47.5004         36.2504
 -16327738.35548 -12661625.00847  20239434.9774                   20239433.9144
        50.0004         47.7504
   9130391.23046   7116822.40245  23465533.7504                   23465538.7974
        40.7504         34.0004
 -14014964.66047 -10866525.31645  21107647.7894                   21107647.7974
        47.0004         34.7504
 -12316320.46147  -9564284.86346  22277665.8914                   22277669.5474
        42.7504         37.2504
  -5110718.64547  -3956776.26246  20894047.5634                   20894046.8984
        46.2504         37.0004
  -2519390.64846  -1853810.50843  23693305.1254                   23693311.9654
        39.5004         21.7504
   9916047.17647   7727569.37946  22861350.5004                   22861352.4304
        44.2504         39.0004
   6132238.89146   4840843.09445  24169647.5864                   24169657.5634
        39.7504         32.0004
 25  8  7 22  3  0.0000000  0 10G25G02G31G10G01G03G28G04G32G26
    493245.46945    405837.30943  24230357.4224                   24230362.3954
        35.2504         22.2504
  -3114713.68448  -2408718.30146  21426655.9774                   21426654.0944
        48.0004         36.5004
 -16430178.56648 -12741448.52047  20219941.1174                   20219940.1454
        49.5004         47.7504
   9143218.04346   7126817.19545  23467975.1254                   23467979.8204
        41.0004         34.0004
 -14107433.80547 -10938579.18445  21090051.3914                   21090051.6724
        47.0004         34.7504
 -12463990.22747  -9679352.12946  22249565.1094                   22249568.5944
        42.5004         37.7504
  -5143087.74647  -3981998.93046  20887888.1644                   20887887.3554
        46.5004         36.5004
  -2658096.25446  -1961892.49643  23666909.8444                   23666916.6294
        39.0004         21.7504
   9920791.52047   7731266.26646  22862253.0784                   22862255.3794
        43.7504         39.0004
   5978014.51246   4720668.49645  24140299.7734                   24140309.7154
        39.0004         33.0004
 25  8  7 22  3 30.0000000  0 10G25G02G31G10G01G03G28G04G32G26
    434840.97346    360327.33644  24219244.4534                   24219248.8134
        36.0004         24.2504
  -3142627.73047  -2430469.54346  21421344.2814                   21421342.4734
        47.7504         36.5004
 -16532069.85548 -12820844.28147  20200551.6094                   20200550.5944
        48.7504         47.5004
   9156230.03547   7136956.23045  23470451.3754                   23470456.1954
        42.5004         34.0004
 -14199391.83647 -11010234.78145  21072551.9144                   21072552.4304
        46.5004         34.7504
 -12611623.37947  -9794390.85946  22221471.5234                   22221474.8984
        43.0004         37.7504
  -5174967.39547  -4006840.19146  20881821.6414                   20881820.9184
        47.0004         36.5004
  -2796714.76246  -2069906.64843  23640530.8594                   23640537.9144
        39.2504         21.5004
   9925525.89547   7734955.35246  22863153.7814                   22863156.1954
        43.5004         38.5004
   5823732.02346   4600448.62545  24110940.4224                   24110950.4964
        39.0004         32.5004
 25  8  7 22  4  0.0000000  0 10G25G02G31G10G01G03G28G04G32G26
   1952345.71545   1542798.58244  24508016.3444                   24508020.7584
        34.2504         25.7504
  -1594698.94948  -1224291.29746  21715905.1094                   21715903.3634
        48.5004         37.0004
 -15057986.50048 -11672207.85547  20481060.3364                   20481059.7384
        48.7504         47.5004
  10744847.76647   8374840.05545  23772755.3054                   23772759.8444
        42.0004         35.2504
 -12715413.10547  -9853887.71145  21354943.7814                   21354944.6134
        46.2504         34.2504
 -11183791.85247  -8681794.77346  22493179.0634                   22493182.2584
        42.5004         37.7504
  -3630936.50447  -2803699.22346  21175641.0634                   21175640.3404
        47.0004         37.2504
  -1359819.92246   -950248.03543  23913962.9454                   23913969.4384
        37.7504         21.0004
  11505670.93847   8966237.16846  23163845.2734                   23163847.7894
        43.5004         38.2504
   7244821.00046   5707790.93445  24381364.8754                   24381374.6214
        39.5004         32.5004
 25  8  7 22  4 30.0000000  0 10G25G02G31G10G01G03G28G04G32G26
   1894916.73445   1498048.79744  24497088.1954                   24497093.6214
        35.5004         25.0004
  -1621770.30547  -1245385.90246  21710753.4614                   21710751.5434
        47.5004         36.2504
 -15158774.03148 -11750743.55148  20461881.0314                   20461880.1644
        49.5004         48.0004
  10758231.88347   8385269.04745  23775302.3444                   23775307.6094
        42.5004         35.5004
 -12806342.48047  -9924741.76245  21337640.6644                   21337640.6764
        46.5004         35.2504
 -11331343.82447  -8796770.24646  22465100.8914                   22465103.6954
        42.0004         37.5004
  -3661838.62147  -2827778.78146  21169760.6024                   21169760.0124
        47.5004         37.0004
  -1498260.79346  -1058123.76643  23887618.8834                   23887624.8094
        39.0004         21.7504
  11510386.37547   8969911.51246  23164742.5554                   23164745.2854
        43.7504         38.7504
   7090434.24246   5587489.80945  24351986.0234                   24351995.4964
        39.7504         33.0004
 25  8  7 22  5  0.0000000  0 10G25G02G31G10G01G03G28G04G32G26
   1837974.88746   1453678.52744  24486251.9924                   24486256.5634
        36.5004         24.5004
  -1648423.67647  -1266154.80546  21705681.6644                   21705680.2384
        45.5004         37.2504
 -15259009.24248 -11828848.87947  20442807.0004                   20442805.6804
        49.7504         47.7504
  10771800.06346   8395841.51245  23777884.2274                   23777889.2114
        41.7504         34.0004
 -12896757.22347  -9995194.80145  21320435.2424                   21320435.6724
        46.5004         35.5004
 -11478854.12146  -8911713.25446  22437030.3914                   22437033.3984
        41.5004         37.0004
  -3692255.68047  -2851480.38346  21163972.1564                   21163971.8364
        45.5004         36.7504
  -1636614.06646  -1165931.25043  23861290.5474                   23861296.7274
        38.7504         21.2504
  11515090.03547   8973576.64146  23165639.1174                   23165640.1804
        44.5004         39.2504
   6935998.45746   5467150.49245  24322597.2584                   24322607.0864
        39.5004         33.0004
 25  8  7 22  5 30.0000000  0 10G25G02G31G10G01G03G28G04G32G26
   1781521.73845   1409689.06343  24475508.6804                   24475513.5514
        35.0004         22.7504
  -1674659.50047  -1286598.35246  21700689.2894                   21700687.6604
        46.5004         36.5004
 -15358690.14848 -11906522.27047  20423838.3204                   20423837.3594
        50.0004         47.7504
  10785553.01647   8406557.92245  23780501.0944                   23780506.9804
        42.0004         34.5004
 -12986655.11747 -10065245.09445  21303328.1644                   21303327.9104
        46.0004         34.7504
 -11626319.92647  -9026621.58246  22408968.1804                   22408971.9264
        42.0004         37.7504
  -3722188.11747  -2874804.34846  21158276.3524                   21158276.2624
        46.2504         36.0004
  -1774878.47346  -1273669.49643  23834979.2584                   23834985.4384
        38.5004         21.2504
  11519782.38747   8977232.97346  23166531.8134                   23166533.1764
        44.2504         38.7504
   6781517.86346   5346776.25845  24293200.2894                   24293210.2854
        40.5004         33.0004
 25  8  7 22  6  0.0000000  0 10G25G02G31G10G01G03G28G04G32G26
   1725555.66045   1366079.17244  24464860.3054                   24464863.9804
        35.5004         24.0004
  -1700481.33247  -1306719.28146  21695775.5704                   21695773.2664
        47.5004         36.2504
 -15457817.89148 -11983764.62547  20404975.1024                   20404974.0164
        49.7504         47.7504
  10799488.18046   8417416.30945  23783153.0554                   23783158.9924
        41.7504         34.2504
 -13076037.34847 -10134893.57845  21286319.0164                   21286319.2814
        46.0004         34.5004
 -11773741.91446  -9141495.77346  22380914.5314                   22380917.8954
        41.2504         38.2504
  -3751639.75447  -2897753.66046  21152671.8204                   21152670.6954
        47.0004         36.0004
  -1913056.26246  -1381340.22743  23808684.6484                   23808690.8984
        39.7504         22.0004
  11524460.50047   8980878.24246  23167421.8134                   23167423.6484
        45.0004         39.5004
   6626993.28546   5226367.73845  24263795.7034                   24263804.8714
        39.5004         32.5004
 25  8  7 22  6 30.0000000  0 10G25G02G31G10G01G03G28G04G32G26
   1670082.19945   1322853.08643  24454303.4064                   24454306.3594
        35.7504         23.2504
  -1725885.28947  -1326514.60246  21690941.2814                   21690939.5314
        47.5004         36.0004
 -15556386.24648 -12060571.09048  20386217.8834                   20386217.0634
        49.5004         48.0004
  10813610.13346   8428420.27345  23785840.2584                   23785846.6254
        40.7504         34.5004
 -13164897.66447 -10204135.35945  21269409.6884                   21269409.8674
        45.7504         35.0004
 -11921113.18046  -9256330.43446  22352870.0864                   22352874.2504
        41.7504         38.0004
  -3780606.98047  -2920325.52045  21147159.6564                   21147158.9184
        46.5004         35.5004
  -2051142.12946  -1488939.35243  23782407.3364                   23782413.5434
        39.7504         22.2504
  11529129.07847   8984516.06346  23168309.8204                   23168312.5124
        43.0004         39.0004
   6472432.92246   5105931.34445  24234382.8204                   24234392.8364
        38.7504         32.2504
 25  8  7 22  7  0.0000000  0 10G25G02G31G10G01G03G28G04G32G26
   1615098.96945   1280009.05143  24443839.7584                   24443844.0594
        34.0004         22.0004
  -1750875.64847  -1345987.66045  21686186.0704                   21686184.2384
        47.7504         35.5004
 -15654396.97748 -12136943.04348  20367567.1094                   20367566.0274
        49.0004         48.0004
  10827915.74247   8439567.32445  23788563.3674                   23788568.3714
        42.0004         35.0004
 -13253237.95747 -10272971.94145  21252598.9844                   21252599.2304
        46.2504         34.0004
 -12068434.88346  -9371126.47346  22324835.8834                   22324838.9144
        41.7504         37.5004
  -3809094.32447  -2942523.43446  21141738.6724                   21141737.7504
        47.5004         36.7504
  -2189138.85946  -1596469.00043  23756148.4454                   23756153.8484
        39.5004         22.5004
  11533784.54747   8988143.66046  23169195.8914                   23169198.2114
        43.5004         39.5004
   6317837.02046   4985467.25845  24204964.1564                   24204973.8054
        38.0004         32.0004
 25  8  7 22  7 30.0000000  0 10G25G02G31G10G01G03G28G04G32G26
   1560604.30145   1237545.65643  24433469.8914                   24433474.2074
        34.5004         22.2504
  -1775455.70347  -1365140.99246  21681508.6804                   21681506.9654
        47.5004         36.7504
 -15751851.41848 -12212881.52747  20349022.2974                   20349021.3524
        49.0004         47.7504
  10842402.44946   8450855.48045  23791319.1564                   23791325.8054
        40.7504         33.5004
 -13341059.25847 -10341404.10545  21235887.4614                   21235887.3164
        46.2504         34.7504
 -12215707.38347  -9485884.16846  22296811.4534                   22296814.1564
        42.0004         38.0004
  -3837105.44947  -2964350.27746  21136408.4924                   21136407.2424
        47.2504         36.2504
  -2327048.38346  -1703930.73443  23729904.2894                   23729909.8954
        40.2504         21.7504
  11538424.28547   8991759.00446  23170078.8524                   23170081.4304
        43.7504         38.7504
   6163206.41346   4864976.14245  24175538.6094                   24175548.3164
        38.0004         31.0004
 25  8  7 22  8  0.0000000  0 10G25G02G31G10G01G03G28G04G32G26
   1506598.79345   1195463.44543  24423193.1094                   24423197.2664
        34.2504         22.7504
  -1799626.87947  -1383975.71546  21676909.1644                   21676907.1254
        47.0004         37.0004
 -15848748.15648 -12288385.43448  20330583.0164                   20330582.3954
        48.2504         48.0004
  10857069.94147   8462284.53945  23794111.6094                   23794116.7974
        42.5004         34.2504
 -13428360.39847 -10409430.94545  21219274.1954                   21219274.1254
        46.0004         34.0004
 -12362928.71147  -9600601.99246  22268795.6254                   22268798.9344
        42.7504         38.7504
  -3864641.71547  -2985807.09846  21131168.5164                   21131167.5204
        47.5004         36.0004
  -2464870.47746  -1811324.34043  23703677.5944                   23703683.1804
        40.2504         22.5004
  11543047.92247   8995361.80546  23170958.7114                   23170961.1254
        43.5004         39.2504
   6008544.50846   4744460.63344  24146106.6564                   24146117.2894
        36.0004         29.0004
 25  8  7 22  8 30.0000000  0 10G25G02G31G10G01G03G28G04G32G26
   1453086.35946   1153765.48843  24413010.5004                   24413014.2074
        36.7504         23.5004
  -1823387.10247  -1402490.21545  21672387.7814                   21672385.3484
        46.5004         35.5004
 -15945082.99648 -12363451.49647  20312251.4454                   20312250.1484
        49.0004         47.7504
  10871921.39146   8473856.91045  23796937.1954                   23796943.5084
        41.0004         34.2504
 -13515136.86347 -10477048.96145  21202761.1644                   21202761.5274
        46.5004         35.0004
 -12510093.68047  -9715275.90646  22240791.1954                   22240794.5744
        42.5004         39.0004
  -3891701.31247  -3006892.48046  21126018.9844                   21126018.4024
        47.2504         36.5004
  -2602601.46946  -1918646.95343  23677467.5234                   23677473.4844
        40.5004         22.5004
  11547658.42647   8998954.37146  23171836.2424                   23171838.1134
        43.7504         39.2504
   5853857.86346   4623925.85544  24116670.8674                   24116680.7934
        36.0004         29.0004
 25  8  7 22  9  0.0000000  0 10G25G02G31G10G01G03G28G04G32G26
   1400067.98445   1112452.51243  24402920.8054                   24402925.3754
        34.2504         22.5004
  -1846737.10547  -1420685.05945  21667944.0784                   21667942.0434
        46.7504         35.5004
 -16040854.21948 -12438078.38748  20294026.7664                   20294025.4844
        48.5004         48.0004
  10886956.98047   8485572.76645  23799799.0864                   23799804.3364
        42.5004         34.7504
 -13601387.05147 -10544256.88745  21186348.7194                   21186348.4304
        46.5004         35.0004
 -12657199.84047  -9829903.99646  22212798.1094                   22212801.0044
        43.5004         39.2504
  -3918285.25447  -3027607.23846  21120959.9614                   21120959.3094
        46.7504         37.2504
  -2740240.62946  -2025898.02343  23651275.2194                   23651281.2464
        40.2504         22.0004
  11552255.91047   9002536.78946  23172711.0634                   23172713.4064
        43.5004         39.0004
   5699150.33246   4503374.79344  24087231.1024                   24087240.4654
        37.0004         29.0004
 25  8  7 22  9 30.0000000  0 10G25G02G31G10G01G03G28G04G32G26
   1347542.28946   1071523.39543  24392926.5634                   24392929.6054
        36.7504         23.5004
  -1869679.93447  -1438562.62545  21663578.3594                   21663577.0944
        46.7504         35.7504
 -16136062.48048 -12512266.59848  20275909.1024                   20275907.9224
        48.7504         48.0004
  10902174.56346   8497430.45345  23802695.4454                   23802700.6914
        41.0004         34.0004
 -13687111.68447 -10611055.29745  21170035.3444                   21170035.4144
        46.0004         34.2504
 -12804247.17247  -9944486.23846  22184815.6414                   22184818.5984
        43.7504         39.0004
  -3944396.87947  -3047953.95746  21115991.5004                   21115990.5314
        47.0004         36.7504
  -2877789.53946  -2133078.77043  23625101.3674                   23625106.5434
        40.5004         22.5004
  11556838.17247   9006107.34846  23173583.3674                   23173585.2894
        44.2504         39.2504
   5544423.27346   4382808.53544  24057786.8674                   24057796.6994
        36.7504         28.5004
 25  8  7 22 10  0.0000000  0 10G25G02G31G10G01G03G28G04G32G26
   1295510.35945   1030979.03144  24383024.6414                   24383028.8874
        35.5004         25.5004
  -1892216.71947  -1456123.80545  21659289.4304                   21659287.5514
        47.5004         35.5004
 -16230706.63348 -12586015.24248  20257898.7274                   20257897.6914
        49.0004         48.0004
  10917574.35946   8509430.11345  23805625.5704                   23805631.1724
        41.7504         34.2504
 -13772309.16047 -10677442.93445  21153823.2974                   21153823.4654
        46.5004         35.2504
 -12951233.03947 -10059020.59046  22156845.0634                   22156848.1334
        43.5004         39.2504
  -3970037.10947  -3067933.34046  21111112.5554                   21111111.4144
        47.2504         36.0004
  -3015247.34846  -2240188.55143  23598943.5634                   23598949.3674
        40.2504         22.2504
  11561405.43447   9009666.21146  23174452.0164                   23174454.3674
        44.2504         39.0004
   5389680.60946   4262230.11344  24028340.4224                   24028349.4844
        37.7504         28.2504
 25  8  7 22 10 30.0000000  0 10G25G02G31G10G01G03G28G04G32G26
   1243971.12945    990818.63744  24373217.9304                   24373221.3984
        35.0004         24.5004
  -1914349.73847  -1473370.35546  21655077.7344                   21655076.0984
        47.0004         36.5004
 -16324786.78548 -12659324.41047  20239995.5314                   20239994.6294
        49.0004         47.7504
  10933154.78146   8521570.51645  23808590.2344                   23808595.1374
        40.7504         32.5004
 -13856979.80947 -10743420.06245  21137710.8364                   21137710.9924
        46.2504         34.5004
 -13098157.03547 -10173506.71946  22128886.2344                   22128889.5824
        43.2504         40.0004
  -3995208.94147  -3087547.74646  21106322.1564                   21106321.2384
        45.7504         36.0004
  -3152615.25846  -2347228.27043  23572803.7034                   23572808.2934
        40.5004         23.0004
  11565955.85947   9013211.95746  23175318.5704                   23175320.4614
        43.7504         38.7504
   5234924.10546   4141640.88344  23998891.5944                   23998899.8324
        36.2504         28.5004
 25  8  7 22 11  0.0000000  0 10G25G02G31G10G01G03G28G04G32G26
   1192929.24246    951045.73444  24363504.7734                   24363508.6134
        37.2504         25.7504
  -1936076.47748  -1490300.32046  21650943.6564                   21650942.1764
        48.0004         36.7504
 -16418297.86348 -12732190.13748  20222201.5864                   20222199.7344
        48.7504         48.0004
  10948919.59846   8533854.60945  23811590.7664                   23811596.6294
        41.5004         34.7504
 -13941118.41447 -10808982.61345  21121699.6484                   21121700.0164
        46.5004         34.0004
 -13245012.99647 -10287939.84446  22100940.8914                   22100943.6414
        44.0004         40.0004
  -4019909.71147  -3106795.09446  21101621.6174                   21101621.1564
        47.5004         36.5004
  -3289888.76246  -2454194.41843  23546681.0944                   23546685.8594
        40.7504         23.0004
  11570493.31347   9016747.59046  23176182.0314                   23176183.7234
        44.0004         38.2504
   5080161.33646   4021046.78144  23969440.6724                   23969449.2624
        37.0004         28.5004
 25  8  7 22 11 30.0000000  0 10G25G02G31G10G01G03G28G04G32G26
   1142383.50046    911659.41843  24353885.8284                   24353889.1024
        36.7504         22.7504
  -1957399.87547  -1506916.01245  21646885.6174                   21646884.6174
        47.0004         35.7504
 -16511240.82448 -12804613.18448  20204515.0554                   20204513.7154
        49.2504         48.0004
  10964866.75846   8546280.76245  23814625.0164                   23814630.6724
        41.5004         33.0004
 -14024725.74247 -10874131.17245  21105789.5704                   21105790.4494
        45.0004         34.2504
 -13391800.77747 -10402319.84446  22073007.5004                   22073010.3834
        43.5004         40.0004
  -4044142.82047  -3125678.02746  21097010.1414                   21097010.1764
        47.5004         36.0004
  -3427069.46146  -2561088.25843  23520576.0944                   23520580.9734
        40.0004         22.2504
  11575015.69147   9020271.48446  23177042.6644                   23177044.0514
        43.7504         38.2504
   4925393.83646   3900449.00044  23939989.1484                   23939998.2074
        36.2504         28.5004
 25  8  7 22 12  0.0000000  0 10G25G02G31G10G01G03G28G04G32G26
   1092333.73446    872659.59044  24344361.7344                   24344366.1524
        36.5004         26.7504
  -1978321.78147  -1523218.86346  21642904.6024                   21642902.8244
        45.7504         36.0004
 -16603614.94948 -12876592.97348  20186936.8834                   20186935.3794
        49.2504         48.0004
  10980995.55146   8558848.51245  23817694.7814                   23817700.3954
        41.5004         33.7504
 -14107801.11347 -10938865.23445  21089980.9064                   21089981.3054
        45.7504         34.5004
 -13538518.55947 -10516645.28946  22045087.8284                   22045091.0594
        44.0004         40.0004
  -4067910.05547  -3144197.94546  21092487.5634                   21092486.8914
        45.2504         36.2504
  -3564157.31646  -2667909.74243  23494488.9774                   23494494.0744
        41.2504         23.5004
  11579522.41847   9023783.18446  23177899.7974                   23177902.1054
        44.2504         38.0004
   4770624.60546   3779849.85944  23910538.0864                   23910546.6174
        37.0004         27.5004
 25  8  7 22 12 30.0000000  0 10G25G02G31G10G01G03G28G04G32G26
   1042783.60945    834049.10944  24334931.6644                   24334937.7664
        35.2504         26.5004
  -1998840.37547  -1539207.42646  21639000.2034                   21638998.4574
        47.7504         36.5004
 -16695415.94948 -12948126.17248  20169467.1094                   20169466.2814
        48.5004         48.0004
  10997308.86746   8571559.93045  23820799.2344                   23820805.7194
        40.7504         34.2504
 -14190340.44947 -11003181.59845  21074274.2194                   21074274.7304
        46.0004         34.7504
 -13685161.30947 -10630912.28546  22017182.9614                   22017185.7464
        43.5004         40.7504
  -4091210.03147  -3162353.76646  21088053.4144                   21088053.2704
        46.7504         36.0004
  -3701149.00446  -2774656.31643  23468420.1094                   23468424.9184
        40.5004         23.7504
  11584016.21147   9027284.80546  23178755.5004                   23178757.6024
        44.0004         38.2504
   4615860.13346   3659254.41044  23881086.5704                   23881095.2464
        36.5004         27.7504
 25  8  7 22 13  0.0000000  0 10G25G02G31G10G01G03G28G04G32G26
    993731.73045    795826.87144  24325597.8594                   24325602.6254
        35.5004         26.0004
  -2018958.60947  -1554884.02346  21635171.6024                   21635170.0984
        46.5004         36.0004
 -16786644.71548 -13019213.46947  20152107.0164                   20152105.6134
        48.2504         47.7504
  11013804.75846   8584413.71145  23823938.2734                   23823943.8244
        41.0004         31.7504
 -14272344.34447 -11067080.73845  21058669.3054                   21058669.8404
        46.5004         34.0004
 -13831728.53147 -10745120.42646  21989291.9064                   21989295.3054
        44.0004         40.0004
  -4114045.74247  -3180147.81646  21083708.0164                   21083707.5434
        46.5004         36.5004
  -3838045.75046  -2881328.89543  23442369.1334                   23442374.3284
        40.5004         22.5004
  11588495.32847   9030774.99246  23179607.3754                   23179609.4884
        44.0004         38.2504
   4461102.17246   3538664.03944  23851636.9614                   23851646.1484
        37.5004         28.5004
 25  8  7 22 13 30.0000000  0 10G25G02G31G10G01G03G28G04G32G26
    945177.78945    757992.60244  24316357.6174                   24316361.7974
        35.5004         24.0004
  -2038678.63747  -1570250.33646  21631419.1024                   21631417.7894
        46.7504         36.2504
 -16877301.32048 -13089854.93747  20134855.9844                   20134854.2664
        48.7504         47.7504
  11030482.17646   8597408.87945  23827111.7584                   23827118.2774
        41.0004         33.7504
 -14353812.68747 -11130562.56245  21043166.5864                   21043166.5204
        46.2504         34.0004
 -13978219.07047 -10859268.80946  21961416.2114                   21961418.2974
        44.0004         40.2504
  -4136419.74648  -3197582.09446  21079450.7974                   21079449.7584
        48.0004         36.0004
  -3974848.26646  -2987928.04743  23416336.0474                   23416341.3874
        39.7504         23.2504
  11592958.59847   9034252.83246  23180456.2814                   23180459.4344
        44.0004         38.2504
   4306353.30946   3418080.76644  23822188.6954                   23822197.9064
        37.5004         29.7504
 25  8  7 22 14  0.0000000  0 10G25G02G31G10G01G03G28G04G32G26
    897121.80545    720546.35244  24307213.7664                   24307216.9144
        34.7504         24.5004
  -2058002.29747  -1585307.79746  21627742.2344                   21627741.0784
        45.2504         36.0004
 -16967384.88748 -13160049.87548  20117713.5394                   20117712.0664
        49.7504         48.0004
  11047340.50046   8610545.03545  23830319.7584                   23830325.9694
        40.5004         31.5004
 -14434744.67247 -11193626.44545  21027765.6414                   21027765.9184
        46.2504         34.2504
 -14124631.01247 -10973355.95346  21933554.1094                   21933557.3754
        43.7504         40.0004
  -4158333.75047  -3214657.94146  21075280.4614                   21075279.8984
        45.2504         36.2504
  -4111556.34846  -3094453.60244  23390321.6724                   23390326.1374
        40.2504         24.0004
  11597405.61747   9037718.01246  23181302.7034                   23181305.2544
        44.5004         39.0004
   4151616.75446   3297507.07444  23792743.3674                   23792752.3834
        37.7504         29.0004
 25  8  7 22 14 30.0000000  0 10G25G02G31G10G01G03G28G04G32G26
    849570.38345    683493.27343  24298164.2894                   24298167.9654
        34.2504         22.5004
  -2076924.43747  -1600052.37145  21624141.1804                   21624139.5984
        47.0004         35.2504
 -17056888.67648 -13229793.04348  20100681.0634                   20100680.0824
        49.0004         48.0004
  11064385.73446   8623826.85545  23833564.4064                   23833570.2974
        41.5004         33.5004
 -14515133.24647 -11256266.88345  21012468.2344                   21012468.5394
        46.5004         34.5004
 -14270956.04347 -11087375.37546  21905709.7034                   21905712.8444
        44.0004         40.2504
  -4179783.14847  -3231371.74646  21071198.5704                   21071197.6644
        46.5004         36.5004
  -4248163.48046  -3200900.51644  23364325.7344                   23364330.9964
        40.0004         25.0004
  11601842.40247   9041175.19146  23182147.8364                   23182149.9064
        44.5004         38.7504
   3996902.12546   3176950.47744  23763301.7424                   23763310.8134
        38.0004         29.2504
 25  8  7 22 15  0.0000000  0 10G25G02G31G10G01G03G28G04G32G26
    802521.59446    646831.91043  24289212.2734                   24289214.8364
        36.0004         22.0004
  -2095449.14847  -1614487.26245  21620616.3054                   21620614.5744
        47.5004         35.5004
 -17145814.01648 -13299085.46948  20083759.1254                   20083758.2034
        49.0004         48.0004
  11081615.21147   8637252.21545  23836842.7194                   23836849.2774
        42.0004         34.5004
 -14594979.64547 -11318484.85245  20997274.1954                   20997274.0164
        46.0004         34.0004
 -14417194.25047 -11201327.14546  21877881.4304                   21877883.9224
        44.5004         40.5004
  -4200771.79347  -3247726.53145  21067204.4844                   21067204.1134
        47.0004         35.7504
  -4384671.65646  -3307270.34844  23338349.5084                   23338354.0234
        39.5004         24.2504
  11606266.49247   9044622.50446  23182989.0634                   23182991.3324
        43.7504         38.5004
   3842210.59846   3056411.86344  23733865.4064                   23733873.2974
        37.7504         29.7504
 25  8  7 22 15 30.0000000  0 10G25G02G31G10G01G03G28G04G32G26
    755975.34445    610562.12143  24280355.0004                   24280356.9574
        35.7504         22.5004
  -2113577.66048  -1628613.43445  21617166.5944                   21617165.1604
        48.0004         35.5004
 -17234160.25048 -13367926.64848  20066947.4694                   20066946.3164
        48.0004         48.0004
  11099028.53946   8650820.82845  23840157.2114                   23840162.5664
        41.2504         30.7504
 -14674283.27047 -11380279.88345  20982182.9454                   20982183.1954
        46.2504         34.5004
 -14563343.84047 -11315209.85246  21850069.9844                   21850072.2154
        44.2504         39.2504
  -4221301.54747  -3263723.73846  21063298.1174                   21063297.6724
        47.5004         36.7504
  -4521080.77746  -3413562.95343  23312390.8984                   23312396.3914
        39.7504         22.7504
  11610677.39847   9048059.53946  23183828.7424                   23183830.7774
        42.7504         38.5004
   3687545.29746   2935893.70345  23704432.6174                   23704441.6094
        38.0004         30.0004
 25  8  7 22 16  0.0000000  0 10G25G02G31G10G01G03G28G04G32G26
   2285351.35246   1802283.70343  24571384.5554                   24571389.0124
        36.0004         23.7504
   -555893.25847   -414833.43745  21913584.1174                   21913582.2384
        47.5004         35.5004
 -15746505.73048 -12208715.28948  20350038.6804                   20350037.5474
        48.2504         48.0004
  12692042.48447   9892130.24645  24143297.2894                   24143303.3364
        42.0004         34.0004
 -13177622.84847 -10214050.97345  21266988.0004                   21266988.2854
        46.0004         34.5004
 -13133980.02047 -10201419.78146  22122068.3674                   22122071.4534
        44.5004         40.0004
  -2665955.59848  -2051765.85946  21359270.9224                   21359269.6844
        48.0004         36.5004
  -3081968.27046  -2292176.41043  23586245.1804                   23586250.0944
        39.2504         22.5004
  13190492.62947  10279084.38746  23484456.2814                   23484459.8984
        43.0004         37.5004
   5108332.72346   4043001.05145  23974799.5864                   23974807.9614
        38.7504         30.0004
 25  8  7 22 16 30.0000000  0 10G25G02G31G10G01G03G28G04G32G26
   2239809.67245   1766796.64843  24562718.7424                   24562722.6914
        33.5004         22.2504
   -573235.83247   -428347.18445  21910283.9614                   21910282.5004
        47.5004         35.0004
 -15833692.91848 -12276653.31648  20333447.7974                   20333446.0824
        48.7504         48.0004
  12709820.76246   9905983.20745  24146679.7814                   24146686.8794
        40.5004         32.5004
 -13255839.94947 -10274999.36345  21252103.7344                   21252104.2194
        45.7504         35.0004
 -13279947.48847 -10315160.57846  22094291.9224                   22094294.7544
        43.5004         40.2504
  -2685574.08647  -2067052.98846  21355537.3134                   21355536.8594
        47.5004         36.2504
  -3218180.04746  -2398315.25443  23560325.3364                   23560329.7384
        39.5004         22.7504
  13194875.10547  10282499.24646  23485291.2504                   23485294.0044
        43.5004         38.5004
   4953728.88746   3922530.80145  23945379.0004                   23945387.3404
        38.5004         30.5004
 25  8  7 22 17  0.0000000  0 10G25G02G31G10G01G03G28G04G32G26
   2194771.43045   1731701.93443  24554147.8364                   24554152.2504
        35.7504         23.2504
   -590186.51647   -441555.56645  21907058.5314                   21907056.7544
        46.5004         35.0004
 -15920298.56248 -12344138.20348  20316967.2114                   20316965.7074
        49.2504         48.2504
  12727781.98046   9919978.77745  24150098.9304                   24150104.3594
        41.2504         31.0004
 -13333511.48847 -10335522.64545  21237323.3754                   21237323.6484
        45.7504         34.5004
 -13425819.68747 -10428827.14846  22066533.7034                   22066535.8674
        45.0004         39.7504
  -2704738.43747  -2081986.25046  21351890.4384                   21351889.8404
        47.0004         36.0004
  -3354291.71946  -2504376.12943  23534424.1024                   23534427.8324
        40.2504         22.5004
  13199244.12147  10285903.63746  23486122.8054                   23486125.4264
        44.5004         38.2504
   4799161.84846   3802089.21945  23915965.4774                   23915973.8284
        38.5004         30.7504
 25  8  7 22 17 30.0000000  0 10G25G02G31G10G01G03G28G04G32G26
   2150236.40246   1696999.31644  24545673.9224                   24545677.0394
        36.0004         24.5004
   -606747.07447   -454459.96145  21903907.3754                   21903905.2854
        47.5004         35.7504
 -16006322.44548 -12411169.76648  20300596.9844                   20300595.9104
        49.0004         48.0004
  12745925.38746   9934116.30145  24153550.7584                   24153557.2384
        38.5004         30.0004
 -13410637.21547 -10395620.61345  21222646.7344                   21222647.0944
        46.5004         34.7504
 -13571594.89547 -10542418.12946  22038792.9454                   22038795.7704
        45.0004         39.5004
  -2723450.82447  -2096567.33646  21348329.3204                   21348329.3364
        47.0004         36.2504
  -3490303.41046  -2610359.10943  23508540.9844                   23508545.3754
        40.2504         22.5004
  13203598.98047  10289296.98446  23486951.6414                   23486953.5204
        43.5004         38.2504
   4644634.67246   3681678.69945  23886560.5004                   23886568.4884
        38.2504         30.7504
 25  8  7 22 18  0.0000000  0 10G25G02G31G10G01G03G28G04G32G26
   2106204.64145   1662688.82043  24537294.3524                   24537298.4024
        34.2504         23.5004
   -622919.30947   -467061.75445  21900829.8984                   21900828.2424
        46.2504         35.5004
 -16091764.01248 -12477747.57448  20284337.9924                   20284337.2114
        49.2504         48.2504
  12764250.33646   9948395.24245  24157039.0474                   24157045.0354
        40.2504         31.7504
 -13487216.53147 -10455292.80945  21208074.3834                   21208074.8594
        45.5004         34.5004
 -13717271.15647 -10655932.01646  22011071.9144                   22011074.1414
        44.5004         40.0004
  -2741713.02047  -2110797.62146  21344854.2974                   21344853.9414
        45.0004         36.2504
  -3626215.08246  -2716264.12543  23482677.8054                   23482682.6524
        40.0004         23.5004
  13207939.39547  10292679.06646  23487777.8134                   23487779.9804
        44.0004         37.7504
   4490150.64846   3561301.81645  23857162.7584                   23857170.7974
        38.2504         31.0004
 25  8  7 22 18 30.0000000  0 10G25G02G31G10G01G03G28G04G32G26
   2062678.84045   1628772.60244  24529012.3594                   24529015.7194
        35.2504         24.5004
   -638702.23847   -479360.18745  21897826.4454                   21897824.2664
        47.7504         34.5004
 -16176620.00448 -12543869.10248  20268190.6804                   20268188.9384
        49.2504         48.5004
  12782759.24646   9962817.59044  24160560.7194                   24160567.3874
        40.2504         29.2504
 -13563246.02747 -10514536.57845  21193606.2424                   21193606.5394
        46.0004         35.5004
 -13862843.69547 -10769365.07446  21983370.4924                   21983372.8094
        44.7504         40.5004
  -2759524.14147  -2124676.42645  21341464.5554                   21341464.0824
        47.0004         35.5004
  -3762023.76646  -2822088.90244  23456834.5084                   23456839.0824
        39.7504         24.5004
  13212267.78147  10296051.78546  23488601.6094                   23488603.9064
        44.5004         38.7504
   4335715.81346   3440963.25445  23827775.1884                   23827782.5004
        39.5004         31.2504
 25  8  7 22 19  0.0000000  0 10G25G02G31G10G01G03G28G04G32G26
   2019656.61345   1595248.79743  24520823.7734                   24520829.4304
        33.2504         22.7504
   -654100.17247   -491358.63745  21894896.1484                   21894894.8484
        47.5004         35.0004
 -16260892.33248 -12609535.81648  20252154.0234                   20252152.7504
        49.0004         48.5004
  12801449.21146   9977380.98845  24164117.2274                   24164124.1564
        39.7504         31.0004
 -13638727.45347 -10573353.26645  21179242.5004                   21179242.7274
        46.0004         34.5004
 -14008312.75447 -10882717.49646  21955688.3914                   21955691.1214
        45.0004         40.5004
  -2776888.35247  -2138206.98045  21338160.6024                   21338160.0514
        47.2504         35.2504
  -3897731.59046  -2927835.09444  23431010.6564                   23431014.4534
        39.5004         24.7504
  13216581.73047  10299413.23846  23489422.0944                   23489424.9144
        42.0004         37.0004
   4181331.25846   3320663.87545  23798395.5314                   23798404.1484
        38.5004         31.5004
 25  8  7 22 19 30.0000000  0 10G25G02G31G10G01G03G28G04G32G26
   1977134.73846   1562114.85244  24512733.0864                   24512737.6254
        36.0004         24.5004
   -669117.43447   -503060.45745  21892038.8594                   21892036.7934
        47.7504         34.7504
 -16344583.73048 -12674749.85948  20236228.1414                   20236226.7504
        49.2504         48.5004
  12820316.39146   9992082.44545  24167707.7664                   24167715.0594
        39.7504         32.0004
 -13713663.50847 -10631745.00045  21164982.7814                   21164983.4804
        45.5004         34.7504
 -14153679.51647 -10995990.20746  21928025.7194                   21928028.5594
        45.0004         41.0004
  -2793810.80947  -2151393.31245  21334940.6254                   21334939.3444
        46.7504         35.5004
  -4033341.73046  -3033505.16444  23405203.7114                   23405208.8244
        39.5004         25.7504
  13220877.51247  10302760.60246  23490239.2114                   23490242.2544
        43.0004         37.5004
   4026997.07446   3200403.74644  23769026.2894                   23769034.7384
        37.7504         29.7504
 25  8  7 22 20  0.0000000  0 10G25G02G31G10G01G03G28G04G32G26
   1935115.50045   1529372.62544  24504737.7504                   24504742.3524
        35.0004         25.5004
   -683753.43447   -514465.19545  21889253.4534                   21889251.8674
        47.5004         35.5004
 -16427691.40648 -12739509.05548  20220413.7114                   20220411.7234
        49.2504         48.5004
  12839362.80946  10006923.61344  24171332.5784                   24171338.4734
        39.7504         29.0004
 -13788051.24647 -10689709.46945  21150827.4534                   21150827.6914
        46.5004         34.7504
 -14298939.52747 -11109179.74246  21900383.7664                   21900386.2814
        44.0004         40.5004
  -2810290.87547  -2164234.92646  21331804.1724                   21331803.1294
        46.5004         36.0004
  -4168851.58646  -3139097.08644  23379416.5084                   23379421.6374
        39.2504         24.5004
  13225157.47347  10306095.55546  23491054.2504                   23491057.1724
        42.7504         37.2504
   3872719.03946   3080187.35544  23739668.6254                   23739676.9184
        38.5004         29.5004
 25  8  7 22 20 30.0000000  0 10G25G02G31G10G01G03G28G04G32G26
   1893599.25046   1497022.34444  24496838.2344                   24496841.8954
        37.2504         26.7504
   -698009.65647   -525573.99645  21886540.6414                   21886539.4494
        47.7504         35.5004
 -16510214.50448 -12803812.73848  20204709.7194                   20204708.1604
        49.2504         48.5004
  12858588.24246  10021904.26645  24174991.3364                   24174997.9264
        40.0004         31.0004
 -13861889.73847 -10747245.95745  21136776.5784                   21136776.9924
        47.0004         35.5004
 -14444090.34047 -11222284.18746  21872762.5944                   21872765.2114
        44.5004         40.7504
  -2826330.17647  -2176733.09045  21328752.3674                   21328751.4184
        47.0004         35.2504
  -4304260.69546  -3244610.50043  23353649.4144                   23353654.0704
        41.2504         22.5004
  13229421.55147  10309418.19146  23491865.6484                   23491868.4774
        44.0004         37.5004
   3718500.81646   2960017.57445  23710321.5234                   23710329.8444
        38.2504         30.2504
 25  8  7 22 21  0.0000000  0 10G25G02G31G10G01G03G28G04G32G26
   1852586.44146   1465064.35544  24489034.0314                   24489035.4534
        37.7504         26.7504
   -711887.18447   -536387.71545  21883899.7114                   21883898.3364
        46.5004         35.0004
 -16592152.26648 -12867660.30948  20189117.3284                   20189116.1914
        50.2504         48.5004
  12877992.65646  10037024.39545  24178684.0474                   24178690.8134
        38.5004         30.5004
 -13935177.99247 -10804353.69545  21122830.5164                   21122830.0634
        46.5004         35.0004
 -14589129.29347 -11335301.46546  21845161.8914                   21845164.6484
        45.5004         41.2504
  -2841929.95347  -2188888.76645  21325783.7114                   21325782.7504
        47.0004         35.7504
  -4439568.37946  -3350044.88344  23327901.0004                   23327905.4964
        39.7504         24.2504
  13233670.17647  10312728.76646  23492673.6804                   23492676.6804
        43.7504         37.5004
   3564346.40246   2839897.48445  23680986.6024                   23680995.0984
        39.2504         30.2504
 25  8  7 22 21 30.0000000  0 10G25G02G31G10G01G03G28G04G32G26
   1812074.37946   1433496.56344  24481323.8364                   24481327.1484
        37.5004         27.7504
   -725390.24647   -546909.64145  21881330.2274                   21881328.6094
        47.0004         35.5004
 -16673506.67248 -12931053.32448  20173635.9224                   20173634.8754
        50.0004         48.7504
  12897573.19946  10052281.71144  24182410.3834                   24182416.9224
        39.2504         29.7504
 -14007917.94947 -10861034.18045  21108988.1804                   21108988.1134
        46.2504         34.7504
 -14734056.74647 -11448231.86746  21817583.5394                   21817586.1844
        45.5004         41.5004
  -2857094.61347  -2200705.39145  21322898.1954                   21322897.1294
        46.5004         35.5004
  -4574776.77746  -3455401.90643  23302171.7664                   23302176.1804
        40.0004         23.5004
  13237900.67647  10316025.20746  23493479.4534                   23493481.3714
        44.5004         36.7504
   3410256.67246   2719827.80944  23651664.4614                   23651672.3984
        39.0004         29.7504
 25  8  7 22 22  0.0000000  0 10G25G02G31G10G01G03G28G04G32G26
   1772065.02746   1402320.46144  24473710.8134                   24473714.2114
        36.5004         26.2504
   -738518.54347   -557139.53545  21878832.2974                   21878830.7384
        47.0004         35.0004
 -16754274.98048 -12993989.63748  20158266.5394                   20158265.3134
        49.7504         49.0004
  12917331.30946  10067677.49644  24186170.4844                   24186176.8134
        40.0004         29.7504
 -14080107.04747 -10917285.42245  21095251.0164                   21095251.6334
        46.5004         34.7504
 -14878868.39147 -11561072.02046  21790026.6484                   21790029.5824
        46.2504         41.5004
  -2871823.87547  -2212182.74245  21320095.1334                   21320094.7034
        46.7504         35.7504
  -4709883.74246  -3560679.87144  23276461.4064                   23276465.9734
        40.5004         25.2504
  13242114.97347  10319309.02346  23494281.5314                   23494283.7114
        44.5004         36.7504
   3256237.15246   2599812.83245  23622354.7584                   23622363.0824
        38.7504         31.5004
 25  8  7 22 22 30.0000000  0 10G25G02G31G10G01G03G28G04G32G26
   1732553.28545   1371532.08644  24466190.5704                   24466196.3134
        35.7504         26.7504
   -751278.67647   -567082.56646  21876403.8914                   21876402.7974
        46.5004         36.2504
 -16834462.29748 -13056473.21948  20143007.2274                   20143005.8874
        50.2504         48.7504
  12937261.56346  10083207.35545  24189963.2734                   24189969.6374
        38.5004         30.5004
 -14151749.84447 -10973110.98445  21081617.8364                   21081617.8714
        45.7504         35.0004
 -15023567.19947 -11673824.25446  21762491.6954                   21762494.2074
        45.5004         41.2504
  -2886124.75447  -2223326.29345  21317373.5394                   21317372.8874
        46.7504         35.0004
  -4844894.04346  -3665882.52343  23250769.3984                   23250773.9024
        40.0004         22.5004
  13246307.79746  10322576.16046  23495077.5084                   23495082.0164
        41.5004         36.2504
   3102286.28546   2479851.35245  23593059.2274                   23593066.9264
        38.5004         31.7504
 25  8  7 22 23  0.0000000  0 10G25G02G31G10G01G03G28G04G32G26
   1693539.86345   1341131.98444  24458767.3054                   24458772.5434
        34.7504         27.0004
   -763671.58247   -576739.43746  21874045.9534                   21874044.7584
        47.7504         36.2504
 -16914067.27048 -13118503.02748  20127859.2194                   20127857.2194
        50.0004         48.7504
  12957364.29346  10098871.58644  24193788.0944                   24193795.5274
        37.5004         28.7504
 -14222845.05947 -11028509.86345  21068088.8054                   21068089.3324
        46.2504         34.7504
 -15168150.03547 -11786486.11746  21734977.9304                   21734980.6024
        46.0004         41.5004
  -2899998.22747  -2234136.79745  21314733.6254                   21314732.9654
        46.5004         34.7504
  -4979806.74646  -3771009.11344  23225096.8134                   23225100.8834
        40.0004         25.7504
  13250479.91047  10325827.05145  23495874.2974                   23495875.2034
        43.5004         35.5004
   2948408.32846   2359946.67245  23563776.7664                   23563784.1484
        39.7504         32.0004
 25  8  7 22 23 30.0000000  0 10G25G02G31G10G01G03G28G04G32G26
   1655028.22346   1311122.89544  24451439.5944                   24451443.2424
        36.0004         26.2504
   -775695.36347   -586108.67645  21871758.0474                   21871756.7304
        47.5004         35.7504
 -16993085.99248 -13180076.02748  20112822.1024                   20112820.4924
        49.7504         48.7504
  12977642.60546  10114672.67644  24197647.2664                   24197654.0204
        37.7504         28.7504
 -14293388.53947 -11083478.81245  21054664.6484                   21054665.0864
        45.7504         34.7504
 -15312611.08247 -11899053.07846  21707488.0554                   21707490.5354
        45.7504         41.5004
  -2913442.42247  -2244612.80545  21312175.5784                   21312174.7734
        46.5004         35.5004
  -5114617.87146  -3876056.58643  23199443.0704                   23199446.7504
        40.0004         22.7504
  13254634.91447  10329064.73446  23496663.5234                   23496666.5354
        42.5004         36.2504
   2794610.50846   2240104.44145  23534510.2504                   23534517.7854
        38.7504         31.5004
 25  8  7 22 24  0.0000000  0 10G25G02G31G10G01G03G28G04G32G26
   1617015.66446   1281502.71944  24444206.2194                   24444209.6524
        36.7504         28.0004
   -787354.20747   -595193.54345  21869539.3524                   21869537.8244
        47.0004         35.0004
 -17071520.70748 -13241193.95348  20097896.3524                   20097895.0904
        50.0004         48.5004
  12998093.60246  10130608.32044  24201539.3914                   24201546.8094
        36.5004         28.5004
 -14363382.31247 -11138019.42645  21041345.4224                   21041345.8054
        46.5004         35.0004
 -15456950.56247 -12011525.32446  21680020.9844                   21680023.2194
        46.2504         41.5004
  -2926461.78547  -2254757.77045  21309697.9614                   21309697.2234
        47.2504         35.2504
  -5249329.75446  -3981026.69944  23173807.5004                   23173811.7154
        40.0004         24.2504
  13258770.18447  10332286.98445  23497450.5164                   23497453.0514
        43.5004         35.5004
   2640893.71546   2120325.35245  23505258.1254                   23505266.0514
        39.5004         32.0004
 25  8  7 22 24 30.0000000  0 10G25G02G31G10G01G03G28G04G32G26
   1579501.46146   1252270.89844  24437066.8594                   24437069.7584
        36.0004         26.0004
   -798650.40247   -603995.83645  21867389.8984                   21867388.2774
        46.7504         35.0004
 -17149371.77048 -13301857.08648  20083081.4694                   20083080.4144
        49.5004         48.5004
  13018716.03546  10146677.50044  24205463.1254                   24205471.5204
        37.5004         29.2504
 -14432826.75847 -11192131.98845  21028130.8134                   21028130.7154
        45.0004         34.7504
 -15601166.94947 -12123901.64547  21652577.3054                   21652580.4024
        46.0004         42.2504
  -2939058.92247  -2264573.73045  21307300.9694                   21307300.3404
        47.5004         35.5004
  -5383942.82846  -4085919.83243  23148191.8204                   23148195.5824
        40.5004         23.0004
  13262884.91447  10335493.21545  23498233.8594                   23498235.9574
        42.5004         35.5004
   2487260.79746   2000611.62545  23476022.4534                   23476030.0354
        39.2504         32.5004
 25  8  7 22 25  0.0000000  0 10G25G02G31G10G01G03G28G04G32G26
   1542485.43445   1223427.21943  24430021.7584                   24430025.3634
        33.5004         22.5004
   -809585.46947   -612516.73045  21865309.0394                   21865307.5594
        47.0004         35.0004
 -17226638.63348 -13362065.00448  20068378.5634                   20068377.0984
        49.0004         48.7504
  13039509.43846  10162879.93444  24209420.8284                   24209427.7974
        37.0004         29.0004
 -14501721.21147 -11245815.98445  21015020.3834                   21015020.4454
        44.7504         34.7504
 -15745257.82447 -12236180.16847  21625158.0394                   21625160.7584
        46.5004         42.5004
  -2951235.52347  -2274061.99245  21304983.7344                   21304982.7114
        47.0004         34.7504
  -5518456.70346  -4190735.69143  23122594.0084                   23122598.6414
        39.2504         23.0004
  13266979.16447  10338683.52345  23499012.6564                   23499015.2774
        42.0004         35.7504
   2333715.40246   1880966.07845  23446803.9064                   23446811.0744
        40.2504         32.7504
 25  8  7 22 25 30.0000000  0 10G25G02G31G10G01G03G28G04G32G26
   1505967.75445   1194971.90243  24423072.8364                   24423075.7304
        33.2504         22.0004
   -820160.83247   -620757.32445  21863296.4924                   21863295.3204
        46.2504         34.5004
 -17303321.12548 -13421817.57048  20053785.9454                   20053784.6524
        49.7504         48.5004
  13060473.83645  10179215.59044  24213409.6484                   24213417.1374
        35.7504         24.5004
 -14570065.10947 -11299070.98445  21002015.4774                   21002015.5124
        45.0004         35.0004
 -15889220.64847 -12348358.91447  21597762.7584                   21597764.8914
        46.5004         42.0004
  -2962993.15247  -2283223.78545  21302746.2814                   21302745.6914
        47.0004         35.0004
  -5652870.89146  -4295473.85543  23097015.8834                   23097019.8524
        39.7504         22.7504
  13271053.22747  10341858.06346  23499788.7584                   23499790.5984
        44.5004         36.2504
   2180261.37146   1761391.73845  23417602.5234                   23417609.8244
        40.5004         32.7504
 25  8  7 22 26  0.0000000  0 10G25G02G31G10G01G03G28G04G32G26
   1469949.37145   1166905.60944  24416219.8364                   24416222.5514
        35.5004         26.0004
   -830377.11747   -628718.12145  21861352.4384                   21861350.7464
        45.7504         34.0004
 -17379417.37948 -13481113.32448  20039305.5554                   20039304.1454
        50.0004         48.5004
  13081609.84446  10195685.00844  24217432.2504                   24217439.1174
        37.0004         28.0004
 -14637856.76647 -11351895.65245  20989115.0004                   20989115.4024
        46.0004         35.5004
 -16033051.77347 -12460435.04347  21570392.2664                   21570395.1454
        46.0004         42.0004
  -2974332.43747  -2292059.60245  21300588.4924                   21300587.6884
        46.5004         35.5004
  -5787183.80546  -4400133.09843  23071456.5704                   23071460.5354
        39.5004         23.2504
  13275108.40646  10345017.91045  23500558.8594                   23500562.0474
        40.5004         35.2504
   2026903.54346   1641892.35545  23388419.9774                   23388427.0434
        40.0004         34.0004
 25  8  7 22 26 30.0000000  0 10G25G02G31G10G01G03G28G04G32G26
   1434430.53146   1139228.61344  24409461.3754                   24409463.9574
        37.2504         26.5004
   -840235.60947   -636400.12145  21859476.7814                   21859474.8834
        46.0004         34.7504
 -17454926.49248 -13539951.57048  20024936.7034                   20024935.2814
        49.2504         48.5004
  13102917.50846  10212288.16444  24221487.8754                   24221494.7544
        38.0004         29.5004
 -14705095.28547 -11404289.31245  20976319.2814                   20976319.7274
        46.0004         35.0004
 -16176748.37947 -12572406.34847  21543047.6804                   21543050.4264
        46.5004         42.5004
  -2985254.71147  -2300570.47345  21298509.9534                   21298509.0984
        46.0004         35.5004
  -5921394.67646  -4504712.84443  23045917.9614                   23045921.5984
        40.2504         23.5004
  13279145.03947  10348163.29346  23501329.0314                   23501330.3484
        44.0004         36.0004
   1873645.95746   1522471.08245  23359255.0084                   23359262.4654
        40.2504         33.7504
 25  8  7 22 27  0.0000000  0 10G25G02G31G10G01G03G28G04G32G26
   1399413.17246   1111942.35544  24402797.2974                   24402801.3204
        36.5004         27.2504
   -849735.68447   -643802.84045  21857668.7504                   21857667.9654
        45.5004         34.5004
 -17529846.44948 -13598330.73448  20010679.9384                   20010678.2974
        49.0004         48.5004
  13124398.50445  10229026.37144  24225575.4614                   24225582.3054
        35.5004         27.7504
 -14771778.23447 -11456250.05545  20963630.4534                   20963630.4924
        45.7504         35.0004
 -16320306.07847 -12684269.42247  21515730.0314                   21515732.7624
        45.7504         42.2504
  -2995759.74247  -2308756.21945  21296511.1954                   21296510.4804
        46.5004         35.5004
  -6055501.17646  -4609211.25444  23020398.2814                   23020402.0744
        41.0004         24.5004
  13283165.34846  10351295.99245  23502092.0554                   23502095.5004
        40.5004         35.5004
   1720494.34446   1403132.37945  23330110.6724                   23330118.1954
        39.0004         33.0004
 25  8  7 22 27 30.0000000  0 10G25G02G31G10G01G03G28G04G32G26
   1364893.73845   1085044.05144  24396227.0084                   24396231.5044
        34.7504         24.0004
   -858882.49647   -650930.29345  21855927.7504                   21855926.9024
        45.2504         34.5004
 -17604180.34048 -13656253.21948  19996534.8134                   19996533.3984
        50.0004         48.5004
  13146049.13746  10245896.77744  24229694.8364                   24229702.7854
        37.0004         28.0004
 -14837908.59047 -11507780.21545  20951046.1254                   20951046.1724
        46.5004         35.0004
 -16463725.76247 -12796024.95347  21488437.6024                   21488440.0744
        46.2504         42.0004
  -3005852.75047  -2316620.91045  21294590.5314                   21294589.5514
        45.7504         35.5004
  -6189506.25446  -4713630.63743  22994896.7814                   22994901.0004
        40.7504         23.2504
  13287166.05547  10354413.36746  23502854.3594                   23502857.2544
        42.5004         36.2504
   1567448.87946   1283876.38345  23300987.8914                   23300994.5514
        40.2504         33.7504
 25  8  7 22 28  0.0000000  0 10G25G02G31G10G01G03G28G04G32G26
   2906294.44145   2286135.48843  24689546.0004                   24689550.0904
        33.2504         22.0004
    707743.89147    569817.46945  22154047.3674                   22154046.2544
        45.5004         34.7504
 -16102504.20348 -12486115.94948  20282293.9144                   20282292.4104
        49.7504         48.5004
  14743289.39146  11490499.37145  24533640.2034                   24533647.7774
        38.0004         30.2504
 -13328062.48447 -10331276.75845  21238360.6024                   21238360.3794
        45.0004         34.7504
 -15031578.86747 -11680066.27047  21760966.1954                   21760968.4184
        46.7504         42.5004
  -1440113.87547  -1096564.64545  21592540.1094                   21592539.6484
        46.7504         34.5004
  -4747983.85546  -3590366.28544  23269209.7894                   23269213.8134
        41.2504         24.5004
  14866568.41447  11585116.46546  23803404.7974                   23803407.6804
        43.0004         36.2504
   2989939.74646   2392311.04345  23571678.2114                   23571685.5234
        40.2504         33.2504
 25  8  7 22 28 30.0000000  0 10G25G02G31G10G01G03G28G04G32G26
   2872771.63746   2260013.77344  24683167.6644                   24683170.6954
        36.5004         25.7504
    699300.19947    563237.90645  22152440.7424                   22152439.3914
        45.5004         35.0004
 -16175663.90248 -12543123.48048  20268371.9144                   20268370.4614
        48.5004         48.5004
  14765279.29746  11507634.13744  24537823.7034                   24537832.9924
        36.7504         28.5004
 -13393085.13747 -10381943.76645  21225986.9144                   21225987.2814
        46.5004         35.5004
 -15174713.71147 -11791599.84847  21733728.6564                   21733730.7704
        47.5004         42.5004
  -1449386.77047  -1103790.27746  21590775.9454                   21590775.1954
        47.0004         36.0004
  -4881783.69546  -3694625.75844  23243748.7344                   23243752.3444
        41.5004         24.0004
  14870531.71146  11588204.68446  23804157.4454                   23804161.5084
        40.0004         36.0004
   2837119.23046   2273230.32845  23542597.6254                   23542603.9454
        40.0004         32.5004
 25  8  7 22 29  0.0000000  0 10G25G02G31G10G01G03G28G04G32G26
   2839750.21546   2234282.75443  24676884.2814                   24676887.3524
        37.0004         22.5004
    691208.64147    556932.73445  22150900.8984                   22150899.6804
        45.7504         33.5004
 -16248232.85248 -12599670.69948  20254562.3204                   20254561.1334
        49.2504         48.5004
  14787441.66446  11524903.26244  24542042.6564                   24542050.3284
        36.7504         29.5004
 -13457549.93047 -10432176.08245  21213719.7274                   21213720.1054
        45.0004         35.5004
 -15317698.96947 -11903016.87547  21706519.4224                   21706522.0474
        47.0004         42.5004
  -1458248.88747  -1110695.82845  21589089.7274                   21589088.8524
        46.2504         35.2504
  -5015476.85246  -3798802.09044  23218307.3524                   23218310.7154
        40.0004         25.5004
  14874479.91047  11591281.11345  23804911.7504                   23804913.2114
        43.7504         35.7504
   2684420.08246   2154244.18045  23513539.7114                   23513546.4844
        39.7504         32.5004
 25  8  7 22 29 30.0000000  0 10G25G02G31G10G01G03G28G04G32G26
   2807227.29746   2208940.27044  24670695.9454                   24670697.9574
        37.5004         26.5004
    683465.24647    550898.85545  22149427.1174                   22149426.4064
        45.7504         33.7504
 -16320213.35948 -12655759.38348  20240865.3134                   20240863.6604
        48.7504         48.5004
  14809773.48046  11542304.39544  24546292.5004                   24546299.7664
        36.2504         29.5004
 -13521459.21147 -10481975.53545  21201558.2814                   21201558.4144
        45.0004         35.0004
 -15460534.87547 -12014317.51247  21679338.2344                   21679340.6884
        46.5004         42.0004
  -1466704.70747  -1117284.77345  21587480.4304                   21587479.7624
        46.2504         35.0004
  -5149065.63746  -3902897.12144  23192886.1564                   23192889.8134
        41.0004         25.0004
  14878410.49647  11594343.89146  23805657.7584                   23805661.2584
        42.5004         36.0004
   2531843.37146   2035353.44945  23484505.4534                   23484511.3984
        40.0004         31.7504
 25  8  7 22 30  0.0000000  0 10G25G02G31G10G01G03G28G04G32G26
   2775205.40246   2183988.16044  24664601.1804                   24664605.6484
        37.0004         26.7504
    676071.10247    545137.09845  22148020.4614                   22148019.4304
        45.0004         34.5004
 -16391602.35248 -12711387.14548  20227280.5084                   20227278.9734
        48.5004         48.5004
  14832276.98846  11559839.40244  24550576.0314                   24550582.5984
        38.5004         29.5004
 -13584809.91447 -10531339.71545  21189503.2894                   21189503.1564
        46.5004         34.5004
 -15603216.09847 -12125497.62947  21652186.8594                   21652189.3674
        46.7504         42.2504
  -1474753.25447  -1123556.37545  21585948.7504                   21585947.8054
        45.7504         35.2504
  -5282546.91046  -4006908.35244  23167485.4534                   23167489.1604
        40.7504         26.5004
  14882326.49247  11597395.22346  23806404.4844                   23806406.1914
        43.0004         36.0004
   2379395.62146   1916563.19945  23455494.7424                   23455501.6134
        40.0004         31.2504
 25  8  7 22 30 30.0000000  0 10G25G02G31G10G01G03G28G04G32G26
   2743681.53946   2159424.02044  24658603.6024                   24658606.9884
        38.2504         28.2504
    669021.62147    539643.92645  22146679.4534                   22146678.3364
        45.5004         34.5004
 -16462402.59048 -12766556.14548  20213807.5634                   20213806.2544
        48.5004         48.5004
  14854949.13346  11577505.81344  24554889.1564                   24554897.2504
        36.2504         27.5004
 -13647604.38347 -10580270.47345  21177553.6254                   21177553.6094
        46.7504         35.2504
 -15745742.69547 -12236557.26647  21625065.1094                   21625067.3634
        46.0004         42.5004
  -1482399.00847  -1129514.10545  21584493.8054                   21584493.2344
        45.7504         34.5004
  -5415922.88346  -4110837.53944  23142104.3524                   23142108.3054
        40.5004         25.7504
  14886225.36747  11600433.26246  23807145.5314                   23807148.2234
        43.2504         36.0004
   2227077.89546   1797874.27345  23426509.2194                   23426516.5394
        40.0004         31.5004
 25  8  7 22 31  0.0000000  0 10G25G02G31G10G01G03G28G04G32G26
   2712656.37546   2135248.58244  24652699.3284                   24652702.6994
        37.0004         24.0004
    662316.36747    534418.98845  22145403.1174                   22145401.7544
        46.2504         34.5004
 -16532612.80948 -12821265.39148  20200446.9694                   20200445.5474
        48.5004         48.5004
  14877790.77345  11595304.19544  24559235.8524                   24559244.0314
        35.0004         26.5004
 -13709841.32047 -10628766.80545  21165710.1254                   21165710.9024
        46.7504         35.0004
 -15888111.20347 -12347493.69547  21597973.0004                   21597975.3874
        46.2504         42.5004
  -1489642.68747  -1135158.53945  21583115.6254                   21583114.8444
        45.7504         35.0004
  -5549192.16446  -4214683.57444  23116744.3834                   23116748.0234
        41.0004         26.2504
  14890108.38747  11603458.96545  23807884.2424                   23807887.4804
        43.2504         35.5004
   2074894.94946   1679290.37545  23397550.3054                   23397556.6454
        40.5004         31.5004
 25  8  7 22 31 30.0000000  0 10G25G02G31G10G01G03G28G04G32G26
   2682130.75046   2111462.32844  24646889.4534                   24646893.0744
        36.0004         24.7504
    655954.64147    529461.72745  22144192.8984                   22144190.9654
        45.0004         33.5004
 -16602231.66448 -12875513.83248  20187199.0864                   20187197.2774
        48.0004         48.5004
  14900802.34046  11613234.99244  24563615.2274                   24563623.0274
        36.2504         27.0004
 -13771519.38347 -10676827.64545  21153973.4614                   21153973.8444
        47.5004         35.2504
 -16030317.97747 -12458304.11347  21570911.8754                   21570914.3134
        46.5004         42.5004
  -1496485.12947  -1140490.32045  21581813.5634                   21581812.3984
        46.0004         34.5004
  -5682353.28147  -4318445.35944  23091404.4774                   23091408.2584
        42.2504         24.5004
  14893976.86347  11606473.28146  23808620.7344                   23808623.3364
        43.7504         36.2504
   1922851.58246   1560815.22745  23368617.3984                   23368623.4224
        39.7504         32.0004
 25  8  7 22 32  0.0000000  0 10G25G02G31G10G01G03G28G04G32G26
   2652106.90245   2088067.09444  24641175.9224                   24641179.8714
        35.0004         24.7504
    649937.41447    524772.89545  22143047.6094                   22143046.6294
        45.5004         34.0004
 -16671256.81647 -12929299.64148  20174063.8674                   20174062.0664
        47.5004         48.5004
  14923985.99645  11631299.93044  24568027.2894                   24568034.8524
        35.2504         28.5004
 -13832635.72347 -10724450.77345  21142343.6724                   21142343.5984
        47.5004         34.5004
 -16172357.82447 -12568984.46147  21543882.8754                   21543884.9654
        47.0004         43.0004
  -1502925.51247  -1145508.80145  21580588.2894                   21580587.0514
        46.0004         35.0004
  -5815403.26647  -4422120.52344  23066086.1094                   23066089.6094
        42.2504         26.5004
  14897833.57847  11609478.44945  23809354.7274                   23809357.2114
        43.0004         35.7504
   1770954.15246   1442453.83245  23339711.8284                   23339718.3524
        40.0004         33.0004
 25  8  7 22 32 30.0000000  0 10G25G02G31G10G01G03G28G04G32G26
   2622584.29345   2065062.43444  24635558.2194                   24635561.9304
        35.0004         24.5004
    644262.46547    520350.78545  22141967.7424                   22141966.6214
        46.0004         34.2504
 -16739688.27748 -12982622.83648  20161041.4924                   20161040.0314
        48.5004         48.5004
  14947340.98045  11649498.36744  24572471.6174                   24572479.6294
        35.5004         28.0004
 -13893190.59847 -10771636.40245  21130820.1254                   21130820.1884
        47.0004         34.2504
 -16314228.59447 -12679533.04347  21516885.7424                   21516888.1994
        46.5004         42.2504
  -1508966.05147  -1150215.73045  21579438.5634                   21579438.0514
        46.5004         35.5004
  -5948342.04747  -4525709.03944  23040788.1564                   23040791.7034
        42.0004         27.0004
  14901678.41847  11612474.40245  23810086.6254                   23810089.1294
        44.2504         35.0004
   1619206.04346   1324208.78545  23310835.1724                   23310841.3014
        40.2504         33.0004
 25  8  7 22 33  0.0000000  0 10G25G02G31G10G01G03G28G04G32G26
   2593561.66846   2042447.42643  24630035.8524                   24630037.7464
        36.7504         22.5004
    638927.42247    516193.52745  22140952.3674                   22140951.4414
        45.2504         32.7504
 -16807526.89148 -13035484.06648  20148132.2504                   20148131.0394
        48.7504         48.5004
  14970866.28545  11667829.52344  24576948.8364                   24576956.4304
        35.0004         26.7504
 -13953184.40647 -10818384.83245  21119403.8444                   21119403.3594
        47.2504         34.7504
 -16455928.28147 -12789948.32047  21489920.7504                   21489923.3634
        47.0004         42.7504
  -1514609.20747  -1154613.00445  21578364.6024                   21578363.8324
        46.2504         35.0004
  -6081169.89847  -4629211.13744  23015512.1414                   23015515.3484
        42.5004         26.5004
  14905510.99247  11615460.75045  23810815.8524                   23810818.2034
        43.5004         35.5004
   1467610.39146   1206082.53545  23281986.7814                   23281993.4224
        40.0004         33.5004
 25  8  7 22 33 30.0000000  0 10G25G02G31G10G01G03G28G04G32G26
   2565038.08645   2020221.28544  24624607.2664                   24624611.7544
        35.7504         25.2504
    633929.90247    512299.28145  22140001.7424                   22140000.6804
        44.5004         34.7504
 -16874773.15248 -13087883.72748  20135336.0634                   20135334.2304
        48.5004         48.5004
  14994560.80145  11686292.52344  24581457.3984                   24581465.7074
        35.5004         27.7504
 -14012617.60547 -10864696.42645  21108093.8364                   21108094.5004
        47.0004         34.0004
 -16597454.99247 -12900228.80947  21462989.1724                   21462991.3444
        46.5004         42.7504
  -1519857.50447  -1158702.59045  21577366.0164                   21577365.3594
        46.0004         34.7504
  -6213887.07447  -4732626.98444  22990256.5084                   22990259.5944
        42.5004         26.5004
  14909330.82847  11618437.19145  23811543.2894                   23811545.4384
        43.0004         35.0004
   1316170.24646   1088077.47745  23253168.6564                   23253175.1334
        40.5004         34.2504
 25  8  7 22 34  0.0000000  0 10G25G02G31G10G01G03G28G04G32G26
   2537018.00046   1998387.41844  24619275.8444                   24619280.7734
        36.0004         25.5004
    629273.07047    508670.50045  22139115.6564                   22139114.9694
        45.7504         34.7504
 -16941422.35248 -13139818.14848  20122652.9144                   20122651.3714
        49.0004         48.5004
  15018428.87546  11704890.77345  24585999.7344                   24586007.7624
        36.5004         30.5004
 -14071485.34847 -10910567.40645  21096891.8134                   21096892.0044
        47.5004         34.5004
 -16738801.27747 -13010368.69947  21436091.6884                   21436094.0084
        46.7504         42.7504
  -1524707.93447  -1162482.15245  21576442.8594                   21576442.4384
        46.0004         35.0004
  -6346488.33247  -4835952.52344  22965023.1564                   22965026.5234
        42.7504         25.5004
  14913143.00846  11621407.70745  23812267.6954                   23812270.5354
        40.5004         34.0004
   1164894.18046    970200.27745  23224381.8914                   23224388.5234
        41.0004         34.7504
 25  8  7 22 34 30.0000000  0 10G25G02G31G10G01G03G28G04G32G26
   2509496.43046   1976942.01643  24614038.3914                   24614042.0944
        36.0004         22.2504
    624950.53947    505302.20745  22138293.1484                   22138292.3324
        44.5004         34.0004
 -17007479.00848 -13191290.84448  20110082.6024                   20110081.3404
        49.2504         48.5004
  15042465.69946  11723620.50044  24590574.3364                   24590582.1914
        38.0004         29.7504
 -14129791.79347 -10956001.00845  21085796.7424                   21085796.8834
        46.2504         34.2504
 -16879968.96547 -13120369.42647  21409228.5864                   21409230.7034
        47.0004         43.0004
  -1529166.77347  -1165956.57445  21575594.3284                   21575593.9694
        46.2504         34.2504
  -6478977.64847  -4939190.82844  22939811.2114                   22939814.7734
        42.0004         25.5004
  14916943.51247  11624369.09445  23812991.8364                   23812994.1334
        43.7504         34.7504
   1013781.62146    852450.47345  23195626.2114                   23195632.2704
        40.2504         35.2504
 25  8  7 22 35  0.0000000  0 10G25G02G31G10G01G03G28G04G32G26
   2482470.39846   1955882.82844  24608896.9614                   24608899.0004
        37.7504         24.5004
    620958.32047    502191.29745  22137532.7584                   22137532.3794
        45.0004         33.0004
 -17072945.46548 -13242303.64148  20097625.0784                   20097623.5594
        49.0004         48.5004
  15066668.30946  11742479.41845  24595180.4534                   24595188.4344
        36.7504         30.0004
 -14187539.43747 -11000999.18045  21074807.4224                   21074807.8484
        47.0004         34.7504
 -17020957.93447 -13230230.89147  21382398.9304                   21382401.5234
        47.0004         43.2504
  -1533238.35247  -1169129.23845  21574819.5944                   21574818.8324
        45.7504         35.0004
  -6611357.12146  -5042343.53944  22914620.1254                   22914623.3444
        41.0004         26.5004
  14920730.05947  11627319.62545  23813711.9304                   23813715.0234
        42.2504         34.2504
    862833.68046    734828.95745  23166900.7974                   23166907.3524
        40.7504         34.7504
 25  8  7 22 35 30.0000000  0 10G25G02G31G10G01G03G28G04G32G26
   2455940.15246   1935209.90244  24603847.0474                   24603852.1414
        37.0004         26.0004
    617295.24647    499336.87945  22136836.0864                   22136835.2544
        46.0004         33.0004
 -17137821.14548 -13292856.10248  20085279.5864                   20085278.0744
        48.0004         48.5004
  15091036.80946  11761467.59844  24599817.4224                   24599825.5864
        37.5004         29.7504
 -14244727.55547 -11045561.35245  21063924.8444                   21063924.6414
        47.0004         34.7504
 -17161764.92247 -13339950.55147  21355604.5314                   21355606.7304
        47.0004         43.2504
  -1536923.89847  -1172001.10545  21574118.3054                   21574117.6254
        45.0004         34.7504
  -6743625.71946  -5145409.84844  22889450.0554                   22889453.1454
        41.7504         25.7504
  14924503.54347  11630259.97745  23814429.6724                   23814432.9494
        42.5004         34.0004
    712054.94546    617339.27345  23138208.6644                   23138214.8014
        40.5004         34.2504
 25  8  7 22 36  0.0000000  0 10G25G02G31G10G01G03G28G04G32G26
   2429907.75046   1914924.82844  24598894.9534                   24598898.8284
        36.5004         24.5004
    613961.86347    496739.36345  22136202.2664                   22136200.5274
        46.2504         33.2504
 -17202103.86348 -13342946.51648  20073046.2424                   20073045.2464
        49.0004         48.2504
  15115573.27346  11780586.67245  24604487.1024                   24604494.8364
        37.5004         31.2504
 -14301353.62547 -11089685.57045  21053149.6564                   21053149.7194
        47.5004         34.7504
 -17302384.83247 -13449524.44147  21328844.9924                   21328847.4384
        47.5004         43.0004
  -1540222.82847  -1174571.70345  21573490.7424                   21573489.5314
        46.0004         34.0004
  -6875780.53547  -5248387.51244  22864301.7894                   22864305.0554
        42.0004         26.2504
  14928266.82446  11633192.33645  23815146.0084                   23815149.2234
        41.5004         33.5004
    561451.55546    499986.22745  23109549.6024                   23109555.9654
        40.5004         34.0004
 25  8  7 22 36 30.0000000  0 10G25G02G31G10G01G03G28G04G32G26
   2404371.08646   1895026.12944  24594035.4454                   24594039.3984
        36.5004         25.5004
    610954.90247    494396.20345  22135630.2424                   22135628.5904
        45.5004         33.0004
 -17265795.23848 -13392576.13348  20060926.7344                   20060925.1414
        48.2504         48.5004
  15140275.78146  11799835.12545  24609187.7974                   24609196.2774
        38.2504         31.0004
 -14357419.04747 -11133372.91845  21042480.4144                   21042481.1024
        47.0004         35.0004
 -17442816.37947 -13558951.55147  21302121.9614                   21302124.1644
        47.2504         43.2504
  -1543138.38347  -1176843.57045  21572935.7034                   21572934.9924
        46.2504         34.5004
  -7007822.53947  -5351277.24244  22839175.3754                   22839178.3094
        42.2504         26.0004
  14932018.69147  11636115.82445  23815859.8754                   23815863.2114
        42.0004         34.2504
    411025.90646    382771.68045  23080924.4774                   23080930.6454
        39.2504         33.5004
 25  8  7 22 37  0.0000000  0 10G25G02G31G10G01G03G28G04G32G26
   2379330.34846   1875513.89144  24589270.3834                   24589271.9574
        39.0004         27.0004
    608273.49647    492306.71145  22135119.8754                   22135119.0234
        46.0004         34.0004
 -17328894.71148 -13441744.52348  20048919.2194                   20048918.0164
        48.2504         48.0004
  15165144.52346  11819213.09445  24613921.1484                   24613929.2934
        38.5004         31.7504
 -14412923.18747 -11176622.90645  21031918.5234                   21031919.0474
        47.0004         34.7504
 -17583056.34847 -13668229.38347  21275435.1024                   21275437.5944
        47.2504         43.5004
  -1545671.89147  -1178817.74245  21572453.7424                   21572452.9534
        46.2504         34.0004
  -7139750.80146  -5454078.36344  22814069.5864                   22814073.3284
        41.2504         28.5004
  14935760.13347  11639031.14545  23816573.5784                   23816575.1884
        42.5004         34.0004
    260782.40246    265699.05545  23052333.7424                   23052339.8984
        40.0004         33.5004
 25  8  7 22 37 30.0000000  0 10G25G02G31G10G01G03G28G04G32G26
   2354780.21545   1856383.91043  24584596.4064                   24584600.6484
        35.5004         23.0004
    605910.93447    490465.66045  22134669.9614                   22134669.4574
        46.2504         34.0004
 -17391407.18748 -13490455.52348  20037023.4844                   20037021.7894
        48.0004         48.0004
  15190174.30946  11838716.55145  24618683.1254                   24618692.0394
        38.7504         31.7504
 -14467870.81247 -11219439.25045  21021462.1024                   21021462.1454
        47.5004         34.5004
 -17723106.77747 -13777359.52347  21248783.9694                   21248786.7154
        47.5004         43.7504
  -1547829.89847  -1180499.31645  21572043.1724                   21572042.2704
        46.2504         33.5004
  -7271569.52347  -5556794.12544  22788985.5474                   22788989.1054
        42.5004         27.5004
  14939486.69547  11641934.90645  23817282.0234                   23817284.2194
        43.2504         34.5004
    110720.08646    148767.60545  23023778.1884                   23023783.8134
        39.7504         33.0004
 25  8  7 22 38  0.0000000  0 10G25G02G31G10G01G03G28G04G32G26
   2330721.59846   1837636.90644  24580018.7894                   24580023.9654
        36.0004         26.2504
    603866.80547    488872.73445  22134281.5554                   22134280.2774
        46.2504         33.7504
 -17453331.50048 -13538708.21548  20025239.5234                   20025238.1644
        48.7504         48.2504
  15215366.03146  11858346.19945  24623477.4614                   24623486.5824
        38.2504         32.0004
 -14522260.49648 -11261820.82445  21011112.1564                   21011112.5744
        48.0004         35.0004
 -17862963.57047 -13886338.78947  21222170.6644                   21222172.7704
        47.5004         43.5004
  -1549612.78147  -1181888.58645  21571703.7734                   21571702.8834
        45.7504         34.2504
  -7403276.89147  -5659423.11744  22763922.2584                   22763925.2384
        42.2504         26.0004
  14943200.19146  11644828.51645  23817987.6724                   23817990.8364
        41.5004         34.0004
    -39155.76646     31981.43845  22995256.8834                   22995263.0084
        40.5004         33.2504
 25  8  7 22 38 30.0000000  0 10G25G02G31G10G01G03G28G04G32G26
   2307152.97345   1819271.71943  24575533.6884                   24575537.8794
        34.7504         22.7504
    602138.59847    487525.98045  22133952.9144                   22133951.5394
        46.7504         33.7504
 -17514668.48848 -13586503.24648  20013567.3524                   20013566.3204
        49.2504         48.5004
  15240718.35546  11878101.00045  24628302.0394                   24628311.0824
        38.2504         32.0004
 -14576093.15247 -11303768.36345  21000868.1334                   21000868.6724
        47.5004         35.2504
 -18002624.85247 -13995165.70347  21195593.7274                   21195596.1764
        47.5004         43.7504
  -1551023.35947  -1182987.74645  21571435.2274                   21571434.6564
        46.5004         34.2504
  -7534873.28147  -5761965.62944  22738880.7034                   22738883.5554
        42.5004         27.0004
  14946900.19147  11647711.52745  23818693.0394                   23818695.1214
        42.7504         34.7504
   -188842.25846    -84657.16445  22966772.4534                   22966778.0634
        39.0004         33.2504
 25  8  7 22 39  0.0000000  0 10G25G02G31G10G01G03G28G04G32G26
   2284073.99646   1801288.10244  24571141.9304                   24571146.5124
        36.0004         24.0004
    600724.45747    486423.96545  22133683.6644                   22133682.7114
        46.5004         33.5004
 -17575418.42248 -13633840.83248  20002007.1024                   20002005.7234
        48.2504         48.2504
  15266230.99646  11897980.70745  24633157.3364                   24633166.4344
        38.0004         31.7504
 -14629368.78947 -11345281.86745  20990730.2974                   20990730.1914
        47.0004         34.7504
 -18142087.87147 -14103838.13747  21169055.0864                   21169057.1764
        47.2504         44.0004
  -1552063.38747  -1183798.16845  21571237.3594                   21571236.5664
        46.2504         33.5004
  -7666358.21547  -5864421.29744  22713859.7344                   22713862.2624
        43.5004         27.7504
  14950587.12546  11650584.36745  23819394.0234                   23819396.7344
        40.0004         34.5004
   -338335.41846   -201145.13345  22938324.4694                   22938330.1684
        40.0004         33.7504
 25  8  7 22 39 30.0000000  0 10G25G02G31G10G01G03G28G04G32G26
   2261482.33245   1783684.15243  24566842.7504                   24566848.3914
        33.2504         22.7504
    599621.00447    485564.04745  22133474.0084                   22133472.5164
        47.0004         33.5004
 -17635583.16048 -13680722.42248  19990558.2274                   19990556.8834
        48.2504         48.2504
  15291901.77046  11917983.62945  24638042.2734                   24638051.2194
        37.5004         30.5004
 -14682089.09447 -11386362.63745  20980697.8834                   20980698.0784
        47.2504         35.0004
 -18281351.43747 -14212355.15647  21142553.8444                   21142556.2424
        47.5004         44.0004
  -1552736.29347  -1184322.52745  21571108.9924                   21571108.6954
        46.5004         34.5004
  -7797732.79347  -5966790.97744  22688859.5704                   22688862.8634
        43.0004         27.5004
  14954259.68446  11653446.07845  23820091.6644                   23820096.2464
        41.2504         34.7504
   -487633.10246   -317480.77045  22909913.8834                   22909919.7344
        39.7504         33.0004
 25  8  7 22 40  0.0000000  0 10G25G02G31G10G01G03G28G04G32G26
   3814796.18845   2994058.48443  24862429.2274                   24862432.4804
        35.2504         22.0004
   2174244.56647   1712543.35545  22433114.5864                   22433114.0434
        45.7504         33.0004
 -16119742.91848 -12499548.19148  20279013.2034                   20279011.4964
        48.0004         48.0004
  16893147.45346  13165707.24244  24942749.4844                   24942758.6024
        37.2504         29.5004
 -13158834.36747 -10199410.91845  21270563.9224                   21270564.0084
        47.0004         34.2504
 -16844990.23447 -13093112.60547  21415884.4384                   21415886.4184
        47.0004         44.0004
     22374.07847     43036.18845  21870843.0784                   21870842.3674
        45.7504         34.0004
  -6353574.23447  -4841472.48844  22963673.8914                   22963676.5354
        42.0004         26.2504
  16533336.29346  12883895.30945  24120580.3914                   24120584.0354
        41.0004         35.0004
    938691.52346    793941.22745  23181334.7584                   23181340.0474
        39.5004         33.2504
 25  8  7 22 40 30.0000000  0 10G25G02G31G10G01G03G28G04G32G26
   3793175.44945   2977211.23443  24858314.2424                   24858316.8364
        33.2504         22.5004
   2173755.37547   1712162.06345  22433021.7194                   22433020.7384
        45.5004         33.0004
 -16178739.90648 -12545519.84048  20267786.4144                   20267784.6604
        48.0004         48.0004
  16919131.41446  13185954.18045  24947693.7814                   24947702.8954
        39.0004         30.7504
 -13210446.13347 -10239627.89545  21260742.2734                   21260742.4804
        45.7504         35.0004
 -16983848.63347 -13201313.89847  21389460.2664                   21389462.4064
        46.7504         44.2504
     22427.94547     43078.14145  21870852.9774                   21870852.4844
        45.5004         34.2504
  -6484728.63347  -4943670.59844  22938716.0164                   22938718.6954
        42.7504         26.0004
  16536979.68446  12886734.24245  24121273.6884                   24121277.5274
        40.2504         35.2504
    789794.51246    677917.79345  23153000.0164                   23153005.8794
        40.0004         32.0004
 25  8  7 22 41  0.0000000  0 10G25G02G31G10G01G03G28G04G32G26
   3772037.97745   2960740.39543  24854292.3134                   24854296.5984
        34.0004         22.5004
   2173568.84847   1712016.60245  22432986.0314                   22432985.2304
        43.5004         32.7504
 -16237154.93448 -12591038.02348  20256670.1564                   20256668.6604
        48.0004         48.2504
  16945269.65646  13206321.33645  24952668.0784                   24952677.3674
        40.0004         31.5004
 -13261505.30547 -10279414.27345  21251026.0864                   21251025.9024
        46.5004         35.0004
 -17122501.71947 -13309355.21547  21363075.6484                   21363077.4454
        47.2504         44.7504
     22840.98847     43399.97745  21870931.8674                   21870931.2464
        45.0004         33.7504
  -6615773.69947  -5045783.53144  22913778.2734                   22913781.2464
        42.7504         27.2504
  16540607.67246  12889561.16845  24121964.9064                   24121968.3244
        41.2504         34.7504
    641102.14846    562053.81645  23124705.2114                   23124710.4614
        39.7504         33.5004
 25  8  7 22 41 30.0000000  0 10G25G02G31G10G01G03G28G04G32G26
   3751383.74645   2944646.15244  24850363.3754                   24850366.3484
        35.5004         26.2504
   2173684.50047   1712106.60945  22433008.7114                   22433007.6374
        44.7504         33.7504
 -16294987.37148 -12636102.23448  20245665.2274                   20245663.3324
        48.0004         48.0004
  16971562.63746  13226809.05945  24957672.3204                   24957681.4964
        39.5004         32.7504
 -13312011.21147 -10318769.53945  21241414.8524                   21241415.2544
        47.0004         34.5004
 -17260945.95747 -13417233.78947  21336730.6564                   21336732.7894
        47.0004         45.0004
     23612.16847     44000.87145  21871078.8524                   21871077.9344
        45.5004         34.0004
  -6746708.16847  -5147810.28144  22888862.6884                   22888865.3524
        42.0004         26.2504
  16544221.48046  12892377.06345  24122653.5634                   24122655.8794
        41.5004         35.5004
    492619.04746    446352.89545  23096448.8054                   23096455.4064
        40.0004         33.0004
 25  8  7 22 42  0.0000000  0 10G25G02G31G10G01G03G28G04G32G26
   3731211.99645   2928927.87944  24846523.9454                   24846528.9264
        35.0004         25.2504
   2174100.24247   1712430.45745  22433087.5084                   22433086.9184
        46.5004         33.5004
 -16352237.59448 -12680712.77348  20234770.7344                   20234769.1374
        48.0004         48.0004
  16998009.87146  13247416.98445  24962704.8524                   24962714.2974
        40.2504         32.5004
 -13361964.05947 -10357693.85945  21231909.4144                   21231909.9734
        46.7504         34.7504
 -17399178.50447 -13524947.41447  21310425.5394                   21310428.0554
        47.7504         44.7504
     24739.62947     44879.39145  21871292.8284                   21871292.6134
        45.7504         34.2504
  -6877531.43747  -5249750.36744  22863967.2344                   22863970.4964
        42.0004         25.7504
  16547821.66047  12895182.32045  24123338.4384                   24123340.5124
        43.5004         34.5004
    344349.18846    330818.12545  23068234.6564                   23068239.6764
        39.7504         33.5004
